satellites_20260120_184412/SAT-64305.csv

timestamp,satellite,azimuth_deg,elevation_deg,distance_km,relative_velocity_kms,doppler_shift_hz,tx_freq_ghz,rx_freq_hz,ue_lat,ue_lon,ue_alt_m,time_minutes
2026-01-20T23:00:00+00:00,SAT-64305,323.7575942638047,61.60027463044581,1242.7216707606665,6.07635097043477,-212819.51392374616,10.5,10499787180.486076,47.655,-122.3035,60.0,0.0
2026-01-20T23:00:01+00:00,SAT-64305,323.752745279169,61.404495624119164,1248.7818181285134,6.086426531191734,-213172.40268103476,10.5,10499786827.597319,47.655,-122.3035,60.0,0.016666666666666666
2026-01-20T23:00:02+00:00,SAT-64305,323.7477152024222,61.21032287441117,1254.8520141889553,6.096349311315296,-213519.94041428022,10.5,10499786480.059586,47.655,-122.3035,60.0,0.03333333333333333
2026-01-20T23:00:03+00:00,SAT-64305,323.7425099962575,61.01773578941517,1260.9321065687736,6.106121973785312,-213862.22039230145,10.5,10499786137.779608,47.655,-122.3035,60.0,0.05
2026-01-20T23:00:04+00:00,SAT-64305,323.7371353728343,60.826714070088784,1267.021945550629,6.115747146177519,-214199.33464391538,10.5,10499785800.665356,47.655,-122.3035,60.0,0.06666666666666667
2026-01-20T23:00:05+00:00,SAT-64305,323.7315968069752,60.63723770613494,1273.12138403775,6.125227358110583,-214531.371767068,10.5,10499785468.628233,47.655,-122.3035,60.0,0.08333333333333333
2026-01-20T23:00:06+00:00,SAT-64305,323.72589954807006,60.4492869739606,1279.230277456239,6.134565115745014,-214858.4195381014,10.5,10499785141.580462,47.655,-122.3035,60.0,0.1
2026-01-20T23:00:07+00:00,SAT-64305,323.72004863170366,60.26284243220851,1285.3484837316755,6.143762871025203,-215180.5638344799,10.5,10499784819.436165,47.655,-122.3035,60.0,0.11666666666666667
2026-01-20T23:00:08+00:00,SAT-64305,323.7140488903249,60.07788491834566,1291.4758632350445,6.1528230334978105,-215497.8890487199,10.5,10499784502.11095,47.655,-122.3035,60.0,0.13333333333333333
2026-01-20T23:00:09+00:00,SAT-64305,323.7079049634391,59.8943955448875,1297.6122787404531,6.161747949968756,-215810.4773758916,10.5,10499784189.522625,47.655,-122.3035,60.0,0.15
2026-01-20T23:00:10+00:00,SAT-64305,323.70162130701493,59.71235569629871,1303.7575953625553,6.170539926697162,-216118.4095909451,10.5,10499783881.590408,47.655,-122.3035,60.0,0.16666666666666666
2026-01-20T23:00:11+00:00,SAT-64305,323.6952022025238,59.531747025218465,1309.9116805161145,6.179201266557417,-216421.76635028247,10.5,10499783578.23365,47.655,-122.3035,60.0,0.18333333333333332
2026-01-20T23:00:12+00:00,SAT-64305,323.6886517654213,59.35255144765597,1316.0744039126275,6.187734139570929,-216720.62365723276,10.5,10499783279.376343,47.655,-122.3035,60.0,0.2
2026-01-20T23:00:13+00:00,SAT-64305,323.68197395292896,59.17475114206078,1322.2456374278265,6.1961407612719785,-217015.05910917802,10.5,10499782984.940891,47.655,-122.3035,60.0,0.21666666666666667
2026-01-20T23:00:14+00:00,SAT-64305,323.67517257171187,58.99832854313861,1328.4252551470684,6.204423263173913,-217305.14736073208,10.5,10499782694.85264,47.655,-122.3035,60.0,0.23333333333333334
2026-01-20T23:00:15+00:00,SAT-64305,323.66825128489825,58.823266339552944,1334.6131332815405,6.212583734986211,-217590.96160236033,10.5,10499782409.038397,47.655,-122.3035,60.0,0.25
2026-01-20T23:00:16+00:00,SAT-64305,323.661213618704,58.64954747042346,1340.8091501265667,6.220624231342295,-217872.57379601622,10.5,10499782127.426205,47.655,-122.3035,60.0,0.26666666666666666
2026-01-20T23:00:17+00:00,SAT-64305,323.6540629688382,58.477155121653595,1347.0131860266256,6.228546745438419,-218150.0537518639,10.5,10499781849.946249,47.655,-122.3035,60.0,0.2833333333333333
2026-01-20T23:00:18+00:00,SAT-64305,323.64680260633327,58.30607272308301,1353.2251233140762,6.236353289861968,-218423.47195922676,10.5,10499781576.52804,47.655,-122.3035,60.0,0.3
2026-01-20T23:00:19+00:00,SAT-64305,323.6394356833926,58.136283943378096,1359.4448463284984,6.244045801820913,-218692.89626732233,10.5,10499781307.103733,47.655,-122.3035,60.0,0.31666666666666665
2026-01-20T23:00:20+00:00,SAT-64305,323.63196523858153,57.9677726876922,1365.6722413415146,6.2516261442156535,-218958.3919228027,10.5,10499781041.608078,47.655,-122.3035,60.0,0.3333333333333333
2026-01-20T23:00:21+00:00,SAT-64305,323.62439420187604,57.80052309526573,1371.907196482679,6.259096195580699,-219220.0247198925,10.5,10499780779.97528,47.655,-122.3035,60.0,0.35
2026-01-20T23:00:22+00:00,SAT-64305,323.61672539946244,57.6345195346226,1378.1496017550714,6.266457815262209,-219477.85978075938,10.5,10499780522.140219,47.655,-122.3035,60.0,0.36666666666666664
2026-01-20T23:00:23+00:00,SAT-64305,323.60896155841635,57.46974659978185,1384.3993490161595,6.273712752474363,-219731.958370283,10.5,10499780268.04163,47.655,-122.3035,60.0,0.38333333333333336
2026-01-20T23:00:24+00:00,SAT-64305,323.60110531076936,57.30618910900241,1390.6563318679605,6.280862769888488,-219982.38222466933,10.5,10499780017.617775,47.655,-122.3035,60.0,0.4
2026-01-20T23:00:25+00:00,SAT-64305,323.5931591977289,57.14383210019048,1396.9204456704626,6.2879096175946785,-220229.19263947636,10.5,10499779770.80736,47.655,-122.3035,60.0,0.4166666666666667
2026-01-20T23:00:26+00:00,SAT-64305,323.5851256735417,56.98266082712154,1403.1915875290772,6.29485495952453,-220472.447892627,10.5,10499779527.552107,47.655,-122.3035,60.0,0.43333333333333335
2026-01-20T23:00:27+00:00,SAT-64305,323.577007109127,56.82266075762945,1409.4696562087097,6.301700480274872,-220712.206985828,10.5,10499779287.793015,47.655,-122.3035,60.0,0.45
2026-01-20T23:00:28+00:00,SAT-64305,323.5688057956001,56.66381756905382,1415.7545521543705,6.308447779484957,-220948.52594521255,10.5,10499779051.474054,47.655,-122.3035,60.0,0.4666666666666667
2026-01-20T23:00:29+00:00,SAT-64305,323.56052394754715,56.50611714648041,1422.0461774064436,6.315098457568822,-221181.4608240499,10.5,10499778818.539175,47.655,-122.3035,60.0,0.48333333333333334
2026-01-20T23:00:30+00:00,SAT-64305,323.552163706196,56.34954557881034,1428.3444356014586,6.3216540954360445,-221411.06699248074,10.5,10499778588.933008,47.655,-122.3035,60.0,0.5
2026-01-20T23:00:31+00:00,SAT-64305,323.5437271424657,56.194089155420876,1434.6492319526403,6.3281162116190846,-221637.39763593514,10.5,10499778362.602364,47.655,-122.3035,60.0,0.5166666666666667
2026-01-20T23:00:32+00:00,SAT-64305,323.5352162597084,56.039734363975576,1440.960473187695,6.33448631184962,-221860.50549150576,10.5,10499778139.494509,47.655,-122.3035,60.0,0.5333333333333333
2026-01-20T23:00:33+00:00,SAT-64305,323.5266329965016,55.88646788699428,1447.2780675360466,6.340765889256746,-222080.4428548894,10.5,10499777919.557144,47.655,-122.3035,60.0,0.55
2026-01-20T23:00:34+00:00,SAT-64305,323.51797922924607,55.73427659851323,1453.601924716265,6.346956381884636,-222297.26009247598,10.5,10499777702.739908,47.655,-122.3035,60.0,0.5666666666666667
2026-01-20T23:00:35+00:00,SAT-64305,323.5092567745431,55.58314756184293,1459.9319558811314,6.353059206198197,-222511.00681485812,10.5,10499777488.993185,47.655,-122.3035,60.0,0.5833333333333334
2026-01-20T23:00:36+00:00,SAT-64305,323.5004673916429,55.43306802651464,1466.268073596113,6.359075751045673,-222721.7316653762,10.5,10499777278.268335,47.655,-122.3035,60.0,0.6
2026-01-20T23:00:37+00:00,SAT-64305,323.491612784571,55.284025425472684,1472.6101918118227,6.365007411868443,-222929.48351829,10.5,10499777070.516481,47.655,-122.3035,60.0,0.6166666666666667
2026-01-20T23:00:38+00:00,SAT-64305,323.4826946043807,55.136007371462284,1478.9582258705927,6.370855520247786,-223134.3090112085,10.5,10499776865.690989,47.655,-122.3035,60.0,0.6333333333333333
2026-01-20T23:00:39+00:00,SAT-64305,323.47371445109155,54.9890016551896,1485.3120924427865,6.376621366472633,-223336.25333550802,10.5,10499776663.746664,47.655,-122.3035,60.0,0.65
2026-01-20T23:00:40+00:00,SAT-64305,323.46467387565093,54.842996242943315,1491.671709485615,6.382306286046449,-223535.363266169,10.5,10499776464.636734,47.655,-122.3035,60.0,0.6666666666666666
2026-01-20T23:00:41+00:00,SAT-64305,323.4555743818162,54.69797927226554,1498.0369962882323,6.387911498885991,-223731.68152983658,10.5,10499776268.31847,47.655,-122.3035,60.0,0.6833333333333333
2026-01-20T23:00:42+00:00,SAT-64305,323.44641742791123,54.55393905140911,1504.4078733564545,6.393438314147846,-223925.25397871213,10.5,10499776074.746021,47.655,-122.3035,60.0,0.7
2026-01-20T23:00:43+00:00,SAT-64305,323.4372044285327,54.410864054122136,1510.7842625017645,6.398887877280346,-224116.12073124148,10.5,10499775883.879269,47.655,-122.3035,60.0,0.7166666666666667
2026-01-20T23:00:44+00:00,SAT-64305,323.42793675608857,54.26874292027897,1517.1660866780387,6.404261440878269,-224304.32565859222,10.5,10499775695.674341,47.655,-122.3035,60.0,0.7333333333333333
2026-01-20T23:00:45+00:00,SAT-64305,323.41861574244206,54.12756445035784,1523.5532700884082,6.409560181369497,-224489.90996424507,10.5,10499775510.090036,47.655,-122.3035,60.0,0.75
2026-01-20T23:00:46+00:00,SAT-64305,323.4092426803728,53.9873176041651,1529.945738109294,6.414785214824971,-224672.91273772536,10.5,10499775327.087263,47.655,-122.3035,60.0,0.7666666666666667
2026-01-20T23:00:47+00:00,SAT-64305,323.3998188249047,53.84799149922171,1536.343417230213,6.419937695951513,-224853.3744217504,10.5,10499775146.625578,47.655,-122.3035,60.0,0.7833333333333333
2026-01-20T23:00:48+00:00,SAT-64305,323.39034539475523,53.709575406966096,1542.7462350923083,6.425018742247144,-225031.33415582794,10.5,10499774968.665844,47.655,-122.3035,60.0,0.8
2026-01-20T23:00:49+00:00,SAT-64305,323.38082357359957,53.57205875072203,1549.154120451243,6.4300294505576145,-225206.83035613576,10.5,10499774793.169643,47.655,-122.3035,60.0,0.8166666666666667
2026-01-20T23:00:50+00:00,SAT-64305,323.3712545113117,53.435431103339745,1555.5670031565992,6.434970859358361,-225379.89939447638,10.5,10499774620.100605,47.655,-122.3035,60.0,0.8333333333333334
2026-01-20T23:00:51+00:00,SAT-64305,323.3616393250981,53.299682185691175,1561.9848140936656,6.439844053169532,-225550.57925533297,10.5,10499774449.420744,47.655,-122.3035,60.0,0.85
2026-01-20T23:00:52+00:00,SAT-64305,323.35197910073884,53.16480186293441,1568.4074852293602,6.444650058723384,-225718.90589921223,10.5,10499774281.0941,47.655,-122.3035,60.0,0.8666666666666667
2026-01-20T23:00:53+00:00,SAT-64305,323.3422748935917,53.030780143100365,1574.8349495545938,6.449389884113725,-225884.9146338235,10.5,10499774115.085365,47.655,-122.3035,60.0,0.8833333333333333
2026-01-20T23:00:54+00:00,SAT-64305,323.3325277296871,52.89760717484498,1581.267141065683,6.454064518624383,-226048.64010807112,10.5,10499773951.359892,47.655,-122.3035,60.0,0.9
2026-01-20T23:00:55+00:00,SAT-64305,323.3227386066892,52.76527324526299,1587.7039947455912,6.45867493366942,-226210.11634498462,10.5,10499773789.883656,47.655,-122.3035,60.0,0.9166666666666666
2026-01-20T23:00:56+00:00,SAT-64305,323.3129084948939,52.63376877770929,1594.145446546104,6.46322211538399,-226369.37788318843,10.5,10499773630.622116,47.655,-122.3035,60.0,0.9333333333333333
2026-01-20T23:00:57+00:00,SAT-64305,323.30303833813423,52.503084329007834,1600.5914334025135,6.467707000274569,-226526.45752310075,10.5,10499773473.542477,47.655,-122.3035,60.0,0.95
2026-01-20T23:00:58+00:00,SAT-64305,323.29312905470675,52.37321058801865,1607.041893184121,6.4721304629731495,-226681.38589803374,10.5,10499773318.614101,47.655,-122.3035,60.0,0.9666666666666667
2026-01-20T23:00:59+00:00,SAT-64305,323.2831815381012,52.24413837450241,1613.496764632526,6.47649348311933,-226834.19731910987,10.5,10499773165.802681,47.655,-122.3035,60.0,0.9833333333333333
2026-01-20T23:01:00+00:00,SAT-64305,323.2731966580056,52.11585863457684,1619.955987466357,6.480796907734787,-226984.92145261128,10.5,10499773015.078547,47.655,-122.3035,60.0,1.0
2026-01-20T23:01:01+00:00,SAT-64305,323.2631752609025,51.98836244112118,1626.4195022490046,6.485041623669883,-227133.58935978895,10.5,10499772866.41064,47.655,-122.3035,60.0,1.0166666666666666
2026-01-20T23:01:02+00:00,SAT-64305,323.25311817097077,51.86164099064123,1632.8872504283447,6.489228490193378,-227280.23113586957,10.5,10499772719.768864,47.655,-122.3035,60.0,1.0333333333333334
2026-01-20T23:01:03+00:00,SAT-64305,323.2430261907091,51.73568560159859,1639.3591743092309,6.493358346261759,-227424.8761646581,10.5,10499772575.123835,47.655,-122.3035,60.0,1.05
2026-01-20T23:01:04+00:00,SAT-64305,323.23290010168665,51.610487712586576,1645.835217033236,6.497432048511465,-227567.55444918625,10.5,10499772432.44555,47.655,-122.3035,60.0,1.0666666666666667
2026-01-20T23:01:05+00:00,SAT-64305,323.2227406652063,51.48603887981996,1652.315322596285,6.50145036726746,-227708.29296949267,10.5,10499772291.707031,47.655,-122.3035,60.0,1.0833333333333333
2026-01-20T23:01:06+00:00,SAT-64305,323.2125486229243,51.362330776691266,1658.7994357625728,6.505414118690036,-227847.1203109632,10.5,10499772152.879688,47.655,-122.3035,60.0,1.1
2026-01-20T23:01:07+00:00,SAT-64305,323.2023246974715,51.23935519077055,1665.2875021102795,6.509324116554154,-227984.06497543916,10.5,10499772015.935024,47.655,-122.3035,60.0,1.1166666666666667
2026-01-20T23:01:08+00:00,SAT-64305,323.1920695931273,51.117104021789764,1671.7794680291897,6.513181099046739,-228119.15281734927,10.5,10499771880.847183,47.655,-122.3035,60.0,1.1333333333333333
2026-01-20T23:01:09+00:00,SAT-64305,323.1817839962705,50.99556928109438,1678.2752806453057,6.516985835554839,-228252.41078388237,10.5,10499771747.589216,47.655,-122.3035,60.0,1.15
2026-01-20T23:01:10+00:00,SAT-64305,323.17146857602893,50.874743089032194,1684.7748878519656,6.52073907069563,-228383.86495468178,10.5,10499771616.135046,47.655,-122.3035,60.0,1.1666666666666667
2026-01-20T23:01:11+00:00,SAT-64305,323.16112398475593,50.754617673482414,1691.2782382851394,6.524441530685684,-228513.54076492373,10.5,10499771486.459234,47.655,-122.3035,60.0,1.1833333333333333
2026-01-20T23:01:12+00:00,SAT-64305,323.1507508585822,50.635185368273916,1697.7852813050765,6.528093961899096,-228641.46435578613,10.5,10499771358.535645,47.655,-122.3035,60.0,1.2
2026-01-20T23:01:13+00:00,SAT-64305,323.1403498178881,50.51643861093227,1704.2959670164107,6.531697020871185,-228767.65872191303,10.5,10499771232.341278,47.655,-122.3035,60.0,1.2166666666666666
2026-01-20T23:01:14+00:00,SAT-64305,323.12992146778157,50.398369942489595,1710.8102461785595,6.535251434501067,-228892.14932238622,10.5,10499771107.850677,47.655,-122.3035,60.0,1.2333333333333334
2026-01-20T23:01:15+00:00,SAT-64305,323.11946639855677,50.28097200436046,1717.3280702759018,6.5387578959235055,-229014.96043371712,10.5,10499770985.039566,47.655,-122.3035,60.0,1.25
2026-01-20T23:01:16+00:00,SAT-64305,323.108985186166,50.16423753717809,1723.8493914841029,6.542217041482253,-229136.11434335567,10.5,10499770863.885656,47.655,-122.3035,60.0,1.2666666666666666
2026-01-20T23:01:17+00:00,SAT-64305,323.09847839258,50.048159380083085,1730.3741626134745,6.545629557514131,-229255.63508972054,10.5,10499770744.36491,47.655,-122.3035,60.0,1.2833333333333334
2026-01-20T23:01:18+00:00,SAT-64305,323.0879465662824,49.932730468069025,1736.9023371588353,6.548996079656975,-229373.54493553747,10.5,10499770626.455065,47.655,-122.3035,60.0,1.3
2026-01-20T23:01:19+00:00,SAT-64305,323.0773902425982,49.81794383122053,1743.4338692489466,6.552317232622906,-229489.8657608675,10.5,10499770510.13424,47.655,-122.3035,60.0,1.3166666666666667
2026-01-20T23:01:20+00:00,SAT-64305,323.0668099441171,49.70379259322881,1749.9687136356158,6.555593657859983,-229604.62003193496,10.5,10499770395.379969,47.655,-122.3035,60.0,1.3333333333333333
2026-01-20T23:01:21+00:00,SAT-64305,323.05620618105166,49.59026996945856,1756.506825710388,6.5588259583534265,-229717.82886783287,10.5,10499770282.171133,47.655,-122.3035,60.0,1.35
2026-01-20T23:01:22+00:00,SAT-64305,323.0455794515942,49.4773692660238,1763.048161466186,6.562014754228677,-229829.51398797738,10.5,10499770170.486012,47.655,-122.3035,60.0,1.3666666666666667
2026-01-20T23:01:23+00:00,SAT-64305,323.03493024225844,49.36508387790627,1769.5926775144032,6.565160627739657,-229939.69578536364,10.5,10499770060.304214,47.655,-122.3035,60.0,1.3833333333333333
2026-01-20T23:01:24+00:00,SAT-64305,323.0242590282286,49.25340728806622,1776.1403310471355,6.568264156231138,-230048.39448104778,10.5,10499769951.605518,47.655,-122.3035,60.0,1.4
2026-01-20T23:01:25+00:00,SAT-64305,323.0135662736486,49.142333066001804,1782.6910798322835,6.57132591299611,-230155.6301541754,10.5,10499769844.369846,47.655,-122.3035,60.0,1.4166666666666667
2026-01-20T23:01:26+00:00,SAT-64305,323.0028524319724,49.031854866314404,1789.2448822095116,6.574346478240621,-230261.42312601645,10.5,10499769738.576874,47.655,-122.3035,60.0,1.4333333333333333
2026-01-20T23:01:27+00:00,SAT-64305,322.9921179462398,48.921966427122335,1795.8016970971437,6.577326389050052,-230365.79220757296,10.5,10499769634.207792,47.655,-122.3035,60.0,1.45
2026-01-20T23:01:28+00:00,SAT-64305,322.9813632493732,48.812661569355555,1802.3614839491563,6.580266189937926,-230468.75647001172,10.5,10499769531.24353,47.655,-122.3035,60.0,1.4666666666666666
2026-01-20T23:01:29+00:00,SAT-64305,322.9705887644492,48.70393419520077,1808.9242027625876,6.583166433213089,-230570.33525752483,10.5,10499769429.664743,47.655,-122.3035,60.0,1.4833333333333334
2026-01-20T23:01:30+00:00,SAT-64305,322.9597949049996,48.59577828657485,1815.4898140853122,6.586027622687268,-230670.54621573002,10.5,10499769329.453785,47.655,-122.3035,60.0,1.5
2026-01-20T23:01:31+00:00,SAT-64305,322.94898207523175,48.48818790457391,1822.0582789676723,6.588850309653887,-230769.4086532551,10.5,10499769230.591347,47.655,-122.3035,60.0,1.5166666666666666
2026-01-20T23:01:32+00:00,SAT-64305,322.9381506703252,48.381157187324916,1828.6295590098337,6.591634958121663,-230866.93882164796,10.5,10499769133.061178,47.655,-122.3035,60.0,1.5333333333333334
2026-01-20T23:01:33+00:00,SAT-64305,322.9273010766368,48.27468035011839,1835.2036162747338,6.59438208535388,-230963.15483765685,10.5,10499769036.845161,47.655,-122.3035,60.0,1.55
2026-01-20T23:01:34+00:00,SAT-64305,322.91643367197497,48.1687516832142,1841.7804133411935,6.597092211326446,-231058.0749130376,10.5,10499768941.925087,47.655,-122.3035,60.0,1.5666666666666667
2026-01-20T23:01:35+00:00,SAT-64305,322.90554882579914,48.06336555053109,1848.359913306623,6.5997657864575165,-231151.71482333928,10.5,10499768848.285177,47.655,-122.3035,60.0,1.5833333333333333
2026-01-20T23:01:36+00:00,SAT-64305,322.89464689947226,47.95851638952468,1854.9420797176501,6.602403286511691,-231244.09123185065,10.5,10499768755.908768,47.655,-122.3035,60.0,1.6
2026-01-20T23:01:37+00:00,SAT-64305,322.8837282464431,47.854198709536114,1861.5268765953977,6.605005218839682,-231335.22190813973,10.5,10499768664.778091,47.655,-122.3035,60.0,1.6166666666666667
2026-01-20T23:01:38+00:00,SAT-64305,322.87279321248957,47.75040709007189,1868.1142684669871,6.607571998773169,-231425.1213988788,10.5,10499768574.878601,47.655,-122.3035,60.0,1.6333333333333333
2026-01-20T23:01:39+00:00,SAT-64305,322.86184213588825,47.64713618109779,1874.7042202737634,6.610104084864618,-231513.8057645149,10.5,10499768486.194235,47.655,-122.3035,60.0,1.65
2026-01-20T23:01:40+00:00,SAT-64305,322.8508753476432,47.544380701158744,1881.296697414402,6.61260195027146,-231601.29157702273,10.5,10499768398.708424,47.655,-122.3035,60.0,1.6666666666666667
2026-01-20T23:01:41+00:00,SAT-64305,322.839893171644,47.44213543601057,1887.8916657594727,6.61506600512934,-231687.59320108738,10.5,10499768312.4068,47.655,-122.3035,60.0,1.6833333333333333
2026-01-20T23:01:42+00:00,SAT-64305,322.82889592487874,47.340395238481676,1894.4890915885883,6.617496713890391,-231772.72690378726,10.5,10499768227.273096,47.655,-122.3035,60.0,1.7
2026-01-20T23:01:43+00:00,SAT-64305,322.8178839175816,47.23915502651003,1901.088941644575,6.619894449922839,-231856.70576205692,10.5,10499768143.294237,47.655,-122.3035,60.0,1.7166666666666666
2026-01-20T23:01:44+00:00,SAT-64305,322.8068574534367,47.138409783473385,1907.6911830426313,6.622259680727122,-231939.5461497393,10.5,10499768060.45385,47.655,-122.3035,60.0,1.7333333333333334
2026-01-20T23:01:45+00:00,SAT-64305,322.79581682971707,47.03815455564854,1914.29578336421,6.624592771776021,-232021.26086723708,10.5,10499767978.739132,47.655,-122.3035,60.0,1.75
2026-01-20T23:01:46+00:00,SAT-64305,322.78476233748415,46.93838445273665,1920.902710555261,6.626894160114647,-232101.86522171882,10.5,10499767898.134779,47.655,-122.3035,60.0,1.7666666666666666
2026-01-20T23:01:47+00:00,SAT-64305,322.7736942616931,46.83909464572845,1927.5119329976153,6.629164237440938,-232181.37293210308,10.5,10499767818.627068,47.655,-122.3035,60.0,1.7833333333333334
2026-01-20T23:01:48+00:00,SAT-64305,322.76261288139705,46.74028036657769,1934.1234194637566,6.6314033774486365,-232259.7970867255,10.5,10499767740.202913,47.655,-122.3035,60.0,1.8
2026-01-20T23:01:49+00:00,SAT-64305,322.751518469859,46.64193690747649,1940.737139098865,6.63361199285488,-232337.15214068608,10.5,10499767662.847858,47.655,-122.3035,60.0,1.8166666666666667
2026-01-20T23:01:50+00:00,SAT-64305,322.74041129472005,46.54405961927651,1947.3530614597391,6.635790439174394,-232413.45054561427,10.5,10499767586.549454,47.655,-122.3035,60.0,1.8333333333333333
2026-01-20T23:01:51+00:00,SAT-64305,322.7292916181074,46.44664391139353,1953.9711564577424,6.637939072176006,-232488.70476203927,10.5,10499767511.295238,47.655,-122.3035,60.0,1.85
2026-01-20T23:01:52+00:00,SAT-64305,322.71815969682564,46.349685250833744,1960.5913943590594,6.640058297290258,-232562.9289898537,10.5,10499767437.07101,47.655,-122.3035,60.0,1.8666666666666667
2026-01-20T23:01:53+00:00,SAT-64305,322.7070157824189,46.253179160533875,1967.2137458342236,6.642148480963933,-232636.136063574,10.5,10499767363.863937,47.655,-122.3035,60.0,1.8833333333333333
2026-01-20T23:01:54+00:00,SAT-64305,322.6958601213548,46.15712121902155,1973.8381819192382,6.644209915650062,-232708.3362261423,10.5,10499767291.663774,47.655,-122.3035,60.0,1.9
2026-01-20T23:01:55+00:00,SAT-64305,322.6846929551104,46.06150706060604,1980.46467394178,6.646243001585943,-232779.54349556184,10.5,10499767220.456505,47.655,-122.3035,60.0,1.9166666666666667
2026-01-20T23:01:56+00:00,SAT-64305,322.67351452032307,45.966332372892445,1987.093193628695,6.6482480936093475,-232849.77029975236,10.5,10499767150.2297,47.655,-122.3035,60.0,1.9333333333333333
2026-01-20T23:01:57+00:00,SAT-64305,322.66232504887574,45.87159289659342,1993.7237130607214,6.65022549068818,-232919.0271098344,10.5,10499767080.97289,47.655,-122.3035,60.0,1.95
2026-01-20T23:01:58+00:00,SAT-64305,322.6511247680442,45.77728442547527,2000.3562046167676,6.652175531239883,-232987.32577861837,10.5,10499767012.674221,47.655,-122.3035,60.0,1.9666666666666666
2026-01-20T23:01:59+00:00,SAT-64305,322.6399139005787,45.68340280494313,2006.9906410132576,6.654098577070939,-233054.67897809774,10.5,10499766945.321022,47.655,-122.3035,60.0,1.9833333333333334
2026-01-20T23:02:00+00:00,SAT-64305,322.6286926648263,45.58994393087648,2013.6269953274564,6.655994905542032,-233121.09642261692,10.5,10499766878.903578,47.655,-122.3035,60.0,2.0
2026-01-20T23:02:01+00:00,SAT-64305,322.61746127482564,45.496903750029745,2020.2652409132502,6.657864874053123,-233186.5906298343,10.5,10499766813.40937,47.655,-122.3035,60.0,2.0166666666666666
2026-01-20T23:02:02+00:00,SAT-64305,322.6062199404253,45.404278258081604,2026.9053514809725,6.6597087894983105,-233251.17234847936,10.5,10499766748.827652,47.655,-122.3035,60.0,2.033333333333333
2026-01-20T23:02:03+00:00,SAT-64305,322.59496886735167,45.31206349957736,2033.5473010470323,6.661526908882299,-233314.850579944,10.5,10499766685.14942,47.655,-122.3035,60.0,2.05
2026-01-20T23:02:04+00:00,SAT-64305,322.5837082573474,45.220255567849996,2040.1910638841575,6.663319614623945,-233377.63871815422,10.5,10499766622.361282,47.655,-122.3035,60.0,2.066666666666667
2026-01-20T23:02:05+00:00,SAT-64305,322.5724383082161,45.128850602493635,2046.8366146464757,6.665087142846475,-233439.5450331442,10.5,10499766560.454967,47.655,-122.3035,60.0,2.0833333333333335
2026-01-20T23:02:06+00:00,SAT-64305,322.5611592139563,45.037844790674676,2053.483928223608,6.666829804300864,-233500.58040872755,10.5,10499766499.419592,47.655,-122.3035,60.0,2.1
2026-01-20T23:02:07+00:00,SAT-64305,322.54987116481624,44.94723436534631,2060.1329798150973,6.668547916874514,-233560.75597866575,10.5,10499766439.24402,47.655,-122.3035,60.0,2.1166666666666667
2026-01-20T23:02:08+00:00,SAT-64305,322.5385743474006,44.85701560442888,2066.783744937527,6.670241748331649,-233620.08112119455,10.5,10499766379.918879,47.655,-122.3035,60.0,2.1333333333333333
2026-01-20T23:02:09+00:00,SAT-64305,322.5272689447325,44.767184830800275,2073.4361993745297,6.67191152829663,-233678.56387873046,10.5,10499766321.436121,47.655,-122.3035,60.0,2.15
2026-01-20T23:02:10+00:00,SAT-64305,322.5159551363759,44.677738412107566,2080.090319138751,6.673557623768424,-233736.21710512965,10.5,10499766263.782894,47.655,-122.3035,60.0,2.1666666666666665
2026-01-20T23:02:11+00:00,SAT-64305,322.5046330984495,44.588672758202485,2086.746080608856,6.6751802388912855,-233793.0479503874,10.5,10499766206.95205,47.655,-122.3035,60.0,2.183333333333333
2026-01-20T23:02:12+00:00,SAT-64305,322.4933030037722,44.499984322691446,2093.4034603671103,6.676779675593752,-233849.06698931832,10.5,10499766150.93301,47.655,-122.3035,60.0,2.2
2026-01-20T23:02:13+00:00,SAT-64305,322.4819650218804,44.41166960093915,2100.0624352969025,6.67835617522431,-233904.28267496725,10.5,10499766095.717325,47.655,-122.3035,60.0,2.216666666666667
2026-01-20T23:02:14+00:00,SAT-64305,322.47061931914624,44.323725130231715,2106.722982522326,6.679910020358485,-233958.7049043245,10.5,10499766041.295095,47.655,-122.3035,60.0,2.2333333333333334
2026-01-20T23:02:15+00:00,SAT-64305,322.4592660588106,44.236147488582596,2113.385079449297,6.681441450115459,-234012.34205235518,10.5,10499765987.657948,47.655,-122.3035,60.0,2.25
2026-01-20T23:02:16+00:00,SAT-64305,322.447905401079,44.14893329468053,2120.048703722212,6.682950722327823,-234065.2031494473,10.5,10499765934.79685,47.655,-122.3035,60.0,2.2666666666666666
2026-01-20T23:02:17+00:00,SAT-64305,322.43653750317253,44.062079207018144,2126.713833242614,6.684438091342042,-234117.2971038899,10.5,10499765882.702896,47.655,-122.3035,60.0,2.283333333333333
2026-01-20T23:02:18+00:00,SAT-64305,322.42516251941066,43.97558192332491,2133.380446165712,6.6859037844771905,-234168.63187735862,10.5,10499765831.368122,47.655,-122.3035,60.0,2.3
2026-01-20T23:02:19+00:00,SAT-64305,322.4137806012432,43.889438180328895,2140.048520873431,6.687348060222231,-234219.21652323028,10.5,10499765780.783476,47.655,-122.3035,60.0,2.316666666666667
2026-01-20T23:02:20+00:00,SAT-64305,322.4023918973513,43.80364475274491,2146.718036005492,6.68877115025016,-234269.05915567323,10.5,10499765730.940844,47.655,-122.3035,60.0,2.3333333333333335
2026-01-20T23:02:21+00:00,SAT-64305,322.3909965536732,43.71819845305221,2153.388970432675,6.69017329432204,-234318.168172134,10.5,10499765681.831827,47.655,-122.3035,60.0,2.35
2026-01-20T23:02:22+00:00,SAT-64305,322.37959471348603,43.63309613081448,2160.0613032648794,6.691554711490756,-234366.55124477125,10.5,10499765633.448755,47.655,-122.3035,60.0,2.3666666666666667
2026-01-20T23:02:23+00:00,SAT-64305,322.36818651745085,43.54833467238566,2166.7350138304723,6.69291563488154,-234414.21653861678,10.5,10499765585.78346,47.655,-122.3035,60.0,2.3833333333333333
2026-01-20T23:02:24+00:00,SAT-64305,322.3567721036816,43.46391100016996,2173.410081690328,6.694256282304176,-234461.17168229047,10.5,10499765538.828318,47.655,-122.3035,60.0,2.4
2026-01-20T23:02:25+00:00,SAT-64305,322.34535160777955,43.379822072279936,2180.086486622546,6.695576891613136,-234507.42500646206,10.5,10499765492.574993,47.655,-122.3035,60.0,2.4166666666666665
2026-01-20T23:02:26+00:00,SAT-64305,322.33392516290536,43.29606488173924,2186.764208642448,6.696877662830001,-234552.98351673345,10.5,10499765447.016483,47.655,-122.3035,60.0,2.433333333333333
2026-01-20T23:02:27+00:00,SAT-64305,322.3224928998118,43.21263645644323,2193.4432279648436,6.69815882168312,-234597.85511906625,10.5,10499765402.14488,47.655,-122.3035,60.0,2.45
2026-01-20T23:02:28+00:00,SAT-64305,322.3110549469179,43.129533858307845,2200.123525029669,6.69942056182989,-234642.04659616167,10.5,10499765357.953403,47.655,-122.3035,60.0,2.466666666666667
2026-01-20T23:02:29+00:00,SAT-64305,322.2996114303317,43.046754183170535,2206.8050804700006,6.700663108784195,-234685.56584646984,10.5,10499765314.434153,47.655,-122.3035,60.0,2.4833333333333334
2026-01-20T23:02:30+00:00,SAT-64305,322.2881624739314,42.96429455987735,2213.4878751438278,6.70188666701733,-234728.42003144044,10.5,10499765271.57997,47.655,-122.3035,60.0,2.5
2026-01-20T23:02:31+00:00,SAT-64305,322.2767081993642,42.882152150066176,2220.1718901130666,6.703091421628019,-234770.61563401372,10.5,10499765229.384365,47.655,-122.3035,60.0,2.5166666666666666
2026-01-20T23:02:32+00:00,SAT-64305,322.2652487261435,42.80032414791349,2226.8571066242366,6.7042775944376745,-234812.16042331385,10.5,10499765187.839577,47.655,-122.3035,60.0,2.533333333333333
2026-01-20T23:02:33+00:00,SAT-64305,322.2537841716528,42.71880777920133,2233.5435061450894,6.705445364676345,-234853.06067673533,10.5,10499765146.939323,47.655,-122.3035,60.0,2.55
2026-01-20T23:02:34+00:00,SAT-64305,322.24231465121784,42.637600301374896,2240.2310703221265,6.7065949311817175,-234893.32335841496,10.5,10499765106.676641,47.655,-122.3035,60.0,2.566666666666667
2026-01-20T23:02:35+00:00,SAT-64305,322.2308402781239,42.55669900283929,2246.9197810001588,6.707726490762148,-234932.95536141394,10.5,10499765067.044638,47.655,-122.3035,60.0,2.5833333333333335
2026-01-20T23:02:36+00:00,SAT-64305,322.21936116368886,42.47610120252229,2253.609620220279,6.70884020790246,-234971.96244668646,10.5,10499765028.037554,47.655,-122.3035,60.0,2.6
2026-01-20T23:02:37+00:00,SAT-64305,322.20787741726434,42.39580424983239,2260.300570187627,6.709936296934681,-235010.35212104686,10.5,10499764989.647879,47.655,-122.3035,60.0,2.6166666666666667
2026-01-20T23:02:38+00:00,SAT-64305,322.1963891463119,42.315805523596175,2266.9926133211034,6.711014945684641,-235048.13096295015,10.5,10499764951.869038,47.655,-122.3035,60.0,2.6333333333333333
2026-01-20T23:02:39+00:00,SAT-64305,322.184896456395,42.23610243196152,2273.6857322269325,6.712076288964494,-235085.30369408822,10.5,10499764914.696306,47.655,-122.3035,60.0,2.65
2026-01-20T23:02:40+00:00,SAT-64305,322.1733994512902,42.156692412599114,2280.379909645793,6.713120549412618,-235121.8781121988,10.5,10499764878.121887,47.655,-122.3035,60.0,2.6666666666666665
2026-01-20T23:02:41+00:00,SAT-64305,322.1618982329373,42.077572931230875,2287.0751285404076,6.71414787400642,-235157.85936505249,10.5,10499764842.140635,47.655,-122.3035,60.0,2.683333333333333
2026-01-20T23:02:42+00:00,SAT-64305,322.15039290154914,41.99874148211648,2293.771372020083,6.715158457807002,-235193.2542845141,10.5,10499764806.745716,47.655,-122.3035,60.0,2.7
2026-01-20T23:02:43+00:00,SAT-64305,322.13888355559516,41.92019558707879,2300.468623388669,6.716152453573536,-235228.06822085605,10.5,10499764771.93178,47.655,-122.3035,60.0,2.716666666666667
2026-01-20T23:02:44+00:00,SAT-64305,322.1273702918512,41.841932795607015,2307.1668661023664,6.717130035115661,-235262.3072616271,10.5,10499764737.692738,47.655,-122.3035,60.0,2.7333333333333334
2026-01-20T23:02:45+00:00,SAT-64305,322.11585320545475,41.76395068420428,2313.866083790722,6.718091361826342,-235295.97698944306,10.5,10499764704.02301,47.655,-122.3035,60.0,2.75
2026-01-20T23:02:46+00:00,SAT-64305,322.1043323899022,41.68624685617648,2320.56626024225,6.719036625515337,-235329.0841222932,10.5,10499764670.915878,47.655,-122.3035,60.0,2.7666666666666666
2026-01-20T23:02:47+00:00,SAT-64305,322.09280793709775,41.60881894086558,2327.267379436764,6.719965941068277,-235361.632683958,10.5,10499764638.367315,47.655,-122.3035,60.0,2.783333333333333
2026-01-20T23:02:48+00:00,SAT-64305,322.0812799373948,41.53166459417909,2333.9694254686556,6.720879478792646,-235393.62863932614,10.5,10499764606.37136,47.655,-122.3035,60.0,2.8
2026-01-20T23:02:49+00:00,SAT-64305,322.0697484796197,41.45478149756156,2340.672382602172,6.72177744622558,-235425.079257226,10.5,10499764574.920742,47.655,-122.3035,60.0,2.816666666666667
2026-01-20T23:02:50+00:00,SAT-64305,322.0582136510605,41.37816735720847,2347.376235308541,6.722659929129675,-235455.98754142632,10.5,10499764544.012459,47.655,-122.3035,60.0,2.8333333333333335
2026-01-20T23:02:51+00:00,SAT-64305,322.0466755375757,41.301819905116105,2354.080968144526,6.723527108065247,-235486.35981591337,10.5,10499764513.640184,47.655,-122.3035,60.0,2.85
2026-01-20T23:02:52+00:00,SAT-64305,322.0351342235517,41.225736897628586,2360.78656584697,6.724379144671596,-235516.201741979,10.5,10499764483.798258,47.655,-122.3035,60.0,2.8666666666666667
2026-01-20T23:02:53+00:00,SAT-64305,322.0235897919667,41.14991611530903,2367.4930133139223,6.725216175275625,-235545.51809436802,10.5,10499764454.481905,47.655,-122.3035,60.0,2.8833333333333333
2026-01-20T23:02:54+00:00,SAT-64305,322.0120423243977,41.07435536289182,2374.2002955793973,6.726038334533718,-235574.31358931662,10.5,10499764425.68641,47.655,-122.3035,60.0,2.9
2026-01-20T23:02:55+00:00,SAT-64305,322.00049190107774,40.99905246895842,2380.9083978117055,6.726845771950409,-235602.59346310605,10.5,10499764397.406536,47.655,-122.3035,60.0,2.9166666666666665
2026-01-20T23:02:56+00:00,SAT-64305,321.98893860088776,40.924005285438184,2387.6173053282637,6.727638658321593,-235630.3636977309,10.5,10499764369.636303,47.655,-122.3035,60.0,2.933333333333333
2026-01-20T23:02:57+00:00,SAT-64305,321.97738250138684,40.84921168703844,2394.3270036168306,6.728417110647082,-235657.62839101962,10.5,10499764342.371609,47.655,-122.3035,60.0,2.95
2026-01-20T23:02:58+00:00,SAT-64305,321.96582367885054,40.77466957153752,2401.037478281849,6.729181238584946,-235684.39138366163,10.5,10499764315.608616,47.655,-122.3035,60.0,2.966666666666667
2026-01-20T23:02:59+00:00,SAT-64305,321.95426220831376,40.70037685954124,2407.7487150371308,6.729931247025005,-235710.659851765,10.5,10499764289.340149,47.655,-122.3035,60.0,2.9833333333333334
2026-01-20T23:03:00+00:00,SAT-64305,321.94269816352005,40.626331493105816,2414.4606998008303,6.730667190473827,-235736.43570438048,10.5,10499764263.564295,47.655,-122.3035,60.0,3.0
2026-01-20T23:03:01+00:00,SAT-64305,321.93113161705435,40.55253143711224,2421.173418545463,6.731389258614276,-235761.72558500417,10.5,10499764238.274414,47.655,-122.3035,60.0,3.0166666666666666
2026-01-20T23:03:02+00:00,SAT-64305,321.9195626402572,40.47897467745453,2427.886857432721,6.7320975710919555,-235786.53368413134,10.5,10499764213.466316,47.655,-122.3035,60.0,3.033333333333333
2026-01-20T23:03:03+00:00,SAT-64305,321.9079913033175,40.40565922152191,2434.601002743623,6.732792239704039,-235810.8639173718,10.5,10499764189.136082,47.655,-122.3035,60.0,3.05
2026-01-20T23:03:04+00:00,SAT-64305,321.8964176752671,40.33258309799252,2441.315840870688,6.733473414891705,-235834.7215538121,10.5,10499764165.278446,47.655,-122.3035,60.0,3.066666666666667
2026-01-20T23:03:05+00:00,SAT-64305,321.8848418240049,40.25974435611516,2448.0313583564734,6.734141222146106,-235858.11098868307,10.5,10499764141.889011,47.655,-122.3035,60.0,3.0833333333333335
2026-01-20T23:03:06+00:00,SAT-64305,321.873263816309,40.187141065703344,2454.747541868694,6.734795734242278,-235881.03477087445,10.5,10499764118.965229,47.655,-122.3035,60.0,3.1
2026-01-20T23:03:07+00:00,SAT-64305,321.8616837179045,40.11477131742616,2461.4643781476448,6.735437136453265,-235903.49938943188,10.5,10499764096.50061,47.655,-122.3035,60.0,3.1166666666666667
2026-01-20T23:03:08+00:00,SAT-64305,321.8501015934046,40.042633221303504,2468.181854118401,6.736065543943189,-235925.50887789007,10.5,10499764074.491121,47.655,-122.3035,60.0,3.1333333333333333
