satellites_20260120_184412/SAT-55784.csv

timestamp,satellite,azimuth_deg,elevation_deg,distance_km,relative_velocity_kms,doppler_shift_hz,tx_freq_ghz,rx_freq_hz,ue_lat,ue_lon,ue_alt_m,time_minutes
2026-01-20T23:09:33+00:00,SAT-55784,77.62944164126849,40.16309381916402,617.5571360186837,0.6941373185142276,-24311.62509231433,10.5,10499975688.374908,47.655,-122.3035,60.0,9.55
2026-01-20T23:09:34+00:00,SAT-55784,76.99611823607688,40.65107659322597,618.2494223043485,0.7750229214166283,-27144.58105171744,10.5,10499972855.41895,47.655,-122.3035,60.0,9.566666666666666
2026-01-20T23:09:35+00:00,SAT-55784,76.35473811037072,41.134284962792485,619.0223784979747,0.8556047611549874,-29966.897940198905,10.5,10499970033.10206,47.655,-122.3035,60.0,9.583333333333334
2026-01-20T23:09:36+00:00,SAT-55784,75.70529568271746,41.61251293170426,619.8757016464333,0.9358530403275763,-32777.53212670731,10.5,10499967222.467873,47.655,-122.3035,60.0,9.6
2026-01-20T23:09:37+00:00,SAT-55784,75.04779316116893,42.085557987813075,620.8090590786534,1.0157385963432448,-35575.46221394293,10.5,10499964424.537786,47.655,-122.3035,60.0,9.616666666666667
2026-01-20T23:09:38+00:00,SAT-55784,74.38224094473289,42.55322143605864,621.8220890387397,1.0952329488887675,-38359.690700865,10.5,10499961640.3093,47.655,-122.3035,60.0,9.633333333333333
2026-01-20T23:09:39+00:00,SAT-55784,73.70865802392865,43.01530872468312,622.9144013664314,1.1743083508937562,-41129.24576769853,10.5,10499958870.754232,47.655,-122.3035,60.0,9.65
2026-01-20T23:09:40+00:00,SAT-55784,73.02707237459838,43.47162976597695,624.0855782283894,1.2529378212912676,-43883.18242334939,10.5,10499956116.817577,47.655,-122.3035,60.0,9.666666666666666
2026-01-20T23:09:41+00:00,SAT-55784,72.33752135143018,43.921999245118535,625.3351748821573,1.3310951935273836,-46620.58420441493,10.5,10499953379.415796,47.655,-122.3035,60.0,9.683333333333334
2026-01-20T23:09:42+00:00,SAT-55784,71.64005206745833,44.36623692351452,626.6627204885018,1.4087551513294607,-49340.56442793947,10.5,10499950659.435572,47.655,-122.3035,60.0,9.7
2026-01-20T23:09:43+00:00,SAT-55784,70.93472176287149,44.80416793213221,628.0677189594278,1.4858932573798915,-52042.267195690634,10.5,10499947957.732805,47.655,-122.3035,60.0,9.716666666666667
2026-01-20T23:09:44+00:00,SAT-55784,70.22159816189584,45.23562305300392,629.549649834788,1.562485981371107,-54724.868376764236,10.5,10499945275.131622,47.655,-122.3035,60.0,9.733333333333333
2026-01-20T23:09:45+00:00,SAT-55784,69.50075981280511,45.66043898989393,631.1079691868755,1.6385107319606536,-57387.57672678631,10.5,10499942612.423273,47.655,-122.3035,60.0,9.75
2026-01-20T23:09:46+00:00,SAT-55784,68.77229640503408,46.0784586287037,632.7421105568842,1.7139458807173693,-60029.634726609365,10.5,10499939970.365273,47.655,-122.3035,60.0,9.766666666666667
2026-01-20T23:09:47+00:00,SAT-55784,68.03630906245938,46.4895312860326,634.4514859152531,1.7887707683417366,-62650.31880017553,10.5,10499937349.6812,47.655,-122.3035,60.0,9.783333333333333
2026-01-20T23:09:48+00:00,SAT-55784,67.29291061562054,46.89351294184368,636.2354866282125,1.8629657308226846,-65248.94023063845,10.5,10499934751.059769,47.655,-122.3035,60.0,9.8
2026-01-20T23:09:49+00:00,SAT-55784,66.54222583919908,47.290266461624014,638.0934844504196,1.936512122097711,-67824.8459540165,10.5,10499932175.154045,47.655,-122.3035,60.0,9.816666666666666
2026-01-20T23:09:50+00:00,SAT-55784,65.78439165271719,47.6796618060662,640.0248325401918,2.0093922892713225,-70377.41769123788,10.5,10499929622.582308,47.655,-122.3035,60.0,9.833333333333334
2026-01-20T23:09:51+00:00,SAT-55784,65.01955729771714,48.06157622046237,642.028866450025,2.081589613482513,-72906.07337949237,10.5,10499927093.92662,47.655,-122.3035,60.0,9.85
2026-01-20T23:09:52+00:00,SAT-55784,64.24788446172076,48.435894415445595,644.1049051578717,2.1530884916224458,-75410.2665319075,10.5,10499924589.733469,47.655,-122.3035,60.0,9.866666666666667
2026-01-20T23:09:53+00:00,SAT-55784,63.46954736726226,48.80250872907136,646.252252080183,2.2238743484962797,-77889.48666350685,10.5,10499922110.513336,47.655,-122.3035,60.0,9.883333333333333
2026-01-20T23:09:54+00:00,SAT-55784,62.68473281086416,49.16131927475382,648.4701960970834,2.293933622791221,-80343.25879975213,10.5,10499919656.7412,47.655,-122.3035,60.0,9.9
2026-01-20T23:09:55+00:00,SAT-55784,61.89364015722609,49.51223407155295,650.7580125635471,2.3632537566507756,-82771.14311138923,10.5,10499917228.856888,47.655,-122.3035,60.0,9.916666666666666
2026-01-20T23:09:56+00:00,SAT-55784,61.09648128383046,49.85516915726822,653.1149643101802,2.4318232172190775,-85172.73566902177,10.5,10499914827.264332,47.655,-122.3035,60.0,9.933333333333334
2026-01-20T23:09:57+00:00,SAT-55784,60.29348046215971,50.19004868867262,655.5403026654867,2.4996314316981483,-87547.6661685417,10.5,10499912452.333832,47.655,-122.3035,60.0,9.95
2026-01-20T23:09:58+00:00,SAT-55784,59.484874201718476,50.5168050171192,658.033268413367,2.5666688386496364,-89895.59972793305,10.5,10499910104.400272,47.655,-122.3035,60.0,9.966666666666667
2026-01-20T23:09:59+00:00,SAT-55784,58.67091101607163,50.83537875483415,660.5930928017802,2.632926805631069,-92216.23400254526,10.5,10499907783.765997,47.655,-122.3035,60.0,9.983333333333333
2026-01-20T23:10:00+00:00,SAT-55784,57.851851152652536,51.14571881487026,663.2189984692628,2.698397667824619,-94509.30053803588,10.5,10499905490.699463,47.655,-122.3035,60.0,10.0
2026-01-20T23:10:01+00:00,SAT-55784,57.02796624606751,51.44778243956813,665.9102004099733,2.7630746759948956,-96774.56294763226,10.5,10499903225.437052,47.655,-122.3035,60.0,10.016666666666667
2026-01-20T23:10:02+00:00,SAT-55784,56.19953892318007,51.74153520648926,668.6659068868322,2.8269519728966164,-99011.81608582853,10.5,10499900988.183914,47.655,-122.3035,60.0,10.033333333333333
2026-01-20T23:10:03+00:00,SAT-55784,55.36686235007822,52.0269510158678,671.4853203211344,2.8900246086708745,-101220.88658762783,10.5,10499898779.113413,47.655,-122.3035,60.0,10.05
2026-01-20T23:10:04+00:00,SAT-55784,54.53023971060859,52.304012062496064,674.3676381975155,2.9522884560616265,-103401.62989906532,10.5,10499896598.3701,47.655,-122.3035,60.0,10.066666666666666
2026-01-20T23:10:05+00:00,SAT-55784,53.68998364625107,52.572708783379916,677.312053884361,3.013740232960326,-105553.93106681631,10.5,10499894446.068933,47.655,-122.3035,60.0,10.083333333333334
2026-01-20T23:10:06+00:00,SAT-55784,52.84641562796965,52.83303979072224,680.3177574767001,3.0743774769353407,-107677.70384610903,10.5,10499892322.296154,47.655,-122.3035,60.0,10.1
2026-01-20T23:10:07+00:00,SAT-55784,51.99986527642757,53.08501178592393,683.383936613697,3.134198468102747,-109772.88799933334,10.5,10499890227.112001,47.655,-122.3035,60.0,10.116666666666667
2026-01-20T23:10:08+00:00,SAT-55784,51.1506696472432,53.32863945104446,686.5097772192181,3.193202261133626,-111839.45041707178,10.5,10499888160.549583,47.655,-122.3035,60.0,10.133333333333333
2026-01-20T23:10:09+00:00,SAT-55784,50.29917245458354,53.56394532661385,689.6944642743221,3.251388626722395,-113877.38306807286,10.5,10499886122.616932,47.655,-122.3035,60.0,10.15
2026-01-20T23:10:10+00:00,SAT-55784,49.44572326215786,53.79095966870987,692.9371825313731,3.3087580268179524,-115886.70213174108,10.5,10499884113.297869,47.655,-122.3035,60.0,10.166666666666666
2026-01-20T23:10:11+00:00,SAT-55784,48.59067663643665,54.00972028890688,696.237117203453,3.3653115681586727,-117867.4463707358,10.5,10499882132.553629,47.655,-122.3035,60.0,10.183333333333334
2026-01-20T23:10:12+00:00,SAT-55784,47.73439127260194,54.22027237604596,699.5934546074297,3.4210510131302634,-119819.67751125936,10.5,10499880180.322489,47.655,-122.3035,60.0,10.2
2026-01-20T23:10:13+00:00,SAT-55784,46.87722908393202,54.422668303850905,703.0053828178585,3.475978726139563,-121743.4783648407,10.5,10499878256.521635,47.655,-122.3035,60.0,10.216666666666667
2026-01-20T23:10:14+00:00,SAT-55784,46.01955427695367,54.61696742092292,706.4720922673949,3.5300976329358655,-123638.95140359597,10.5,10499876361.048597,47.655,-122.3035,60.0,10.233333333333333
2026-01-20T23:10:15+00:00,SAT-55784,45.16173241428634,54.80323582550651,709.992776306643,3.5834112017939534,-125506.21810117888,10.5,10499874493.781898,47.655,-122.3035,60.0,10.25
2026-01-20T23:10:16+00:00,SAT-55784,44.30412946614856,54.98154612637209,713.5666317452321,3.635923444629268,-127345.41897183855,10.5,10499872654.581028,47.655,-122.3035,60.0,10.266666666666667
2026-01-20T23:10:17+00:00,SAT-55784,43.44711085216823,55.151977191942905,717.1928593940091,3.68763883026486,-129156.71053266134,10.5,10499870843.289467,47.655,-122.3035,60.0,10.283333333333333
2026-01-20T23:10:18+00:00,SAT-55784,42.59104050054108,55.31461388452466,720.8706645207266,3.738562302413482,-130940.26593337969,10.5,10499869059.734066,47.655,-122.3035,60.0,10.3
2026-01-20T23:10:19+00:00,SAT-55784,41.73627990591533,55.46954678557596,724.599257323667,3.788699233556642,-132696.27334102162,10.5,10499867303.72666,47.655,-122.3035,60.0,10.316666666666666
2026-01-20T23:10:20+00:00,SAT-55784,40.88318720735587,55.61687191021404,728.3778533592674,3.838055397127193,-134424.9349656272,10.5,10499865575.065035,47.655,-122.3035,60.0,10.333333333333334
2026-01-20T23:10:21+00:00,SAT-55784,40.03211628788308,55.75669041316166,732.2056739420024,3.8866369552024116,-136126.46662920827,10.5,10499863873.533371,47.655,-122.3035,60.0,10.35
2026-01-20T23:10:22+00:00,SAT-55784,39.183415898101224,55.889108287592634,736.0819465319908,3.934450414804723,-137801.09623521482,10.5,10499862198.903765,47.655,-122.3035,60.0,10.366666666666667
2026-01-20T23:10:23+00:00,SAT-55784,38.337428815995814,56.01423605752028,740.0059050790228,3.9815026031366583,-139449.0629011585,10.5,10499860550.9371,47.655,-122.3035,60.0,10.383333333333333
2026-01-20T23:10:24+00:00,SAT-55784,37.49449104382826,56.13218846540346,743.9767903418843,4.027800656073105,-141070.61655556262,10.5,10499858929.383444,47.655,-122.3035,60.0,10.4
2026-01-20T23:10:25+00:00,SAT-55784,36.65493104388712,56.24308415680237,747.993850196208,4.073351998898765,-142666.0172633063,10.5,10499857333.982737,47.655,-122.3035,60.0,10.416666666666666
2026-01-20T23:10:26+00:00,SAT-55784,35.819069019178414,56.34704536292156,752.0563399231096,4.118164287355675,-144235.53316085954,10.5,10499855764.466839,47.655,-122.3035,60.0,10.433333333333334
2026-01-20T23:10:27+00:00,SAT-55784,34.98721625048215,56.44419758179692,756.1635224390324,4.1622454353751115,-145779.44142757144,10.5,10499854220.558573,47.655,-122.3035,60.0,10.45
2026-01-20T23:10:28+00:00,SAT-55784,34.15967447543466,56.53466926104237,760.3146685532465,4.205603561399159,-147298.0264056248,10.5,10499852701.973595,47.655,-122.3035,60.0,10.466666666666667
2026-01-20T23:10:29+00:00,SAT-55784,33.336735328631995,56.61859148186711,764.5090571718154,4.248246949584996,-148791.57824124602,10.5,10499851208.421759,47.655,-122.3035,60.0,10.483333333333333
2026-01-20T23:10:30+00:00,SAT-55784,32.51867984143911,56.69609764595277,768.745975462868,4.290184102426988,-150260.3947277532,10.5,10499849739.605272,47.655,-122.3035,60.0,10.5
2026-01-20T23:10:31+00:00,SAT-55784,31.70577798555482,56.76732316777071,773.0247190743552,4.331423631026059,-151704.7774623257,10.5,10499848295.222538,47.655,-122.3035,60.0,10.516666666666667
2026-01-20T23:10:32+00:00,SAT-55784,30.898288292351552,56.83240517090362,777.3445922423653,4.3719743096814,-153125.03375803638,10.5,10499846874.966242,47.655,-122.3035,60.0,10.533333333333333
2026-01-20T23:10:33+00:00,SAT-55784,30.096457517002353,56.891482191918854,781.7049079538875,4.411845018814586,-154521.47464481296,10.5,10499845478.525354,47.655,-122.3035,60.0,10.55
2026-01-20T23:10:34+00:00,SAT-55784,29.30052036851709,56.94469389104462,786.1049880526518,4.451044726612933,-155894.41422651065,10.5,10499844105.585773,47.655,-122.3035,60.0,10.566666666666666
2026-01-20T23:10:35+00:00,SAT-55784,28.51069929736585,56.99218077138485,790.5441633266605,4.489582505729223,-157244.17026580716,10.5,10499842755.829735,47.655,-122.3035,60.0,10.583333333333334
2026-01-20T23:10:36+00:00,SAT-55784,27.727204333961684,57.034083907278074,795.0217736123744,4.527467501212268,-158571.0630609954,10.5,10499841428.93694,47.655,-122.3035,60.0,10.6
2026-01-20T23:10:37+00:00,SAT-55784,26.950232984898097,57.07054468256553,799.5371678669168,4.564708882830438,-159875.41377615175,10.5,10499840124.586224,47.655,-122.3035,60.0,10.616666666666667
2026-01-20T23:10:38+00:00,SAT-55784,26.179970187736007,57.101704538988336,804.0897041927265,4.60131588471178,-161157.5458295008,10.5,10499838842.45417,47.655,-122.3035,60.0,10.633333333333333
2026-01-20T23:10:39+00:00,SAT-55784,25.416588307132415,57.127704736001455,808.6787499017456,4.637297770475832,-162417.78367218372,10.5,10499837582.216328,47.655,-122.3035,60.0,10.65
2026-01-20T23:10:40+00:00,SAT-55784,24.660247182957335,57.148686121764555,813.3036815448335,4.67266383262578,-163656.4527669695,10.5,10499836343.547234,47.655,-122.3035,60.0,10.666666666666666
2026-01-20T23:10:41+00:00,SAT-55784,23.911094221750158,57.16478891600122,817.9638849405721,4.707423317115694,-164873.87694627992,10.5,10499835126.123055,47.655,-122.3035,60.0,10.683333333333334
2026-01-20T23:10:42+00:00,SAT-55784,23.16926454045853,57.176152504880214,822.6587551288424,4.741585524954457,-166070.38197078928,10.5,10499833929.618029,47.655,-122.3035,60.0,10.7
2026-01-20T23:10:43+00:00,SAT-55784,22.434881131592597,57.18291524819462,827.3876964257303,4.7751597268533015,-167246.29254002002,10.5,10499832753.70746,47.655,-122.3035,60.0,10.716666666666667
2026-01-20T23:10:44+00:00,SAT-55784,21.708055076429645,57.185214298733925,832.1501223933119,4.808155139874891,-168401.9314744948,10.5,10499831598.068525,47.655,-122.3035,60.0,10.733333333333333
2026-01-20T23:10:45+00:00,SAT-55784,20.98888579256199,57.18318543425662,836.9454557861471,4.840580968799366,-169537.62116455025,10.5,10499830462.378836,47.655,-122.3035,60.0,10.75
2026-01-20T23:10:46+00:00,SAT-55784,20.2774613033762,57.176962901564806,841.7731285390297,4.8724463894467185,-170653.6829862162,10.5,10499829346.317015,47.655,-122.3035,60.0,10.766666666666667
2026-01-20T23:10:47+00:00,SAT-55784,19.57385853504195,57.16667927281631,846.6325817381046,4.903760525491183,-171750.43648915752,10.5,10499828249.56351,47.655,-122.3035,60.0,10.783333333333333
2026-01-20T23:10:48+00:00,SAT-55784,18.8781436388369,57.15246531383905,851.523265568861,4.934532423470285,-172828.1985213851,10.5,10499827171.80148,47.655,-122.3035,60.0,10.8
2026-01-20T23:10:49+00:00,SAT-55784,18.190372335450665,57.13444986445417,856.4446392392022,4.964771058808521,-173887.28344023073,10.5,10499826112.71656,47.655,-122.3035,60.0,10.816666666666666
2026-01-20T23:10:50+00:00,SAT-55784,17.510590274092692,57.11275973028462,861.3961709085205,4.994485398487963,-174928.005307337,10.5,10499825071.994692,47.655,-122.3035,60.0,10.833333333333334
2026-01-20T23:10:51+00:00,SAT-55784,16.83883339628967,57.08751958522856,866.3773376792792,5.023684280447333,-175950.6736647024,10.5,10499824049.326336,47.655,-122.3035,60.0,10.85
2026-01-20T23:10:52+00:00,SAT-55784,16.175128326144236,57.05885188559528,871.387625468312,5.052376467558121,-176955.5954251533,10.5,10499823044.404575,47.655,-122.3035,60.0,10.866666666666667
2026-01-20T23:10:53+00:00,SAT-55784,15.519492760692385,57.026876794353186,876.4265289319566,5.080570678695222,-177943.07596056946,10.5,10499822056.92404,47.655,-122.3035,60.0,10.883333333333333
2026-01-20T23:10:54+00:00,SAT-55784,14.871935861812975,56.991712115020235,881.4935514221753,5.108275496930357,-178913.41588642885,10.5,10499821086.584114,47.655,-122.3035,60.0,10.9
2026-01-20T23:10:55+00:00,SAT-55784,14.232458662567241,56.95347323601266,886.5882048511138,5.135499462325622,-179866.91431183042,10.5,10499820133.085688,47.655,-122.3035,60.0,10.916666666666666
2026-01-20T23:10:56+00:00,SAT-55784,13.60105446290795,56.91227308320226,891.7100096482067,5.162250944547186,-180803.86437788722,10.5,10499819196.135622,47.655,-122.3035,60.0,10.933333333333334
2026-01-20T23:10:57+00:00,SAT-55784,12.977709239582547,56.86822208249595,896.858494590235,5.18853832213728,-181724.55953658928,10.5,10499818275.440464,47.655,-122.3035,60.0,10.95
2026-01-20T23:10:58+00:00,SAT-55784,12.36240203199306,56.82142812860707,902.0331968101799,5.21436977915361,-182629.28642825596,10.5,10499817370.713572,47.655,-122.3035,60.0,10.966666666666667
2026-01-20T23:10:59+00:00,SAT-55784,11.755105347509206,56.77199656386367,907.2336616032558,5.239753436798528,-183518.3294917464,10.5,10499816481.670507,47.655,-122.3035,60.0,10.983333333333333
2026-01-20T23:11:00+00:00,SAT-55784,11.155785545485035,56.720030162748046,912.4594423642228,5.2646973198276195,-184391.96978794577,10.5,10499815608.030212,47.655,-122.3035,60.0,11.0
2026-01-20T23:11:01+00:00,SAT-55784,10.564403218139816,56.66562912360763,917.7101004911975,5.28920931458764,-185250.48353007672,10.5,10499814749.51647,47.655,-122.3035,60.0,11.016666666666667
2026-01-20T23:11:02+00:00,SAT-55784,9.980913567839677,56.608891067182014,922.9852052476131,5.313297234021261,-186094.14436044035,10.5,10499813905.85564,47.655,-122.3035,60.0,11.033333333333333
2026-01-20T23:11:03+00:00,SAT-55784,9.405266767936142,56.54991104026268,928.2843336890103,5.336968750262134,-186923.2209896101,10.5,10499813076.77901,47.655,-122.3035,60.0,11.05
2026-01-20T23:11:04+00:00,SAT-55784,8.837408321065054,56.48878152548424,933.607070522605,5.3602314415777474,-187737.97884056962,10.5,10499812262.02116,47.655,-122.3035,60.0,11.066666666666666
2026-01-20T23:11:05+00:00,SAT-55784,8.27727940149591,56.42559245564806,938.9530080136718,5.383092765453102,-188538.67910598865,10.5,10499811461.320894,47.655,-122.3035,60.0,11.083333333333334
2026-01-20T23:11:06+00:00,SAT-55784,7.7248171892109925,56.36043123286648,944.3217458650838,5.40556007996833,-189325.57949695806,10.5,10499810674.420504,47.655,-122.3035,60.0,11.1
2026-01-20T23:11:07+00:00,SAT-55784,7.179955190000208,56.29338275165212,949.7128911181721,5.427640626314668,-190098.93363062528,10.5,10499809901.06637,47.655,-122.3035,60.0,11.116666666666667
2026-01-20T23:11:08+00:00,SAT-55784,6.642623545466106,56.224529425917126,955.12605803615,5.449341493282098,-190858.98978640093,10.5,10499809141.010214,47.655,-122.3035,60.0,11.133333333333333
2026-01-20T23:11:09+00:00,SAT-55784,6.112749333759258,56.15395122010734,960.5608679521166,5.470669732045852,-191605.99492626815,10.5,10499808394.005074,47.655,-122.3035,60.0,11.15
2026-01-20T23:11:10+00:00,SAT-55784,5.590256847307026,56.08172568145641,966.0169492315437,5.4916322232599715,-192340.1900398365,10.5,10499807659.80996,47.655,-122.3035,60.0,11.166666666666666
2026-01-20T23:11:11+00:00,SAT-55784,5.075067870481465,56.00792797712194,971.4939371022084,5.512235724553474,-193061.81180785902,10.5,10499806938.188192,47.655,-122.3035,60.0,11.183333333333334
2026-01-20T23:11:12+00:00,SAT-55784,4.567101940143209,55.932630932945,976.9914735314964,5.532486932473977,-193771.09477175956,10.5,10499806228.905228,47.655,-122.3035,60.0,11.2
2026-01-20T23:11:13+00:00,SAT-55784,4.06627658831505,55.855905073356006,982.5092071654838,5.552392387826664,-194468.26801820338,10.5,10499805531.731981,47.655,-122.3035,60.0,11.216666666666667
2026-01-20T23:11:14+00:00,SAT-55784,3.5725075810408535,55.777818664607466,988.0467931736096,5.571958557380039,-195153.55804077772,10.5,10499804846.44196,47.655,-122.3035,60.0,11.233333333333333
2026-01-20T23:11:15+00:00,SAT-55784,3.085709137949664,55.698437758255174,993.6038931748366,5.591191729362958,-195827.18507985634,10.5,10499804172.81492,47.655,-122.3035,60.0,11.25
2026-01-20T23:11:16+00:00,SAT-55784,2.6057941488297947,55.61782623762873,999.1801750595878,5.610098157405312,-196489.3681640109,10.5,10499803510.631836,47.655,-122.3035,60.0,11.266666666666667
2026-01-20T23:11:17+00:00,SAT-55784,2.1326743663729575,55.53604586309478,1004.77531295524,5.628683942229929,-197140.32096636086,10.5,10499802859.679033,47.655,-122.3035,60.0,11.283333333333333
2026-01-20T23:11:18+00:00,SAT-55784,1.6662605976386426,55.45315632005928,1010.3889870736241,5.646955094262705,-197780.25399744514,10.5,10499802219.746002,47.655,-122.3035,60.0,11.3
2026-01-20T23:11:19+00:00,SAT-55784,1.2064628791877483,55.36921526668723,1016.0208836209688,5.664917472445234,-198409.3724621817,10.5,10499801590.627539,47.655,-122.3035,60.0,11.316666666666666
2026-01-20T23:11:20+00:00,SAT-55784,0.7531906464341402,55.28427838306828,1021.6706946468207,5.682576900800978,-199027.8803425077,10.5,10499800972.119658,47.655,-122.3035,60.0,11.333333333333334
2026-01-20T23:11:21+00:00,SAT-55784,0.3063528835176777,55.19839941883224,1027.3381180092197,5.699939059144135,-199635.97656954202,10.5,10499800364.02343,47.655,-122.3035,60.0,11.35
2026-01-20T23:11:22+00:00,SAT-55784,359.865858271913,55.11163024268881,1033.0228572308727,5.717009487373334,-200233.8551739684,10.5,10499799766.144827,47.655,-122.3035,60.0,11.366666666666667
2026-01-20T23:11:23+00:00,SAT-55784,359.4316153287164,55.02402089202185,1038.7246213596131,5.73379366618036,-200821.70811279645,10.5,10499799178.291887,47.655,-122.3035,60.0,11.383333333333333
2026-01-20T23:11:24+00:00,SAT-55784,359.0035325299072,54.93561962094163,1044.4431249093502,5.7502969977333676,-201399.724592806,10.5,10499798600.275408,47.655,-122.3035,60.0,11.4
2026-01-20T23:11:25+00:00,SAT-55784,358.58151842630207,54.84647294854127,1050.1780877817564,5.766524720380303,-201968.08808310045,10.5,10499798031.911917,47.655,-122.3035,60.0,11.416666666666666
2026-01-20T23:11:26+00:00,SAT-55784,358.1654817573262,54.756625708169736,1055.9292351028823,5.7824819906966916,-202526.97918876685,10.5,10499797473.020811,47.655,-122.3035,60.0,11.433333333333334
2026-01-20T23:11:27+00:00,SAT-55784,357.75533155050283,54.66612109506501,1061.696297141604,5.798173902251885,-203076.5763081498,10.5,10499796923.423693,47.655,-122.3035,60.0,11.45
2026-01-20T23:11:28+00:00,SAT-55784,357.3509772123999,54.57500071303759,1067.479009246783,5.813605426814019,-203617.0535735999,10.5,10499796382.946426,47.655,-122.3035,60.0,11.466666666666667
2026-01-20T23:11:29+00:00,SAT-55784,356.9523286162953,54.483304621649026,1073.2771117257923,5.82878141497372,-204148.5808733189,10.5,10499795851.419127,47.655,-122.3035,60.0,11.483333333333333
2026-01-20T23:11:30+00:00,SAT-55784,356.55929618265606,54.391071382786635,1079.0903497236593,5.843706663294552,-204671.32620325222,10.5,10499795328.673798,47.655,-122.3035,60.0,11.5
2026-01-20T23:11:31+00:00,SAT-55784,356.1717909488203,54.298338105327446,1084.918473169185,5.858385880288459,-205185.4544754052,10.5,10499794814.545525,47.655,-122.3035,60.0,11.516666666666667
2026-01-20T23:11:32+00:00,SAT-55784,355.7897246347306,54.205140489713074,1090.761236687126,5.8728236130184195,-205691.1249471573,10.5,10499794308.875053,47.655,-122.3035,60.0,11.533333333333333
2026-01-20T23:11:33+00:00,SAT-55784,355.4130097073878,54.11151287297441,1096.6183994371765,5.887024418633288,-206188.49722913821,10.5,10499793811.502771,47.655,-122.3035,60.0,11.55
2026-01-20T23:11:34+00:00,SAT-55784,355.04155942905106,54.01748827000538,1102.4897251240266,5.900992690845427,-206677.72520774015,10.5,10499793322.274792,47.655,-122.3035,60.0,11.566666666666666
2026-01-20T23:11:35+00:00,SAT-55784,354.6752879111035,53.92309841695816,1108.374981834363,5.914732765590996,-207158.96074578853,10.5,10499792841.039255,47.655,-122.3035,60.0,11.583333333333334
2026-01-20T23:11:36+00:00,SAT-55784,354.3141101563706,53.82837381200535,1114.273941979246,5.928248894567588,-207632.35275571767,10.5,10499792367.647243,47.655,-122.3035,60.0,11.6
2026-01-20T23:11:37+00:00,SAT-55784,353.9579420987233,53.733343755550656,1120.1863822100947,5.941545213194143,-208098.04607739166,10.5,10499791901.953922,47.655,-122.3035,60.0,11.616666666666667
2026-01-20T23:11:38+00:00,SAT-55784,353.6067006398929,53.638036390251365,1126.1120833027205,5.954625842013883,-208556.185029664,10.5,10499791443.81497,47.655,-122.3035,60.0,11.633333333333333
2026-01-20T23:11:39+00:00,SAT-55784,353.2603036768387,53.54247873818053,1132.0508301424888,5.9674947578243875,-209006.90889680778,10.5,10499790993.091103,47.655,-122.3035,60.0,11.65
2026-01-20T23:11:40+00:00,SAT-55784,352.91867013234946,53.446696739478895,1138.002411580959,5.980155868561619,-209450.35455127092,10.5,10499790549.645449,47.655,-122.3035,60.0,11.666666666666666
2026-01-20T23:11:41+00:00,SAT-55784,352.58171997806045,53.35071528864257,1143.9666203672045,5.992613034106689,-209886.6571824173,10.5,10499790113.342817,47.655,-122.3035,60.0,11.683333333333334
2026-01-20T23:11:42+00:00,SAT-55784,352.24937425302284,53.25455826959252,1149.943253099887,6.0048700018822245,-210315.94804083885,10.5,10499789684.05196,47.655,-122.3035,60.0,11.7
2026-01-20T23:11:43+00:00,SAT-55784,351.92155508275465,53.158248590894196,1155.9321101150974,6.016930453432988,-210738.35606980606,10.5,10499789261.64393,47.655,-122.3035,60.0,11.716666666666667
2026-01-20T23:11:44+00:00,SAT-55784,351.59818569284636,53.06180821928416,1161.9329954206546,6.02879803854687,-211154.00910032945,10.5,10499788845.9909,47.655,-122.3035,60.0,11.733333333333333
2026-01-20T23:11:45+00:00,SAT-55784,351.27919041842165,52.96525821161207,1167.945716664432,6.040476250278816,-211563.02947396887,10.5,10499788436.970526,47.655,-122.3035,60.0,11.75
2026-01-20T23:11:46+00:00,SAT-55784,350.9644947172371,52.86861874815851,1173.9700849780434,6.051968583709284,-211965.53960322603,10.5,10499788034.460398,47.655,-122.3035,60.0,11.766666666666667
2026-01-20T23:11:47+00:00,SAT-55784,350.654025172735,52.77190916217579,1180.0059149788628,6.063278416871904,-212361.65780112782,10.5,10499787638.3422,47.655,-122.3035,60.0,11.783333333333333
2026-01-20T23:11:48+00:00,SAT-55784,350.3477095008153,52.67514797068209,1186.0530246532896,6.07440913754974,-212751.50272216747,10.5,10499787248.497278,47.655,-122.3035,60.0,11.8
2026-01-20T23:11:49+00:00,SAT-55784,350.045476548677,52.57835290214889,1192.1112353664728,6.085363925126532,-213135.18572181222,10.5,10499786864.814278,47.655,-122.3035,60.0,11.816666666666666
2026-01-20T23:11:50+00:00,SAT-55784,349.7472563021051,52.48154092712913,1198.1803716544655,6.096146028915024,-213512.820604739,10.5,10499786487.179396,47.655,-122.3035,60.0,11.833333333333334
2026-01-20T23:11:51+00:00,SAT-55784,349.4529798781042,52.38472828319102,1204.26026129397,6.106758586534473,-213884.5172636463,10.5,10499786115.482737,47.655,-122.3035,60.0,11.85
2026-01-20T23:11:52+00:00,SAT-55784,349.16257952458676,52.28793050219448,1210.3507351909407,6.117204640802083,-214250.38227086375,10.5,10499785749.61773,47.655,-122.3035,60.0,11.866666666666667
2026-01-20T23:11:53+00:00,SAT-55784,348.87598861780157,52.1911624364334,1216.4516272860337,6.127487198328471,-214610.5209306131,10.5,10499785389.479069,47.655,-122.3035,60.0,11.883333333333333
2026-01-20T23:11:54+00:00,SAT-55784,348.5931416558491,52.09443828299338,1222.5627745185002,6.137609231563501,-214965.037350662,10.5,10499785034.962648,47.655,-122.3035,60.0,11.9
2026-01-20T23:11:55+00:00,SAT-55784,348.3139742511351,51.99777160727474,1228.6840167921127,6.147573616124652,-215314.0322472984,10.5,10499784685.967752,47.655,-122.3035,60.0,11.916666666666666
2026-01-20T23:11:56+00:00,SAT-55784,348.0384231244366,51.90117536685753,1234.8151968785944,6.157383153617866,-215657.60374461318,10.5,10499784342.396255,47.655,-122.3035,60.0,11.933333333333334
2026-01-20T23:11:57+00:00,SAT-55784,347.766426097051,51.804661934189184,1240.9561603438026,6.167040646084118,-215995.84998193395,10.5,10499784004.150019,47.655,-122.3035,60.0,11.95
2026-01-20T23:11:58+00:00,SAT-55784,347.49792207895155,51.708243117331214,1247.1067555481638,6.176548792367825,-216328.86548420828,10.5,10499783671.134516,47.655,-122.3035,60.0,11.966666666666667
2026-01-20T23:11:59+00:00,SAT-55784,347.23285106063327,51.611930181714754,1253.266833543752,6.185910278329401,-216656.74432162903,10.5,10499783343.255678,47.655,-122.3035,60.0,11.983333333333333
2026-01-20T23:12:00+00:00,SAT-55784,346.97115410047917,51.515733869724194,1259.436248061339,6.195127662157338,-216979.57609277833,10.5,10499783020.423906,47.655,-122.3035,60.0,12.0
2026-01-20T23:12:01+00:00,SAT-55784,346.7127733162075,51.41966442149916,1265.6148553830642,6.204203533836141,-217297.45150986916,10.5,10499782702.54849,47.655,-122.3035,60.0,12.016666666666667
2026-01-20T23:12:02+00:00,SAT-55784,346.45765186938667,51.323731592451544,1271.8025143741434,6.213140384358245,-217610.45781799345,10.5,10499782389.542183,47.655,-122.3035,60.0,12.033333333333333
2026-01-20T23:12:03+00:00,SAT-55784,346.20573395476185,51.22794467230966,1277.9990863841433,6.221940664515905,-217918.68085426287,10.5,10499782081.319145,47.655,-122.3035,60.0,12.05
2026-01-20T23:12:04+00:00,SAT-55784,345.95696478677655,51.132312502586764,1284.2044352068872,6.230606770695943,-218222.20455028058,10.5,10499781777.79545,47.655,-122.3035,60.0,12.066666666666666
2026-01-20T23:12:05+00:00,SAT-55784,345.7112905863908,51.03684349367061,1290.4184270261944,6.239141071369429,-218521.1118599221,10.5,10499781478.88814,47.655,-122.3035,60.0,12.083333333333334
2026-01-20T23:12:06+00:00,SAT-55784,345.46865856650373,50.94154564094085,1296.6409303880405,6.247545862125162,-218815.4831844175,10.5,10499781184.516815,47.655,-122.3035,60.0,12.1
2026-01-20T23:12:07+00:00,SAT-55784,345.22901691899125,50.846426540994564,1302.8718161278664,6.25582338541756,-219105.3970640061,10.5,10499780894.602936,47.655,-122.3035,60.0,12.116666666666667
2026-01-20T23:12:08+00:00,SAT-55784,344.992314800543,50.751493407084425,1309.1109573175895,6.263975887440784,-219390.9321699088,10.5,10499780609.067831,47.655,-122.3035,60.0,12.133333333333333
2026-01-20T23:12:09+00:00,SAT-55784,344.7585023165708,50.656753083041565,1315.3582292693306,6.272005521142606,-219672.16390746346,10.5,10499780327.836092,47.655,-122.3035,60.0,12.15
2026-01-20T23:12:10+00:00,SAT-55784,344.52753050829165,50.562212058305455,1321.6135094424167,6.279914396340725,-219949.16617141053,10.5,10499780050.833828,47.655,-122.3035,60.0,12.166666666666666
2026-01-20T23:12:11+00:00,SAT-55784,344.299351338002,50.46787648161541,1327.8766774003673,6.28770463338697,-220222.01322544008,10.5,10499779777.986774,47.655,-122.3035,60.0,12.183333333333334
2026-01-20T23:12:12+00:00,SAT-55784,344.0739176724312,50.37375217340376,1334.1476148213985,6.295378230730304,-220490.7750636882,10.5,10499779509.224936,47.655,-122.3035,60.0,12.2
2026-01-20T23:12:13+00:00,SAT-55784,343.8511832706375,50.279844639810584,1340.4262053768468,6.3029372264041665,-220755.52306670687,10.5,10499779244.476933,47.655,-122.3035,60.0,12.216666666666667
2026-01-20T23:12:14+00:00,SAT-55784,343.63110276639446,50.18615908370169,1346.7123347706474,6.310383564828928,-221016.32533632233,10.5,10499778983.674664,47.655,-122.3035,60.0,12.233333333333333
2026-01-20T23:12:15+00:00,SAT-55784,343.41363165513576,50.09270041736159,1353.00589064597,6.317719156574478,-221273.24878877378,10.5,10499778726.751211,47.655,-122.3035,60.0,12.25
2026-01-20T23:12:16+00:00,SAT-55784,343.19872627886735,49.99947327381901,1359.3067625514605,6.3249458956203775,-221526.35975923704,10.5,10499778473.640242,47.655,-122.3035,60.0,12.266666666666667
2026-01-20T23:12:17+00:00,SAT-55784,342.9863438106789,49.90648201750613,1365.6148419246922,6.332065632798583,-221775.7230716762,10.5,10499778224.276928,47.655,-122.3035,60.0,12.283333333333333
2026-01-20T23:12:18+00:00,SAT-55784,342.77644224015125,49.81373075495565,1371.9300220491368,6.339080171786898,-222021.4018985175,10.5,10499777978.5981,47.655,-122.3035,60.0,12.3
2026-01-20T23:12:19+00:00,SAT-55784,342.5689803590378,49.72122334516257,1378.2521980071324,6.345991290855692,-222263.45852231138,10.5,10499777736.541477,47.655,-122.3035,60.0,12.316666666666666
2026-01-20T23:12:20+00:00,SAT-55784,342.3639177463367,49.6289634092704,1384.5812666545457,6.35280071756568,-222501.95344954156,10.5,10499777498.04655,47.655,-122.3035,60.0,12.333333333333334
2026-01-20T23:12:21+00:00,SAT-55784,342.1612147543444,49.536954340258696,1390.917126570198,6.359510160249837,-222736.94651325516,10.5,10499777263.053486,47.655,-122.3035,60.0,12.35
2026-01-20T23:12:22+00:00,SAT-55784,341.960832493761,49.44519931187433,1397.2596780366869,6.366121284089474,-222968.49603514533,10.5,10499777031.503965,47.655,-122.3035,60.0,12.366666666666667
2026-01-20T23:12:23+00:00,SAT-55784,341.762732819873,49.35370128751779,1403.6088229973523,6.37263574193725,-223196.65990510382,10.5,10499776803.340096,47.655,-122.3035,60.0,12.383333333333333
2026-01-20T23:12:24+00:00,SAT-55784,341.5668783177969,49.26246302843677,1409.9644650439775,6.379055111543646,-223421.49338262633,10.5,10499776578.506617,47.655,-122.3035,60.0,12.4
2026-01-20T23:12:25+00:00,SAT-55784,341.373232289867,49.17148710249649,1416.3265093418906,6.3853810097763155,-223643.05309725742,10.5,10499776356.946903,47.655,-122.3035,60.0,12.416666666666666
2026-01-20T23:12:26+00:00,SAT-55784,341.181758739852,49.08077589097546,1422.694862668974,6.391614929967641,-223861.3913518139,10.5,10499776138.608648,47.655,-122.3035,60.0,12.433333333333334
2026-01-20T23:12:27+00:00,SAT-55784,340.9924223620082,48.990331597505374,1429.0694332924618,6.397758400455676,-224076.5616751593,10.5,10499775923.438324,47.655,-122.3035,60.0,12.45
2026-01-20T23:12:28+00:00,SAT-55784,340.80518852580946,48.900156254376235,1435.4501310038497,6.403812931933849,-224288.61697816764,10.5,10499775711.383022,47.655,-122.3035,60.0,12.466666666666667
2026-01-20T23:12:29+00:00,SAT-55784,340.62002326250473,48.81025172933588,1441.8368671012984,6.409779944623062,-224497.60700298255,10.5,10499775502.392998,47.655,-122.3035,60.0,12.483333333333333
2026-01-20T23:12:30+00:00,SAT-55784,340.4368932536618,48.720619733290555,1448.2295542994025,6.415660875263906,-224703.58207033682,10.5,10499775296.41793,47.655,-122.3035,60.0,12.5
2026-01-20T23:12:31+00:00,SAT-55784,340.2557658171854,48.63126182608908,1454.6281067456657,6.421457110529951,-224906.5907474046,10.5,10499775093.409252,47.655,-122.3035,60.0,12.516666666666667
2026-01-20T23:12:32+00:00,SAT-55784,340.07660889522043,48.54217942311595,1461.0324399705676,6.427170048749266,-225106.68200954975,10.5,10499774893.317991,47.655,-122.3035,60.0,12.533333333333333
2026-01-20T23:12:33+00:00,SAT-55784,339.8993910407475,48.45337380072228,1467.442470899187,6.432801022899973,-225303.90254330455,10.5,10499774696.097456,47.655,-122.3035,60.0,12.55
2026-01-20T23:12:34+00:00,SAT-55784,339.72408140630034,48.3648461025968,1473.8581177860256,6.438351312656322,-225498.29716827426,10.5,10499774501.702831,47.655,-122.3035,60.0,12.566666666666666
2026-01-20T23:12:35+00:00,SAT-55784,339.5506497326093,48.276597345711664,1480.2793001618484,6.4438222880431155,-225689.91386852274,10.5,10499774310.086132,47.655,-122.3035,60.0,12.583333333333334
2026-01-20T23:12:36+00:00,SAT-55784,339.3790663338726,48.18862842400968,1486.70593892379,6.44921513969552,-225878.79434512978,10.5,10499774121.205654,47.655,-122.3035,60.0,12.6
2026-01-20T23:12:37+00:00,SAT-55784,339.20930208993354,48.10094011579354,1493.1379561564463,6.454531160759676,-226064.98388954333,10.5,10499773935.016111,47.655,-122.3035,60.0,12.616666666666667
2026-01-20T23:12:38+00:00,SAT-55784,339.04132843171675,48.013533086860605,1499.5752752341107,6.459771537992525,-226248.5240670114,10.5,10499773751.475933,47.655,-122.3035,60.0,12.633333333333333
2026-01-20T23:12:39+00:00,SAT-55784,338.875117332018,47.92640789645186,1506.0178207146685,6.464937500911857,-226429.4579404479,10.5,10499773570.542059,47.655,-122.3035,60.0,12.65
2026-01-20T23:12:40+00:00,SAT-55784,338.7106412928642,47.83956500091194,1512.4655183822445,6.470030212059973,-226607.82622700173,10.5,10499773392.173773,47.655,-122.3035,60.0,12.666666666666666
2026-01-20T23:12:41+00:00,SAT-55784,338.5478733357619,47.75300475873411,1518.9182951804057,6.475050789524684,-226783.66808683754,10.5,10499773216.331913,47.655,-122.3035,60.0,12.683333333333334
2026-01-20T23:12:42+00:00,SAT-55784,338.3867869915346,47.666727435116115,1525.3760791678249,6.480000412658422,-226957.02482586613,10.5,10499773042.975174,47.655,-122.3035,60.0,12.7
2026-01-20T23:12:43+00:00,SAT-55784,338.227356288011,47.58073320488095,1531.8387995793828,6.484880161559823,-227127.9342737106,10.5,10499772872.065727,47.655,-122.3035,60.0,12.716666666666667
2026-01-20T23:12:44+00:00,SAT-55784,338.0695557415418,47.49502215751294,1538.3063867271787,6.489691129057161,-227296.4347058397,10.5,10499772703.565294,47.655,-122.3035,60.0,12.733333333333333
2026-01-20T23:12:45+00:00,SAT-55784,337.9133603462364,47.409594300457805,1544.7787720132249,6.494434381481142,-227462.5634696654,10.5,10499772537.436531,47.655,-122.3035,60.0,12.75
2026-01-20T23:12:46+00:00,SAT-55784,337.75874556421866,47.32444956285873,1551.255887903022,6.499110965513685,-227626.35722441587,10.5,10499772373.642776,47.655,-122.3035,60.0,12.766666666666667
2026-01-20T23:12:47+00:00,SAT-55784,337.605687316002,47.23958779903916,1557.7376679059612,6.503721907679944,-227787.8519233443,10.5,10499772212.148077,47.655,-122.3035,60.0,12.783333333333333
2026-01-20T23:12:48+00:00,SAT-55784,337.4541619710115,47.15500879189302,1564.2240465552206,6.508268210529306,-227947.08267997092,10.5,10499772052.91732,47.655,-122.3035,60.0,12.8
2026-01-20T23:12:49+00:00,SAT-55784,337.30414633847073,47.07071225616324,1570.714959383855,6.512750878818349,-228104.0846851213,10.5,10499771895.915316,47.655,-122.3035,60.0,12.816666666666666
2026-01-20T23:12:50+00:00,SAT-55784,337.15561765779444,46.98669784130522,1577.2103429269969,6.517170866837177,-228258.89136207144,10.5,10499771741.108639,47.655,-122.3035,60.0,12.833333333333334
2026-01-20T23:12:51+00:00,SAT-55784,337.0085535904642,46.90296513488053,1583.7101346715224,6.521529131682539,-228411.536232398,10.5,10499771588.463768,47.655,-122.3035,60.0,12.85
2026-01-20T23:12:52+00:00,SAT-55784,336.8629322107726,46.81951366519024,1590.2142730588537,6.5258266084798215,-228562.05204814769,10.5,10499771437.947952,47.655,-122.3035,60.0,12.866666666666667
2026-01-20T23:12:53+00:00,SAT-55784,336.71873199747,46.73634290407091,1596.7226974630441,6.530064214116189,-228710.47092258732,10.5,10499771289.529078,47.655,-122.3035,60.0,12.883333333333333
2026-01-20T23:12:54+00:00,SAT-55784,336.57593182535754,46.65345226959442,1603.2353481725895,6.5342428436527955,-228856.8242045447,10.5,10499771143.175795,47.655,-122.3035,60.0,12.9
2026-01-20T23:12:55+00:00,SAT-55784,336.4345109572422,46.57084112867427,1609.7521663686591,6.538363402847552,-229001.14361749316,10.5,10499770998.856382,47.655,-122.3035,60.0,12.916666666666666
2026-01-20T23:12:56+00:00,SAT-55784,336.2944490353494,46.488508799185546,1616.2730941357656,6.542426720179743,-229143.45817828178,10.5,10499770856.541822,47.655,-122.3035,60.0,12.933333333333334
2026-01-20T23:12:57+00:00,SAT-55784,336.1557260747018,46.406454553123716,1622.7980743846917,6.546433691812597,-229283.79927433757,10.5,10499770716.200726,47.655,-122.3035,60.0,12.95
2026-01-20T23:12:58+00:00,SAT-55784,336.0183224537807,46.32467761778741,1629.3270509199929,6.550385103421096,-229422.19442332172,10.5,10499770577.805576,47.655,-122.3035,60.0,12.966666666666667
2026-01-20T23:12:59+00:00,SAT-55784,335.8822189088676,46.2431771792047,1635.8599683298048,6.554281837138302,-229558.67452126555,10.5,10499770441.32548,47.655,-122.3035,60.0,12.983333333333333
2026-01-20T23:13:00+00:00,SAT-55784,335.74739652452155,46.16195238278517,1642.396772082044,6.558124637427909,-229693.2656424367,10.5,10499770306.734358,47.655,-122.3035,60.0,13.0
2026-01-20T23:13:01+00:00,SAT-55784,335.6138367287455,46.081002336923106,1648.9374083871055,6.561914334278867,-229825.996856559,10.5,10499770174.003143,47.655,-122.3035,60.0,13.016666666666667
2026-01-20T23:13:02+00:00,SAT-55784,335.4815212839949,46.00032611365688,1655.4818242831595,6.565651693244973,-229956.89497656483,10.5,10499770043.105024,47.655,-122.3035,60.0,13.033333333333333
2026-01-20T23:13:03+00:00,SAT-55784,335.3504322812595,45.91992275117903,1662.0299675718893,6.569337488368826,-230085.98711270007,10.5,10499769914.012888,47.655,-122.3035,60.0,13.05
2026-01-20T23:13:04+00:00,SAT-55784,335.22055213289224,45.83979125533545,1668.5817868269557,6.572972440563465,-230213.29851438885,10.5,10499769786.701485,47.655,-122.3035,60.0,13.066666666666666
2026-01-20T23:13:05+00:00,SAT-55784,335.09186356671455,45.759930601855224,1675.137231341011,6.576557296350623,-230338.8553279801,10.5,10499769661.144672,47.655,-122.3035,60.0,13.083333333333334
2026-01-20T23:13:06+00:00,SAT-55784,334.96434961883364,45.68033973750912,1681.6962511512381,6.5800928119661455,-230462.6840400519,10.5,10499769537.31596,47.655,-122.3035,60.0,13.1
2026-01-20T23:13:07+00:00,SAT-55784,334.8379936269611,45.60101758141007,1688.258797049039,6.583579640295825,-230584.8075174265,10.5,10499769415.192482,47.655,-122.3035,60.0,13.116666666666667
2026-01-20T23:13:08+00:00,SAT-55784,334.7127792257717,45.52196302768871,1694.8248204769607,6.5870185177211384,-230705.25155129808,10.5,10499769294.74845,47.655,-122.3035,60.0,13.133333333333333
2026-01-20T23:13:09+00:00,SAT-55784,334.5886903392215,45.44317494573903,1701.394273611968,6.590410122343462,-230824.03989164514,10.5,10499769175.960108,47.655,-122.3035,60.0,13.15
2026-01-20T23:13:10+00:00,SAT-55784,334.46571117536877,45.3646521822264,1707.9671093073184,6.593755121273151,-230941.19590349428,10.5,10499769058.804096,47.655,-122.3035,60.0,13.166666666666666
2026-01-20T23:13:11+00:00,SAT-55784,334.34382622063885,45.28639356240264,1714.5432810816014,6.597054140240297,-231056.74150256015,10.5,10499768943.258497,47.655,-122.3035,60.0,13.183333333333334
2026-01-20T23:13:12+00:00,SAT-55784,334.22302023456757,45.20839789179313,1721.122743077468,6.6003079127445154,-231170.7023791019,10.5,10499768829.29762,47.655,-122.3035,60.0,13.2
2026-01-20T23:13:13+00:00,SAT-55784,334.1032782423409,45.13066395595453,1727.7054501691118,6.6035169967221705,-231283.0980744112,10.5,10499768716.901926,47.655,-122.3035,60.0,13.216666666666667
2026-01-20T23:13:14+00:00,SAT-55784,333.9845855320663,45.053190523708814,1734.2913577871761,6.606682063505915,-231393.95210139715,10.5,10499768606.0479,47.655,-122.3035,60.0,13.233333333333333
2026-01-20T23:13:15+00:00,SAT-55784,333.8669276474468,44.97597634675269,1740.880422031846,6.60980368220736,-231503.28439275574,10.5,10499768496.715607,47.655,-122.3035,60.0,13.25
2026-01-20T23:13:16+00:00,SAT-55784,333.7502903840228,44.89902016189615,1747.4725995709007,6.6128825026652684,-231611.11770858933,10.5,10499768388.882292,47.655,-122.3035,60.0,13.266666666666667
2026-01-20T23:13:17+00:00,SAT-55784,333.63465978270176,44.82232069098746,1754.0678477202255,6.6159191180798524,-231717.47282527853,10.5,10499768282.527174,47.655,-122.3035,60.0,13.283333333333333
2026-01-20T23:13:18+00:00,SAT-55784,333.5200221254886,44.74587664251444,1760.6661243873239,6.618914066849735,-231822.36859982053,10.5,10499768177.631401,47.655,-122.3035,60.0,13.3
2026-01-20T23:13:19+00:00,SAT-55784,333.4063639313737,44.6696867130988,1767.267388016662,6.621867961365503,-231925.82648072415,10.5,10499768074.17352,47.655,-122.3035,60.0,13.316666666666666
2026-01-20T23:13:20+00:00,SAT-55784,333.2936719502235,44.59374958743407,1773.8715976634637,6.6247813592796865,-232027.86599933982,10.5,10499767972.134,47.655,-122.3035,60.0,13.333333333333334
2026-01-20T23:13:21+00:00,SAT-55784,333.18193315888317,44.51806393971819,1780.4787129391186,6.627654796881537,-232128.50593878562,10.5,10499767871.49406,47.655,-122.3035,60.0,13.35
2026-01-20T23:13:22+00:00,SAT-55784,333.0711347567794,44.442628434659426,1787.0886939898753,6.630488829586146,-232227.7657520475,10.5,10499767772.234247,47.655,-122.3035,60.0,13.366666666666667
2026-01-20T23:13:23+00:00,SAT-55784,332.96126416107455,44.36744172795388,1793.7015015159159,6.633284014537311,-232325.66495265788,10.5,10499767674.335047,47.655,-122.3035,60.0,13.383333333333333
2026-01-20T23:13:24+00:00,SAT-55784,332.852309002142,44.29250246696003,1800.317096773081,6.636040820290533,-232422.2199514125,10.5,10499767577.780048,47.655,-122.3035,60.0,13.4
2026-01-20T23:13:25+00:00,SAT-55784,332.7442571205065,44.21780929239123,1806.9354414845175,6.638759814461735,-232517.45062862194,10.5,10499767482.549372,47.655,-122.3035,60.0,13.416666666666666
2026-01-20T23:13:26+00:00,SAT-55784,332.63709656109023,44.1433608377705,1813.556497939474,6.6414414932873695,-232611.37436458585,10.5,10499767388.625635,47.655,-122.3035,60.0,13.433333333333334
2026-01-20T23:13:27+00:00,SAT-55784,332.530815570088,44.06915573087,1820.1802289221125,6.644086344174591,-232704.0082303645,10.5,10499767295.99177,47.655,-122.3035,60.0,13.45
2026-01-20T23:13:28+00:00,SAT-55784,332.4254025909613,43.99519259438445,1826.8065977027027,6.646694857793321,-232795.3694112941,10.5,10499767204.630589,47.655,-122.3035,60.0,13.466666666666667
2026-01-20T23:13:29+00:00,SAT-55784,332.3208462604142,43.921470046428745,1833.4355680408753,6.649267544564428,-232885.4757844725,10.5,10499767114.524216,47.655,-122.3035,60.0,13.483333333333333
2026-01-20T23:13:30+00:00,SAT-55784,332.2171354041726,43.84798670083734,1840.067104205321,6.651804827490661,-232974.34216524535,10.5,10499767025.657835,47.655,-122.3035,60.0,13.5
2026-01-20T23:13:31+00:00,SAT-55784,332.11425903439266,43.77474116866096,1846.7011708866048,6.654307206419629,-233061.9860603902,10.5,10499766938.013939,47.655,-122.3035,60.0,13.516666666666667
2026-01-20T23:13:32+00:00,SAT-55784,332.01220634481314,43.70173205776023,1853.3377332738075,6.656775140189421,-233148.42354035776,10.5,10499766851.57646,47.655,-122.3035,60.0,13.533333333333333
2026-01-20T23:13:33+00:00,SAT-55784,331.9109667077106,43.628957973715174,1859.976757013623,6.659209084371027,-233233.6705611713,10.5,10499766766.32944,47.655,-122.3035,60.0,13.55
2026-01-20T23:13:34+00:00,SAT-55784,331.8105296702907,43.55641752031244,1866.6182082071023,6.661609453791978,-233317.74165184557,10.5,10499766682.258348,47.655,-122.3035,60.0,13.566666666666666
2026-01-20T23:13:35+00:00,SAT-55784,331.7108849517869,43.48410930040032,1873.2620533690176,6.663976701043318,-233400.6526640335,10.5,10499766599.347336,47.655,-122.3035,60.0,13.583333333333334
2026-01-20T23:13:36+00:00,SAT-55784,331.6120224394802,43.412031915854286,1879.9082594655247,6.666311266094717,-233482.41900733384,10.5,10499766517.580992,47.655,-122.3035,60.0,13.6
2026-01-20T23:13:37+00:00,SAT-55784,331.51393218555074,43.3401839680902,1886.5567939015764,6.668613552849258,-233563.05482814115,10.5,10499766436.945171,47.655,-122.3035,60.0,13.616666666666667
2026-01-20T23:13:38+00:00,SAT-55784,331.41660440423493,43.268564058826996,1893.2076244849516,6.670883975784813,-233642.57464322378,10.5,10499766357.425356,47.655,-122.3035,60.0,13.633333333333333
2026-01-20T23:13:39+00:00,SAT-55784,331.3200294684992,43.19717079029663,1899.8607194368008,6.673122953761628,-233720.9931228393,10.5,10499766279.006878,47.655,-122.3035,60.0,13.65
2026-01-20T23:13:40+00:00,SAT-55784,331.2241979068379,43.12600276551663,1906.516047396019,6.675330887416719,-233798.32429899072,10.5,10499766201.675701,47.655,-122.3035,60.0,13.666666666666666
2026-01-20T23:13:41+00:00,SAT-55784,331.12910040042067,43.05505858879959,1913.1735774010695,6.67750815966522,-233874.58158298567,10.5,10499766125.418417,47.655,-122.3035,60.0,13.683333333333334
2026-01-20T23:13:42+00:00,SAT-55784,331.0347277803401,42.984336866229725,1919.8332788723087,6.67965515804554,-233949.77854805862,10.5,10499766050.221453,47.655,-122.3035,60.0,13.7
2026-01-20T23:13:43+00:00,SAT-55784,330.9410710245742,42.91383620589056,1926.4951216165996,6.6817722755398865,-234023.92895810877,10.5,10499765976.071041,47.655,-122.3035,60.0,13.716666666666667
2026-01-20T23:13:44+00:00,SAT-55784,330.8481212550769,42.843555218057205,1933.1590758327382,6.683859898768063,-234097.046354197,10.5,10499765902.953646,47.655,-122.3035,60.0,13.733333333333333
2026-01-20T23:13:45+00:00,SAT-55784,330.75586973502743,42.773492515516665,1939.8251121051094,6.685918339492911,-234169.14165557685,10.5,10499765830.858345,47.655,-122.3035,60.0,13.75
2026-01-20T23:13:46+00:00,SAT-55784,330.6643078669882,42.70364671461475,1946.4932013290304,6.687948029491849,-234240.22998491983,10.5,10499765759.770016,47.655,-122.3035,60.0,13.766666666666667
2026-01-20T23:13:47+00:00,SAT-55784,330.5734271887499,42.63401643416657,1953.1633148304436,6.689949297546728,-234310.32285755718,10.5,10499765689.677143,47.655,-122.3035,60.0,13.783333333333333
2026-01-20T23:13:48+00:00,SAT-55784,330.48321937196243,42.56460029678361,1959.8354242631967,6.691922489200998,-234379.4323758821,10.5,10499765620.567625,47.655,-122.3035,60.0,13.8
2026-01-20T23:13:49+00:00,SAT-55784,330.3936762193175,42.49539692888993,1966.50950162576,6.693867950488793,-234447.57065947377,10.5,10499765552.42934,47.655,-122.3035,60.0,13.816666666666666
2026-01-20T23:13:50+00:00,SAT-55784,330.3047896620511,42.42640496089371,1973.185519261714,6.695786038611105,-234514.75021902187,10.5,10499765485.24978,47.655,-122.3035,60.0,13.833333333333334
2026-01-20T23:13:51+00:00,SAT-55784,330.21655175730655,42.35762302725007,1979.8634498708889,6.69767707160272,-234580.98219344983,10.5,10499765419.017807,47.655,-122.3035,60.0,13.85
2026-01-20T23:13:52+00:00,SAT-55784,330.1289546862186,42.28904976703372,1986.5432664703008,6.699541367080916,-234646.27770705833,10.5,10499765353.722294,47.655,-122.3035,60.0,13.866666666666667
2026-01-20T23:13:53+00:00,SAT-55784,330.04199075149626,42.22068382410507,1993.224942393736,6.701379295489117,-234710.64973434297,10.5,10499765289.350266,47.655,-122.3035,60.0,13.883333333333333
2026-01-20T23:13:54+00:00,SAT-55784,329.9556523745506,42.15252384668715,1999.9084513444373,6.703191141291393,-234774.1082384388,10.5,10499765225.891762,47.655,-122.3035,60.0,13.9
2026-01-20T23:13:55+00:00,SAT-55784,329.86993209417716,42.08456848841791,2006.5937673093517,6.704977218759416,-234836.6642264692,10.5,10499765163.335773,47.655,-122.3035,60.0,13.916666666666666
2026-01-20T23:13:56+00:00,SAT-55784,329.78482256402066,42.01681640815385,2013.280864588861,6.706737836764511,-234898.32851641442,10.5,10499765101.671484,47.655,-122.3035,60.0,13.933333333333334
2026-01-20T23:13:57+00:00,SAT-55784,329.7003165504325,41.949266270149195,2019.9697177913943,6.708473311247851,-234959.11217387076,10.5,10499765040.887827,47.655,-122.3035,60.0,13.95
2026-01-20T23:13:58+00:00,SAT-55784,329.61640693030256,41.88191674408798,2026.6603018404787,6.710183935689327,-235019.02547774545,10.5,10499764980.974522,47.655,-122.3035,60.0,13.966666666666667
2026-01-20T23:13:59+00:00,SAT-55784,329.53308668919163,41.81476650542569,2033.3525919523397,6.7118700050820514,-235078.07875994514,10.5,10499764921.92124,47.655,-122.3035,60.0,13.983333333333333
2026-01-20T23:14:00+00:00,SAT-55784,329.4503489193118,41.74781423546332,2040.046563637408,6.71353181509101,-235136.28237590822,10.5,10499764863.717625,47.655,-122.3035,60.0,14.0
2026-01-20T23:14:01+00:00,SAT-55784,329.36818681748844,41.68105862143296,2046.7421927009923,6.7151696343347425,-235193.64573379228,10.5,10499764806.354267,47.655,-122.3035,60.0,14.016666666666667
2026-01-20T23:14:02+00:00,SAT-55784,329.2865936835329,41.6144983568523,2053.439455216302,6.716783755179886,-235250.17907351357,10.5,10499764749.820927,47.655,-122.3035,60.0,14.033333333333333
2026-01-20T23:14:03+00:00,SAT-55784,329.20556291804024,41.54813214136042,2060.138327548135,6.718374478024469,-235305.89291628185,10.5,10499764694.107084,47.655,-122.3035,60.0,14.05
2026-01-20T23:14:04+00:00,SAT-55784,329.12508802047535,41.48195868069402,2066.8387863608846,6.7199420229335,-235360.7949697045,10.5,10499764639.20503,47.655,-122.3035,60.0,14.066666666666666
2026-01-20T23:14:05+00:00,SAT-55784,329.0451625881361,41.415976687588,2073.540808538424,6.721486693440979,-235414.8958648262,10.5,10499764585.104136,47.655,-122.3035,60.0,14.083333333333334
2026-01-20T23:14:06+00:00,SAT-55784,328.9657803135326,41.350184880958444,2080.244371267349,6.723008758979365,-235468.2050383113,10.5,10499764531.794962,47.655,-122.3035,60.0,14.1
2026-01-20T23:14:07+00:00,SAT-55784,328.886934982936,41.284581986320234,2086.949452002971,6.724508462741216,-235520.73100779194,10.5,10499764479.268991,47.655,-122.3035,60.0,14.116666666666667
2026-01-20T23:14:08+00:00,SAT-55784,328.80862047497396,41.219166736087324,2093.656028443145,6.7259860607506265,-235572.48274031488,10.5,10499764427.51726,47.655,-122.3035,60.0,14.133333333333333
2026-01-20T23:14:09+00:00,SAT-55784,328.73083075877264,41.1539378694866,2100.364078541067,6.727441816923838,-235623.46947934327,10.5,10499764376.530521,47.655,-122.3035,60.0,14.15
2026-01-20T23:14:10+00:00,SAT-55784,328.6535598922574,41.08889413251271,2107.0735805131453,6.728875985340492,-235673.7001238209,10.5,10499764326.299875,47.655,-122.3035,60.0,14.166666666666666
2026-01-20T23:14:11+00:00,SAT-55784,328.57680202060885,41.02403427806159,2113.7845128291915,6.730288782082423,-235723.1822418476,10.5,10499764276.817759,47.655,-122.3035,60.0,14.183333333333334
2026-01-20T23:14:12+00:00,SAT-55784,328.50055137508554,40.95935706633056,2120.4968541745216,6.7316804648788,-235771.92486018914,10.5,10499764228.07514,47.655,-122.3035,60.0,14.2
2026-01-20T23:14:13+00:00,SAT-55784,328.42480227101584,40.894861264435455,2127.2105834914946,6.73305127740957,-235819.93651354793,10.5,10499764180.063486,47.655,-122.3035,60.0,14.216666666666667
2026-01-20T23:14:14+00:00,SAT-55784,328.3495491064692,40.830545646554114,2133.9256799654972,6.734401464348497,-235867.22577143426,10.5,10499764132.77423,47.655,-122.3035,60.0,14.233333333333333
2026-01-20T23:14:15+00:00,SAT-55784,328.2747863607053,40.76640899394918,2140.642123025941,6.735731210104397,-235913.79909262483,10.5,10499764086.200907,47.655,-122.3035,60.0,14.25
2026-01-20T23:14:16+00:00,SAT-55784,328.2005085933454,40.7024500955594,2147.3598922861515,6.737040770301649,-235959.66543016673,10.5,10499764040.33457,47.655,-122.3035,60.0,14.266666666666667
2026-01-20T23:14:17+00:00,SAT-55784,328.12671044221946,40.63866774730756,2154.078967614399,6.7383303971379584,-236004.8336170904,10.5,10499763995.166384,47.655,-122.3035,60.0,14.283333333333333
2026-01-20T23:14:18+00:00,SAT-55784,328.05338662202837,40.57506075214288,2160.7993291304783,6.7396002583451615,-236049.30952807426,10.5,10499763950.690472,47.655,-122.3035,60.0,14.3
2026-01-20T23:14:19+00:00,SAT-55784,327.9805319237397,40.51162792087242,2167.5209571214677,6.740850594218718,-236093.10157928168,10.5,10499763906.89842,47.655,-122.3035,60.0,14.316666666666666
2026-01-20T23:14:20+00:00,SAT-55784,327.9081412125976,40.44836807143578,2174.2438321141017,6.742081623802864,-236136.21744256848,10.5,10499763863.782557,47.655,-122.3035,60.0,14.333333333333334
2026-01-20T23:14:21+00:00,SAT-55784,327.8362094269709,40.38528002911947,2180.9679348535747,6.743293557500844,-236178.66448714616,10.5,10499763821.335512,47.655,-122.3035,60.0,14.35
2026-01-20T23:14:22+00:00,SAT-55784,327.76473157716117,40.32236262662774,2187.693246294922,6.744486591295921,-236220.44957717773,10.5,10499763779.550423,47.655,-122.3035,60.0,14.366666666666667
2026-01-20T23:14:23+00:00,SAT-55784,327.6937027442706,40.25961470420853,2194.4197475886413,6.745660923360007,-236261.57965348175,10.5,10499763738.420347,47.655,-122.3035,60.0,14.383333333333333
2026-01-20T23:14:24+00:00,SAT-55784,327.6231180789309,40.1970351096228,2201.1474200828725,6.746816795289346,-236302.0631777806,10.5,10499763697.936823,47.655,-122.3035,60.0,14.4
2026-01-20T23:14:25+00:00,SAT-55784,327.5529727996881,40.134622697712445,2207.8762453667073,6.7479543535658335,-236341.9052804899,10.5,10499763658.094719,47.655,-122.3035,60.0,14.416666666666666
2026-01-20T23:14:26+00:00,SAT-55784,327.48326219269893,40.072376331288034,2214.606205175331,6.74907381645309,-236381.11360612497,10.5,10499763618.886395,47.655,-122.3035,60.0,14.433333333333334
2026-01-20T23:14:27+00:00,SAT-55784,327.413981609879,40.0102948804266,2221.337281461607,6.7501753765956325,-236419.69490191157,10.5,10499763580.305098,47.655,-122.3035,60.0,14.45
