satellites_20260120_184412/SAT-65734.csv

timestamp,satellite,azimuth_deg,elevation_deg,distance_km,relative_velocity_kms,doppler_shift_hz,tx_freq_ghz,rx_freq_hz,ue_lat,ue_lon,ue_alt_m,time_minutes
2026-01-20T23:02:15+00:00,SAT-65734,168.45879389844413,40.47045410033483,252003.18395804326,-116.84419505444794,4092377.961261798,10.5,10504092377.961262,47.655,-122.3035,60.0,2.25
2026-01-20T23:02:16+00:00,SAT-65734,166.8647409042368,41.39220663106134,251886.65134750895,-113.72600048155422,3983165.597369095,10.5,10503983165.597368,47.655,-122.3035,60.0,2.2666666666666666
2026-01-20T23:02:17+00:00,SAT-65734,165.2246645900114,42.29183619631624,251773.228616362,-110.52631622250271,3871099.119966115,10.5,10503871099.119967,47.655,-122.3035,60.0,2.283333333333333
2026-01-20T23:02:18+00:00,SAT-65734,163.53696001058435,43.16790849369145,251662.99703698274,-107.24729389104385,3756253.887667716,10.5,10503756253.887669,47.655,-122.3035,60.0,2.3
2026-01-20T23:02:19+00:00,SAT-65734,161.8001198545666,44.01892122047818,251556.03573587543,-103.89115072935527,3638707.5576738836,10.5,10503638707.557674,47.655,-122.3035,60.0,2.316666666666667
2026-01-20T23:02:20+00:00,SAT-65734,160.01276611777556,44.84330553570462,251452.42162821468,-100.46016841222092,3518540.043887027,10.5,10503518540.043886,47.655,-122.3035,60.0,2.3333333333333335
2026-01-20T23:02:21+00:00,SAT-65734,158.17368577526753,45.63942879886577,251352.22935358487,-96.9566912145778,3395833.4527317127,10.5,10503395833.452732,47.655,-122.3035,60.0,2.35
2026-01-20T23:02:22+00:00,SAT-65734,156.28187034572167,46.40559880168102,251255.53121354687,-93.38312517907615,3270672.0539991017,10.5,10503270672.053999,47.655,-122.3035,60.0,2.3666666666666667
2026-01-20T23:02:23+00:00,SAT-65734,154.33655900280806,47.1400697265285,251162.39711003494,-89.74193556723952,3143142.1915757963,10.5,10503143142.191576,47.655,-122.3035,60.0,2.3833333333333333
2026-01-20T23:02:24+00:00,SAT-65734,152.33728467936268,47.841050037334234,251072.89448629587,-86.03564542418711,3013332.2331743403,10.5,10503013332.233175,47.655,-122.3035,60.0,2.4
2026-01-20T23:02:25+00:00,SAT-65734,150.28392225049316,48.50671251107815,250987.08826925952,-82.26683344785121,2881332.495704204,10.5,10502881332.495705,47.655,-122.3035,60.0,2.4166666666666665
2026-01-20T23:02:26+00:00,SAT-65734,148.17673756723838,49.13520656628498,250905.04081403418,-78.43813268347847,2747235.199547695,10.5,10502747235.199547,47.655,-122.3035,60.0,2.433333333333333
2026-01-20T23:02:27+00:00,SAT-65734,146.0164357037188,49.72467299908398,250826.81184970454,-74.55222780321498,2611134.3732795212,10.5,10502611134.37328,47.655,-122.3035,60.0,2.45
2026-01-20T23:02:28+00:00,SAT-65734,143.80420646268092,50.27326113981665,250752.45842784212,-70.61185344441448,2473125.795467316,10.5,10502473125.795467,47.655,-122.3035,60.0,2.466666666666667
2026-01-20T23:02:29+00:00,SAT-65734,141.54176478676715,50.779148359079564,250682.03487267354,-66.61979168467265,2333306.9062366565,10.5,10502333306.906237,47.655,-122.3035,60.0,2.4833333333333334
2026-01-20T23:02:30+00:00,SAT-65734,139.2313835135668,51.240561712519145,250615.5927337667,-62.5788704487003,2191776.7514730245,10.5,10502191776.751472,47.655,-122.3035,60.0,2.5
2026-01-20T23:02:31+00:00,SAT-65734,136.87591572808802,51.65580138473079,250553.18074030586,-58.49196062173269,2048635.8817211913,10.5,10502048635.881721,47.655,-122.3035,60.0,2.5166666666666666
2026-01-20T23:02:32+00:00,SAT-65734,134.47880408494672,52.02326542493181,250494.8447582458,-54.361973796936915,1903986.2732898958,10.5,10501903986.27329,47.655,-122.3035,60.0,2.533333333333333
2026-01-20T23:02:33+00:00,SAT-65734,132.04407468304385,52.341475131041676,250440.62774971232,-50.19186035520309,1757931.2609980083,10.5,10501757931.260998,47.655,-122.3035,60.0,2.55
2026-01-20T23:02:34+00:00,SAT-65734,129.57631359015303,52.60910030034107,250390.56973431804,-45.984606279313866,1610575.426593272,10.5,10501610575.426594,47.655,-122.3035,60.0,2.566666666666667
2026-01-20T23:02:35+00:00,SAT-65734,127.08062495386459,52.824983451304696,250344.7077536555,-41.74323137366275,1462024.5363993077,10.5,10501462024.5364,47.655,-122.3035,60.0,2.5833333333333335
2026-01-20T23:02:36+00:00,SAT-65734,124.5625705010089,52.98816207839619,250303.07583756547,-37.47078599518946,1312385.4268191408,10.5,10501312385.426819,47.655,-122.3035,60.0,2.6
2026-01-20T23:02:37+00:00,SAT-65734,122.02809150038804,53.09788798622541,250265.7049736663,-33.17034907982832,1161765.9352130776,10.5,10501161765.935213,47.655,-122.3035,60.0,2.6166666666666667
2026-01-20T23:02:38+00:00,SAT-65734,119.48341530996748,53.15364283104066,250232.62307885068,-28.84502509045749,1010274.7930029768,10.5,10501010274.793003,47.655,-122.3035,60.0,2.6333333333333333
2026-01-20T23:02:39+00:00,SAT-65734,116.93494988085969,53.15514912277025,250203.8549738271,-24.49794147511711,858021.5366482957,10.5,10500858021.536648,47.655,-122.3035,60.0,2.65
2026-01-20T23:02:40+00:00,SAT-65734,114.3891704308354,53.10237614619309,250179.42236019592,-20.132245859489412,705116.4093148696,10.5,10500705116.409315,47.655,-122.3035,60.0,2.6666666666666665
2026-01-20T23:02:41+00:00,SAT-65734,111.85250317168686,52.995540503000015,250159.3438003254,-15.75110347177763,551670.2706832776,10.5,10500551670.270683,47.655,-122.3035,60.0,2.683333333333333
2026-01-20T23:02:42+00:00,SAT-65734,109.33121116865117,52.83510124877024,250143.63469979624,-11.357694153007678,397794.49223696155,10.5,10500397794.492237,47.655,-122.3035,60.0,2.7
2026-01-20T23:02:43+00:00,SAT-65734,106.83128730489253,52.621749875555615,250132.30729282764,-6.95520967031009,243600.86316199435,10.5,10500243600.863161,47.655,-122.3035,60.0,2.716666666666667
2026-01-20T23:02:44+00:00,SAT-65734,104.3583586805637,52.35639564106387,250125.3706303831,-2.546850832443534,89201.48932051222,10.5,10500089201.48932,47.655,-122.3035,60.0,2.7333333333333334
2026-01-20T23:02:45+00:00,SAT-65734,101.91760595288352,52.04014695609696,250122.83057115285,1.8641752857193916,-65291.303959533274,10.5,10499934708.696041,47.655,-122.3035,60.0,2.75
2026-01-20T23:02:46+00:00,SAT-65734,99.51369996154959,51.67428968460077,250124.6897753045,6.27465827183907,-219765.074457978,10.5,10499780234.925543,47.655,-122.3035,60.0,2.7666666666666666
2026-01-20T23:02:47+00:00,SAT-65734,97.1507568630623,51.26026329678055,250130.9477011543,10.681387169414817,-374107.3608958354,10.5,10499625892.639105,47.655,-122.3035,60.0,2.783333333333333
2026-01-20T23:02:48+00:00,SAT-65734,94.83231181024644,50.799635826126966,250141.60060462457,15.081153388087074,-528205.78486639,10.5,10499471794.215134,47.655,-122.3035,60.0,2.8
2026-01-20T23:02:49+00:00,SAT-65734,92.56131017155896,50.29407852532688,250156.64154160363,19.47075354937541,-681948.1505049797,10.5,10499318051.849495,47.655,-122.3035,60.0,2.816666666666667
2026-01-20T23:02:50+00:00,SAT-65734,90.34011455348843,49.745341031424445,250176.06037314355,23.846992355477415,-835222.5449664675,10.5,10499164777.455034,47.655,-122.3035,60.0,2.8333333333333335
2026-01-20T23:02:51+00:00,SAT-65734,88.17052526963047,49.15522770993646,250199.8437735194,28.206685338697053,-987917.4347218537,10.5,10499012082.565279,47.655,-122.3035,60.0,2.85
2026-01-20T23:02:52+00:00,SAT-65734,86.05381163025122,48.52557570629301,250227.97524103054,32.54666189293895,-1139921.7717340272,10.5,10498860078.228266,47.655,-122.3035,60.0,2.8666666666666667
2026-01-20T23:02:53+00:00,SAT-65734,83.99075130731073,47.858235070855706,250260.4351118251,36.86376791804494,-1291125.0860736193,10.5,10498708874.913927,47.655,-122.3035,60.0,2.8833333333333333
2026-01-20T23:02:54+00:00,SAT-65734,81.98167519414667,47.155051195830595,250297.20057636203,41.154868671647044,-1441417.5858029558,10.5,10498558582.414198,47.655,-122.3035,60.0,2.9
2026-01-20T23:02:55+00:00,SAT-65734,80.02651536407845,46.41784965932385,250338.24569871722,45.41685142914892,-1590690.2501398604,10.5,10498409309.74986,47.655,-122.3035,60.0,2.9166666666666665
2026-01-20T23:02:56+00:00,SAT-65734,78.12485409444581,45.64842347414919,250383.54143854254,49.64662851336633,-1738834.9355684808,10.5,10498261165.064432,47.655,-122.3035,60.0,2.933333333333333
2026-01-20T23:02:57+00:00,SAT-65734,76.27597226403809,44.84852264459802,250433.05567604656,53.84113970652999,-1885744.4603178273,10.5,10498114255.539682,47.655,-122.3035,60.0,2.95
2026-01-20T23:02:58+00:00,SAT-65734,74.4788958517737,44.01984589023192,250486.75323938052,57.99735497304245,-2031312.6997242398,10.5,10497968687.300276,47.655,-122.3035,60.0,2.966666666666667
2026-01-20T23:02:59+00:00,SAT-65734,72.73243957242885,43.164034337979935,250544.5959347403,62.112277059156455,-2175434.677283118,10.5,10497824565.322718,47.655,-122.3035,60.0,2.9833333333333334
2026-01-20T23:03:00+00:00,SAT-65734,71.03524702394223,42.28266696903282,250606.54257906065,66.18294433962356,-2318006.6643506,10.5,10497681993.33565,47.655,-122.3035,60.0,3.0
2026-01-20T23:03:01+00:00,SAT-65734,69.38582697683032,41.37725759298465,250672.5490355487,70.2064330581221,-2458926.258612823,10.5,10497541073.741386,47.655,-122.3035,60.0,3.0166666666666666
2026-01-20T23:03:02+00:00,SAT-65734,67.78258567642872,40.449253136330626,250742.568251452,74.17985963355028,-2598092.464862068,10.5,10497401907.535137,47.655,-122.3035,60.0,3.033333333333333
2026-01-20T23:06:16+00:00,SAT-65734,169.12830479991007,40.070148426619326,252223.2371023131,-119.77467166819591,4195015.6481790375,10.5,10504195015.648178,47.655,-122.3035,60.0,6.266666666666667
2026-01-20T23:06:17+00:00,SAT-65734,167.55326824384787,41.00088194933853,252103.78182976934,-116.72151657076769,4088081.2418338447,10.5,10504088081.241835,47.655,-122.3035,60.0,6.283333333333333
2026-01-20T23:06:18+00:00,SAT-65734,165.93290289348437,41.91008505103903,251987.3715705761,-113.58480530195006,3978220.344924339,10.5,10503978220.344925,47.655,-122.3035,60.0,6.3
2026-01-20T23:06:19+00:00,SAT-65734,164.26557005111823,42.796352054548265,251874.08965808828,-110.36663730082255,3865506.4886877066,10.5,10503865506.488688,47.655,-122.3035,60.0,6.316666666666666
2026-01-20T23:06:20+00:00,SAT-65734,162.54971636285615,43.658208921673065,251764.01733182027,-107.06917939090926,3750015.5644494137,10.5,10503750015.56445,47.655,-122.3035,60.0,6.333333333333333
2026-01-20T23:06:21+00:00,SAT-65734,160.78390380304117,44.494114235716964,251657.23367024105,-103.69466397667321,3631825.760456818,10.5,10503631825.760456,47.655,-122.3035,60.0,6.35
2026-01-20T23:06:22+00:00,SAT-65734,158.96684366942657,45.302461365246785,251553.81552536832,-100.24538859904801,3511017.546312003,10.5,10503511017.546312,47.655,-122.3035,60.0,6.366666666666666
2026-01-20T23:06:23+00:00,SAT-65734,157.09743452329243,46.08158203712225,251453.83745780555,-96.72371351279868,3387673.588120707,10.5,10503387673.588121,47.655,-122.3035,60.0,6.383333333333334
2026-01-20T23:06:24+00:00,SAT-65734,155.17480387557507,46.829751528553146,251357.37167419543,-93.13206017363702,3261878.6955047036,10.5,10503261878.695505,47.655,-122.3035,60.0,6.4
2026-01-20T23:06:25+00:00,SAT-65734,153.19835313662907,47.54519570918489,251264.48796618226,-89.47290928190861,3133719.7530834493,10.5,10503133719.753084,47.655,-122.3035,60.0,6.416666666666667
2026-01-20T23:06:26+00:00,SAT-65734,151.16780508125825,48.22610013987135,251175.2536513251,-85.74879991941637,3003285.690241987,10.5,10503003285.690243,47.655,-122.3035,60.0,6.433333333333334
2026-01-20T23:06:27+00:00,SAT-65734,149.0832527130949,48.87062141693317,251089.73351487218,-81.96232670888661,2870667.3816434345,10.5,10502870667.381643,47.655,-122.3035,60.0,6.45
2026-01-20T23:06:28+00:00,SAT-65734,146.94520811345032,49.4769008783068,251007.98975436782,-78.11613809451111,2735957.5870062974,10.5,10502735957.587006,47.655,-122.3035,60.0,6.466666666666667
2026-01-20T23:06:29+00:00,SAT-65734,144.75464941884226,50.043080741528286,250930.0819259749,-74.21293432783574,2599250.8805617625,10.5,10502599250.880562,47.655,-122.3035,60.0,6.483333333333333
2026-01-20T23:06:30+00:00,SAT-65734,142.5130637413717,50.56732263885369,250856.06689280528,-70.25546579949832,2460643.5926241097,10.5,10502460643.592625,47.655,-122.3035,60.0,6.5
2026-01-20T23:06:31+00:00,SAT-65734,140.2224835289987,51.047828403303996,250785.99877491457,-66.24653027835144,2320233.712893105,10.5,10502320233.712893,47.655,-122.3035,60.0,6.516666666666667
2026-01-20T23:06:32+00:00,SAT-65734,137.88551371487756,51.482862813444406,250719.92890205028,-62.18897056177931,2178120.808158165,10.5,10502178120.808159,47.655,-122.3035,60.0,6.533333333333333
2026-01-20T23:06:33+00:00,SAT-65734,135.5053469325672,51.87077786723181,250657.90576874334,-58.08567320119643,2034405.9776599267,10.5,10502034405.97766,47.655,-122.3035,60.0,6.55
2026-01-20T23:06:34+00:00,SAT-65734,133.0857642076298,52.210038005637934,250599.9749906707,-53.93956486586136,1889191.725735623,10.5,10501889191.725735,47.655,-122.3035,60.0,6.566666666666666
2026-01-20T23:06:35+00:00,SAT-65734,130.63111907384027,52.49924554142827,250546.17926464448,-49.753610786829576,1742581.9073197315,10.5,10501742581.90732,47.655,-122.3035,60.0,6.583333333333333
2026-01-20T23:06:36+00:00,SAT-65734,128.14630356346987,52.737165457496445,250496.5583301531,-45.53081174712157,1594681.6225269297,10.5,10501594681.622526,47.655,-122.3035,60.0,6.6
2026-01-20T23:06:37+00:00,SAT-65734,125.63669555186803,52.922748637017065,250451.14893390393,-41.27420212157208,1445597.1479993232,10.5,10501445597.147999,47.655,-122.3035,60.0,6.616666666666666
2026-01-20T23:06:38+00:00,SAT-65734,123.10808791263041,53.05515257586265,250409.98479632137,-36.986846699261186,1295435.8256145404,10.5,10501295435.825615,47.655,-122.3035,60.0,6.633333333333334
2026-01-20T23:06:39+00:00,SAT-65734,120.56660123163384,53.133758655074594,250373.0965812133,-32.67183845271412,1144305.9843536767,10.5,10501144305.984354,47.655,-122.3035,60.0,6.65
2026-01-20T23:06:40+00:00,SAT-65734,118.0185828859519,53.15818516868167,250340.51186766312,-28.3322956454884,992316.8389967575,10.5,10500992316.838997,47.655,-122.3035,60.0,6.666666666666667
2026-01-20T23:06:41+00:00,SAT-65734,115.47049640661096,53.12829546877627,250312.25512480602,-23.971359335505596,839578.4026788584,10.5,10500839578.40268,47.655,-122.3035,60.0,6.683333333333334
2026-01-20T23:06:42+00:00,SAT-65734,112.9288057449651,53.0442008210666,250288.34768909542,-19.592190495356167,686201.386030998,10.5,10500686201.38603,47.655,-122.3035,60.0,6.7
2026-01-20T23:06:43+00:00,SAT-65734,110.3998595264306,52.90625782697338,250268.80774444138,-15.197967196257759,532297.0985504461,10.5,10500532297.09855,47.655,-122.3035,60.0,6.716666666666667
2026-01-20T23:06:44+00:00,SAT-65734,107.88978035289759,52.71506054772308,250253.65030515764,-10.791881930834798,377977.3548331405,10.5,10500377977.354834,47.655,-122.3035,60.0,6.733333333333333
2026-01-20T23:06:45+00:00,SAT-65734,105.40436378882988,52.47142772886377,250242.88720157862,-6.377138749621286,223354.37428190242,10.5,10500223354.374283,47.655,-122.3035,60.0,6.75
2026-01-20T23:06:46+00:00,SAT-65734,102.94899093263922,52.176385753450035,250236.52706853233,-1.9569503614596737,68540.67955013923,10.5,10500068540.67955,47.655,-122.3035,60.0,6.766666666666667
2026-01-20T23:06:47+00:00,SAT-65734,100.52855745439447,51.83114812967112,250234.57533670517,2.4654646551863952,-86351.00112977876,10.5,10499913648.99887,47.655,-122.3035,60.0,6.783333333333333
2026-01-20T23:06:48+00:00,SAT-65734,98.14742077545688,51.437092423963854,250237.03422678795,6.886884748840815,-241207.83539800913,10.5,10499758792.164602,47.655,-122.3035,60.0,6.8
2026-01-20T23:06:49+00:00,SAT-65734,95.80936591599026,50.99573559325273,250243.90274651078,11.304088279849317,-395916.9878063371,10.5,10499604083.012194,47.655,-122.3035,60.0,6.816666666666666
2026-01-20T23:06:50+00:00,SAT-65734,93.51758944818619,50.50870864642695,250255.1766905552,15.71385638982894,-550365.7203184341,10.5,10499449634.279682,47.655,-122.3035,60.0,6.833333333333333
2026-01-20T23:06:51+00:00,SAT-65734,91.2747000860243,49.97773148587403,250270.848643328,20.112975837680708,-704441.4916390172,10.5,10499295558.508362,47.655,-122.3035,60.0,6.85
2026-01-20T23:06:52+00:00,SAT-65734,89.08273378198895,49.40458866205352,250290.90798456347,24.49824193239986,-858032.0599332708,10.5,10499141967.940067,47.655,-122.3035,60.0,6.866666666666666
2026-01-20T23:06:53+00:00,SAT-65734,86.94318077817664,48.79110662818118,250315.3408978507,28.866461381155723,-1011025.5825786489,10.5,10498988974.417421,47.655,-122.3035,60.0,6.883333333333334
2026-01-20T23:06:54+00:00,SAT-65734,84.8570219111933,48.13913293564509,250344.13038200152,33.21445511733547,-1163310.7152149319,10.5,10498836689.284784,47.655,-122.3035,60.0,6.9
2026-01-20T23:06:55+00:00,SAT-65734,82.82477148581567,47.45051765877926,250377.2562652385,37.53906103289626,-1314776.7074427558,10.5,10498685223.292557,47.655,-122.3035,60.0,6.916666666666667
2026-01-20T23:06:56+00:00,SAT-65734,80.84652422850925,46.72709720326145,250414.69522210868,41.83713697209672,-1465313.5076767527,10.5,10498534686.492323,47.655,-122.3035,60.0,6.933333333333334
2026-01-20T23:06:57+00:00,SAT-65734,78.92200411301198,45.970680529626236,250456.42079338216,46.10556342153279,-1614811.8573619833,10.5,10498385188.142637,47.655,-122.3035,60.0,6.95
2026-01-20T23:06:58+00:00,SAT-65734,77.05061324121291,45.18303774064546,250502.4034086346,50.34124620433662,-1763163.3853361798,10.5,10498236836.614664,47.655,-122.3035,60.0,6.966666666666667
2026-01-20T23:06:59+00:00,SAT-65734,75.23147931565025,44.365890903291074,250552.61041151572,54.54111906925138,-1910260.698510099,10.5,10498089739.30149,47.655,-122.3035,60.0,6.983333333333333
2026-01-20T23:07:00+00:00,SAT-65734,73.4635006121287,43.5209069285938,250607.00608760078,58.70214682695716,-2055997.4917149192,10.5,10497944002.508286,47.655,-122.3035,60.0,7.0
2026-01-20T23:07:01+00:00,SAT-65734,71.74538767609111,42.64969229312945,250665.55169536953,62.82132749789708,-2200268.622928197,10.5,10497799731.377071,47.655,-122.3035,60.0,7.016666666666667
2026-01-20T23:07:02+00:00,SAT-65734,70.07570130623348,41.753789395499204,250728.20549932745,66.89569497014477,-2342970.206363631,10.5,10497657029.793636,47.655,-122.3035,60.0,7.033333333333333
2026-01-20T23:07:03+00:00,SAT-65734,68.4528865716136,40.834674314871876,250794.92280577766,70.92232175758213,-2483999.70907411,10.5,10497516000.290926,47.655,-122.3035,60.0,7.05
2026-01-20T23:10:18+00:00,SAT-65734,168.15646545622835,40.650751453895246,252318.87103689858,-119.45743910203588,4183904.8218196896,10.5,10504183904.82182,47.655,-122.3035,60.0,10.3
2026-01-20T23:10:19+00:00,SAT-65734,166.55332787596447,41.568201264800855,252199.73215096747,-116.3822806980741,4076199.7666057963,10.5,10504076199.766605,47.655,-122.3035,60.0,10.316666666666666
2026-01-20T23:10:20+00:00,SAT-65734,164.90382251577626,42.463255390940816,252083.66022301794,-113.22373976042216,3965574.3023543064,10.5,10503965574.302355,47.655,-122.3035,60.0,10.333333333333334
2026-01-20T23:10:21+00:00,SAT-65734,163.2063598661842,43.334465070932566,251970.73841323022,-109.98393359147467,3852102.5859512584,10.5,10503852102.58595,47.655,-122.3035,60.0,10.35
2026-01-20T23:10:22+00:00,SAT-65734,161.45945396901107,44.180313599190136,251861.04777012832,-106.66504756427297,3735861.1584046795,10.5,10503735861.158405,47.655,-122.3035,60.0,10.366666666666667
2026-01-20T23:10:23+00:00,SAT-65734,159.66175489350292,44.99921802412224,251754.66716269086,-103.26933265517556,3616928.8584282645,10.5,10503616928.858429,47.655,-122.3035,60.0,10.383333333333333
2026-01-20T23:10:24+00:00,SAT-65734,157.81208522774634,45.78953215697265,251651.67321492278,-99.79910454145472,3495386.790835394,10.5,10503495386.790836,47.655,-122.3035,60.0,10.4
2026-01-20T23:10:25+00:00,SAT-65734,155.90948040779904,46.54955112674711,251552.1402413268,-96.25674111165411,3371318.239341325,10.5,10503371318.239342,47.655,-122.3035,60.0,10.416666666666666
2026-01-20T23:10:26+00:00,SAT-65734,153.95323253963164,47.27751769498718,251456.1401848581,-92.64468238241948,3244808.663650253,10.5,10503244808.66365,47.655,-122.3035,60.0,10.433333333333334
2026-01-20T23:10:27+00:00,SAT-65734,151.942937024938,47.971630565897584,251363.742554962,-88.96542702803261,3115945.5779049066,10.5,10503115945.577906,47.655,-122.3035,60.0,10.45
2026-01-20T23:10:28+00:00,SAT-65734,149.87854109505972,48.630054860043444,251275.0143690727,-85.22153186786564,2984818.5327350334,10.5,10502984818.532736,47.655,-122.3035,60.0,10.466666666666667
2026-01-20T23:10:29+00:00,SAT-65734,147.76039287794032,49.250934926710976,251190.02009462318,-81.41560874898529,2851519.0060730134,10.5,10502851519.006073,47.655,-122.3035,60.0,10.483333333333333
2026-01-20T23:10:30+00:00,SAT-65734,145.5892893614434,49.83240956615647,251108.82159416418,-77.55032402404458,2716140.3848674144,10.5,10502716140.384867,47.655,-122.3035,60.0,10.5
2026-01-20T23:10:31+00:00,SAT-65734,143.36652112824441,50.37262968655133,251031.4780710042,-73.62839523040402,2578777.8487717733,10.5,10502578777.848772,47.655,-122.3035,60.0,10.516666666666667
2026-01-20T23:10:32+00:00,SAT-65734,141.09391154105714,50.86977827300548,250958.04601816108,-69.6525893286175,2439528.3084489196,10.5,10502439528.308449,47.655,-122.3035,60.0,10.533333333333333
2026-01-20T23:10:33+00:00,SAT-65734,138.7738477148829,51.322092449151704,250888.57916907067,-65.62572110455686,2298490.349606617,10.5,10502298490.349607,47.655,-122.3035,60.0,10.55
2026-01-20T23:10:34+00:00,SAT-65734,136.4093005374627,51.7278872556038,250823.12844988907,-61.55065002804447,2155764.1229735906,10.5,10502155764.122974,47.655,-122.3035,60.0,10.566666666666666
2026-01-20T23:10:35+00:00,SAT-65734,134.00383114792086,52.08558060625068,250761.74193492776,-57.43027857281696,2011451.2854575485,10.5,10502011451.285458,47.655,-122.3035,60.0,10.583333333333334
2026-01-20T23:10:36+00:00,SAT-65734,131.56158150425716,52.393718754256724,250704.46480376445,-53.267549263060886,1865654.896702369,10.5,10501865654.896702,47.655,-122.3035,60.0,10.6
2026-01-20T23:10:37+00:00,SAT-65734,129.0872473294768,52.65100145168365,250651.33930129945,-49.0654429994913,1718479.3604602912,10.5,10501718479.36046,47.655,-122.3035,60.0,10.616666666666667
2026-01-20T23:10:38+00:00,SAT-65734,126.5860324420676,52.856305904526316,250602.40469948127,-44.82697580056533,1570030.3104554282,10.5,10501570030.310455,47.655,-122.3035,60.0,10.633333333333333
2026-01-20T23:10:39+00:00,SAT-65734,124.06358461802566,53.008708561581514,250557.69726228286,-40.55519666262484,1420414.5354369148,10.5,10501420414.535437,47.655,-122.3035,60.0,10.65
2026-01-20T23:10:40+00:00,SAT-65734,121.52591417545173,53.107503803289696,250517.2502128113,-36.25318483707444,1269739.8838141607,10.5,10501269739.883814,47.655,-122.3035,60.0,10.666666666666666
2026-01-20T23:10:41+00:00,SAT-65734,118.97929773299569,53.15221866914839,250481.0937031338,-31.924047290941576,1118115.174714924,10.5,10501118115.174715,47.655,-122.3035,60.0,10.683333333333334
2026-01-20T23:10:42+00:00,SAT-65734,116.43017065342151,53.142622915321645,250449.25478663563,-27.57091588676897,965650.099213217,10.5,10500965650.099213,47.655,-122.3035,60.0,10.7
2026-01-20T23:10:43+00:00,SAT-65734,113.8850125898351,53.0787339023828,250421.75739319125,-23.19694474270167,812455.1278683854,10.5,10500812455.127869,47.655,-122.3035,60.0,10.716666666666667
2026-01-20T23:10:44+00:00,SAT-65734,111.35023107565979,52.96081606760998,250398.62230696785,-18.805307349441684,658641.4097486658,10.5,10500658641.409748,47.655,-122.3035,60.0,10.733333333333333
2026-01-20T23:10:45+00:00,SAT-65734,108.83204829263269,52.789375012243006,250379.86714710467,-14.399194004559387,504320.6825699183,10.5,10500504320.68257,47.655,-122.3035,60.0,10.75
2026-01-20T23:10:46+00:00,SAT-65734,106.33639583622846,52.565146504689785,250365.5063509508,-9.981808803051926,349605.16729225137,10.5,10500349605.167292,47.655,-122.3035,60.0,10.766666666666667
2026-01-20T23:10:47+00:00,SAT-65734,103.86882173889728,52.28908094942293,250355.55116030455,-5.556366834084253,194607.46993803512,10.5,10500194607.469938,47.655,-122.3035,60.0,10.783333333333333
2026-01-20T23:10:48+00:00,SAT-65734,101.43441301469403,51.96232406794537,250350.0096104487,-1.1260914040112608,39440.48433039046,10.5,10500039440.484331,47.655,-122.3035,60.0,10.8
2026-01-20T23:10:49+00:00,SAT-65734,99.03773584601792,51.586194668589634,250348.8865219551,3.305788937187603,-115782.71205364955,10.5,10499884217.287947,47.655,-122.3035,60.0,10.816666666666666
2026-01-20T23:10:50+00:00,SAT-65734,96.68279442099377,51.16216045841116,250352.18349545513,7.7360432250905475,-270948.9571730679,10.5,10499729051.042828,47.655,-122.3035,60.0,10.833333333333334
2026-01-20T23:10:51+00:00,SAT-65734,94.37300819125005,50.69181283661506,250359.8989092316,12.161440939516785,-425945.10454604647,10.5,10499574054.895454,47.655,-122.3035,60.0,10.85
2026-01-20T23:10:52+00:00,SAT-65734,92.11120644305188,50.17684156370746,250372.02791966195,16.57875499461517,-580658.1279755186,10.5,10499419341.872025,47.655,-122.3035,60.0,10.866666666666667
2026-01-20T23:10:53+00:00,SAT-65734,89.89963821391028,49.61901007709414,250388.56246464324,20.98476450237627,-734975.2183390511,10.5,10499265024.78166,47.655,-122.3035,60.0,10.883333333333333
2026-01-20T23:10:54+00:00,SAT-65734,87.73999520025625,49.02013211223983,250409.49126977363,25.37625777745533,-888783.8888304553,10.5,10499111216.11117,47.655,-122.3035,60.0,10.9
2026-01-20T23:10:55+00:00,SAT-65734,85.63344492113899,48.38205011262496,250434.79985753034,29.75003500850547,-1041972.0685211748,10.5,10498958027.931479,47.655,-122.3035,60.0,10.916666666666666
2026-01-20T23:10:56+00:00,SAT-65734,83.58067146652863,47.70661578385739,250464.47055911217,34.10291142306142,-1194428.2132079017,10.5,10498805571.786793,47.655,-122.3035,60.0,10.933333333333334
2026-01-20T23:10:57+00:00,SAT-65734,81.58192120278275,46.99567298063972,250498.48252943807,38.43171982427984,-1346041.3942599527,10.5,10498653958.60574,47.655,-122.3035,60.0,10.95
2026-01-20T23:10:58+00:00,SAT-65734,79.637051171022,46.25104302021483,250536.81176467615,42.73331351922847,-1496701.4011803423,10.5,10498503298.59882,47.655,-122.3035,60.0,10.966666666666667
2026-01-20T23:10:59+00:00,SAT-65734,77.74557816632574,45.474512386827506,250579.43112269268,47.00456907189226,-1646298.8380277024,10.5,10498353701.161972,47.655,-122.3035,60.0,10.983333333333333
2026-01-20T23:11:00+00:00,SAT-65734,75.90672691058522,44.667822727005586,250626.31034624705,51.242389161271305,-1794725.2235189609,10.5,10498205274.776482,47.655,-122.3035,60.0,11.0
2026-01-20T23:11:01+00:00,SAT-65734,74.1194760855834,43.8326629717696,250677.4160890372,55.44370519371166,-1941873.0825242188,10.5,10498058126.917477,47.655,-122.3035,60.0,11.016666666666667
2026-01-20T23:11:02+00:00,SAT-65734,72.38260135607949,42.97066339127437,250732.71194435042,59.605479782269796,-2087636.0329045798,10.5,10497912363.967096,47.655,-122.3035,60.0,11.033333333333333
2026-01-20T23:11:03+00:00,SAT-65734,70.69471480961059,42.08339136434403,250792.1584761866,63.72470993612099,-2231908.8972187233,10.5,10497768091.102781,47.655,-122.3035,60.0,11.05
2026-01-20T23:11:04+00:00,SAT-65734,69.05430047700904,41.17234862750243,250855.7132535629,67.79842898548426,-2374587.7701419187,10.5,10497625412.229858,47.655,-122.3035,60.0,11.066666666666666
2026-01-20T23:11:05+00:00,SAT-65734,67.45974586298681,40.238969802296246,250923.33088673773,71.82370967703062,-2515570.126880315,10.5,10497484429.87312,47.655,-122.3035,60.0,11.083333333333334
2026-01-20T23:14:19+00:00,SAT-65734,168.6768080148524,40.34311398980665,252531.89584682876,-121.93536363094749,4270692.2204325395,10.5,10504270692.220432,47.655,-122.3035,60.0,14.316666666666666
2026-01-20T23:14:20+00:00,SAT-65734,167.08850266914075,41.2675599344634,252410.28564416748,-118.92035359595353,4165093.8155272473,10.5,10504165093.815527,47.655,-122.3035,60.0,14.333333333333334
2026-01-20T23:14:21+00:00,SAT-65734,165.45436234930258,42.17007350199536,252291.68241151446,-115.82022544706768,4056514.2142241974,10.5,10504056514.214224,47.655,-122.3035,60.0,14.35
2026-01-20T23:14:22+00:00,SAT-65734,163.77276948147593,43.0492281140691,252176.1710400019,-112.63704938048545,3945025.923551076,10.5,10503945025.923552,47.655,-122.3035,60.0,14.366666666666667
2026-01-20T23:14:23+00:00,SAT-65734,162.04220022681292,43.90352889498272,252063.83435608645,-109.37296414567079,3830703.851561013,10.5,10503830703.85156,47.655,-122.3035,60.0,14.383333333333333
2026-01-20T23:14:24+00:00,SAT-65734,160.2612556579982,44.731413975497986,251954.7530531785,-106.03017568257918,3713625.259602366,10.5,10503713625.259602,47.655,-122.3035,60.0,14.4
2026-01-20T23:14:25+00:00,SAT-65734,158.4286969484693,45.53125704457624,251849.00562463107,-102.61095537708944,3593869.7012165636,10.5,10503593869.701216,47.655,-122.3035,60.0,14.416666666666666
2026-01-20T23:14:26+00:00,SAT-65734,156.54348448878142,46.30137136698586,251746.6682984683,-99.11763941084038,3471518.999366635,10.5,10503471518.999367,47.655,-122.3035,60.0,14.433333333333334
2026-01-20T23:14:27+00:00,SAT-65734,154.60482061492596,47.04001550132919,251647.81497276257,-95.55262629071335,3346657.15990924,10.5,10503346657.159908,47.655,-122.3035,60.0,14.45
2026-01-20T23:14:28+00:00,SAT-65734,152.61219543106677,47.74540092643325,251552.51715347532,-91.91837561326474,3219370.328319866,10.5,10503219370.32832,47.655,-122.3035,60.0,14.466666666666667
2026-01-20T23:14:29+00:00,SAT-65734,150.56543485357136,48.4157017890251,251460.84389353034,-88.21740564865726,3089746.705071884,10.5,10503089746.705072,47.655,-122.3035,60.0,14.483333333333333
2026-01-20T23:14:30+00:00,SAT-65734,148.4647497038728,49.04906693261942,251372.86173429675,-84.4522927397084,2957876.524588681,10.5,10502957876.52459,47.655,-122.3035,60.0,14.5
2026-01-20T23:14:31+00:00,SAT-65734,146.3107842400389,49.64363433447653,251288.63464767102,-80.62566810135804,2823851.9431474805,10.5,10502823851.943148,47.655,-122.3035,60.0,14.516666666666667
2026-01-20T23:14:32+00:00,SAT-65734,144.10466223981882,50.197547968086106,251208.22398135124,-76.7402161784927,2687766.9813633985,10.5,10502687766.981363,47.655,-122.3035,60.0,14.533333333333333
2026-01-20T23:14:33+00:00,SAT-65734,141.8480283126065,50.70897703862028,251131.68840574924,-72.79867327490652,2549717.476169859,10.5,10502549717.47617,47.655,-122.3035,60.0,14.55
2026-01-20T23:14:34+00:00,SAT-65734,139.54308186339668,51.176137406021915,251059.08386226973,-68.80382432450415,2409800.9677324626,10.5,10502409800.967733,47.655,-122.3035,60.0,14.566666666666666
2026-01-20T23:14:35+00:00,SAT-65734,137.19260104711088,51.59731485596169,250990.46351481008,-64.7585015182777,2268116.651359908,10.5,10502268116.65136,47.655,-122.3035,60.0,14.583333333333334
2026-01-20T23:14:36+00:00,SAT-65734,134.79995396733486,51.970889752392694,250925.87770262922,-60.665581335132494,2124765.273510954,10.5,10502124765.273512,47.655,-122.3035,60.0,14.6
2026-01-20T23:14:37+00:00,SAT-65734,132.36909471355585,52.29536243110944,250865.37389617763,-56.527982952208134,1979849.0761171363,10.5,10501979849.076117,47.655,-122.3035,60.0,14.616666666666667
2026-01-20T23:14:38+00:00,SAT-65734,129.90454221761883,52.56937857374696,250808.9966545133,-52.348665136525085,1833471.687715084,10.5,10501833471.687716,47.655,-122.3035,60.0,14.633333333333333
2026-01-20T23:14:39+00:00,SAT-65734,127.41134074947873,52.79175367482067,250756.78758581713,-48.130624284183334,1685738.0547709612,10.5,10501685738.054771,47.655,-122.3035,60.0,14.65
2026-01-20T23:14:40+00:00,SAT-65734,124.89500173314666,52.961495663942216,250708.78530986438,-43.87689147691614,1536754.3385885295,10.5,10501536754.338589,47.655,-122.3035,60.0,14.666666666666666
2026-01-20T23:14:41+00:00,SAT-65734,122.36142777434735,53.077824726218424,250665.0254234314,-39.59053035394212,1386627.8407724062,10.5,10501386627.840773,47.655,-122.3035,60.0,14.683333333333334
2026-01-20T23:14:42+00:00,SAT-65734,119.81682090090048,53.140189430656065,250625.54046782505,-35.27463412525932,1235466.8986209882,10.5,10501235466.89862,47.655,-122.3035,60.0,14.7
2026-01-20T23:14:43+00:00,SAT-65734,117.26757824145885,53.148278397549305,250590.35989939078,-30.932323130141143,1083380.799614652,10.5,10501083380.799614,47.655,-122.3035,60.0,14.716666666666667
2026-01-20T23:14:44+00:00,SAT-65734,114.72017925807282,53.102026932157315,250559.5100624557,-26.566741892551732,930479.6782839454,10.5,10500930479.678284,47.655,-122.3035,60.0,14.733333333333333
2026-01-20T23:14:45+00:00,SAT-65734,112.18106938210944,53.00161829114789,250533.01416520815,-22.18105677439033,776874.434016277,10.5,10500776874.434017,47.655,-122.3035,60.0,14.75
2026-01-20T23:14:46+00:00,SAT-65734,109.65654511239077,52.84747951906538,250510.89225791852,-17.778452791807496,622676.6195498444,10.5,10500622676.61955,47.655,-122.3035,60.0,14.766666666666667
2026-01-20T23:14:47+00:00,SAT-65734,107.15264563018305,52.64027207097966,250493.16121433416,-13.362130974771663,467998.34849448566,10.5,10500467998.348494,47.655,-122.3035,60.0,14.783333333333333
2026-01-20T23:14:48+00:00,SAT-65734,104.67505535859836,52.38087769379465,250479.83471570865,-8.93530562746372,312952.1993791087,10.5,10500312952.199379,47.655,-122.3035,60.0,14.8
2026-01-20T23:14:49+00:00,SAT-65734,102.22902107226716,52.0703802513148,250470.92323756288,-4.501201310931537,157651.1099714895,10.5,10500157651.109972,47.655,-122.3035,60.0,14.816666666666666
2026-01-20T23:14:50+00:00,SAT-65734,99.81928612973073,51.71004434105338,250466.4340394554,-0.06305005872866282,2208.27975816176,10.5,10500002208.279758,47.655,-122.3035,60.0,14.833333333333334
2026-01-20T23:14:51+00:00,SAT-65734,97.45004314100528,51.30129163342015,250466.3711575302,4.375911516767053,-153262.93140454538,10.5,10499846737.068596,47.655,-122.3035,60.0,14.85
2026-01-20T23:14:52+00:00,SAT-65734,95.12490527043379,50.845675889338445,250470.73539994954,8.812445125841103,-308649.104912878,10.5,10499691350.895086,47.655,-122.3035,60.0,14.866666666666667
2026-01-20T23:14:53+00:00,SAT-65734,92.84689529877602,50.344857565522055,250479.52434522173,13.243313692521633,-463836.864673484,10.5,10499536163.135326,47.655,-122.3035,60.0,14.883333333333333
2026-01-20T23:14:54+00:00,SAT-65734,90.61845077854488,49.80057883259343,250492.7323434111,17.665284292854057,-618712.9800142191,10.5,10499381287.019985,47.655,-122.3035,60.0,14.9
2026-01-20T23:14:55+00:00,SAT-65734,88.44144297272152,49.21463969378936,250510.35052027914,22.075130946092816,-773164.4634434885,10.5,10499226835.536556,47.655,-122.3035,60.0,14.916666666666666
2026-01-20T23:14:56+00:00,SAT-65734,86.31720698691231,48.58887575720215,250532.36678420941,26.4696376305832,-927078.6762791865,10.5,10499072921.32372,47.655,-122.3035,60.0,14.933333333333334
2026-01-20T23:14:57+00:00,SAT-65734,84.24658033093587,47.925138045802036,250558.76583613962,30.84560107026934,-1080343.426243992,10.5,10498919656.573755,47.655,-122.3035,60.0,14.95
2026-01-20T23:14:58+00:00,SAT-65734,82.22994730013774,47.22527510093125,250589.52918227372,35.19983365927538,-1232847.069896573,10.5,10498767152.930103,47.655,-122.3035,60.0,14.966666666666667
2026-01-20T23:14:59+00:00,SAT-65734,80.26728674209396,46.491117490610456,250624.63514970988,39.52916608360385,-1384478.604454554,10.5,10498615521.395546,47.655,-122.3035,60.0,14.983333333333333
