satellites_20260120_184412/SAT-57951.csv

timestamp,satellite,azimuth_deg,elevation_deg,distance_km,relative_velocity_kms,doppler_shift_hz,tx_freq_ghz,rx_freq_hz,ue_lat,ue_lon,ue_alt_m,time_minutes
2026-01-20T23:11:41+00:00,SAT-57951,212.47034368303284,40.0182609658488,1222.7894108820872,-5.4836192996260555,192059.54355954338,10.5,10500192059.54356,47.655,-122.3035,60.0,11.683333333333334
2026-01-20T23:11:42+00:00,SAT-57951,212.5226976392796,40.24341891824789,1217.3204145672603,-5.468023858695166,191513.32524949394,10.5,10500191513.325249,47.655,-122.3035,60.0,11.7
2026-01-20T23:11:43+00:00,SAT-57951,212.57619158127062,40.47032139267451,1211.8669721055214,-5.452210618391585,190959.47868412232,10.5,10500190959.478683,47.655,-122.3035,60.0,11.716666666666667
2026-01-20T23:11:44+00:00,SAT-57951,212.63085243394775,40.69898547836657,1206.4293007154458,-5.43617625597802,190397.88748711353,10.5,10500190397.887487,47.655,-122.3035,60.0,11.733333333333333
2026-01-20T23:11:45+00:00,SAT-57951,212.68670796840954,40.929428336282214,1201.0076209294837,-5.419917476175284,189828.43624385132,10.5,10500189828.436243,47.655,-122.3035,60.0,11.75
2026-01-20T23:11:46+00:00,SAT-57951,212.7437868358624,41.1616671963552,1195.6021565665783,-5.403430893158989,189251.00636844366,10.5,10500189251.006369,47.655,-122.3035,60.0,11.766666666666667
2026-01-20T23:11:47+00:00,SAT-57951,212.80211860190067,41.39571934943825,1190.2131348224675,-5.3867130798434015,188665.47782985162,10.5,10500188665.477829,47.655,-122.3035,60.0,11.783333333333333
2026-01-20T23:11:48+00:00,SAT-57951,212.86173378290772,41.63160214089428,1184.840786310837,-5.36976058222366,188071.7296542144,10.5,10500188071.729654,47.655,-122.3035,60.0,11.8
2026-01-20T23:11:49+00:00,SAT-57951,212.9226638844111,41.86933296442107,1179.485345090166,-5.352569904602071,187469.63940741218,10.5,10500187469.639408,47.655,-122.3035,60.0,11.816666666666666
2026-01-20T23:11:50+00:00,SAT-57951,212.9849414410724,42.10892925482949,1174.1470487053095,-5.3351374695650575,186859.08179328882,10.5,10500186859.081793,47.655,-122.3035,60.0,11.833333333333334
2026-01-20T23:11:51+00:00,SAT-57951,213.04860005814288,42.35040847855353,1168.8261382689968,-5.317459676703613,186239.93071029137,10.5,10500186239.93071,47.655,-122.3035,60.0,11.85
2026-01-20T23:11:52+00:00,SAT-57951,213.11367445562564,42.59378812626847,1163.5228584847644,-5.299532907220581,185612.05941283584,10.5,10500185612.059412,47.655,-122.3035,60.0,11.866666666666667
2026-01-20T23:11:53+00:00,SAT-57951,213.18020051471507,42.83908570528032,1158.2374576652962,-5.281353442188076,184975.3376483367,10.5,10500184975.337648,47.655,-122.3035,60.0,11.883333333333333
2026-01-20T23:11:54+00:00,SAT-57951,213.24821532542856,43.08631872762182,1152.9701878322874,-5.2629175451082935,184329.6345488354,10.5,10500184329.634548,47.655,-122.3035,60.0,11.9
2026-01-20T23:11:55+00:00,SAT-57951,213.31775723770534,43.335504701340234,1147.721304733966,-5.244221464996369,183674.81873897533,10.5,10500183674.818739,47.655,-122.3035,60.0,11.916666666666666
2026-01-20T23:11:56+00:00,SAT-57951,213.38886591513136,43.58666112142611,1142.491067859543,-5.225261334926246,183010.75478264893,10.5,10500183010.754782,47.655,-122.3035,60.0,11.933333333333334
2026-01-20T23:11:57+00:00,SAT-57951,213.46158238994082,43.83980545528224,1137.279740554843,-5.206033296613636,182337.3075464199,10.5,10500182337.307547,47.655,-122.3035,60.0,11.95
2026-01-20T23:11:58+00:00,SAT-57951,213.53594912256864,44.09495513343695,1132.0875900136873,-5.186533452248223,181654.34051248326,10.5,10500181654.340513,47.655,-122.3035,60.0,11.966666666666667
2026-01-20T23:11:59+00:00,SAT-57951,213.6120100636207,44.35212753734207,1126.9148873173117,-5.166757832996993,180961.71467551868,10.5,10500180961.714676,47.655,-122.3035,60.0,11.983333333333333
2026-01-20T23:12:00+00:00,SAT-57951,213.68981071850746,44.6113399848795,1121.7619075052025,-5.146702414320582,180259.28907913392,10.5,10500180259.28908,47.655,-122.3035,60.0,12.0
2026-01-20T23:12:01+00:00,SAT-57951,213.76939821567007,44.872609715785124,1116.6289296306534,-5.126363176650525,179546.92294103847,10.5,10500179546.922941,47.655,-122.3035,60.0,12.016666666666667
2026-01-20T23:12:02+00:00,SAT-57951,213.8508213793707,45.135953879363285,1111.5162367558073,-5.105736027840124,178824.47293694527,10.5,10500178824.472937,47.655,-122.3035,60.0,12.033333333333333
2026-01-20T23:12:03+00:00,SAT-57951,213.93413080507293,45.40138951747244,1106.4241160240415,-5.084816829780052,178091.79413276148,10.5,10500178091.794132,47.655,-122.3035,60.0,12.05
2026-01-20T23:12:04+00:00,SAT-57951,214.0193789392302,45.66893354791895,1101.3528587058074,-5.063601417113027,177348.74064005568,10.5,10500177348.74064,47.655,-122.3035,60.0,12.066666666666666
2026-01-20T23:12:05+00:00,SAT-57951,214.10662016371776,45.938602747905854,1096.3027602258069,-5.042085579355798,176595.16498989405,10.5,10500176595.16499,47.655,-122.3035,60.0,12.083333333333334
2026-01-20T23:12:06+00:00,SAT-57951,214.19591088447243,46.21041373557218,1091.274120207996,-5.020265059996788,175830.91810123614,10.5,10500175830.9181,47.655,-122.3035,60.0,12.1
2026-01-20T23:12:07+00:00,SAT-57951,214.2873096249732,46.48438295043316,1086.2672425214926,-4.998135605794687,175055.8510075801,10.5,10500175055.851007,47.655,-122.3035,60.0,12.116666666666667
2026-01-20T23:12:08+00:00,SAT-57951,214.38087712576922,46.760526635439994,1081.2824352773132,-4.975692834066137,174269.810208816,10.5,10500174269.81021,47.655,-122.3035,60.0,12.133333333333333
2026-01-20T23:12:09+00:00,SAT-57951,214.4766764469348,47.0388608105923,1076.3200109574714,-4.952932453470117,173472.6454040289,10.5,10500173472.645405,47.655,-122.3035,60.0,12.15
2026-01-20T23:12:10+00:00,SAT-57951,214.5747730806231,47.319401257542985,1071.380286323877,-4.929849999348691,172664.20022201244,10.5,10500172664.200222,47.655,-122.3035,60.0,12.166666666666666
2026-01-20T23:12:11+00:00,SAT-57951,214.67523506454742,47.602163488188765,1066.4635825911935,-4.906441120804977,171844.3222759535,10.5,10500171844.322275,47.655,-122.3035,60.0,12.183333333333334
2026-01-20T23:12:12+00:00,SAT-57951,214.77813310791558,47.88716272811043,1061.5702253133773,-4.882701306072878,171012.85354471864,10.5,10500171012.853544,47.655,-122.3035,60.0,12.2
2026-01-20T23:12:13+00:00,SAT-57951,214.8835407186582,48.174413882978996,1056.7005445441205,-4.858626076343077,170169.63716146024,10.5,10500170169.637161,47.655,-122.3035,60.0,12.216666666666667
2026-01-20T23:12:14+00:00,SAT-57951,214.9915343421752,48.46393151452721,1051.8548748039811,-4.834210941360512,169314.51585845224,10.5,10500169314.515858,47.655,-122.3035,60.0,12.233333333333333
2026-01-20T23:12:15+00:00,SAT-57951,215.10219350725865,48.755729812536806,1047.0335550917976,-4.809451331093723,168447.32957386173,10.5,10500168447.329575,47.655,-122.3035,60.0,12.25
2026-01-20T23:12:16+00:00,SAT-57951,215.21560097885333,49.049822561045005,1042.2369289642534,-4.784342692765309,167567.91885016582,10.5,10500167567.91885,47.655,-122.3035,60.0,12.266666666666667
2026-01-20T23:12:17+00:00,SAT-57951,215.33184292220002,49.346223108606765,1037.4653445186686,-4.758880450958712,166676.1234369227,10.5,10500166676.123436,47.655,-122.3035,60.0,12.283333333333333
2026-01-20T23:12:18+00:00,SAT-57951,215.45100907576824,49.64494433439423,1032.7191544155792,-4.7330599745670305,165771.7811331792,10.5,10500165771.781134,47.655,-122.3035,60.0,12.3
2026-01-20T23:12:19+00:00,SAT-57951,215.57319293367974,49.945998610234675,1027.9987159342777,-4.7068766552904915,164854.7305367841,10.5,10500164854.730537,47.655,-122.3035,60.0,12.316666666666666
2026-01-20T23:12:20+00:00,SAT-57951,215.6984919412272,50.249397765511866,1023.3043909500681,-4.680325846640036,163924.8089080359,10.5,10500163924.808908,47.655,-122.3035,60.0,12.333333333333334
2026-01-20T23:12:21+00:00,SAT-57951,215.82700770069232,50.5551530460916,1018.6365459723523,-4.653402912699097,162981.85387752656,10.5,10500162981.853878,47.655,-122.3035,60.0,12.35
2026-01-20T23:12:22+00:00,SAT-57951,215.95884619115324,50.86327507408356,1013.9955521340872,-4.626103170139419,162025.7014152901,10.5,10500162025.701416,47.655,-122.3035,60.0,12.366666666666667
2026-01-20T23:12:23+00:00,SAT-57951,216.09411800025683,51.17377380138238,1009.3817852390681,-4.5984219715936065,161056.18875086203,10.5,10500161056.188751,47.655,-122.3035,60.0,12.383333333333333
2026-01-20T23:12:24+00:00,SAT-57951,216.23293857291696,51.48665846614653,1004.7956257260654,-4.570354632187653,160073.15180013757,10.5,10500160073.1518,47.655,-122.3035,60.0,12.4
2026-01-20T23:12:25+00:00,SAT-57951,216.37542847349255,51.80193754168809,1000.2374587062303,-4.541896494135788,159076.42742775663,10.5,10500159076.427427,47.655,-122.3035,60.0,12.416666666666666
2026-01-20T23:12:26+00:00,SAT-57951,216.52171366661472,52.119618686837974,995.7076739360788,-4.51304289590819,158065.85236722665,10.5,10500158065.852367,47.655,-122.3035,60.0,12.433333333333334
2026-01-20T23:12:27+00:00,SAT-57951,216.67192581508786,52.4397086912103,991.2066658212265,-4.483789156185336,157041.26265893594,10.5,10500157041.26266,47.655,-122.3035,60.0,12.45
2026-01-20T23:12:28+00:00,SAT-57951,216.82620259638063,52.762213416011434,986.7348334361243,-4.454130655677326,156002.4965158127,10.5,10500156002.496515,47.655,-122.3035,60.0,12.466666666666667
2026-01-20T23:12:29+00:00,SAT-57951,216.9846880426873,53.08713773726575,982.2925804621954,-4.424062747123369,154949.39117112602,10.5,10500154949.39117,47.655,-122.3035,60.0,12.483333333333333
2026-01-20T23:12:30+00:00,SAT-57951,217.1475329000731,53.414485478965915,977.880315215731,-4.393580819255938,153881.78511878158,10.5,10500153881.785118,47.655,-122.3035,60.0,12.5
2026-01-20T23:12:31+00:00,SAT-57951,217.31489501376524,53.74425934691016,973.4984506119931,-4.362680291748314,152799.51793636283,10.5,10500152799.517937,47.655,-122.3035,60.0,12.516666666666667
2026-01-20T23:12:32+00:00,SAT-57951,217.4869397390147,54.07646085810205,969.1474041343561,-4.331356598298728,151702.42969266642,10.5,10500151702.429693,47.655,-122.3035,60.0,12.533333333333333
2026-01-20T23:12:33+00:00,SAT-57951,217.6638403789764,54.41109026445998,964.8275978203195,-4.299605231404161,150590.36251586987,10.5,10500150590.362516,47.655,-122.3035,60.0,12.55
2026-01-20T23:12:34+00:00,SAT-57951,217.8457786541656,54.74814647525597,960.5394582028658,-4.267421674767228,149463.15822613484,10.5,10500149463.158226,47.655,-122.3035,60.0,12.566666666666666
2026-01-20T23:12:35+00:00,SAT-57951,218.03294520113832,55.087626969268754,956.2834163192313,-4.234801496109684,148320.6615863288,10.5,10500148320.661587,47.655,-122.3035,60.0,12.583333333333334
2026-01-20T23:12:36+00:00,SAT-57951,218.2255401096428,55.42952770878708,952.0599076271112,-4.201740319039808,147162.71931670138,10.5,10500147162.719316,47.655,-122.3035,60.0,12.6
2026-01-20T23:12:37+00:00,SAT-57951,218.42377349602535,55.77384304581579,947.8693719489222,-4.1682337857717995,145989.1787891605,10.5,10500145989.17879,47.655,-122.3035,60.0,12.616666666666667
2026-01-20T23:12:38+00:00,SAT-57951,218.62786611495403,56.12056561903595,943.7122534532457,-4.1342776106328145,144799.88990131483,10.5,10500144799.889902,47.655,-122.3035,60.0,12.633333333333333
2026-01-20T23:12:39+00:00,SAT-57951,218.83805001692946,56.46968624844949,939.5890005829079,-4.099867602268097,143594.7058541914,10.5,10500143594.705854,47.655,-122.3035,60.0,12.65
2026-01-20T23:12:40+00:00,SAT-57951,219.05456925386417,56.821193824932905,935.5000659609125,-4.0649996037142575,142373.48105334825,10.5,10500142373.481052,47.655,-122.3035,60.0,12.666666666666666
2026-01-20T23:12:41+00:00,SAT-57951,219.27768063208322,57.17507518710872,931.4459063561416,-4.029669568789901,141136.0737843977,10.5,10500141136.073784,47.655,-122.3035,60.0,12.683333333333334
2026-01-20T23:12:42+00:00,SAT-57951,219.5076545238681,57.5313149965354,927.4269825728684,-3.993873516487098,139882.3446156025,10.5,10500139882.344616,47.655,-122.3035,60.0,12.7
2026-01-20T23:12:43+00:00,SAT-57951,219.74477573552352,57.88989560016693,923.4437593857585,-3.9576075554855006,138612.1572564636,10.5,10500138612.157257,47.655,-122.3035,60.0,12.716666666666667
2026-01-20T23:12:44+00:00,SAT-57951,219.98934444031886,58.25079688537459,919.4967054504211,-3.920867925114465,137325.37999238755,10.5,10500137325.379992,47.655,-122.3035,60.0,12.733333333333333
2026-01-20T23:12:45+00:00,SAT-57951,220.241677182947,58.613996128476245,915.5862931731068,-3.88365093789322,136021.88367219968,10.5,10500136021.883673,47.655,-122.3035,60.0,12.75
2026-01-20T23:12:46+00:00,SAT-57951,220.50210795472105,58.97946782694171,911.7129986377148,-3.8459530383748364,134701.54376910903,10.5,10500134701.54377,47.655,-122.3035,60.0,12.766666666666667
2026-01-20T23:12:47+00:00,SAT-57951,220.770989352893,59.34718352494757,907.8773014741089,-3.8077707898215998,133364.23991402343,10.5,10500133364.239914,47.655,-122.3035,60.0,12.783333333333333
2026-01-20T23:12:48+00:00,SAT-57951,221.04869382606205,59.717111624718,904.0796847397269,-3.7691008865730424,132009.8563287304,10.5,10500132009.856329,47.655,-122.3035,60.0,12.8
2026-01-20T23:12:49+00:00,SAT-57951,221.33561501439456,60.08921718492208,900.3206347888513,-3.7299401603338915,130638.28204612758,10.5,10500130638.282045,47.655,-122.3035,60.0,12.816666666666666
2026-01-20T23:12:50+00:00,SAT-57951,221.6321691917462,60.46346170431905,896.6006411356117,-3.6902855969413855,129249.4114974852,10.5,10500129249.411497,47.655,-122.3035,60.0,12.833333333333334
2026-01-20T23:12:51+00:00,SAT-57951,221.93879681886315,60.83980289042297,892.9201963002621,-3.6501343080518414,127843.14352078976,10.5,10500127843.14352,47.655,-122.3035,60.0,12.85
2026-01-20T23:12:52+00:00,SAT-57951,222.25596421239837,61.218194407039555,889.2797956836984,-3.609483622969741,126419.3845769872,10.5,10500126419.384577,47.655,-122.3035,60.0,12.866666666666667
2026-01-20T23:12:53+00:00,SAT-57951,222.58416534971204,61.59858561147773,885.6799373503899,-3.568330986772919,124978.04518189597,10.5,10500124978.045181,47.655,-122.3035,60.0,12.883333333333333
2026-01-20T23:12:54+00:00,SAT-57951,222.923923802479,61.98092125960072,882.121121912915,-3.526674060407463,123519.04341195388,10.5,10500123519.043411,47.655,-122.3035,60.0,12.9
2026-01-20T23:12:55+00:00,SAT-57951,223.27579482762397,62.36514119768956,878.6038523166687,-3.4845106880917665,122042.30376257013,10.5,10500122042.303762,47.655,-122.3035,60.0,12.916666666666666
2026-01-20T23:12:56+00:00,SAT-57951,223.64036761516988,62.75118002515083,875.1286336570785,-3.4418389194185,120547.75792222982,10.5,10500120547.757923,47.655,-122.3035,60.0,12.933333333333334
2026-01-20T23:12:57+00:00,SAT-57951,224.01826770991948,63.13896673139706,871.6959729747784,-3.398656968694488,119035.34334840447,10.5,10500119035.343348,47.655,-122.3035,60.0,12.95
2026-01-20T23:12:58+00:00,SAT-57951,224.41015961226088,63.528424297089984,868.3063790913338,-3.354963341097373,117505.00768609202,10.5,10500117505.007687,47.655,-122.3035,60.0,12.966666666666667
2026-01-20T23:12:59+00:00,SAT-57951,224.81674959016382,63.919469275814755,864.960362319146,-3.310756716011609,115956.70468174985,10.5,10500115956.704681,47.655,-122.3035,60.0,12.983333333333333
2026-01-20T23:13:00+00:00,SAT-57951,225.23878868809493,64.3120113253666,861.6584342877105,-3.2660360218507303,114390.39680388714,10.5,10500114390.396805,47.655,-122.3035,60.0,13.0
2026-01-20T23:13:01+00:00,SAT-57951,225.6770759677,64.70595270670127,858.4011076952513,-3.220800435174452,112806.05521214195,10.5,10500112806.055212,47.655,-122.3035,60.0,13.016666666666667
2026-01-20T23:13:02+00:00,SAT-57951,226.13246198507017,65.10118773806666,855.1888960612373,-3.175049393568992,111203.66020840462,10.5,10500111203.660208,47.655,-122.3035,60.0,13.033333333333333
2026-01-20T23:13:03+00:00,SAT-57951,226.60585251917095,65.49760220155947,852.0223134660512,-3.1287825937909215,109583.20117180758,10.5,10500109583.201172,47.655,-122.3035,60.0,13.05
2026-01-20T23:13:04+00:00,SAT-57951,227.09821256088557,65.89507269546456,848.9018742925103,-3.082000001524735,107944.67690047664,10.5,10500107944.6769,47.655,-122.3035,60.0,13.066666666666666
2026-01-20T23:13:05+00:00,SAT-57951,227.61057057425265,66.29346592844023,845.8280929576564,-3.034701873766367,106288.09639549657,10.5,10500106288.096395,47.655,-122.3035,60.0,13.083333333333334
2026-01-20T23:13:06+00:00,SAT-57951,228.14402303986537,66.6926379514872,842.80148362222,-2.98688875515576,104613.47873246191,10.5,10500104613.478733,47.655,-122.3035,60.0,13.1
2026-01-20T23:13:07+00:00,SAT-57951,228.69973928054662,67.092433318108,839.8225599037447,-2.93856149954202,102920.85381678017,10.5,10500102920.853817,47.655,-122.3035,60.0,13.116666666666667
2026-01-20T23:13:08+00:00,SAT-57951,229.27896657289924,67.49268416911309,836.8918345682015,-2.8897212664177485,101210.26225878691,10.5,10500101210.262259,47.655,-122.3035,60.0,13.133333333333333
2026-01-20T23:13:09+00:00,SAT-57951,229.88303553310362,67.89320923142691,834.0098192251609,-2.840369529568054,99481.75567667071,10.5,10500099481.755676,47.655,-122.3035,60.0,13.15
2026-01-20T23:13:10+00:00,SAT-57951,230.5133657625997,68.29381272454016,831.1770240143383,-2.7905080966008025,97735.39738050525,10.5,10500097735.39738,47.655,-122.3035,60.0,13.166666666666666
2026-01-20T23:13:11+00:00,SAT-57951,231.1714717288811,68.69428316790165,828.3939572726617,-2.740139120039276,95971.26276076098,10.5,10500095971.26276,47.655,-122.3035,60.0,13.183333333333334
2026-01-20T23:13:12+00:00,SAT-57951,231.85896883737286,69.09439207936579,825.6611251902759,-2.6892650739717605,94189.43847047508,10.5,10500094189.43847,47.655,-122.3035,60.0,13.2
2026-01-20T23:13:13+00:00,SAT-57951,232.57757962347065,69.49389255058693,822.9790314898348,-2.6378888079783667,92390.02431399675,10.5,10500092390.024315,47.655,-122.3035,60.0,13.216666666666667
2026-01-20T23:13:14+00:00,SAT-57951,233.32913999729084,69.8925177014609,820.348177052011,-2.586013519784483,90573.13228919545,10.5,10500090573.13229,47.655,-122.3035,60.0,13.233333333333333
2026-01-20T23:13:15+00:00,SAT-57951,234.1156054032395,70.28997899279743,817.7690595682793,-2.53364277590492,88738.88731050618,10.5,10500088738.88731,47.655,-122.3035,60.0,13.25
2026-01-20T23:13:16+00:00,SAT-57951,234.9390567492528,70.68596439573527,815.2421731731101,-2.4807805126378586,86887.42724374178,10.5,10500086887.427244,47.655,-122.3035,60.0,13.266666666666667
2026-01-20T23:13:17+00:00,SAT-57951,235.80170589513244,71.08013640761216,812.7680080751726,-2.4274310642716856,85018.90389401557,10.5,10500085018.903894,47.655,-122.3035,60.0,13.283333333333333
2026-01-20T23:13:18+00:00,SAT-57951,236.70590044401945,71.47212991292126,810.3470501604056,-2.373599119730668,83133.48148728951,10.5,10500083133.481487,47.655,-122.3035,60.0,13.3
2026-01-20T23:13:19+00:00,SAT-57951,237.65412747288735,71.86154987489233,807.9797806383276,-2.319289777541971,81231.33859555164,10.5,10500081231.338596,47.655,-122.3035,60.0,13.316666666666666
2026-01-20T23:13:20+00:00,SAT-57951,238.64901580956945,72.24796887422278,805.6666756335258,-2.2645085392746696,79312.66790702264,10.5,10500079312.667908,47.655,-122.3035,60.0,13.333333333333334
2026-01-20T23:13:21+00:00,SAT-57951,239.69333630461873,72.6309244916312,803.4082057836891,-2.2092612865234895,77377.67542002889,10.5,10500077377.67542,47.655,-122.3035,60.0,13.35
2026-01-20T23:13:22+00:00,SAT-57951,240.7899994311249,73.00991654475308,801.2048358605964,-2.153554323291288,75426.58192741635,10.5,10500075426.581928,47.655,-122.3035,60.0,13.366666666666667
2026-01-20T23:13:23+00:00,SAT-57951,241.94204944350662,73.38440421397856,799.0570243488338,-2.0973943410344607,73459.62179229283,10.5,10500073459.621792,47.655,-122.3035,60.0,13.383333333333333
2026-01-20T23:13:24+00:00,SAT-57951,243.15265409847706,73.75380308034602,796.9652230593754,-2.0407884510079493,71477.044080887,10.5,10500071477.04408,47.655,-122.3035,60.0,13.4
2026-01-20T23:13:25+00:00,SAT-57951,244.42508883536118,74.11748213990577,794.9298767109036,-1.9837441742547175,69479.11221193742,10.5,10500069479.112211,47.655,-122.3035,60.0,13.416666666666666
2026-01-20T23:13:26+00:00,SAT-57951,245.76271407489062,74.4747608607664,792.9514225211135,-1.926269447084736,67466.10414858977,10.5,10500067466.104149,47.655,-122.3035,60.0,13.433333333333334
2026-01-20T23:13:27+00:00,SAT-57951,247.16894414435853,74.82490638456193,791.0302897925543,-1.868372595623081,65438.311506963764,10.5,10500065438.311506,47.655,-122.3035,60.0,13.45
2026-01-20T23:13:28+00:00,SAT-57951,248.64720614684782,75.16713099643813,789.1668995238529,-1.8100623808969107,63396.04113528954,10.5,10500063396.041136,47.655,-122.3035,60.0,13.466666666666667
2026-01-20T23:13:29+00:00,SAT-57951,250.2008870610992,75.50059004242488,787.3616639759717,-1.7513479666380856,61339.61398621942,10.5,10500061339.613987,47.655,-122.3035,60.0,13.483333333333333
2026-01-20T23:13:30+00:00,SAT-57951,251.83326723321733,75.82438048688442,785.614986270578,-1.6922389070049633,59269.36468679313,10.5,10500059269.364687,47.655,-122.3035,60.0,13.5
2026-01-20T23:13:31+00:00,SAT-57951,253.54743860464998,76.13754036491983,783.9272600006583,-1.6327451759276423,57185.64256623242,10.5,10500057185.642567,47.655,-122.3035,60.0,13.516666666666667
2026-01-20T23:13:32+00:00,SAT-57951,255.3462063812297,76.43904943461499,782.2988688118667,-1.5728771472115397,55088.81095908413,10.5,10500055088.810959,47.655,-122.3035,60.0,13.533333333333333
2026-01-20T23:13:33+00:00,SAT-57951,257.2319733680946,76.727831359604,780.7301860037143,-1.5126455801899652,52979.2467027127,10.5,10500052979.246702,47.655,-122.3035,60.0,13.55
2026-01-20T23:13:34+00:00,SAT-57951,259.2066071905248,77.00275779617938,779.2215741450715,-1.452061618588886,50857.34009753942,10.5,10500050857.340097,47.655,-122.3035,60.0,13.566666666666666
2026-01-20T23:13:35+00:00,SAT-57951,261.27129201111376,77.26265477719511,777.7733846907988,-1.391136807529163,48723.495502532656,10.5,10500048723.495502,47.655,-122.3035,60.0,13.583333333333334
2026-01-20T23:13:36+00:00,SAT-57951,263.426368199182,77.50631177409646,776.3859575814231,-1.329883045373875,46578.12964869747,10.5,10500046578.129648,47.655,-122.3035,60.0,13.6
2026-01-20T23:13:37+00:00,SAT-57951,265.6711655379417,77.73249375264294,775.0596208908369,-1.2683126062203443,44421.67242684142,10.5,10500044421.672426,47.655,-122.3035,60.0,13.616666666666667
2026-01-20T23:13:38+00:00,SAT-57951,268.00383831125794,77.9399564604515,773.7946904515665,-1.2064381222740577,42254.56627023488,10.5,10500042254.56627,47.655,-122.3035,60.0,13.633333333333333
2026-01-20T23:13:39+00:00,SAT-57951,270.42121309674104,78.12746500131618,772.5914694976184,-1.1442725655335722,40077.26551313879,10.5,10500040077.265512,47.655,-122.3035,60.0,13.65
2026-01-20T23:13:40+00:00,SAT-57951,272.91866246275777,78.29381553163527,771.450248325593,-1.0818292463969748,37890.236341997086,10.5,10500037890.236341,47.655,-122.3035,60.0,13.666666666666666
2026-01-20T23:13:41+00:00,SAT-57951,275.4900193265122,78.43785963148653,770.3713039571865,-1.0191218007583103,35693.956343499,10.5,10500035693.956343,47.655,-122.3035,60.0,13.683333333333334
2026-01-20T23:13:42+00:00,SAT-57951,278.1275468172637,78.55853057337656,769.3548998145635,-0.9561641693418399,33488.91378077736,10.5,10500033488.91378,47.655,-122.3035,60.0,13.7
2026-01-20T23:13:43+00:00,SAT-57951,280.82197672255427,78.65487038337358,768.4012854163399,-0.8929705909967182,31275.60735855984,10.5,10500031275.607359,47.655,-122.3035,60.0,13.716666666666667
2026-01-20T23:13:44+00:00,SAT-57951,283.5626256821067,78.72605630483737,767.5106960802524,-0.8295555963152758,29054.545999654187,10.5,10500029054.546,47.655,-122.3035,60.0,13.733333333333333
2026-01-20T23:13:45+00:00,SAT-57951,286.33759215051447,78.77142508131297,766.683352632194,-0.7659339611189688,26826.247215829466,10.5,10500026826.247215,47.655,-122.3035,60.0,13.75
2026-01-20T23:13:46+00:00,SAT-57951,289.1340292645313,78.7904934306997,765.9194611616381,-0.7021207363246748,24591.238153860046,10.5,10500024591.238153,47.655,-122.3035,60.0,13.766666666666667
2026-01-20T23:13:47+00:00,SAT-57951,291.9384808355229,78.78297322863308,765.2192127472769,-0.6381311892220592,22350.053538810578,10.5,10500022350.05354,47.655,-122.3035,60.0,13.783333333333333
2026-01-20T23:13:48+00:00,SAT-57951,294.73725958279624,78.74878023518674,764.5827832412261,-0.5739808195253154,20103.23623623584,10.5,10500020103.236237,47.655,-122.3035,60.0,13.8
2026-01-20T23:13:49+00:00,SAT-57951,297.5168419352553,78.68803568998794,764.0103330372194,-0.5096853081625261,17851.335458567555,10.5,10500017851.335459,47.655,-122.3035,60.0,13.816666666666666
2026-01-20T23:13:50+00:00,SAT-57951,300.26425101885644,78.60106067946185,763.5020068898788,-0.44526053317011094,15594.907321805156,10.5,10500015594.907322,47.655,-122.3035,60.0,13.833333333333334
2026-01-20T23:13:51+00:00,SAT-57951,302.9674015739715,78.48836376528791,763.0579337181304,-0.38072252556550024,13334.513299990196,10.5,10500013334.5133,47.655,-122.3035,60.0,13.85
2026-01-20T23:13:52+00:00,SAT-57951,305.6153848217981,78.35062289107269,762.678226452633,-0.316087461420432,11070.719947579653,10.5,10500011070.719948,47.655,-122.3035,60.0,13.866666666666667
2026-01-20T23:13:53+00:00,SAT-57951,308.19867903163845,78.18866295121325,762.3629818911097,-0.2513716354792635,8804.097975447623,10.5,10500008804.097975,47.655,-122.3035,60.0,13.883333333333333
2026-01-20T23:13:54+00:00,SAT-57951,310.70927952851486,78.00343060876864,762.1122805799918,-0.18659145043286618,6535.221875211733,10.5,10500006535.221876,47.655,-122.3035,60.0,13.9
2026-01-20T23:13:55+00:00,SAT-57951,313.1407500514593,77.79596794546273,761.9261867067601,-0.12176338600831808,4264.668836623435,10.5,10500004264.668837,47.655,-122.3035,60.0,13.916666666666666
2026-01-20T23:13:56+00:00,SAT-57951,315.48820349923284,77.5673863997935,761.8047480231144,-0.056903984314132634,1993.0182342959165,10.5,10500001993.018234,47.655,-122.3035,60.0,13.933333333333334
2026-01-20T23:13:57+00:00,SAT-57951,317.74822479683365,77.3188421685909,761.7479957827585,0.00797017295797179,-279.1491707863571,10.5,10499999720.85083,47.655,-122.3035,60.0,13.95
2026-01-20T23:13:58+00:00,SAT-57951,319.9187505013359,77.05151394830258,761.7559447019219,0.07284248560170364,-2551.251969180253,10.5,10499997448.748032,47.655,-122.3035,60.0,13.966666666666667
2026-01-20T23:13:59+00:00,SAT-57951,321.99892006719153,76.76658355687171,761.8285929408953,0.13769635517010112,-4822.708813061808,10.5,10499995177.291187,47.655,-122.3035,60.0,13.983333333333333
2026-01-20T23:14:00+00:00,SAT-57951,323.98891223117084,76.46521969943142,761.965922105785,0.2025152082166764,-7092.939230229408,10.5,10499992907.06077,47.655,-122.3035,60.0,14.0
2026-01-20T23:14:01+00:00,SAT-57951,325.88977793210427,76.14856487767692,762.1678972734464,0.2672825144762153,-9361.364260872304,10.5,10499990638.635738,47.655,-122.3035,60.0,14.016666666666667
2026-01-20T23:14:02+00:00,SAT-57951,327.7032783583847,75.81772529156211,762.4344670345507,0.33198180803492616,-11627.40719903876,10.5,10499988372.5928,47.655,-122.3035,60.0,14.033333333333333
2026-01-20T23:14:03+00:00,SAT-57951,329.43173429967845,75.4737634393679,762.7655635577642,0.39659671524212325,-13890.494570221292,10.5,10499986109.50543,47.655,-122.3035,60.0,14.05
2026-01-20T23:14:04+00:00,SAT-57951,331.07789058088906,75.11769306530158,763.1611026817657,0.4611109600812208,-16150.05631947158,10.5,10499983849.94368,47.655,-122.3035,60.0,14.066666666666666
2026-01-20T23:14:05+00:00,SAT-57951,332.6447973688577,74.75047610116081,763.6209840126199,0.5255084012920102,-18405.52711157966,10.5,10499981594.472889,47.655,-122.3035,60.0,14.083333333333334
2026-01-20T23:14:06+00:00,SAT-57951,334.1357089151571,74.37302120929168,764.1450910581752,0.5897730404666011,-20656.346614628015,10.5,10499979343.653385,47.655,-122.3035,60.0,14.1
2026-01-20T23:14:07+00:00,SAT-57951,335.55399901817134,73.98618361364464,764.7332913705338,0.6538890474925552,-22901.96039111774,10.5,10499977098.039608,47.655,-122.3035,60.0,14.116666666666667
2026-01-20T23:14:08+00:00,SAT-57951,336.90309201590196,73.59076590504822,765.3854367138998,0.7178407715541916,-25141.820283280813,10.5,10499974858.179716,47.655,-122.3035,60.0,14.133333333333333
2026-01-20T23:14:09+00:00,SAT-57951,338.18640765005733,73.18751957289776,766.1013632433965,0.7816127749960331,-27375.3855991212,10.5,10499972624.6144,47.655,-122.3035,60.0,14.15
2026-01-20T23:14:10+00:00,SAT-57951,339.407318069725,72.77714703649747,766.8808917176592,0.8451898342210843,-29602.12314387637,10.5,10499970397.876856,47.655,-122.3035,60.0,14.166666666666666
2026-01-20T23:14:11+00:00,SAT-57951,340.56911513689124,72.36030402080303,767.7238277123223,0.9085569615304324,-31821.5079849325,10.5,10499968178.492016,47.655,-122.3035,60.0,14.183333333333334
2026-01-20T23:14:12+00:00,SAT-57951,341.6749863969637,71.93760212649258,768.6299618552887,0.9716994329270623,-34033.024425631666,10.5,10499965966.975574,47.655,-122.3035,60.0,14.2
2026-01-20T23:14:13+00:00,SAT-57951,342.72799818319686,71.50961148654679,769.599070089728,1.0346027869364043,-36236.16596396246,10.5,10499963763.834036,47.655,-122.3035,60.0,14.216666666666667
2026-01-20T23:14:14+00:00,SAT-57951,343.73108446857856,71.07686344241921,770.6309139358992,1.0972528509204296,-38430.43621419092,10.5,10499961569.563786,47.655,-122.3035,60.0,14.233333333333333
2026-01-20T23:14:15+00:00,SAT-57951,344.6870403341899,70.63985316776845,771.7252407792172,1.1596357516779714,-40615.34927812861,10.5,10499959384.650723,47.655,-122.3035,60.0,14.25
2026-01-20T23:14:16+00:00,SAT-57951,345.5985190440273,70.19904220583611,772.8817841688907,1.2217379280173202,-42790.43018547805,10.5,10499957209.569815,47.655,-122.3035,60.0,14.266666666666667
2026-01-20T23:14:17+00:00,SAT-57951,346.46803190581375,69.75486089090879,774.1002641291,1.283546147752107,-44955.21548910055,10.5,10499955044.784512,47.655,-122.3035,60.0,14.283333333333333
2026-01-20T23:14:18+00:00,SAT-57951,347.2979502412273,69.30771063492887,775.3803874871247,1.3450475166214526,-47109.253577437405,10.5,10499952890.746422,47.655,-122.3035,60.0,14.3
2026-01-20T23:14:19+00:00,SAT-57951,348.0905089075031,68.8579660725802,776.7218482103685,1.4062294773667845,-49252.10464217627,10.5,10499950747.895357,47.655,-122.3035,60.0,14.316666666666666
2026-01-20T23:14:20+00:00,SAT-57951,348.8478109230873,68.40597706404087,778.1243277424624,1.4670798471098756,-51383.341987388136,10.5,10499948616.658012,47.655,-122.3035,60.0,14.333333333333334
2026-01-20T23:14:21+00:00,SAT-57951,349.57183286639224,67.95207054352852,779.5874953766466,1.5275868043278098,-53502.551573335455,10.5,10499946497.448427,47.655,-122.3035,60.0,14.35
2026-01-20T23:14:22+00:00,SAT-57951,350.26443074109653,67.4965522341155,781.111008616163,1.587738905010683,-55609.33258238328,10.5,10499944390.667418,47.655,-122.3035,60.0,14.366666666666667
2026-01-20T23:14:23+00:00,SAT-57951,350.92734611140565,67.03970822458996,782.6945135507602,1.6475250796539593,-57703.29731365882,10.5,10499942296.702686,47.655,-122.3035,60.0,14.383333333333333
2026-01-20T23:14:24+00:00,SAT-57951,351.56221233395223,66.58180642111519,784.3376452302018,1.7069346610688934,-59784.07215709002,10.5,10499940215.927843,47.655,-122.3035,60.0,14.4
2026-01-20T23:14:25+00:00,SAT-57951,352.1705607746436,66.12309787296928,786.0400280655077,1.7659573708772236,-61851.29712039269,10.5,10499938148.702879,47.655,-122.3035,60.0,14.416666666666666
2026-01-20T23:14:26+00:00,SAT-57951,352.75382690254304,65.6638179920782,787.8012762167293,1.8245833318474456,-63904.626261138896,10.5,10499936095.37374,47.655,-122.3035,60.0,14.433333333333334
2026-01-20T23:14:27+00:00,SAT-57951,353.31335620616596,65.20418766705143,789.6209939930252,1.8828030709734798,-65943.72779458495,10.5,10499934056.272205,47.655,-122.3035,60.0,14.45
2026-01-20T23:14:28+00:00,SAT-57951,353.8504098827764,64.7444142824749,791.4987762558095,1.94060752378641,-67968.28424468671,10.5,10499932031.715755,47.655,-122.3035,60.0,14.466666666666667
2026-01-20T23:14:29+00:00,SAT-57951,354.3661702714852,64.28469265075059,793.4342088261991,1.997988026210766,-69977.99215887226,10.5,10499930022.007841,47.655,-122.3035,60.0,14.483333333333333
2026-01-20T23:14:30+00:00,SAT-57951,354.86174600949875,63.825205866639415,795.4268688843399,2.0549363417828728,-71972.56306134348,10.5,10499928027.43694,47.655,-122.3035,60.0,14.5
2026-01-20T23:14:31+00:00,SAT-57951,355.3381769118114,63.366126083315486,797.476325395878,2.111444631633355,-73951.72240173644,10.5,10499926048.277597,47.655,-122.3035,60.0,14.516666666666667
2026-01-20T23:14:32+00:00,SAT-57951,355.796438558566,62.90761522940911,799.5821395084937,2.1675054591370952,-75915.20971798264,10.5,10499924084.790281,47.655,-122.3035,60.0,14.533333333333333
2026-01-20T23:14:33+00:00,SAT-57951,356.23744660347353,62.44982566453561,801.7438649530731,2.223111827509426,-77862.77995308666,10.5,10499922137.220047,47.655,-122.3035,60.0,14.55
2026-01-20T23:14:34+00:00,SAT-57951,356.662060815765,61.9929007725167,803.9610484823758,2.2782571137988024,-79794.20114327034,10.5,10499920205.798857,47.655,-122.3035,60.0,14.566666666666666
2026-01-20T23:14:35+00:00,SAT-57951,357.0710888451229,61.53697551862744,806.2332302438713,2.3329351239802345,-81709.25634757783,10.5,10499918290.743652,47.655,-122.3035,60.0,14.583333333333334
2026-01-20T23:14:36+00:00,SAT-57951,357.4652897453925,61.08217695032639,808.5599442075209,2.387140055872528,-83607.74234908054,10.5,10499916392.25765,47.655,-122.3035,60.0,14.6
2026-01-20T23:14:37+00:00,SAT-57951,357.84537725190177,60.62862466439133,810.9407185565777,2.4408665133946106,-85489.47015419384,10.5,10499914510.529846,47.655,-122.3035,60.0,14.616666666666667
2026-01-20T23:14:38+00:00,SAT-57951,358.2120228349812,60.17643123405111,813.3750760926033,2.4941094768234913,-87354.26395098525,10.5,10499912645.73605,47.655,-122.3035,60.0,14.633333333333333
2026-01-20T23:14:39+00:00,SAT-57951,358.5658585364737,59.725702607502406,815.8625346108219,2.5468643421444503,-89201.96248738428,10.5,10499910798.037512,47.655,-122.3035,60.0,14.65
2026-01-20T23:14:40+00:00,SAT-57951,358.9074796123983,59.27653846852328,818.4026073147206,2.5991268745485483,-91032.41744246866,10.5,10499908967.582558,47.655,-122.3035,60.0,14.666666666666666
2026-01-20T23:14:41+00:00,SAT-57951,359.23744698245815,58.82903257739509,820.9948031842704,2.650893215386341,-92845.49367001282,10.5,10499907154.50633,47.655,-122.3035,60.0,14.683333333333334
2026-01-20T23:14:42+00:00,SAT-57951,359.55628950702175,58.38327308480566,823.6386273510823,2.7021598816920624,-94641.06918182262,10.5,10499905358.930819,47.655,-122.3035,60.0,14.7
2026-01-20T23:14:43+00:00,SAT-57951,359.8645061022917,57.93934282243461,826.3335814730899,2.7529237609501003,-96419.03496443547,10.5,10499903580.965036,47.655,-122.3035,60.0,14.716666666666667
2026-01-20T23:14:44+00:00,SAT-57951,0.16256770429211845,57.49731957323582,829.0791641040108,2.80318209875987,-98179.29454709176,10.5,10499901820.705452,47.655,-122.3035,60.0,14.733333333333333
2026-01-20T23:14:45+00:00,SAT-57951,0.4509190918910106,57.057276324227345,831.8748710505073,2.852932462033844,-99921.76271277432,10.5,10499900078.237288,47.655,-122.3035,60.0,14.75
2026-01-20T23:14:46+00:00,SAT-57951,0.7299805769409055,56.61928150701261,834.7201956926424,2.902172816023587,-101646.36819598598,10.5,10499898353.631804,47.655,-122.3035,60.0,14.766666666666667
2026-01-20T23:14:47+00:00,SAT-57951,1.0001495821152715,56.183399210151215,837.6146293811565,2.9509014047505184,-103353.04949492906,10.5,10499896646.950504,47.655,-122.3035,60.0,14.783333333333333
2026-01-20T23:14:48+00:00,SAT-57951,1.261802096034882,55.749689394782536,840.5576617154944,2.9991168449444863,-105041.75816163162,10.5,10499894958.241838,47.655,-122.3035,60.0,14.8
2026-01-20T23:14:49+00:00,SAT-57951,1.5152940347174244,55.31820808222421,843.5487809155192,3.0468180257050514,-106712.45528766117,10.5,10499893287.544712,47.655,-122.3035,60.0,14.816666666666666
2026-01-20T23:14:50+00:00,SAT-57951,1.7609624990007142,54.88900754357325,846.5874740931556,3.0940041799879343,-108365.11400788244,10.5,10499891634.885992,47.655,-122.3035,60.0,14.833333333333334
2026-01-20T23:14:51+00:00,SAT-57951,1.9991269503399633,54.46213646717345,849.6732275953302,3.1406748200985826,-109999.71724116927,10.5,10499890000.282759,47.655,-122.3035,60.0,14.85
2026-01-20T23:14:52+00:00,SAT-57951,2.2300902999358923,54.03764012441849,852.8055272825751,3.186829775626336,-111616.2590190195,10.5,10499888383.74098,47.655,-122.3035,60.0,14.866666666666667
2026-01-20T23:14:53+00:00,SAT-57951,2.4541399255974206,53.61556052028796,855.9838588454666,3.232469119696521,-113214.7419025914,10.5,10499886785.258097,47.655,-122.3035,60.0,14.883333333333333
2026-01-20T23:14:54+00:00,SAT-57951,2.6715486138144366,53.19593654436278,859.2077080475104,3.277593207196081,-114795.17832152687,10.5,10499885204.821678,47.655,-122.3035,60.0,14.9
2026-01-20T23:14:55+00:00,SAT-57951,2.8825754404670034,52.77880410787865,862.476561006154,3.3222026958718076,-116357.5913129008,10.5,10499883642.408688,47.655,-122.3035,60.0,14.916666666666666
2026-01-20T23:14:56+00:00,SAT-57951,3.087466593036836,52.36419627036417,865.789904494837,3.3662984451957487,-117902.01097905992,10.5,10499882097.989021,47.655,-122.3035,60.0,14.933333333333334
2026-01-20T23:14:57+00:00,SAT-57951,3.2864561314395404,51.95214337135843,869.1472261441787,3.4098815702053793,-119428.4763733332,10.5,10499880571.523626,47.655,-122.3035,60.0,14.95
2026-01-20T23:14:58+00:00,SAT-57951,3.479766701456477,51.54267314816887,872.5480146968636,3.452953457265275,-120937.03605207236,10.5,10499879062.963947,47.655,-122.3035,60.0,14.966666666666667
2026-01-20T23:14:59+00:00,SAT-57951,3.667610201691762,51.13581084532415,875.9917602782429,3.495515663209499,-122427.74454219172,10.5,10499877572.255457,47.655,-122.3035,60.0,14.983333333333333
