satellites_20260120_184412/SAT-64098.csv

timestamp,satellite,azimuth_deg,elevation_deg,distance_km,relative_velocity_kms,doppler_shift_hz,tx_freq_ghz,rx_freq_hz,ue_lat,ue_lon,ue_alt_m,time_minutes
2026-01-20T23:08:52+00:00,SAT-64098,213.39239458668385,40.224463886403875,1195.2755325044911,-5.348212049636717,187317.00889281722,10.5,10500187317.008892,47.655,-122.3035,60.0,8.866666666666667
2026-01-20T23:08:53+00:00,SAT-64098,213.46239958574674,40.45989103013457,1189.9415823536533,-5.330859451709882,186709.24751200297,10.5,10500186709.247513,47.655,-122.3035,60.0,8.883333333333333
2026-01-20T23:08:54+00:00,SAT-64098,213.53385648096273,40.697123325967326,1184.624938527148,-5.313265992399221,186093.05014668452,10.5,10500186093.050146,47.655,-122.3035,60.0,8.9
2026-01-20T23:08:55+00:00,SAT-64098,213.60680018794076,40.93617679001798,1179.3258412440618,-5.29542813321011,185468.29286381233,10.5,10500185468.292864,47.655,-122.3035,60.0,8.916666666666666
2026-01-20T23:08:56+00:00,SAT-64098,213.68126673483323,41.17706742683286,1174.0445342525404,-5.277342343518985,184834.85200601458,10.5,10500184834.852007,47.655,-122.3035,60.0,8.933333333333334
2026-01-20T23:08:57+00:00,SAT-64098,213.75729330707574,41.41981122200094,1168.7812648219376,-5.259004972986028,184192.59972294996,10.5,10500184192.599724,47.655,-122.3035,60.0,8.95
2026-01-20T23:08:58+00:00,SAT-64098,213.8349182922955,41.664424128426475,1163.5362838622127,-5.24041240571627,183541.4093706815,10.5,10500183541.40937,47.655,-122.3035,60.0,8.966666666666667
2026-01-20T23:08:59+00:00,SAT-64098,213.914181329696,41.91092205904677,1158.3098458895784,-5.22156094249923,182881.15138721038,10.5,10500182881.151386,47.655,-122.3035,60.0,8.983333333333333
2026-01-20T23:09:00+00:00,SAT-64098,213.99512335998227,42.15932087356882,1153.1022091095924,-5.202446852430822,182211.69510049393,10.5,10500182211.6951,47.655,-122.3035,60.0,9.0
2026-01-20T23:09:01+00:00,SAT-64098,214.07778667847788,42.409636366921376,1147.913635448768,-5.183066357137458,181532.90817590652,10.5,10500181532.908176,47.655,-122.3035,60.0,9.016666666666667
2026-01-20T23:09:02+00:00,SAT-64098,214.1622149905389,42.66188425630574,1142.7443906019162,-5.1634156472005595,180844.6571914957,10.5,10500180844.657192,47.655,-122.3035,60.0,9.033333333333333
2026-01-20T23:09:03+00:00,SAT-64098,214.2484534699573,42.91608016832275,1137.5947440631082,-5.143490876354858,180146.80743478215,10.5,10500180146.807434,47.655,-122.3035,60.0,9.05
2026-01-20T23:09:04+00:00,SAT-64098,214.336548820096,43.172239625109384,1132.4649691624236,-5.123288132374381,179439.22188306355,10.5,10500179439.221884,47.655,-122.3035,60.0,9.066666666666666
2026-01-20T23:09:05+00:00,SAT-64098,214.42654933754002,43.43037802823701,1127.3553431317357,-5.102803493579127,178721.76318251752,10.5,10500178721.763182,47.655,-122.3035,60.0,9.083333333333334
2026-01-20T23:09:06+00:00,SAT-64098,214.51850497988252,43.690510644593644,1122.2661471141396,-5.082032987612975,177994.29220442977,10.5,10500177994.292204,47.655,-122.3035,60.0,9.1
2026-01-20T23:09:07+00:00,SAT-64098,214.61246743617795,43.952652589377934,1117.1976662144934,-5.060972589543073,177256.6679786263,10.5,10500177256.667978,47.655,-122.3035,60.0,9.116666666666667
2026-01-20T23:09:08+00:00,SAT-64098,214.70849020084836,44.21681880805688,1112.1501895518559,-5.039618264510018,176508.74918726337,10.5,10500176508.749187,47.655,-122.3035,60.0,9.133333333333333
2026-01-20T23:09:09+00:00,SAT-64098,214.80662865218122,44.48302405957833,1107.1240102693844,-5.0179659232931915,175750.3926085376,10.5,10500175750.392609,47.655,-122.3035,60.0,9.15
2026-01-20T23:09:10+00:00,SAT-64098,214.90694013392502,44.751282896312084,1102.1194255885532,-4.996011437814758,174981.45365970134,10.5,10500174981.45366,47.655,-122.3035,60.0,9.166666666666666
2026-01-20T23:09:11+00:00,SAT-64098,215.00948404139234,45.021609643718634,1097.1367368479061,-4.973750679113219,174201.7877270575,10.5,10500174201.787727,47.655,-122.3035,60.0,9.183333333333334
2026-01-20T23:09:12+00:00,SAT-64098,215.11432191279147,45.29401838099958,1092.1762495039372,-4.951179426372701,173411.24697978015,10.5,10500173411.24698,47.655,-122.3035,60.0,9.2
2026-01-20T23:09:13+00:00,SAT-64098,215.2215175233625,45.568522915660246,1087.2382732227015,-4.928293490107178,172609.6846843471,10.5,10500172609.684685,47.655,-122.3035,60.0,9.216666666666667
2026-01-20T23:09:14+00:00,SAT-64098,215.33113698711526,45.84513676357296,1082.3231218485678,-4.905088603969494,171796.95141523436,10.5,10500171796.951416,47.655,-122.3035,60.0,9.233333333333333
2026-01-20T23:09:15+00:00,SAT-64098,215.44324886153686,46.12387312185273,1077.4311134808756,-4.881560485316433,170972.8971761609,10.5,10500170972.897177,47.655,-122.3035,60.0,9.25
2026-01-20T23:09:16+00:00,SAT-64098,215.55792425918636,46.40474484369981,1072.5625704901868,-4.857704844990538,170137.37174268957,10.5,10500170137.371742,47.655,-122.3035,60.0,9.266666666666667
2026-01-20T23:09:17+00:00,SAT-64098,215.67523696553653,46.68776441246762,1067.717819524783,-4.83351734306066,169290.22311207352,10.5,10500169290.223112,47.655,-122.3035,60.0,9.283333333333333
2026-01-20T23:09:18+00:00,SAT-64098,215.79526356207447,46.97294391172032,1062.8971915613038,-4.808993627521237,168431.29885866903,10.5,10500168431.298859,47.655,-122.3035,60.0,9.3
2026-01-20T23:09:19+00:00,SAT-64098,215.91808355699553,47.26029499594917,1058.1010219167893,-4.784129308907733,167560.44524486072,10.5,10500167560.445246,47.655,-122.3035,60.0,9.316666666666666
2026-01-20T23:09:20+00:00,SAT-64098,216.04377952239344,47.54982885816526,1053.3296502860387,-4.758920000920426,166677.50864387816,10.5,10500166677.508644,47.655,-122.3035,60.0,9.333333333333334
2026-01-20T23:09:21+00:00,SAT-64098,216.1724372400423,47.84155619820485,1048.583420738454,-4.733361283916943,165782.33426115042,10.5,10500165782.33426,47.655,-122.3035,60.0,9.35
2026-01-20T23:09:22+00:00,SAT-64098,216.30414585428187,48.13548718705196,1043.862681751294,-4.707448722041558,164874.76673424643,10.5,10500164874.766735,47.655,-122.3035,60.0,9.366666666666667
2026-01-20T23:09:23+00:00,SAT-64098,216.43899803384068,48.43163143026776,1039.1677862258446,-4.681177878578259,163954.650670604,10.5,10500163954.650671,47.655,-122.3035,60.0,9.383333333333333
2026-01-20T23:09:24+00:00,SAT-64098,216.57709014321105,48.7299979303902,1034.499091488276,-4.654544289783775,163021.82973105228,10.5,10500163021.829731,47.655,-122.3035,60.0,9.4
2026-01-20T23:09:25+00:00,SAT-64098,216.7185224229014,49.03059504557951,1029.8569593165982,-4.627543503480779,162076.14798150852,10.5,10500162076.147982,47.655,-122.3035,60.0,9.416666666666666
2026-01-20T23:09:26+00:00,SAT-64098,216.86339918112716,49.333430448495925,1025.2417559291268,-4.600171042863607,161117.44862530156,10.5,10500161117.448626,47.655,-122.3035,60.0,9.433333333333334
2026-01-20T23:09:27+00:00,SAT-64098,217.01182899530497,49.63851108050311,1020.6538520090442,-4.572422425105595,160145.57465487922,10.5,10500160145.574656,47.655,-122.3035,60.0,9.45
2026-01-20T23:09:28+00:00,SAT-64098,217.16392492574298,49.945843104553184,1016.0936227104055,-4.544293187078799,159160.36975262198,10.5,10500159160.369753,47.655,-122.3035,60.0,9.466666666666667
2026-01-20T23:09:29+00:00,SAT-64098,217.31980474257432,50.255431857187425,1011.5614476384923,-4.515778893662254,158161.678581833,10.5,10500158161.678581,47.655,-122.3035,60.0,9.483333333333333
2026-01-20T23:09:30+00:00,SAT-64098,217.47959116635408,50.56728179845017,1007.0577108218798,-4.486875035267458,157149.34319764742,10.5,10500157149.343197,47.655,-122.3035,60.0,9.5
2026-01-20T23:09:31+00:00,SAT-64098,217.64341211897874,50.88139645179933,1002.5828007867062,-4.457577191712943,156123.208786613,10.5,10500156123.208786,47.655,-122.3035,60.0,9.516666666666667
2026-01-20T23:09:32+00:00,SAT-64098,217.811400995475,51.19777835215616,998.1371104675046,-4.427880933556591,155083.12021093006,10.5,10500155083.12021,47.655,-122.3035,60.0,9.533333333333333
2026-01-20T23:09:33+00:00,SAT-64098,217.98369694834753,51.51642898399188,993.7210372164375,-4.397781843119666,154028.92274480264,10.5,10500154028.922745,47.655,-122.3035,60.0,9.55
2026-01-20T23:09:34+00:00,SAT-64098,218.16044518970955,51.83734871735605,989.3349827915662,-4.36727550713592,152960.46181697858,10.5,10500152960.461817,47.655,-122.3035,60.0,9.566666666666666
2026-01-20T23:09:35+00:00,SAT-64098,218.34179731123527,52.16053673964417,984.9793533524493,-4.336357588332067,151877.5855178008,10.5,10500151877.585518,47.655,-122.3035,60.0,9.583333333333334
2026-01-20T23:09:36+00:00,SAT-64098,218.52791162661495,52.4859909887707,980.6545593843528,-4.305023758188905,150780.14224421716,10.5,10500150780.142244,47.655,-122.3035,60.0,9.6
2026-01-20T23:09:37+00:00,SAT-64098,218.7189535320383,52.813708077371054,976.361015689519,-4.273269699655337,149667.9807948372,10.5,10500149667.980795,47.655,-122.3035,60.0,9.616666666666667
2026-01-20T23:09:38+00:00,SAT-64098,218.91509588881837,53.1436832126938,972.0991413757295,-4.241091169901319,148540.95256780557,10.5,10500148540.952568,47.655,-122.3035,60.0,9.633333333333333
2026-01-20T23:09:39+00:00,SAT-64098,219.11651943248782,53.47591011663127,967.8693597822812,-4.208483964831918,147398.91031793447,10.5,10500147398.910318,47.655,-122.3035,60.0,9.65
2026-01-20T23:09:40+00:00,SAT-64098,219.32341320571746,53.81038093818616,963.6720984413555,-4.175443924749135,146241.70835500443,10.5,10500146241.708355,47.655,-122.3035,60.0,9.666666666666666
2026-01-20T23:09:41+00:00,SAT-64098,219.53597501843018,54.14708616109235,959.507789033739,-4.14196694742904,145069.20300178105,10.5,10500145069.203001,47.655,-122.3035,60.0,9.683333333333334
2026-01-20T23:09:42+00:00,SAT-64098,219.75441193741594,54.48601450687181,955.376867331503,-4.108049006935429,143881.25325294878,10.5,10500143881.253252,47.655,-122.3035,60.0,9.7
2026-01-20T23:09:43+00:00,SAT-64098,219.97894080782237,54.827152833502964,951.2797731219194,-4.073686121660673,142677.7196557662,10.5,10500142677.719656,47.655,-122.3035,60.0,9.716666666666667
2026-01-20T23:09:44+00:00,SAT-64098,220.20978880585778,55.17048602512607,947.21695016325,-4.038874415302953,141458.46644574698,10.5,10500141458.466446,47.655,-122.3035,60.0,9.733333333333333
2026-01-20T23:09:45+00:00,SAT-64098,220.44719403005865,55.51599688003736,943.1888460797211,-4.003610041353305,140223.35890187637,10.5,10500140223.358902,47.655,-122.3035,60.0,9.75
2026-01-20T23:09:46+00:00,SAT-64098,220.69140612577377,55.86366598506881,939.1959123318114,-3.9678893282795284,138972.26843156625,10.5,10500138972.26843,47.655,-122.3035,60.0,9.766666666666667
2026-01-20T23:09:47+00:00,SAT-64098,220.9426869585537,56.213471594729036,935.2386040417407,-3.9317085933046836,137705.06604838997,10.5,10500137705.066048,47.655,-122.3035,60.0,9.783333333333333
2026-01-20T23:09:48+00:00,SAT-64098,221.20131131896392,56.56538948595744,931.3173800046848,-3.895064334831538,136421.62911160075,10.5,10500136421.629112,47.655,-122.3035,60.0,9.8
2026-01-20T23:09:49+00:00,SAT-64098,221.46756768514098,56.919392820790115,927.4327025080795,-3.857953109049352,135121.8370043792,10.5,10500135121.837004,47.655,-122.3035,60.0,9.816666666666666
2026-01-20T23:09:50+00:00,SAT-64098,221.74175902627778,57.2754519887087,923.5850372739875,-3.820371628301219,133805.5745790736,10.5,10500133805.57458,47.655,-122.3035,60.0,9.833333333333334
2026-01-20T23:09:51+00:00,SAT-64098,222.02420366479922,57.63353444767013,919.7748533033619,-3.7823166789788605,132472.72928152862,10.5,10500132472.729282,47.655,-122.3035,60.0,9.85
2026-01-20T23:09:52+00:00,SAT-64098,222.3152361881032,57.99360454667677,916.0026228021936,-3.7437852209672773,131123.19463405717,10.5,10500131123.194633,47.655,-122.3035,60.0,9.866666666666667
2026-01-20T23:09:53+00:00,SAT-64098,222.61520842658936,58.355623345868636,912.2688210084823,-3.7047743257764725,129756.86806855215,10.5,10500129756.868069,47.655,-122.3035,60.0,9.883333333333333
2026-01-20T23:09:54+00:00,SAT-64098,222.92449048990167,58.71954841824788,908.5739260809078,-3.665281209393038,128373.65207708761,10.5,10500128373.652077,47.655,-122.3035,60.0,9.9
2026-01-20T23:09:55+00:00,SAT-64098,223.24347187215,59.085333640886674,904.9184189547398,-3.6253032654545834,126973.45537382773,10.5,10500126973.455374,47.655,-122.3035,60.0,9.916666666666666
2026-01-20T23:09:56+00:00,SAT-64098,223.57256263087123,59.45292897489536,901.3027831646598,-3.584838007542394,125556.19087387159,10.5,10500125556.190874,47.655,-122.3035,60.0,9.933333333333334
2026-01-20T23:09:57+00:00,SAT-64098,223.91219463560424,59.82228022386506,897.7275047251375,-3.543883155439794,124121.77871438592,10.5,10500124121.778715,47.655,-122.3035,60.0,9.95
2026-01-20T23:09:58+00:00,SAT-64098,224.26282290332503,60.19332878403603,894.1930719247789,-3.502436575296767,122670.14415891696,10.5,10500122670.14416,47.655,-122.3035,60.0,9.966666666666667
2026-01-20T23:09:59+00:00,SAT-64098,224.62492701159658,60.56601137008882,890.6999751803495,-3.4604963520958676,121201.2201354532,10.5,10500121201.220135,47.655,-122.3035,60.0,9.983333333333333
2026-01-20T23:10:00+00:00,SAT-64098,224.9990126064977,60.94025972876283,887.2487068185259,-3.4180607289564233,119714.94511060197,10.5,10500119714.94511,47.655,-122.3035,60.0,10.0
2026-01-20T23:10:01+00:00,SAT-64098,225.3856129959479,61.31600032474672,883.8397609181801,-3.3751281871241345,118211.26589116333,10.5,10500118211.265892,47.655,-122.3035,60.0,10.016666666666667
2026-01-20T23:10:02+00:00,SAT-64098,225.7852908473411,61.693154012183086,880.4736330728882,-3.3316973897257567,116690.13565418129,10.5,10500116690.135654,47.655,-122.3035,60.0,10.033333333333333
2026-01-20T23:10:03+00:00,SAT-64098,226.19863997817268,62.07163567523145,877.150820209535,-3.287767237672006,115151.51590489999,10.5,10500115151.515905,47.655,-122.3035,60.0,10.05
2026-01-20T23:10:04+00:00,SAT-64098,226.62628725553947,62.451353847983896,873.8718203511636,-3.2433368434353222,113595.37555835006,10.5,10500113595.375559,47.655,-122.3035,60.0,10.066666666666666
2026-01-20T23:10:05+00:00,SAT-64098,227.06889459721108,62.83221030247233,870.6371324059775,-3.1984055770346123,112021.69254992876,10.5,10500112021.69255,47.655,-122.3035,60.0,10.083333333333334
2026-01-20T23:10:06+00:00,SAT-64098,227.5271610851391,63.214099610755476,867.4472559104815,-3.1529730618184226,110430.45368770897,10.5,10500110430.453688,47.655,-122.3035,60.0,10.1
2026-01-20T23:10:07+00:00,SAT-64098,228.00182518560445,63.596908672981044,864.302690776828,-3.1070391257636363,108821.65294671348,10.5,10500108821.652946,47.655,-122.3035,60.0,10.116666666666667
2026-01-20T23:10:08+00:00,SAT-64098,228.49366706694633,63.98051620309934,861.203937088733,-3.0606039191268257,107195.29558956306,10.5,10500107195.29559,47.655,-122.3035,60.0,10.133333333333333
2026-01-20T23:10:09+00:00,SAT-64098,229.00351103696946,64.36479218973626,858.1514947800572,-3.0136678404958617,105551.39557649095,10.5,10500105551.395576,47.655,-122.3035,60.0,10.15
2026-01-20T23:10:10+00:00,SAT-64098,229.53222806558736,64.74959730616762,855.145863387136,-2.966231563938377,103889.97651619694,10.5,10500103889.976517,47.655,-122.3035,60.0,10.166666666666666
2026-01-20T23:10:11+00:00,SAT-64098,230.08073839785686,65.13478227837147,852.1875417740348,-2.918296050752953,102211.07207742367,10.5,10500102211.072077,47.655,-122.3035,60.0,10.183333333333334
2026-01-20T23:10:12+00:00,SAT-64098,230.65001424205255,65.5201872061889,849.2770278460839,-2.86986257930378,100514.72703389253,10.5,10500100514.727034,47.655,-122.3035,60.0,10.2
2026-01-20T23:10:13+00:00,SAT-64098,231.2410825182702,65.90564083682808,846.4148182336583,-2.820932718850004,98800.99634769678,10.5,10500098800.996347,47.655,-122.3035,60.0,10.216666666666667
2026-01-20T23:10:14+00:00,SAT-64098,231.85502763195132,66.29095977998374,843.6014080020585,-2.7715083445044177,97069.94569321816,10.5,10500097069.945694,47.655,-122.3035,60.0,10.233333333333333
2026-01-20T23:10:15+00:00,SAT-64098,232.49299424674896,66.6759476665006,840.8372903464727,-2.7215916767095547,95321.65283974663,10.5,10500095321.65284,47.655,-122.3035,60.0,10.25
2026-01-20T23:10:16+00:00,SAT-64098,233.15619002168023,67.06039425101514,838.1229562475678,-2.671185238000132,93556.20613711832,10.5,10500093556.206137,47.655,-122.3035,60.0,10.266666666666667
2026-01-20T23:10:17+00:00,SAT-64098,233.84588824005726,67.4440744440841,835.4588941702024,-2.6202919095778205,91773.7064972032,10.5,10500091773.706497,47.655,-122.3035,60.0,10.283333333333333
2026-01-20T23:10:18+00:00,SAT-64098,234.56343028672535,67.82674728511977,832.8455897057167,-2.568914883673392,89974.26572542601,10.5,10500089974.265726,47.655,-122.3035,60.0,10.3
2026-01-20T23:10:19+00:00,SAT-64098,235.31022786413905,68.20815483926071,830.2835252617331,-2.517057745320295,88158.00938482281,10.5,10500088158.009384,47.655,-122.3035,60.0,10.316666666666666
2026-01-20T23:10:20+00:00,SAT-64098,236.08776487993964,68.58802103578705,827.7731796704003,-2.4647243967232964,86325.07414711083,10.5,10500086325.074146,47.655,-122.3035,60.0,10.333333333333334
2026-01-20T23:10:21+00:00,SAT-64098,236.89759883646417,68.96605042481443,825.3150278720683,-2.411919120240631,84475.60999858985,10.5,10500084475.609999,47.655,-122.3035,60.0,10.35
2026-01-20T23:10:22+00:00,SAT-64098,237.74136160981942,69.34192687412464,822.9095405361483,-2.3586465431446824,82609.77900591203,10.5,10500082609.779005,47.655,-122.3035,60.0,10.366666666666667
2026-01-20T23:10:23+00:00,SAT-64098,238.62075940570725,69.71531219469216,820.5571837171187,-2.3049116954693276,80727.75734214082,10.5,10500080727.757341,47.655,-122.3035,60.0,10.383333333333333
2026-01-20T23:10:24+00:00,SAT-64098,239.53757170653125,70.08584471531937,818.2584184528373,-2.250719953402649,78829.73330412406,10.5,10500078829.733305,47.655,-122.3035,60.0,10.4
2026-01-20T23:10:25+00:00,SAT-64098,240.49364891088715,70.45313779744491,816.0137004193103,-2.196077081760253,76915.90880008948,10.5,10500076915.9088,47.655,-122.3035,60.0,10.416666666666666
2026-01-20T23:10:26+00:00,SAT-64098,241.49090839984632,70.81677831894692,813.8234795431015,-2.140989230100058,74986.49921356796,10.5,10500074986.499214,47.655,-122.3035,60.0,10.433333333333334
2026-01-20T23:10:27+00:00,SAT-64098,242.53132866509407,71.17632513789721,811.6881996176149,-2.0854629263291447,73041.7331794785,10.5,10500073041.73318,47.655,-122.3035,60.0,10.45
2026-01-20T23:10:28+00:00,SAT-64098,243.61694109739648,71.53130756008802,809.6082979257561,-2.029505084224645,71081.85284754152,10.5,10500071081.852848,47.655,-122.3035,60.0,10.466666666666667
2026-01-20T23:10:29+00:00,SAT-64098,244.74981899138953,71.88122384432867,807.5842048550893,-1.9731230131932154,69107.11422409686,10.5,10500069107.114223,47.655,-122.3035,60.0,10.483333333333333
2026-01-20T23:10:30+00:00,SAT-64098,245.93206327134084,72.22553978650711,805.6163435032647,-1.9163243916751305,67117.78624060273,10.5,10500067117.786242,47.655,-122.3035,60.0,10.5
2026-01-20T23:10:31+00:00,SAT-64098,247.16578437564,72.56368742670121,803.7051293099673,-1.8591173044666778,65114.15206082375,10.5,10500065114.152061,47.655,-122.3035,60.0,10.516666666666667
2026-01-20T23:10:32+00:00,SAT-64098,248.45307976794126,72.89506395285999,801.8509696516459,-1.801510220420611,63096.50829980658,10.5,10500063096.508299,47.655,-122.3035,60.0,10.533333333333333
2026-01-20T23:10:33+00:00,SAT-64098,249.79600646174686,73.21903086601286,800.0542634584798,-1.7435119843617768,61065.16474073092,10.5,10500061065.164742,47.655,-122.3035,60.0,10.55
2026-01-20T23:10:34+00:00,SAT-64098,251.19654800452824,73.53491349874704,798.3154008394096,-1.6851318244498192,59020.44459278259,10.5,10500059020.444593,47.655,-122.3035,60.0,10.566666666666666
2026-01-20T23:10:35+00:00,SAT-64098,252.6565754359945,73.84200099383709,796.634762699825,-1.626379361712111,56962.684825037075,10.5,10500056962.684826,47.655,-122.3035,60.0,10.583333333333334
2026-01-20T23:10:36+00:00,SAT-64098,254.17780184937573,74.13954686212709,795.0127203497441,-1.5672645796082532,54892.23510047961,10.5,10500054892.2351,47.655,-122.3035,60.0,10.6
2026-01-20T23:10:37+00:00,SAT-64098,255.7617303318064,74.42677024391625,793.4496351423481,-1.5077978337218239,52809.45811545116,10.5,10500052809.458115,47.655,-122.3035,60.0,10.616666666666667
2026-01-20T23:10:38+00:00,SAT-64098,257.4095954049761,74.70285802326724,791.9458581028496,-1.4479898554735595,50714.729729699786,10.5,10500050714.72973,47.655,-122.3035,60.0,10.633333333333333
2026-01-20T23:10:39+00:00,SAT-64098,259.12229842904287,74.96696794144685,790.5017295536572,-1.3878517253775609,48608.43802969983,10.5,10500048608.43803,47.655,-122.3035,60.0,10.65
2026-01-20T23:10:40+00:00,SAT-64098,260.9003378811225,75.21823284934375,789.117578766214,-1.3273948855320623,46490.98376613148,10.5,10500046490.983767,47.655,-122.3035,60.0,10.666666666666666
2026-01-20T23:10:41+00:00,SAT-64098,262.743736082958,75.45576623952945,787.7937236003768,-1.2666311056666695,44362.77916471144,10.5,10500044362.779165,47.655,-122.3035,60.0,10.683333333333334
2026-01-20T23:10:42+00:00,SAT-64098,264.65196452516614,75.67866915813042,786.5304701776585,-1.2055725121418859,42224.24894187899,10.5,10500042224.248941,47.655,-122.3035,60.0,10.7
2026-01-20T23:10:43+00:00,SAT-64098,266.6238708082398,75.88603857621113,785.328112525549,-1.144231542041875,40075.82869693035,10.5,10500040075.828697,47.655,-122.3035,60.0,10.716666666666667
2026-01-20T23:10:44+00:00,SAT-64098,268.65761075095895,76.07697721779526,784.1869322676192,-1.0826209606286343,37917.96552333768,10.5,10500037917.965523,47.655,-122.3035,60.0,10.733333333333333
2026-01-20T23:10:45+00:00,SAT-64098,270.7505900515723,76.25060479106547,783.1071982962189,-1.0207538183239853,35751.1165020764,10.5,10500035751.116503,47.655,-122.3035,60.0,10.75
2026-01-20T23:10:46+00:00,SAT-64098,272.89942013346547,76.40607045613079,782.0891664880771,-0.9586434782910439,33575.749667644945,10.5,10500033575.749668,47.655,-122.3035,60.0,10.766666666666667
2026-01-20T23:10:47+00:00,SAT-64098,275.09989318273296,76.54256628132832,781.1330793923948,-0.8963035747403761,31392.342547769997,10.5,10500031392.342548,47.655,-122.3035,60.0,10.783333333333333
2026-01-20T23:10:48+00:00,SAT-64098,277.3469808453518,76.65934130871881,780.2391659605205,-0.8337480069383431,29201.381953553355,10.5,10500029201.381954,47.655,-122.3035,60.0,10.8
2026-01-20T23:10:49+00:00,SAT-64098,279.6348604682805,76.75571576450984,779.4076412816007,-0.7709909257369898,27003.363507691687,10.5,10500027003.363508,47.655,-122.3035,60.0,10.816666666666666
2026-01-20T23:10:50+00:00,SAT-64098,281.95697138376477,76.83109485810505,778.6387063316656,-0.7080467272130386,24798.79142168715,10.5,10500024798.791422,47.655,-122.3035,60.0,10.833333333333334
2026-01-20T23:10:51+00:00,SAT-64098,284.306101975449,76.88498156121723,777.9325477290586,-0.6449300218648172,22588.177416993527,10.5,10500022588.177418,47.655,-122.3035,60.0,10.85
2026-01-20T23:10:52+00:00,SAT-64098,286.67450600249464,76.91698774415777,777.2893375205853,-0.581655625683599,20372.040412296792,10.5,10500020372.040413,47.655,-122.3035,60.0,10.866666666666667
2026-01-20T23:10:53+00:00,SAT-64098,289.05404447883416,76.9268430907495,776.7092329765701,-0.5182385511992791,18150.906209896817,10.5,10500018150.90621,47.655,-122.3035,60.0,10.883333333333333
2026-01-20T23:10:54+00:00,SAT-64098,291.4363471751844,76.91440130079842,776.1923763948407,-0.45469397735081957,15925.306440442893,10.5,10500015925.30644,47.655,-122.3035,60.0,10.9
2026-01-20T23:10:55+00:00,SAT-64098,293.812985925958,76.87964322903508,775.7388949347628,-0.39103723974761523,13695.778221845594,10.5,10500013695.778221,47.655,-122.3035,60.0,10.916666666666666
2026-01-20T23:10:56+00:00,SAT-64098,296.17565097331425,76.8226767859654,775.3489004609879,-0.3272838094539862,11462.863416219949,10.5,10500011462.863417,47.655,-122.3035,60.0,10.933333333333334
2026-01-20T23:10:57+00:00,SAT-64098,298.516321165077,76.74373361817769,775.0224894083592,-0.2634492774480718,9227.108085570162,10.5,10500009227.108086,47.655,-122.3035,60.0,10.95
2026-01-20T23:10:58+00:00,SAT-64098,300.8274194893862,76.64316277597528,774.7597426623175,-0.19954933339056824,6989.061748181025,10.5,10500006989.061749,47.655,-122.3035,60.0,10.966666666666667
2026-01-20T23:10:59+00:00,SAT-64098,303.10194673006976,76.52142174584675,774.5607254604828,-0.13559974758686597,4749.2767468556285,10.5,10500004749.276747,47.655,-122.3035,60.0,10.983333333333333
2026-01-20T23:11:00+00:00,SAT-64098,305.33358803886244,76.37906535310518,774.4254873122228,-0.07161635030542704,2508.3075245574855,10.5,10500002508.307524,47.655,-122.3035,60.0,11.0
2026-01-20T23:11:01+00:00,SAT-64098,307.5167894121768,76.21673312403023,774.3540619388515,-0.007615015204992646,266.71004396122197,10.5,10500000266.710045,47.655,-122.3035,60.0,11.016666666666667
2026-01-20T23:11:02+00:00,SAT-64098,309.64680349397185,76.03513571547668,774.3464672303537,0.056388362784665844,-1974.958987257082,10.5,10499998025.041012,47.655,-122.3035,60.0,11.033333333333333
2026-01-20T23:11:03+00:00,SAT-64098,311.7197059490834,75.83504101477298,774.402705224171,0.12037788690825162,-4216.142797483724,10.5,10499995783.857203,47.655,-122.3035,60.0,11.05
2026-01-20T23:11:04+00:00,SAT-64098,313.73238555754466,75.61726043415062,774.5227621033807,0.18433767562262898,-6456.285147899232,10.5,10499993543.714851,47.655,-122.3035,60.0,11.066666666666666
2026-01-20T23:11:05+00:00,SAT-64098,315.6825120560659,75.38263585612387,774.7066082118685,0.24825188683623833,-8694.831181445206,10.5,10499991305.16882,47.655,-122.3035,60.0,11.083333333333334
2026-01-20T23:11:06+00:00,SAT-64098,317.56848660228684,75.13202755997378,774.9541980936731,0.31210473283932216,-10931.227945743993,10.5,10499989068.772055,47.655,-122.3035,60.0,11.1
2026-01-20T23:11:07+00:00,SAT-64098,319.3893795989067,74.8663033807823,775.2654705472248,0.37588050068163203,-13164.925106812181,10.5,10499986835.074894,47.655,-122.3035,60.0,11.116666666666667
2026-01-20T23:11:08+00:00,SAT-64098,321.1448605737888,74.58632923026403,775.6403486999046,0.4395635753904488,-15395.375762253876,10.5,10499984604.624237,47.655,-122.3035,60.0,11.133333333333333
2026-01-20T23:11:09+00:00,SAT-64098,322.8351241921227,74.29296103066571,776.0787401057607,0.503138453911559,-17622.03692953266,10.5,10499982377.96307,47.655,-122.3035,60.0,11.15
2026-01-20T23:11:10+00:00,SAT-64098,324.46081576911274,73.98703804971491,776.5805368571287,0.5665897620879877,-19844.370140638664,10.5,10499980155.62986,47.655,-122.3035,60.0,11.166666666666666
2026-01-20T23:11:11+00:00,SAT-64098,326.0229589964084,73.66937756043541,777.1456157131844,0.6299022815477472,-22061.84238381122,10.5,10499977938.157616,47.655,-122.3035,60.0,11.183333333333334
2026-01-20T23:11:12+00:00,SAT-64098,327.52288786417756,73.34077071292936,777.7738382553147,0.6930609583186692,-24273.926405266764,10.5,10499975726.073595,47.655,-122.3035,60.0,11.2
2026-01-20T23:11:13+00:00,SAT-64098,328.96218404528946,73.00197949775617,778.4650510510778,0.7560509229988863,-26480.101415654382,10.5,10499973519.898584,47.655,-122.3035,60.0,11.216666666666667
2026-01-20T23:11:14+00:00,SAT-64098,330.3426205472832,72.65373465356592,779.219085838282,0.8188575143274288,-28679.853915597847,10.5,10499971320.146084,47.655,-122.3035,60.0,11.233333333333333
2026-01-20T23:11:15+00:00,SAT-64098,331.666111952035,72.29673437727988,780.0357597325713,0.8814662774487813,-30872.677634913027,10.5,10499969127.322365,47.655,-122.3035,60.0,11.25
2026-01-20T23:11:16+00:00,SAT-64098,332.9346711852911,71.93164371247985,780.9148754332801,0.9438630029248487,-33058.07489897198,10.5,10499966941.9251,47.655,-122.3035,60.0,11.266666666666667
2026-01-20T23:11:17+00:00,SAT-64098,334.1503726216834,71.5590944734958,781.8562214681972,1.0060337238069756,-35235.55652615265,10.5,10499964764.443474,47.655,-122.3035,60.0,11.283333333333333
2026-01-20T23:11:18+00:00,SAT-64098,335.31532103082014,71.17968561126739,782.8595724354074,1.0679647381916282,-37404.64261783429,10.5,10499962595.357382,47.655,-122.3035,60.0,11.3
2026-01-20T23:11:19+00:00,SAT-64098,336.4316258831614,70.79398391178478,783.9246892676305,1.1296426151632617,-39564.8627665418,10.5,10499960435.137234,47.655,-122.3035,60.0,11.316666666666666
2026-01-20T23:11:20+00:00,SAT-64098,337.50138042361635,70.40252494952318,785.0513195024866,1.191054224317825,-41715.757089983774,10.5,10499958284.24291,47.655,-122.3035,60.0,11.333333333333334
2026-01-20T23:11:21+00:00,SAT-64098,338.52664495821665,70.0058142166095,786.2391975822062,1.2521867299281417,-43856.8760266994,10.5,10499956143.123974,47.655,-122.3035,60.0,11.35
2026-01-20T23:11:22+00:00,SAT-64098,339.50943375699217,69.60432838158408,787.4880451475212,1.3130276051087584,-45987.78083217145,10.5,10499954012.219168,47.655,-122.3035,60.0,11.366666666666667
2026-01-20T23:11:23+00:00,SAT-64098,340.45170506982413,69.19851662246163,788.7975713456831,1.3735646480717347,-48108.04414817272,10.5,10499951891.955853,47.655,-122.3035,60.0,11.383333333333333
2026-01-20T23:11:24+00:00,SAT-64098,341.3553537719205,68.78880199583193,790.1674731546933,1.433786005753654,-50217.250830283956,10.5,10499949782.74917,47.655,-122.3035,60.0,11.4
2026-01-20T23:11:25+00:00,SAT-64098,342.2222062087911,68.37558281031386,791.5974357310981,1.4936801430745519,-52314.99687121146,10.5,10499947685.003128,47.655,-122.3035,60.0,11.416666666666666
2026-01-20T23:11:26+00:00,SAT-64098,343.0540168264126,67.95923399698867,793.0871327271246,1.5532358856719575,-54400.890897514015,10.5,10499945599.109102,47.655,-122.3035,60.0,11.433333333333334
2026-01-20T23:11:27+00:00,SAT-64098,343.85246630316493,67.54010843766004,794.6362266504348,1.6124424286088577,-56474.55447459257,10.5,10499943525.445526,47.655,-122.3035,60.0,11.45
2026-01-20T23:11:28+00:00,SAT-64098,344.619160871185,67.1185382493819,796.2443692325672,1.6712893095604033,-58535.621167575315,10.5,10499941464.378832,47.655,-122.3035,60.0,11.466666666666667
2026-01-20T23:11:29+00:00,SAT-64098,345.35563257034795,66.6948360249733,797.9112017706356,1.7297664521249068,-60583.73805825202,10.5,10499939416.261942,47.655,-122.3035,60.0,11.483333333333333
2026-01-20T23:11:30+00:00,SAT-64098,346.06334026423184,66.26929600538895,799.6363555122215,1.7878641480059094,-62618.56512101464,10.5,10499937381.43488,47.655,-122.3035,60.0,11.5
2026-01-20T23:11:31+00:00,SAT-64098,346.7436712162784,65.84219519670667,801.4194520224994,1.8455730672328634,-64639.77558082888,10.5,10499935360.224419,47.655,-122.3035,60.0,11.516666666666667
2026-01-20T23:11:32+00:00,SAT-64098,347.3979430982347,65.4137944226977,803.2601035615529,1.9028842670647617,-66647.05622507687,10.5,10499933352.943775,47.655,-122.3035,60.0,11.533333333333333
2026-01-20T23:11:33+00:00,SAT-64098,348.0274063120599,64.98433931356716,805.1579134705722,1.9597891860003842,-68640.10719377082,10.5,10499931359.892807,47.655,-122.3035,60.0,11.55
2026-01-20T23:11:34+00:00,SAT-64098,348.6332465249278,64.55406123512203,807.1124765520765,2.0162796440874264,-70618.64199037981,10.5,10499929381.35801,47.655,-122.3035,60.0,11.566666666666666
2026-01-20T23:11:35+00:00,SAT-64098,349.216587342965,64.12317815851796,809.1233794504465,2.072347856420812,-72582.387954598,10.5,10499927417.612045,47.655,-122.3035,60.0,11.583333333333334
2026-01-20T23:11:36+00:00,SAT-64098,349.778493065627,63.69189547001894,811.1902010459168,2.127986427236548,-74531.08605548627,10.5,10499925468.913944,47.655,-122.3035,60.0,11.6
2026-01-20T23:11:37+00:00,SAT-64098,350.3199714651565,63.26040672784074,813.3125128426807,2.183188333986147,-76464.49033369125,10.5,10499923535.509666,47.655,-122.3035,60.0,11.616666666666667
2026-01-20T23:11:38+00:00,SAT-64098,350.841976551816,62.82889437033342,815.4898793411095,2.237946961728749,-78382.36910600287,10.5,10499921617.630894,47.655,-122.3035,60.0,11.633333333333333
2026-01-20T23:11:39+00:00,SAT-64098,351.3454113070096,62.397530368780586,817.7218584442737,2.292256056283552,-80284.50332455427,10.5,10499919715.496675,47.655,-122.3035,60.0,11.65
2026-01-20T23:11:40+00:00,SAT-64098,351.83113034265574,61.966476843523694,820.0080018177405,2.346109773440984,-82170.68830040525,10.5,10499917829.311699,47.655,-122.3035,60.0,11.666666666666666
2026-01-20T23:11:41+00:00,SAT-64098,352.2999424922017,61.53588662797506,822.3478552984523,2.399502609668718,-84040.73127657382,10.5,10499915959.268723,47.655,-122.3035,60.0,11.683333333333334
2026-01-20T23:11:42+00:00,SAT-64098,352.75261329622157,61.105903805447,824.7409592344952,2.452429479649999,-85894.4541437563,10.5,10499914105.545856,47.655,-122.3035,60.0,11.7
2026-01-20T23:11:43+00:00,SAT-64098,353.1898674044542,60.676664194685806,827.1868489021996,2.5048856385283056,-87731.69071700667,10.5,10499912268.309282,47.655,-122.3035,60.0,11.716666666666667
2026-01-20T23:11:44+00:00,SAT-64098,353.61239085879424,60.248295814786964,829.6850548456918,2.556866721246992,-89552.28811357696,10.5,10499910447.711887,47.655,-122.3035,60.0,11.733333333333333
2026-01-20T23:11:45+00:00,SAT-64098,354.02083327739206,59.82091931096641,832.235103255682,2.60836871909304,-91356.10593138044,10.5,10499908643.894068,47.655,-122.3035,60.0,11.75
2026-01-20T23:11:46+00:00,SAT-64098,354.41580992759924,59.39464835454196,834.8365163248575,2.659387987058747,-93143.01650682901,10.5,10499906856.983494,47.655,-122.3035,60.0,11.766666666666667
2026-01-20T23:11:47+00:00,SAT-64098,354.7979036937118,58.96959001418538,837.4888126106175,2.709921221007542,-94912.90411508348,10.5,10499905087.095884,47.655,-122.3035,60.0,11.783333333333333
2026-01-20T23:11:48+00:00,SAT-64098,355.1676669370583,58.54584510524149,840.1915073750357,2.759965472504726,-96665.6654894888,10.5,10499903334.33451,47.655,-122.3035,60.0,11.8
2026-01-20T23:11:49+00:00,SAT-64098,355.52562325668464,58.123508513049146,842.9441129396137,2.8095181110916827,-98401.20850025743,10.5,10499901598.7915,47.655,-122.3035,60.0,11.816666666666666
2026-01-20T23:11:50+00:00,SAT-64098,355.8722691468888,57.702669500098224,845.7461390024091,2.858576860583446,-100119.45342576358,10.5,10499899880.546574,47.655,-122.3035,60.0,11.833333333333334
2026-01-20T23:11:51+00:00,SAT-64098,356.20807556506173,57.28341198742009,848.5970929913643,2.907139755900889,-101820.33144062394,10.5,10499898179.66856,47.655,-122.3035,60.0,11.85
2026-01-20T23:11:52+00:00,SAT-64098,356.5334894037024,56.86581482367656,851.4964803745828,2.955205131991409,-103503.78422765326,10.5,10499896496.215773,47.655,-122.3035,60.0,11.866666666666667
2026-01-20T23:11:53+00:00,SAT-64098,356.8489348755491,56.44995203818659,854.4438049595557,3.0027716610919852,-105169.76528297401,10.5,10499894830.234716,47.655,-122.3035,60.0,11.883333333333333
2026-01-20T23:11:54+00:00,SAT-64098,357.1548148209281,56.03589307255023,857.4385692295514,3.049838295317234,-106818.2379052076,10.5,10499893181.762094,47.655,-122.3035,60.0,11.9
2026-01-20T23:11:55+00:00,SAT-64098,357.4515119312986,55.62370300541035,860.4802746227476,3.096404282584485,-108449.17575323756,10.5,10499891550.824247,47.655,-122.3035,60.0,11.916666666666666
2026-01-20T23:11:56+00:00,SAT-64098,357.7393899014465,55.213442760905245,863.5684218272453,3.142469156885178,-110062.56250547295,10.5,10499889937.437494,47.655,-122.3035,60.0,11.933333333333334
2026-01-20T23:11:57+00:00,SAT-64098,358.018794511502,54.805169305552525,866.7025110663787,3.188032709811729,-111658.39086259854,10.5,10499888341.609137,47.655,-122.3035,60.0,11.95
2026-01-20T23:11:58+00:00,SAT-64098,358.29005464136696,54.398935836674994,869.882042355631,3.2330950346746836,-113236.66409274438,10.5,10499886763.335907,47.655,-122.3035,60.0,11.966666666666667
2026-01-20T23:11:59+00:00,SAT-64098,358.55348322760267,53.99479195403764,873.1065158035465,3.277656449003909,-114797.39331714959,10.5,10499885202.606684,47.655,-122.3035,60.0,11.983333333333333
2026-01-20T23:12:00+00:00,SAT-64098,358.80937815612737,53.592783830810404,876.3754318353532,3.3217175242399333,-116340.5985500786,10.5,10499883659.40145,47.655,-122.3035,60.0,12.0
2026-01-20T23:12:01+00:00,SAT-64098,359.0580231035731,53.19295437086188,879.6882914461951,3.3652790794654384,-117866.30847927168,10.5,10499882133.69152,47.655,-122.3035,60.0,12.016666666666667
2026-01-20T23:12:02+00:00,SAT-64098,359.2996883273492,52.795343357721606,883.0445964481153,3.4083421711935977,-119374.56010828922,10.5,10499880625.439892,47.655,-122.3035,60.0,12.033333333333333
2026-01-20T23:12:03+00:00,SAT-64098,359.5346314072541,52.399987596304676,886.4438497068523,3.450908063508514,-120865.39771070358,10.5,10499879134.60229,47.655,-122.3035,60.0,12.05
2026-01-20T23:12:04+00:00,SAT-64098,359.7630979404999,52.006921050026826,889.8855553488582,3.4929782461068952,-122338.87346199482,10.5,10499877661.126537,47.655,-122.3035,60.0,12.066666666666666
2026-01-20T23:12:05+00:00,SAT-64098,359.98532219630624,51.61617496828635,893.3692189863087,3.5345543885402306,-123795.04583691836,10.5,10499876204.954163,47.655,-122.3035,60.0,12.083333333333334
2026-01-20T23:12:06+00:00,SAT-64098,0.20152772851918974,51.2277780119239,896.8943478964796,3.575638393852691,-125233.98148813088,10.5,10499874766.018513,47.655,-122.3035,60.0,12.1
2026-01-20T23:12:07+00:00,SAT-64098,0.4119279549535774,50.84175636617002,900.4604512546154,3.6162323275401316,-126655.7527580343,10.5,10499873344.247242,47.655,-122.3035,60.0,12.116666666666667
2026-01-20T23:12:08+00:00,SAT-64098,0.6167266981495297,50.458133855064936,904.0670402959487,3.656338441142417,-128060.43850507868,10.5,10499871939.561495,47.655,-122.3035,60.0,12.133333333333333
2026-01-20T23:12:09+00:00,SAT-64098,0.8161186955874931,50.076932047360614,907.7136285012481,3.695959153388093,-129448.12344336887,10.5,10499870551.876556,47.655,-122.3035,60.0,12.15
2026-01-20T23:12:10+00:00,SAT-64098,1.0102900788711815,49.698170358785596,911.3997317635605,3.7350970589109798,-130818.89844795658,10.5,10499869181.101553,47.655,-122.3035,60.0,12.166666666666666
2026-01-20T23:12:11+00:00,SAT-64098,1.1994188252761369,49.321866148181066,915.1248685636477,3.7737548837900996,-132172.85899766046,10.5,10499867827.141003,47.655,-122.3035,60.0,12.183333333333334
2026-01-20T23:12:12+00:00,SAT-64098,1.383675180818096,48.94803481305996,918.888560101081,3.8119355204717396,-133510.10639818452,10.5,10499866489.893602,47.655,-122.3035,60.0,12.2
2026-01-20T23:12:13+00:00,SAT-64098,1.5632220605089957,48.57668987692637,922.6903304601648,3.8496419966144377,-134830.74669093775,10.5,10499865169.25331,47.655,-122.3035,60.0,12.216666666666667
2026-01-20T23:12:14+00:00,SAT-64098,1.738215424040183,48.207843075197175,926.5297067447883,3.886877471437041,-136134.89052512764,10.5,10499863865.109474,47.655,-122.3035,60.0,12.233333333333333
2026-01-20T23:12:15+00:00,SAT-64098,1.908804629799352,47.841504437183985,930.4062192096349,3.923645197381532,-137422.65181503026,10.5,10499862577.348185,47.655,-122.3035,60.0,12.25
2026-01-20T23:12:16+00:00,SAT-64098,2.0751327671015947,47.47768236750232,934.3194013531566,3.95994860682599,-138694.15077704488,10.5,10499861305.849222,47.655,-122.3035,60.0,12.266666666666667
2026-01-20T23:12:17+00:00,SAT-64098,2.2373369732449193,47.116383715616216,938.2687900970311,3.9957911839113125,-139949.50944052363,10.5,10499860050.490559,47.655,-122.3035,60.0,12.283333333333333
2026-01-20T23:12:18+00:00,SAT-64098,2.395548727395192,46.757613853517796,942.2539258377853,4.0311765457386,-141188.85449164736,10.5,10499858811.145508,47.655,-122.3035,60.0,12.3
2026-01-20T23:12:19+00:00,SAT-64098,2.549894131347063,46.401376742410115,946.274352579402,4.066108369595642,-142412.31472458938,10.5,10499857587.685276,47.655,-122.3035,60.0,12.316666666666666
2026-01-20T23:12:20+00:00,SAT-64098,2.700494171899241,46.04767500247495,950.3296179933453,4.1005904778682405,-143620.02401546913,10.5,10499856379.975985,47.655,-122.3035,60.0,12.333333333333334
2026-01-20T23:12:21+00:00,SAT-64098,2.847464971809358,45.69650997208345,954.4192735632727,4.134626725140715,-144812.1173681344,10.5,10499855187.882631,47.655,-122.3035,60.0,12.35
2026-01-20T23:12:22+00:00,SAT-64098,2.9909180229398036,45.347881773661,958.5428746171464,4.168221064563944,-145988.73323865078,10.5,10499854011.266762,47.655,-122.3035,60.0,12.366666666666667
2026-01-20T23:12:23+00:00,SAT-64098,3.130960409008129,45.001789370918935,962.699980425538,4.201377510540973,-147150.01222839375,10.5,10499852849.987772,47.655,-122.3035,60.0,12.383333333333333
2026-01-20T23:12:24+00:00,SAT-64098,3.267695015028465,44.65823062637458,966.8901542627176,4.234100149786263,-148296.0974713906,10.5,10499851703.902529,47.655,-122.3035,60.0,12.4
2026-01-20T23:12:25+00:00,SAT-64098,3.4012207258020757,44.31720235532175,971.1129634787711,4.266393130649395,-149427.13426039106,10.5,10499850572.86574,47.655,-122.3035,60.0,12.416666666666666
2026-01-20T23:12:26+00:00,SAT-64098,3.531632613436225,43.97870037807789,975.367979561072,4.298260636679243,-150543.2691209732,10.5,10499849456.730879,47.655,-122.3035,60.0,12.433333333333334
2026-01-20T23:12:27+00:00,SAT-64098,3.6590221141205763,43.642719571847294,979.6547781693869,4.329706901784055,-151644.65034251323,10.5,10499848355.349657,47.655,-122.3035,60.0,12.45
2026-01-20T23:12:28+00:00,SAT-64098,3.7834771960502813,43.30925391892853,983.9729391860996,4.360736240867954,-152731.42905120557,10.5,10499847268.57095,47.655,-122.3035,60.0,12.466666666666667
2026-01-20T23:12:29+00:00,SAT-64098,3.9050825193177157,42.978296550445464,988.3220467969918,4.3913529530940965,-153803.75582192937,10.5,10499846196.244179,47.655,-122.3035,60.0,12.483333333333333
2026-01-20T23:12:30+00:00,SAT-64098,4.023919584856659,42.64983979517851,992.7016894755444,4.421561382437029,-154861.7827990483,10.5,10499845138.217201,47.655,-122.3035,60.0,12.5
2026-01-20T23:12:31+00:00,SAT-64098,4.14006687732502,42.32387522165163,997.1114600276283,4.451365942539843,-155905.66456701307,10.5,10499844094.335432,47.655,-122.3035,60.0,12.516666666666667
2026-01-20T23:12:32+00:00,SAT-64098,4.253600001233149,42.000393676490475,1001.5509556609878,4.4807710223315365,-156935.55484468237,10.5,10499843064.445156,47.655,-122.3035,60.0,12.533333333333333
2026-01-20T23:12:33+00:00,SAT-64098,4.364591807723654,41.67938532774678,1006.0197779605933,4.509781052877101,-157951.60882669556,10.5,10499842048.391172,47.655,-122.3035,60.0,12.55
2026-01-20T23:12:34+00:00,SAT-64098,4.473112516598655,41.36083970143243,1010.5175329306626,4.538400477787315,-158953.9821470986,10.5,10499841046.017853,47.655,-122.3035,60.0,12.566666666666666
2026-01-20T23:12:35+00:00,SAT-64098,4.579229831470403,41.04474571845253,1015.0438310071759,4.566633744726517,-159942.8305819102,10.5,10499840057.169418,47.655,-122.3035,60.0,12.583333333333334
2026-01-20T23:12:36+00:00,SAT-64098,4.683009048940769,40.73109173036004,1019.5982870619164,4.594485337343674,-160918.31116748299,10.5,10499839081.688833,47.655,-122.3035,60.0,12.6
2026-01-20T23:12:37+00:00,SAT-64098,4.784513163062608,40.41986555131875,1024.1805204383604,4.6219597087210005,-161880.57986959268,10.5,10499838119.42013,47.655,-122.3035,60.0,12.616666666666667
2026-01-20T23:12:38+00:00,SAT-64098,4.88380296317108,40.11105449298121,1028.7901549211915,4.649061337685601,-162829.79355570982,10.5,10499837170.206444,47.655,-122.3035,60.0,12.633333333333333
