satellites_20260120_184412/SAT-66464.csv

timestamp,satellite,azimuth_deg,elevation_deg,distance_km,relative_velocity_kms,doppler_shift_hz,tx_freq_ghz,rx_freq_hz,ue_lat,ue_lon,ue_alt_m,time_minutes
2026-01-20T23:00:36+00:00,SAT-66464,155.2747621284735,40.07243072035549,127346.40607498965,-83.15101097705785,2912300.132844261,10.5,10502912300.132845,47.655,-122.3035,60.0,0.6
2026-01-20T23:00:37+00:00,SAT-66464,153.72105045447918,40.3953547132266,127263.47680004186,-80.7384719440571,2827802.8108785828,10.5,10502827802.810879,47.655,-122.3035,60.0,0.6166666666666667
2026-01-20T23:00:38+00:00,SAT-66464,152.15162005788406,40.697358996609786,127182.95363068965,-78.28649583009539,2741924.235518966,10.5,10502741924.23552,47.655,-122.3035,60.0,0.6333333333333333
2026-01-20T23:00:39+00:00,SAT-66464,150.56719560912197,40.97797024199594,127104.87589884845,-75.79617264396894,2654702.5834841845,10.5,10502654702.583485,47.655,-122.3035,60.0,0.65
2026-01-20T23:00:40+00:00,SAT-66464,148.9685788121298,41.236735833397546,127029.28184933153,-73.2686185925442,2566176.9490602533,10.5,10502566176.94906,47.655,-122.3035,60.0,0.6666666666666666
2026-01-20T23:00:41+00:00,SAT-66464,147.35664703801422,41.4732265376875,126956.20861372189,-70.7049758304375,2476387.3353331448,10.5,10502476387.335333,47.655,-122.3035,60.0,0.6833333333333333
2026-01-20T23:00:42+00:00,SAT-66464,145.7323510960254,41.687039147142016,126885.69218449366,-68.1064116049698,2385374.6242414904,10.5,10502385374.62424,47.655,-122.3035,60.0,0.7
2026-01-20T23:00:43+00:00,SAT-66464,144.09671212747097,41.87779905787204,126817.7673899863,-65.47411756602857,2293180.552405024,10.5,10502293180.552404,47.655,-122.3035,60.0,0.7166666666666667
2026-01-20T23:00:44+00:00,SAT-66464,142.45081761033384,42.04516274932142,126752.46787006712,-62.80930943708299,2199847.6996021406,10.5,10502199847.699602,47.655,-122.3035,60.0,0.7333333333333333
2026-01-20T23:00:45+00:00,SAT-66464,140.79581647477062,42.188820129571646,126689.82605212188,-60.11322612878355,2105419.457724408,10.5,10502105419.457724,47.655,-122.3035,60.0,0.75
2026-01-20T23:00:46+00:00,SAT-66464,139.13291337193445,42.30849670889077,126629.87312792943,-57.38712898614631,2009940.0044097716,10.5,10502009940.00441,47.655,-122.3035,60.0,0.7666666666666667
2026-01-20T23:00:47+00:00,SAT-66464,137.46336214393196,42.40395556740539,126572.63903128725,-54.63230088769473,1913454.271490695,10.5,10501913454.27149,47.655,-122.3035,60.0,0.7833333333333333
2026-01-20T23:00:48+00:00,SAT-66464,135.78845857078912,42.47499908429457,126518.15241653526,-51.850046032365185,1816007.9375306848,10.5,10501816007.93753,47.655,-122.3035,60.0,0.8
2026-01-20T23:00:49+00:00,SAT-66464,134.10953246374038,42.52147040006055,126466.44063729231,-49.04168845233387,1717647.375737203,10.5,10501717647.375738,47.655,-122.3035,60.0,0.8166666666666667
2026-01-20T23:00:50+00:00,SAT-66464,132.4279392505556,42.54325458453391,126417.52972667586,-46.2085716768112,1618419.6421863206,10.5,10501618419.642187,47.655,-122.3035,60.0,0.8333333333333334
2026-01-20T23:00:51+00:00,SAT-66464,130.74505114162704,42.540279491753566,126371.44437785684,-43.35205745662971,1518372.4311523938,10.5,10501518372.431152,47.655,-122.3035,60.0,0.85
2026-01-20T23:00:52+00:00,SAT-66464,129.06224804178856,42.512516285711456,126328.20792588676,-40.4735252252709,1417554.0562309425,10.5,10501417554.05623,47.655,-122.3035,60.0,0.8666666666666667
2026-01-20T23:00:53+00:00,SAT-66464,127.38090832564232,42.459979628216395,126287.84233006209,-37.574371040499614,1316013.4132702095,10.5,10501316013.41327,47.655,-122.3035,60.0,0.8833333333333333
2026-01-20T23:00:54+00:00,SAT-66464,125.70239964024732,42.38272752558946,126250.36815734438,-34.6560065512386,1213799.9441867392,10.5,10501213799.944187,47.655,-122.3035,60.0,0.9
2026-01-20T23:00:55+00:00,SAT-66464,124.02806988157734,42.2808608380416,126215.8045668106,-31.719858078658405,1110963.6047812558,10.5,10501110963.604782,47.655,-122.3035,60.0,0.9166666666666666
2026-01-20T23:00:56+00:00,SAT-66464,122.35923848162948,42.15452246140013,126184.16929502015,-28.767365792243357,1007554.8358810123,10.5,10501007554.83588,47.655,-122.3035,60.0,0.9333333333333333
2026-01-20T23:00:57+00:00,SAT-66464,120.69718813074891,42.0038961958656,126155.47864220336,-25.799982468580627,903624.5198673296,10.5,10500903624.519867,47.655,-122.3035,60.0,0.95
2026-01-20T23:00:58+00:00,SAT-66464,119.04315707459853,41.82920532404755,126129.74745968802,-22.81917250718658,799223.946205675,10.5,10500799223.946205,47.655,-122.3035,60.0,0.9666666666666667
2026-01-20T23:00:59+00:00,SAT-66464,117.39833207810844,41.63071092360116,126106.98913830753,-19.826411064874325,694404.7811275508,10.5,10500694404.781128,47.655,-122.3035,60.0,0.9833333333333333
2026-01-20T23:01:00+00:00,SAT-66464,115.76384212946708,41.40870994220805,126087.21559767216,-16.82318275007615,589219.0219001425,10.5,10500589219.0219,47.655,-122.3035,60.0,1.0
2026-01-20T23:01:01+00:00,SAT-66464,114.14075297761791,41.16353307054068,126070.43727674274,-13.810980697818477,483718.96442803106,10.5,10500483718.964428,47.655,-122.3035,60.0,1.0166666666666666
2026-01-20T23:01:02+00:00,SAT-66464,112.53006252151141,40.89554244486133,126056.66312532678,-10.791305368550555,377957.1611830903,10.5,10500377957.161182,47.655,-122.3035,60.0,1.0333333333333334
2026-01-20T23:01:03+00:00,SAT-66464,110.93269709645718,40.60512921783568,126045.90059677255,-7.765663577469088,271986.38720733067,10.5,10500271986.387207,47.655,-122.3035,60.0,1.05
2026-01-20T23:01:04+00:00,SAT-66464,109.34950863570289,40.29271102929787,126038.1556416313,-4.735567252786913,165859.59662221585,10.5,10500165859.596622,47.655,-122.3035,60.0,1.0666666666666667
2026-01-20T23:05:42+00:00,SAT-66464,154.95527906363617,40.131564719174456,127474.78052753018,-84.24495205810534,2950614.5768687283,10.5,10502950614.576868,47.655,-122.3035,60.0,5.7
2026-01-20T23:05:43+00:00,SAT-66464,153.39891356343963,40.44987418975066,127390.76022867757,-81.85179301536039,2866796.0241390863,10.5,10502866796.02414,47.655,-122.3035,60.0,5.716666666666667
2026-01-20T23:05:44+00:00,SAT-66464,151.8269784222779,40.74718154301223,127309.12670711023,-79.41870496321643,2781578.988600749,10.5,10502781578.988602,47.655,-122.3035,60.0,5.733333333333333
2026-01-20T23:05:45+00:00,SAT-66464,150.24021281161322,41.02301764475532,127229.91978536027,-76.94676540548231,2695001.208994938,10.5,10502695001.208996,47.655,-122.3035,60.0,5.75
2026-01-20T23:05:46+00:00,SAT-66464,148.63943259814792,41.27693455029592,127153.17821132918,-74.43707867502667,2607101.3637300376,10.5,10502607101.36373,47.655,-122.3035,60.0,5.766666666666667
2026-01-20T23:05:47+00:00,SAT-66464,147.0255288040172,41.508508168500825,127078.93963153064,-71.89077467531199,2517919.02680479,10.5,10502517919.026804,47.655,-122.3035,60.0,5.783333333333333
2026-01-20T23:05:48+00:00,SAT-66464,145.39946522153693,41.71734088820739,127007.2405655878,-69.30900921472993,2427494.679518136,10.5,10502427494.679518,47.655,-122.3035,60.0,5.8
2026-01-20T23:05:49+00:00,SAT-66464,143.7622751251707,41.90306413770046,126938.11638039764,-66.69296280212875,2335869.668283489,10.5,10502335869.668283,47.655,-122.3035,60.0,5.816666666666666
2026-01-20T23:05:50+00:00,SAT-66464,142.11505710703705,42.06534083657092,126871.60126549631,-64.04383993608613,2243086.179736064,10.5,10502243086.179735,47.655,-122.3035,60.0,5.833333333333333
2026-01-20T23:05:51+00:00,SAT-66464,140.45897004018565,42.20386770579055,126807.72820913339,-61.36286870304973,2149187.2266580574,10.5,10502149187.226658,47.655,-122.3035,60.0,5.85
2026-01-20T23:05:52+00:00,SAT-66464,138.7952271955219,42.31837740107472,126746.52897474688,-58.65130016635125,2054216.626579339,10.5,10502054216.62658,47.655,-122.3035,60.0,5.866666666666666
2026-01-20T23:05:53+00:00,SAT-66464,137.12508957023243,42.408640434481555,126688.03407804765,-55.91040728451964,1958218.9638922012,10.5,10501958218.963892,47.655,-122.3035,60.0,5.883333333333334
2026-01-20T23:05:54+00:00,SAT-66464,135.44985851557948,42.47446685158399,126632.27276518254,-53.14148440824923,1861239.5722330576,10.5,10501861239.572233,47.655,-122.3035,60.0,5.9
2026-01-20T23:05:55+00:00,SAT-66464,133.77086774259993,42.51570763680849,126579.2729913994,-50.34584622987288,1763324.4976885486,10.5,10501763324.497688,47.655,-122.3035,60.0,5.916666666666667
2026-01-20T23:05:56+00:00,SAT-66464,132.08947483225933,42.53225582171787,126529.06140075946,-47.52482728600594,1664520.4813760268,10.5,10501664520.481377,47.655,-122.3035,60.0,5.933333333333334
2026-01-20T23:05:57+00:00,SAT-66464,130.40705235849603,42.5240472772929,126481.66330634622,-44.67978098509815,1564874.9253843157,10.5,10501564874.925385,47.655,-122.3035,60.0,5.95
2026-01-20T23:05:58+00:00,SAT-66464,128.7249787741897,42.491061175551344,126437.10267144375,-41.81207838331526,1464435.8498999006,10.5,10501464435.8499,47.655,-122.3035,60.0,5.966666666666667
2026-01-20T23:05:59+00:00,SAT-66464,127.04462921486848,42.433320113259626,126395.40209193612,-38.92310790806742,1363251.8835237273,10.5,10501363251.883524,47.655,-122.3035,60.0,5.983333333333333
2026-01-20T23:06:00+00:00,SAT-66464,125.367366330969,42.350889895354385,126356.58277898247,-36.01427387815453,1261372.2114404314,10.5,10501261372.211441,47.655,-122.3035,60.0,6.0
2026-01-20T23:06:01+00:00,SAT-66464,123.69453133782625,42.24387898340041,126320.664543168,-33.08699579474688,1158846.5505854797,10.5,10501158846.550585,47.655,-122.3035,60.0,6.016666666666667
2026-01-20T23:06:02+00:00,SAT-66464,122.02743539396108,42.11243761945043,126287.66577936204,-30.14270737288893,1055725.115724338,10.5,10501055725.115725,47.655,-122.3035,60.0,6.033333333333333
2026-01-20T23:06:03+00:00,SAT-66464,120.36735144531887,41.95675664173713,126257.60345254214,-27.18285543405188,952058.5806649771,10.5,10500952058.580666,47.655,-122.3035,60.0,6.05
2026-01-20T23:06:04+00:00,SAT-66464,118.71550665805135,41.77706601460691,126230.49308472258,-24.20889897336749,847898.0455884539,10.5,10500847898.045588,47.655,-122.3035,60.0,6.066666666666666
2026-01-20T23:06:05+00:00,SAT-66464,117.07307553068304,41.57363309837121,126206.34874281313,-21.222308116289415,743295.0005067802,10.5,10500743295.000507,47.655,-122.3035,60.0,6.083333333333333
2026-01-20T23:06:06+00:00,SAT-66464,115.44117376993657,41.34676068915246,126185.18302751849,-18.224562914088015,638301.2830760544,10.5,10500638301.283075,47.655,-122.3035,60.0,6.1
2026-01-20T23:06:07+00:00,SAT-66464,113.82085300414214,41.096784863532704,126167.00706343885,-15.217152536472048,532969.0503186592,10.5,10500532969.050318,47.655,-122.3035,60.0,6.116666666666666
2026-01-20T23:06:08+00:00,SAT-66464,112.21309634343208,40.824072658456025,126151.8304899758,-12.20157397074126,427350.7330620813,10.5,10500427350.733063,47.655,-122.3035,60.0,6.133333333333334
2026-01-20T23:06:09+00:00,SAT-66464,110.61881484093196,40.529019626543,126139.66145353565,-9.179330957419674,321498.99866028846,10.5,10500321498.998661,47.655,-122.3035,60.0,6.15
2026-01-20T23:06:10+00:00,SAT-66464,109.03884484158223,40.212047301243246,126130.50660079412,-6.151932966546497,215466.71513910536,10.5,10500215466.71514,47.655,-122.3035,60.0,6.166666666666667
2026-01-20T23:10:48+00:00,SAT-66464,154.51852147878247,40.21344244995441,127600.08296858493,-85.16523143639382,2982846.6534743016,10.5,10502982846.653475,47.655,-122.3035,60.0,10.8
2026-01-20T23:10:49+00:00,SAT-66464,152.95843971934931,40.525536956771944,127515.14484443238,-82.78998683605559,2899655.5402957588,10.5,10502899655.540297,47.655,-122.3035,60.0,10.816666666666666
2026-01-20T23:10:50+00:00,SAT-66464,151.38299579567794,40.816514464023214,127432.57563089454,-80.37439922408741,2815051.444199166,10.5,10502815051.444199,47.655,-122.3035,60.0,10.833333333333334
2026-01-20T23:10:51+00:00,SAT-66464,149.7929488997341,41.085911727089155,127352.41556340171,-77.91953449337109,2729071.697261965,10.5,10502729071.697262,47.655,-122.3035,60.0,10.85
2026-01-20T23:10:52+00:00,SAT-66464,148.18913443361598,41.33328735860756,127274.70381433367,-75.42648604884675,2641754.5951502584,10.5,10502641754.59515,47.655,-122.3035,60.0,10.866666666666667
2026-01-20T23:10:53+00:00,SAT-66464,146.57246223114927,41.55822448248883,127199.47846558093,-72.8963728763917,2553139.3294827743,10.5,10502553139.329483,47.655,-122.3035,60.0,10.883333333333333
2026-01-20T23:10:54+00:00,SAT-66464,144.94391394154997,41.760333339012945,127126.77648303223,-70.3303399833045,2463266.003258485,10.5,10502463266.003258,47.655,-122.3035,60.0,10.9
2026-01-20T23:10:55+00:00,SAT-66464,143.30453950863318,41.939253814007586,127056.63369062221,-67.72955711632278,2372175.585956166,10.5,10502372175.585957,47.655,-122.3035,60.0,10.916666666666666
2026-01-20T23:10:56+00:00,SAT-66464,141.65545278076297,42.09465785105069,126989.08474565818,-65.09521888247382,2279909.9177670944,10.5,10502279909.917767,47.655,-122.3035,60.0,10.933333333333334
2026-01-20T23:10:57+00:00,SAT-66464,139.9978262385914,42.2262517145511,126924.16311402607,-62.42854325219237,2186511.657167906,10.5,10502186511.657167,47.655,-122.3035,60.0,10.95
2026-01-20T23:10:58+00:00,SAT-66464,138.3328849177072,42.33377806446514,126861.90104688922,-59.730771427769135,2092024.2763131014,10.5,10502092024.276314,47.655,-122.3035,60.0,10.966666666666667
2026-01-20T23:10:59+00:00,SAT-66464,136.6618995538129,42.41701781245021,126802.32955751859,-57.003167055553114,1996492.0334430418,10.5,10501996492.033443,47.655,-122.3035,60.0,10.983333333333333
2026-01-20T23:11:00+00:00,SAT-66464,134.98617904489998,42.475791726684434,126745.47839890851,-54.247015238395285,1899959.9382955474,10.5,10501899959.938295,47.655,-122.3035,60.0,11.0
2026-01-20T23:11:01+00:00,SAT-66464,133.30706233530267,42.509961757857134,126691.37604237742,-51.46362200389616,1802473.7334816798,10.5,10501802473.733482,47.655,-122.3035,60.0,11.016666666666667
2026-01-20T23:11:02+00:00,SAT-66464,131.62590982367237,42.51943206384268,126640.04965669887,-48.654313187330644,1704079.8553610437,10.5,10501704079.855362,47.655,-122.3035,60.0,11.033333333333333
2026-01-20T23:11:03+00:00,SAT-66464,129.94409444063703,42.504149714560526,126591.52508834671,-45.82043406587614,1604825.4212309087,10.5,10501604825.42123,47.655,-122.3035,60.0,11.05
2026-01-20T23:11:04+00:00,SAT-66464,128.2629925101905,42.464105064861485,126545.826842105,-42.96334799409538,1504758.1815350454,10.5,10501504758.181536,47.655,-122.3035,60.0,11.066666666666666
2026-01-20T23:11:05+00:00,SAT-66464,126.58397457148357,42.39933178900509,126502.9780630389,-40.08443581888999,1403926.499372926,10.5,10501403926.499372,47.655,-122.3035,60.0,11.083333333333334
2026-01-20T23:11:06+00:00,SAT-66464,124.90839628120946,42.309906576770835,126463.00051904886,-37.18509474370671,1302379.3107194195,10.5,10501302379.310719,47.655,-122.3035,60.0,11.1
2026-01-20T23:11:07+00:00,SAT-66464,123.23758955928436,42.1959484978006,126425.9145845578,-34.26673763539051,1200166.1001478576,10.5,10501200166.100147,47.655,-122.3035,60.0,11.116666666666667
2026-01-20T23:11:08+00:00,SAT-66464,121.57285409618041,42.05761804565641,126391.73922488945,-31.330791857328393,1097336.8599617945,10.5,10501097336.859962,47.655,-122.3035,60.0,11.133333333333333
2026-01-20T23:11:09+00:00,SAT-66464,119.91544936621676,41.895115880372856,126360.4919818104,-28.378698354182117,993942.0581384747,10.5,10500993942.058138,47.655,-122.3035,60.0,11.15
2026-01-20T23:11:10+00:00,SAT-66464,118.26658724766195,41.70868129199071,126332.18895998516,-25.411910497570705,890032.5978997524,10.5,10500890032.5979,47.655,-122.3035,60.0,11.166666666666666
2026-01-20T23:11:11+00:00,SAT-66464,116.62742535654816,41.498590413671025,126306.84481458225,-22.431893411561152,785659.7940879223,10.5,10500785659.794088,47.655,-122.3035,60.0,11.183333333333334
2026-01-20T23:11:12+00:00,SAT-66464,114.99906113995178,41.265154211579,126284.47273955312,-19.440122487121698,680875.3211355899,10.5,10500680875.321136,47.655,-122.3035,60.0,11.2
2026-01-20T23:11:13+00:00,SAT-66464,113.38252683147782,41.00871629046256,126265.08445739263,-16.4380826080503,575731.1859544117,10.5,10500575731.185955,47.655,-122.3035,60.0,11.216666666666667
2026-01-20T23:11:14+00:00,SAT-66464,111.7787852610311,40.729650544870864,126248.69020967152,-13.427266995730095,470279.68747354543,10.5,10500470279.687473,47.655,-122.3035,60.0,11.233333333333333
2026-01-20T23:11:15+00:00,SAT-66464,110.18872655327705,40.428358693768054,126235.29874872112,-10.409176078669727,364573.3770461701,10.5,10500364573.377047,47.655,-122.3035,60.0,11.25
2026-01-20T23:11:16+00:00,SAT-66464,108.61316571061813,40.105267734386764,126224.91733044533,-7.385316413060844,258665.0206428437,10.5,10500258665.020643,47.655,-122.3035,60.0,11.266666666666667
