satellites_20260120_184412/SAT-45671.csv

timestamp,satellite,azimuth_deg,elevation_deg,distance_km,relative_velocity_kms,doppler_shift_hz,tx_freq_ghz,rx_freq_hz,ue_lat,ue_lon,ue_alt_m,time_minutes
2026-01-20T23:02:25+00:00,SAT-45671,164.23958221137565,40.43020527834515,712.9818163591332,-3.607985618819309,126366.91813508778,10.5,10500126366.918135,47.655,-122.3035,60.0,2.4166666666666665
2026-01-20T23:02:26+00:00,SAT-45671,164.01185319323594,40.9118727465378,709.3834520352975,-3.5573726843549425,124594.23907764516,10.5,10500124594.239079,47.655,-122.3035,60.0,2.433333333333333
2026-01-20T23:02:27+00:00,SAT-45671,163.77889691080446,41.39775858429401,705.8355656781008,-3.5059891157105323,122794.56915143805,10.5,10500122794.56915,47.655,-122.3035,60.0,2.45
2026-01-20T23:02:28+00:00,SAT-45671,163.54051837767545,41.887840962807786,702.3389258666989,-3.4538307548071394,120967.76272295335,10.5,10500120967.762722,47.655,-122.3035,60.0,2.466666666666667
2026-01-20T23:02:29+00:00,SAT-45671,163.29651312846119,42.38209398172293,698.8943053272378,-3.40089392154271,119113.69089945036,10.5,10500119113.690899,47.655,-122.3035,60.0,2.4833333333333334
2026-01-20T23:02:30+00:00,SAT-45671,163.0466666581376,42.88048747678556,695.5024804561526,-3.347175414493793,117232.24155353778,10.5,10500117232.241554,47.655,-122.3035,60.0,2.5
2026-01-20T23:02:31+00:00,SAT-45671,162.7907538252018,43.382986818219564,692.1642308427641,-3.292672599718309,115323.32243342239,10.5,10500115323.322433,47.655,-122.3035,60.0,2.5166666666666666
2026-01-20T23:02:32+00:00,SAT-45671,162.52853820894575,43.88955271203907,688.8803387033117,-3.237383350937824,113386.85906783937,10.5,10500113386.859068,47.655,-122.3035,60.0,2.533333333333333
2026-01-20T23:02:33+00:00,SAT-45671,162.25977142926342,44.400140982867875,685.6515883746431,-3.1813061348558405,111422.79775425946,10.5,10500111422.797754,47.655,-122.3035,60.0,2.55
2026-01-20T23:02:34+00:00,SAT-45671,161.98419241463452,44.91470235875822,682.4787657228136,-3.1244400477290286,109431.10683976847,10.5,10500109431.10684,47.655,-122.3035,60.0,2.566666666666667
2026-01-20T23:02:35+00:00,SAT-45671,161.70152661792955,45.43318225145839,679.3626575152117,-3.0667847939984987,107411.77597264382,10.5,10500107411.775972,47.655,-122.3035,60.0,2.5833333333333335
2026-01-20T23:02:36+00:00,SAT-45671,161.4114851814266,45.95552052231245,676.3040508139973,-3.0083407561494315,105364.81854913452,10.5,10500105364.818548,47.655,-122.3035,60.0,2.6
2026-01-20T23:02:37+00:00,SAT-45671,161.1137640390646,46.4816512481013,673.3037322998641,-2.9491089946696607,103290.2717120103,10.5,10500103290.271711,47.655,-122.3035,60.0,2.6166666666666667
2026-01-20T23:02:38+00:00,SAT-45671,160.80804295746879,47.01150247502965,670.362487595847,-2.889091301066268,101188.19820742727,10.5,10500101188.198208,47.655,-122.3035,60.0,2.6333333333333333
2026-01-20T23:02:39+00:00,SAT-45671,160.49398450600395,47.544995969783585,667.4811005382503,-2.8282901976579784,99058.68637765654,10.5,10500099058.686378,47.655,-122.3035,60.0,2.65
2026-01-20T23:02:40+00:00,SAT-45671,160.17123295581305,48.08204695777575,664.6603524477861,-2.7667089860809204,96901.85185996129,10.5,10500096901.85186,47.655,-122.3035,60.0,2.6666666666666665
2026-01-20T23:02:41+00:00,SAT-45671,159.8394130973644,48.62256385704395,661.9010213523346,-2.704351747153065,94717.83758184865,10.5,10500094717.837582,47.655,-122.3035,60.0,2.683333333333333
2026-01-20T23:02:42+00:00,SAT-45671,159.49812897572852,49.16644799807779,659.2038812098407,-2.6412233868921215,92506.81537281127,10.5,10500092506.815372,47.655,-122.3035,60.0,2.7
2026-01-20T23:02:43+00:00,SAT-45671,159.14696253215467,49.713593337939,656.5697010853136,-2.577329650196945,90268.98644350794,10.5,10500090268.986443,47.655,-122.3035,60.0,2.716666666666667
2026-01-20T23:02:44+00:00,SAT-45671,158.78547214861476,50.263886161776,653.9992443141838,-2.5126771337741047,88004.58183850677,10.5,10500088004.581839,47.655,-122.3035,60.0,2.7333333333333334
2026-01-20T23:02:45+00:00,SAT-45671,158.41319108866594,50.817204770563976,651.4932676527665,-2.447273327317915,85713.863878584,10.5,10500085713.863878,47.655,-122.3035,60.0,2.75
2026-01-20T23:02:46+00:00,SAT-45671,158.02962582295328,51.37341916033172,649.0525203876548,-2.3811266102371222,83397.1260460788,10.5,10500083397.126045,47.655,-122.3035,60.0,2.7666666666666666
2026-01-20T23:02:47+00:00,SAT-45671,157.6342542375935,51.93239068239902,646.6777434483782,-2.3142462829923645,81054.69408246363,10.5,10500081054.694082,47.655,-122.3035,60.0,2.783333333333333
2026-01-20T23:02:48+00:00,SAT-45671,157.22652371211097,52.49397169092895,644.3696684888072,-2.246642559984403,78686.92573926003,10.5,10500078686.92574,47.655,-122.3035,60.0,2.8
2026-01-20T23:02:49+00:00,SAT-45671,156.80584906462974,53.05800516763567,642.1290169756494,-2.1783266218364687,76294.21260918753,10.5,10500076294.212608,47.655,-122.3035,60.0,2.816666666666667
2026-01-20T23:02:50+00:00,SAT-45671,156.37161034490876,53.624324336384674,639.9564992248045,-2.1093105844585422,73876.97904266388,10.5,10500073876.979042,47.655,-122.3035,60.0,2.8333333333333335
2026-01-20T23:02:51+00:00,SAT-45671,155.92315048098112,54.19275224605459,637.8528134685712,-2.0396075395146056,71435.68356513945,10.5,10500071435.683565,47.655,-122.3035,60.0,2.85
2026-01-20T23:02:52+00:00,SAT-45671,155.45977275729675,54.763101337217684,635.8186448824953,-1.9692315202442325,68970.81768002463,10.5,10500068970.81768,47.655,-122.3035,60.0,2.8666666666666667
2026-01-20T23:02:53+00:00,SAT-45671,154.98073813104804,55.33517297115858,633.8546646463051,-1.8981975586761846,66482.90787255208,10.5,10500066482.907873,47.655,-122.3035,60.0,2.8833333333333333
2026-01-20T23:02:54+00:00,SAT-45671,154.48526235815027,55.90875694331004,631.9615289477854,-1.8265216393616135,63972.51398931771,10.5,10500063972.513988,47.655,-122.3035,60.0,2.9
2026-01-20T23:02:55+00:00,SAT-45671,153.97251294462978,56.48363095054646,630.1398780327954,-1.754220729002254,61440.230275985356,10.5,10500061440.230276,47.655,-122.3035,60.0,2.9166666666666665
2026-01-20T23:02:56+00:00,SAT-45671,153.44160589936803,57.059560030365056,628.3903352257371,-1.6813127272134607,58886.68365280002,10.5,10500058886.683653,47.655,-122.3035,60.0,2.933333333333333
2026-01-20T23:02:57+00:00,SAT-45671,152.89160230543763,57.63629594490266,626.7135059991296,-1.607816527823003,56312.535861531025,10.5,10500056312.535862,47.655,-122.3035,60.0,2.95
2026-01-20T23:02:58+00:00,SAT-45671,152.32150467520702,58.21357654104792,625.1099769820474,-1.5337519403797049,53718.48071637246,10.5,10500053718.480717,47.655,-122.3035,60.0,2.966666666666667
2026-01-20T23:02:59+00:00,SAT-45671,151.73025313255565,58.79112503857251,623.580315046842,-1.4591397003780584,51105.24446205252,10.5,10500051105.244463,47.655,-122.3035,60.0,2.9833333333333334
2026-01-20T23:03:00+00:00,SAT-45671,151.11672140304938,59.368649269417176,622.1250663856649,-1.3840014734374464,48473.58592020746,10.5,10500048473.58592,47.655,-122.3035,60.0,3.0
2026-01-20T23:03:01+00:00,SAT-45671,150.47971262167295,59.94584086377174,620.7447555828235,-1.3083597963745648,45824.294425488624,10.5,10500045824.294426,47.655,-122.3035,60.0,3.0166666666666666
2026-01-20T23:03:02+00:00,SAT-45671,149.8179550030286,60.52237435509164,619.4398847459057,-1.2322380701959652,43158.189580131584,10.5,10500043158.18958,47.655,-122.3035,60.0,3.033333333333333
2026-01-20T23:03:03+00:00,SAT-45671,149.1300973844565,61.09790621703982,618.210932643897,-1.155660539161684,40476.12052067595,10.5,10500040476.120522,47.655,-122.3035,60.0,3.05
2026-01-20T23:03:04+00:00,SAT-45671,148.4147046865873,61.672073823950406,617.0583538661731,-1.0786522550545994,37778.96466652705,10.5,10500037778.964666,47.655,-122.3035,60.0,3.066666666666667
2026-01-20T23:03:05+00:00,SAT-45671,147.670253354929,62.24449432396097,615.982578017132,-1.0012390291931768,35067.6260392393,10.5,10500035067.62604,47.655,-122.3035,60.0,3.0833333333333335
2026-01-20T23:03:06+00:00,SAT-45671,146.89512686877822,62.81476341353464,614.9840089586834,-0.9234474156442076,32343.034674555354,10.5,10500032343.034674,47.655,-122.3035,60.0,3.1
2026-01-20T23:03:07+00:00,SAT-45671,146.08761139766628,63.38245402453478,614.0630240694808,-0.8453046588412333,29606.14478778165,10.5,10500029606.144787,47.655,-122.3035,60.0,3.1166666666666667
2026-01-20T23:03:08+00:00,SAT-45671,145.24589175627065,63.94711490469101,613.2199735563966,-0.7668386577614037,26857.933519110542,10.5,10500026857.93352,47.655,-122.3035,60.0,3.1333333333333333
2026-01-20T23:03:09+00:00,SAT-45671,144.36804781133173,64.50826909828025,612.4551798017226,-0.6880779073620438,24099.39888248109,10.5,10500024099.398882,47.655,-122.3035,60.0,3.15
2026-01-20T23:03:10+00:00,SAT-45671,143.45205157006203,65.06541231430243,611.7689367687801,-0.6090514721105335,21331.55883848353,10.5,10500021331.558838,47.655,-122.3035,60.0,3.1666666666666665
2026-01-20T23:03:11+00:00,SAT-45671,142.49576517442472,65.61801120777884,611.1615094339285,-0.5297889082348166,18555.448571243156,10.5,10500018555.448572,47.655,-122.3035,60.0,3.183333333333333
2026-01-20T23:03:12+00:00,SAT-45671,141.4969401806387,66.16550154671557,610.6331332961157,-0.45032023368074997,15772.119436199675,10.5,10500015772.119436,47.655,-122.3035,60.0,3.2
2026-01-20T23:03:13+00:00,SAT-45671,140.45321845806666,66.70728631260512,610.1840139163915,-0.3706758621126524,12982.636648527196,10.5,10500012982.636648,47.655,-122.3035,60.0,3.216666666666667
2026-01-20T23:03:14+00:00,SAT-45671,139.3621352242184,67.24273372943787,609.8143265232444,-0.29088654438849454,10188.077233347854,10.5,10500010188.077234,47.655,-122.3035,60.0,3.2333333333333334
2026-01-20T23:03:15+00:00,SAT-45671,138.22112478307375,67.77117525247431,609.5242156763076,-0.21098331858868197,7389.5282755284015,10.5,10500007389.528276,47.655,-122.3035,60.0,3.25
2026-01-20T23:03:16+00:00,SAT-45671,137.02752960724598,68.29190357081188,609.3137949799018,-0.13099744183786513,4588.084531791603,10.5,10500004588.084532,47.655,-122.3035,60.0,3.2666666666666666
2026-01-20T23:03:17+00:00,SAT-45671,135.77861359419896,68.80417065381579,609.1831468645754,-0.05096033607052071,1784.8465311974842,10.5,10500001784.84653,47.655,-122.3035,60.0,3.283333333333333
2026-01-20T23:03:18+00:00,SAT-45671,134.47158033684448,69.30718593554361,609.1323224227344,0.029096478399343425,-1019.0817515266043,10.5,10499998980.91825,47.655,-122.3035,60.0,3.3
2026-01-20T23:03:19+00:00,SAT-45671,133.1035974684034,69.80011470229523,609.1613413105247,0.10914144034056475,-3822.594908561475,10.5,10499996177.405092,47.655,-122.3035,60.0,3.316666666666667
2026-01-20T23:03:20+00:00,SAT-45671,131.6718281138333,70.28207682072137,609.2701917070244,0.18914301262862315,-6624.58837640453,10.5,10499993375.411623,47.655,-122.3035,60.0,3.3333333333333335
2026-01-20T23:03:21+00:00,SAT-45671,130.17347061699888,70.7521459361568,609.458830338286,0.26906974333861217,-9423.960575604033,10.5,10499990576.039425,47.655,-122.3035,60.0,3.35
2026-01-20T23:03:22+00:00,SAT-45671,128.60580772071197,71.20934930327965,609.727182562309,0.3488903239841751,-12219.614950533007,10.5,10499987780.38505,47.655,-122.3035,60.0,3.3666666666666667
2026-01-20T23:03:23+00:00,SAT-45671,126.9662662342357,71.65266846195719,610.075142512096,0.4285736590751309,-15010.462405591517,10.5,10499984989.537594,47.655,-122.3035,60.0,3.3833333333333333
2026-01-20T23:03:24+00:00,SAT-45671,125.25248802046154,72.08104099726818,610.5025733080802,0.5080889150253677,-17795.423018167992,10.5,10499982204.576982,47.655,-122.3035,60.0,3.4
2026-01-20T23:03:25+00:00,SAT-45671,123.46241292202107,72.49336361376592,611.0093073193322,0.587405586106048,-20573.42834859943,10.5,10499979426.571651,47.655,-122.3035,60.0,3.4166666666666665
2026-01-20T23:03:26+00:00,SAT-45671,121.59437346866535,72.88849683447108,611.595146490542,0.6664935516519676,-23343.423443780095,10.5,10499976656.576557,47.655,-122.3035,60.0,3.433333333333333
2026-01-20T23:03:27+00:00,SAT-45671,119.64720058711868,73.26527159478347,612.2598627260561,0.7453231253060196,-26104.368561910942,10.5,10499973895.631437,47.655,-122.3035,60.0,3.45
2026-01-20T23:03:28+00:00,SAT-45671,117.62033844739321,73.62249800444232,613.0031983230281,0.8238651160167475,-28855.241308891927,10.5,10499971144.758692,47.655,-122.3035,60.0,3.466666666666667
2026-01-20T23:03:29+00:00,SAT-45671,115.51396522088211,73.95897652165614,613.8248664654021,0.902090873185793,-31595.038219576647,10.5,10499968404.96178,47.655,-122.3035,60.0,3.4833333333333334
2026-01-20T23:03:30+00:00,SAT-45671,113.32911511605086,74.27351169177804,614.724551762926,0.9799723478360849,-34322.776900141,10.5,10499965677.2231,47.655,-122.3035,60.0,3.5
2026-01-20T23:03:31+00:00,SAT-45671,111.06779535014832,74.56492850668786,615.7019108511679,1.0574821159180348,-37037.49684436479,10.5,10499962962.503155,47.655,-122.3035,60.0,3.5166666666666666
2026-01-20T23:03:32+00:00,SAT-45671,108.73309032388404,74.83209126275953,616.7565730147768,1.1345934475054378,-39738.261857164856,10.5,10499960261.738142,47.655,-122.3035,60.0,3.533333333333333
2026-01-20T23:03:33+00:00,SAT-45671,106.32924382159857,75.07392462669007,617.8881408797556,1.2112803330497246,-42424.16097413,10.5,10499957575.839025,47.655,-122.3035,60.0,3.55
2026-01-20T23:03:34+00:00,SAT-45671,103.86170966815216,75.28943635750231,619.0961911319172,1.2875175214799257,-45094.309795942965,10.5,10499954905.690205,47.655,-122.3035,60.0,3.566666666666667
2026-01-20T23:03:35+00:00,SAT-45671,101.33716140969076,75.47774091099174,620.3802752733399,1.3632805645297288,-47747.852040901416,10.5,10499952252.147959,47.655,-122.3035,60.0,3.5833333333333335
2026-01-20T23:03:36+00:00,SAT-45671,98.76345306186286,75.63808291914768,621.7399204230309,1.4385458397994735,-50383.9603526466,10.5,10499949616.039648,47.655,-122.3035,60.0,3.6
2026-01-20T23:03:37+00:00,SAT-45671,96.14952574375478,75.76985935380674,623.1746301405908,1.5132905779893628,-53001.83725398559,10.5,10499946998.162746,47.655,-122.3035,60.0,3.6166666666666667
2026-01-20T23:03:38+00:00,SAT-45671,93.50525888686035,75.87263909392703,624.6838852770389,1.5874928995597688,-55600.71643089024,10.5,10499944399.28357,47.655,-122.3035,60.0,3.6333333333333333
2026-01-20T23:03:39+00:00,SAT-45671,90.84126947608594,75.9461786332481,626.2671448621998,1.6611318246595594,-58179.86308022924,10.5,10499941820.136919,47.655,-122.3035,60.0,3.65
2026-01-20T23:03:40+00:00,SAT-45671,88.16866790827416,75.9904328143289,627.9238470019935,1.7341872994502319,-60738.57483175055,10.5,10499939261.425169,47.655,-122.3035,60.0,3.6666666666666665
2026-01-20T23:03:41+00:00,SAT-45671,85.49878356511982,76.00555975952672,629.6534098019786,1.8066402030631858,-63276.181991754616,10.5,10499936723.818008,47.655,-122.3035,60.0,3.683333333333333
2026-01-20T23:03:42+00:00,SAT-45671,82.84287665441049,75.9919195542068,631.4552322978336,1.8784723747603873,-65792.04849437562,10.5,10499934207.951506,47.655,-122.3035,60.0,3.7
2026-01-20T23:03:43+00:00,SAT-45671,80.21185439077037,75.95006668600237,633.328695412928,1.9496666101690923,-68285.57176970565,10.5,10499931714.42823,47.655,-122.3035,60.0,3.716666666666667
2026-01-20T23:03:44+00:00,SAT-45671,77.61600916425414,75.88073669604934,635.2731629121366,2.020206666505079,-70756.18292673437,10.5,10499929243.817074,47.655,-122.3035,60.0,3.7333333333333334
2026-01-20T23:03:45+00:00,SAT-45671,75.06479377316613,75.78482789699655,637.2879823608644,2.0900772808832957,-73203.3473946653,10.5,10499926796.652605,47.655,-122.3035,60.0,3.75
2026-01-20T23:03:46+00:00,SAT-45671,72.56664474641389,75.66337930738618,639.372486102332,2.1592641541567263,-75626.5643568846,10.5,10499924373.435642,47.655,-122.3035,60.0,3.7666666666666666
2026-01-20T23:03:47+00:00,SAT-45671,70.12885992844573,75.51754611988933,641.5259922187444,2.2277539644053066,-78025.36722340001,10.5,10499921974.632776,47.655,-122.3035,60.0,3.783333333333333
2026-01-20T23:03:48+00:00,SAT-45671,67.75753140699629,75.34857404597902,643.7478055059113,2.2955343201436227,-80399.3219919763,10.5,10499919600.678007,47.655,-122.3035,60.0,3.8
2026-01-20T23:03:49+00:00,SAT-45671,65.4575305436533,75.15777379142436,646.037218401201,2.36259383840595,-82748.02998300403,10.5,10499917251.970016,47.655,-122.3035,60.0,3.816666666666667
2026-01-20T23:03:50+00:00,SAT-45671,63.23253829068842,74.94649671511804,648.3935119893713,2.428922040095299,-85071.12417417999,10.5,10499914928.875826,47.655,-122.3035,60.0,3.8333333333333335
2026-01-20T23:03:51+00:00,SAT-45671,61.08511219638663,74.71611250707583,650.8159569040263,2.494509398630079,-87368.2709043195,10.5,10499912631.729095,47.655,-122.3035,60.0,3.85
2026-01-20T23:03:52+00:00,SAT-45671,59.01678027661664,74.46798943260251,653.3038142775933,2.559347287636342,-89639.16804131742,10.5,10499910360.831959,47.655,-122.3035,60.0,3.8666666666666667
2026-01-20T23:03:53+00:00,SAT-45671,57.02815238037768,74.2034774615805,655.8563366391295,2.6234280090487796,-91883.54596636379,10.5,10499908116.454033,47.655,-122.3035,60.0,3.8833333333333333
2026-01-20T23:03:54+00:00,SAT-45671,55.11904045522507,73.92389436866198,658.472768840154,2.6867447354144347,-94101.165553176,10.5,10499905898.834446,47.655,-122.3035,60.0,3.9
2026-01-20T23:03:55+00:00,SAT-45671,53.28858067058184,73.63051473489271,661.1523489229406,2.7492915020381705,-96291.81789289974,10.5,10499903708.182108,47.655,-122.3035,60.0,3.9166666666666665
2026-01-20T23:03:56+00:00,SAT-45671,51.53535183708583,73.32456164340297,663.8943089809734,2.81106319566944,-98455.32389787177,10.5,10499901544.676102,47.655,-122.3035,60.0,3.933333333333333
2026-01-20T23:03:57+00:00,SAT-45671,49.85748618542091,73.00720078754408,666.697876008121,2.872055523144874,-100591.5332033509,10.5,10499899408.466797,47.655,-122.3035,60.0,3.95
2026-01-20T23:03:58+00:00,SAT-45671,48.252769990791776,72.6795366714204,669.5622727165376,2.932264987685293,-102700.32333733884,10.5,10499897299.676662,47.655,-122.3035,60.0,3.966666666666667
2026-01-20T23:03:59+00:00,SAT-45671,46.718732689495354,72.34261056871449,672.4867183309224,2.9916888771464247,-104781.59930907087,10.5,10499895218.40069,47.655,-122.3035,60.0,3.9833333333333334
2026-01-20T23:04:00+00:00,SAT-45671,45.25272405649043,71.9973999160668,675.4704293710631,3.050325211150586,-106835.29175734351,10.5,10499893164.708242,47.655,-122.3035,60.0,4.0
2026-01-20T23:04:01+00:00,SAT-45671,43.85197971319006,71.64481884882747,678.5126203816507,3.108172752896562,-108861.35736414658,10.5,10499891138.642635,47.655,-122.3035,60.0,4.016666666666667
2026-01-20T23:04:02+00:00,SAT-45671,42.51367563569441,71.28571960758505,681.6125046738728,3.165230944527141,-110859.77659096076,10.5,10499889140.22341,47.655,-122.3035,60.0,4.033333333333333
2026-01-20T23:04:03+00:00,SAT-45671,41.234972680656504,70.92089459714991,684.7692950025478,3.2214999108525855,-112830.55380916936,10.5,10499887169.44619,47.655,-122.3035,60.0,4.05
2026-01-20T23:04:04+00:00,SAT-45671,40.013052214619336,70.55107889915388,687.9822042469715,3.276980400285966,-114773.71523136397,10.5,10499885226.28477,47.655,-122.3035,60.0,4.066666666666666
2026-01-20T23:04:05+00:00,SAT-45671,38.84514403000229,70.17695308926235,691.2504460328568,3.3316738147977616,-116689.30996048104,10.5,10499883310.690039,47.655,-122.3035,60.0,4.083333333333333
2026-01-20T23:04:06+00:00,SAT-45671,37.72854763871292,69.79914622338222,694.5732353841483,3.3855821023835446,-118577.40622356557,10.5,10499881422.593777,47.655,-122.3035,60.0,4.1
2026-01-20T23:04:07+00:00,SAT-45671,36.66064804357909,69.41823891074407,697.9497892675921,3.438707780966827,-120438.09220894972,10.5,10499879561.907791,47.655,-122.3035,60.0,4.116666666666666
2026-01-20T23:04:08+00:00,SAT-45671,35.63892688929298,69.03476638338401,701.3793271611431,3.491053930495355,-122271.47578943173,10.5,10499877728.52421,47.655,-122.3035,60.0,4.133333333333334
2026-01-20T23:04:09+00:00,SAT-45671,34.66096984894228,68.6492215099138,704.8610716144905,3.542624079268224,-124077.68054097061,10.5,10499875922.31946,47.655,-122.3035,60.0,4.15
2026-01-20T23:04:10+00:00,SAT-45671,33.72447100367202,68.26205772538766,708.3942486962139,3.5934222993222567,-125856.84908352062,10.5,10499874143.150917,47.655,-122.3035,60.0,4.166666666666667
2026-01-20T23:04:11+00:00,SAT-45671,32.827234778152125,67.87369182556782,711.9780885360714,3.643453052916974,-127609.1377042855,10.5,10499872390.862295,47.655,-122.3035,60.0,4.183333333333334
2026-01-20T23:04:12+00:00,SAT-45671,31.967176024993314,67.48450663596607,715.6118257141806,3.6927212731425705,-129334.71918095082,10.5,10499870665.280819,47.655,-122.3035,60.0,4.2
2026-01-20T23:04:13+00:00,SAT-45671,31.142318631789404,67.09485351892714,719.2946997305947,3.7412322766533768,-131033.77972524063,10.5,10499868966.220274,47.655,-122.3035,60.0,4.216666666666667
2026-01-20T23:04:14+00:00,SAT-45671,30.350793053603727,66.70505473315654,723.0259553878437,3.7889917213636366,-132706.51750124476,10.5,10499867293.482498,47.655,-122.3035,60.0,4.233333333333333
2026-01-20T23:04:15+00:00,SAT-45671,29.590833049637844,66.31540564011549,726.8048431312837,3.8360056744567244,-134353.14500738907,10.5,10499865646.854992,47.655,-122.3035,60.0,4.25
2026-01-20T23:04:16+00:00,SAT-45671,28.8607718390019,65.92617674874843,730.6306194572752,3.882280480039244,-135973.88444112247,10.5,10499864026.115559,47.655,-122.3035,60.0,4.266666666666667
2026-01-20T23:04:17+00:00,SAT-45671,28.159037905693427,65.53761562486548,734.5025471893676,3.92782280150865,-137568.9691828099,10.5,10499862431.030817,47.655,-122.3035,60.0,4.283333333333333
2026-01-20T23:04:18+00:00,SAT-45671,27.48415056554832,65.14994865336675,738.4198957967391,3.972639578200574,-139138.6422773385,10.5,10499860861.357723,47.655,-122.3035,60.0,4.3
2026-01-20T23:04:19+00:00,SAT-45671,26.834715429758784,64.76338266970762,742.3819416693977,4.01673800450163,-140683.1557025598,10.5,10499859316.844297,47.655,-122.3035,60.0,4.316666666666666
2026-01-20T23:04:20+00:00,SAT-45671,26.209419849968363,64.3781064665076,746.387968372554,4.060125509913343,-142202.7696710439,10.5,10499857797.23033,47.655,-122.3035,60.0,4.333333333333333
2026-01-20T23:04:21+00:00,SAT-45671,25.60702841331449,63.994292183200535,750.4372668811076,4.102809741100947,-143697.75200135272,10.5,10499856302.248,47.655,-122.3035,60.0,4.35
2026-01-20T23:04:22+00:00,SAT-45671,25.026378537865053,63.61209658689302,754.5291357962323,4.144798528261173,-145168.3769400974,10.5,10499854831.62306,47.655,-122.3035,60.0,4.366666666666666
2026-01-20T23:04:23+00:00,SAT-45671,24.46637620745638,63.23166225379428,758.6628815284181,4.1860998794728825,-146614.92496407387,10.5,10499853385.075035,47.655,-122.3035,60.0,4.383333333333334
2026-01-20T23:04:24+00:00,SAT-45671,23.92599186745237,62.853118656242735,762.837818474879,4.226721984843754,-148037.68292549712,10.5,10499851962.317074,47.655,-122.3035,60.0,4.4
2026-01-20T23:04:25+00:00,SAT-45671,23.40425649789082,62.47658316182324,767.0532692010964,4.2666731295076366,-149436.9410048007,10.5,10499850563.058994,47.655,-122.3035,60.0,4.416666666666667
2026-01-20T23:04:26+00:00,SAT-45671,22.900257885003857,62.10216195983298,771.3085645355922,4.305961742447066,-150812.99442060746,10.5,10499849187.005579,47.655,-122.3035,60.0,4.433333333333334
2026-01-20T23:04:27+00:00,SAT-45671,22.413137078844436,61.72995090884926,775.6030437133927,4.344596376583875,-152166.14273241887,10.5,10499847833.857267,47.655,-122.3035,60.0,4.45
2026-01-20T23:04:28+00:00,SAT-45671,21.94208504708081,61.36003631808178,779.936054499639,4.382585646152167,-153496.6876471514,10.5,10499846503.312353,47.655,-122.3035,60.0,4.466666666666667
2026-01-20T23:04:29+00:00,SAT-45671,21.486339526776764,60.992495671518704,784.3069532507348,4.419938248291806,-154804.93377543197,10.5,10499845195.066225,47.655,-122.3035,60.0,4.483333333333333
2026-01-20T23:04:30+00:00,SAT-45671,21.045182060065322,60.627398292570824,788.7151049970312,4.4566629494131424,-156091.18815403286,10.5,10499843908.811846,47.655,-122.3035,60.0,4.5
2026-01-20T23:04:31+00:00,SAT-45671,20.61793521198754,60.26480595715401,793.1598835119125,4.492768552822133,-157355.75911196668,10.5,10499842644.240889,47.655,-122.3035,60.0,4.516666666666667
2026-01-20T23:04:32+00:00,SAT-45671,20.203959964793654,59.90477346106634,797.6406713485937,4.5282639337337685,-158598.95749680456,10.5,10499841401.042503,47.655,-122.3035,60.0,4.533333333333333
2026-01-20T23:04:33+00:00,SAT-45671,19.802653274699047,59.54734914001747,802.1568599118376,4.563157921205505,-159821.09253948546,10.5,10499840178.907461,47.655,-122.3035,60.0,4.55
2026-01-20T23:04:34+00:00,SAT-45671,19.413445796103552,59.192575358516464,806.7078494119198,4.597459443593315,-161022.4769488024,10.5,10499838977.52305,47.655,-122.3035,60.0,4.566666666666666
2026-01-20T23:04:35+00:00,SAT-45671,19.03579974190102,58.84048894952291,811.2930489636636,4.631177361748248,-162203.42106924055,10.5,10499837796.57893,47.655,-122.3035,60.0,4.583333333333333
2026-01-20T23:04:36+00:00,SAT-45671,18.66920689814596,58.49112163309915,815.9118765191139,4.664320560509454,-163364.2360854497,10.5,10499836635.763914,47.655,-122.3035,60.0,4.6
2026-01-20T23:04:37+00:00,SAT-45671,18.313186762675873,58.14450039613318,820.563758891462,4.696897912338131,-164505.2327485516,10.5,10499835494.767252,47.655,-122.3035,60.0,4.616666666666666
2026-01-20T23:04:38+00:00,SAT-45671,17.967284810490398,57.80064784597153,825.2481317427005,4.728918253666642,-165626.72054778555,10.5,10499834373.279451,47.655,-122.3035,60.0,4.633333333333334
2026-01-20T23:04:39+00:00,SAT-45671,17.63107087662334,57.45958253908435,829.9644395476906,4.760390394763299,-166729.00805601533,10.5,10499833270.991943,47.655,-122.3035,60.0,4.65
2026-01-20T23:04:40+00:00,SAT-45671,17.30413764634473,57.121319284479426,834.712135568068,4.791323094168161,-167812.40203436234,10.5,10499832187.597965,47.655,-122.3035,60.0,4.666666666666667
2026-01-20T23:04:41+00:00,SAT-45671,16.986099248249744,56.78586942629126,839.4906818006517,4.821725070137877,-168877.20783305267,10.5,10499831122.792168,47.655,-122.3035,60.0,4.683333333333334
2026-01-20T23:04:42+00:00,SAT-45671,16.676589940647027,56.45324110475668,844.2995489372692,4.851605003774297,-169923.72950099403,10.5,10499830076.270498,47.655,-122.3035,60.0,4.7
2026-01-20T23:04:43+00:00,SAT-45671,16.375262885757618,56.123439497801826,849.1382163277001,4.880971469974932,-170952.26736736915,10.5,10499829047.732632,47.655,-122.3035,60.0,4.716666666666667
2026-01-20T23:04:44+00:00,SAT-45671,16.081789009782515,55.79646704971896,854.0061718737551,4.909833032892636,-171963.12138503723,10.5,10499828036.878614,47.655,-122.3035,60.0,4.733333333333333
2026-01-20T23:04:45+00:00,SAT-45671,15.79585593334582,55.47232367684463,858.90291201856,4.9381981598218365,-172956.5881144658,10.5,10499827043.411886,47.655,-122.3035,60.0,4.75
2026-01-20T23:04:46+00:00,SAT-45671,15.517166977887692,55.15100696419191,863.8279416499557,4.966075213824135,-173932.9604654478,10.5,10499826067.039534,47.655,-122.3035,60.0,4.766666666666667
2026-01-20T23:04:47+00:00,SAT-45671,15.24544023811263,54.832512348390644,868.780773996543,4.993472553467325,-174892.5311903841,10.5,10499825107.46881,47.655,-122.3035,60.0,4.783333333333333
2026-01-20T23:04:48+00:00,SAT-45671,14.980407710280724,54.51683328129164,873.7609306232009,5.020398365435213,-175835.5870215712,10.5,10499824164.41298,47.655,-122.3035,60.0,4.8
2026-01-20T23:04:49+00:00,SAT-45671,14.721814486455095,54.20396139250651,878.7679412596617,5.046860807504694,-176762.41367886344,10.5,10499823237.58632,47.655,-122.3035,60.0,4.816666666666666
2026-01-20T23:04:50+00:00,SAT-45671,14.46941799397438,53.8938866316347,883.8013437716797,5.072867935232012,-177673.29330191534,10.5,10499822326.706697,47.655,-122.3035,60.0,4.833333333333333
2026-01-20T23:04:51+00:00,SAT-45671,14.222987288171735,53.58659740499062,888.8606840590845,5.098427719319895,-178568.50505845246,10.5,10499821431.494942,47.655,-122.3035,60.0,4.85
2026-01-20T23:04:52+00:00,SAT-45671,13.982302389888908,53.28208070177289,893.9455159711528,5.1235479684271,-179448.32244073515,10.5,10499820551.677559,47.655,-122.3035,60.0,4.866666666666666
2026-01-20T23:04:53+00:00,SAT-45671,13.747153669027059,52.98032221605335,899.0554011449974,5.148236503430498,-180313.01936895365,10.5,10499819686.98063,47.655,-122.3035,60.0,4.883333333333334
2026-01-20T23:04:54+00:00,SAT-45671,13.51734125983959,52.68130645003689,904.1899090177521,5.172500956470147,-181162.86315293674,10.5,10499818837.136847,47.655,-122.3035,60.0,4.9
2026-01-20T23:04:55+00:00,SAT-45671,13.292674522089165,52.385016821939736,909.3486166383384,5.196348911265845,-181998.1194066309,10.5,10499818001.880594,47.655,-122.3035,60.0,4.916666666666667
2026-01-20T23:04:56+00:00,SAT-45671,13.072971530293552,52.09143575835858,914.5311086191742,5.219787798769201,-182819.04839339425,10.5,10499817180.951607,47.655,-122.3035,60.0,4.933333333333334
2026-01-20T23:04:57+00:00,SAT-45671,12.858058599251766,51.800544786233054,919.7369769838133,5.242824985885075,-183625.90813339702,10.5,10499816374.091867,47.655,-122.3035,60.0,4.95
2026-01-20T23:04:58+00:00,SAT-45671,12.647769835661414,51.51232461355225,924.9658211030694,5.265467733666188,-184418.95293941977,10.5,10499815581.04706,47.655,-122.3035,60.0,4.966666666666667
2026-01-20T23:04:59+00:00,SAT-45671,12.44194671915236,51.2267552068911,930.2172475894458,5.287723156357215,-185198.43198240417,10.5,10499814801.568018,47.655,-122.3035,60.0,4.983333333333333
2026-01-20T23:05:00+00:00,SAT-45671,12.240437710610365,50.943815865859634,935.4908701507194,5.309598306034591,-185964.59225589727,10.5,10499814035.407743,47.655,-122.3035,60.0,5.0
2026-01-20T23:05:01+00:00,SAT-45671,12.043097881314884,50.66348528797302,940.7863095279379,5.331100100168302,-186717.67603895886,10.5,10499813282.323961,47.655,-122.3035,60.0,5.016666666666667
2026-01-20T23:05:02+00:00,SAT-45671,11.849788567234262,50.385741632944914,946.1031933611724,5.352235370993651,-187457.92262536954,10.5,10499812542.077375,47.655,-122.3035,60.0,5.033333333333333
2026-01-20T23:05:03+00:00,SAT-45671,11.660377042398933,50.11056258004764,951.44115610451,5.37301082035873,-188185.56674219825,10.5,10499811814.433258,47.655,-122.3035,60.0,5.05
2026-01-20T23:05:04+00:00,SAT-45671,11.474736213419153,49.83792538389058,956.7998388960145,5.39343304123774,-188900.83930328986,10.5,10499811099.160696,47.655,-122.3035,60.0,5.066666666666666
2026-01-20T23:05:05+00:00,SAT-45671,11.292744331344963,49.56780692533963,962.1788894491423,5.413508542796143,-189603.9682871525,10.5,10499810396.031713,47.655,-122.3035,60.0,5.083333333333333
2026-01-20T23:05:06+00:00,SAT-45671,11.114284719843297,49.30018375770137,967.5779619691576,5.433243702702742,-190295.17706672527,10.5,10499809704.822933,47.655,-122.3035,60.0,5.1
2026-01-20T23:05:07+00:00,SAT-45671,10.939245520728413,49.03503215215209,972.9967170219865,5.452644820304341,-190974.68627177933,10.5,10499809025.313728,47.655,-122.3035,60.0,5.116666666666666
2026-01-20T23:05:08+00:00,SAT-45671,10.767519452752959,48.77232813745641,978.4348214561034,5.471718040551463,-191642.71112447517,10.5,10499808357.288876,47.655,-122.3035,60.0,5.133333333333334
2026-01-20T23:05:09+00:00,SAT-45671,10.599003586527113,48.51204754066498,983.8919482485467,5.490469449992814,-192299.46480149459,10.5,10499807700.535198,47.655,-122.3035,60.0,5.15
2026-01-20T23:05:10+00:00,SAT-45671,10.433599129594661,48.25416602043687,989.3677764466729,5.508905010479406,-192945.1561120786,10.5,10499807054.843887,47.655,-122.3035,60.0,5.166666666666667
2026-01-20T23:05:11+00:00,SAT-45671,10.271211225644228,47.998659101215466,994.8619910437909,5.527030565483766,-193579.98971935295,10.5,10499806420.01028,47.655,-122.3035,60.0,5.183333333333334
2026-01-20T23:05:12+00:00,SAT-45671,10.111748764902451,47.745502204733455,1000.3742828611001,5.544851882583421,-194204.16762827942,10.5,10499805795.832373,47.655,-122.3035,60.0,5.2
2026-01-20T23:05:13+00:00,SAT-45671,9.955124203974291,47.494670677421816,1005.9043484719967,5.562374613374174,-194817.88778164936,10.5,10499805182.112219,47.655,-122.3035,60.0,5.216666666666667
2026-01-20T23:05:14+00:00,SAT-45671,9.801253396888837,47.246139817692814,1011.4518900864018,5.579604301313081,-195421.3443347776,10.5,10499804578.655664,47.655,-122.3035,60.0,5.233333333333333
2026-01-20T23:05:15+00:00,SAT-45671,9.650055435183063,46.999884901009196,1017.0166154429114,5.596546370788549,-196014.72727269132,10.5,10499803985.272728,47.655,-122.3035,60.0,5.25
2026-01-20T23:05:16+00:00,SAT-45671,9.501452497123443,46.75588120362999,1022.5982376900446,5.613206227889134,-196598.22593947948,10.5,10499803401.774061,47.655,-122.3035,60.0,5.266666666666667
2026-01-20T23:05:17+00:00,SAT-45671,9.3553697026097,46.51410402032301,1028.1964753679927,5.629589074413911,-197172.02252414924,10.5,10499802827.977476,47.655,-122.3035,60.0,5.283333333333333
2026-01-20T23:05:18+00:00,SAT-45671,9.211734980538223,46.274528688780656,1033.8110522048748,5.645700066983629,-197736.29763337175,10.5,10499802263.702366,47.655,-122.3035,60.0,5.3
2026-01-20T23:05:19+00:00,SAT-45671,9.070478939390485,46.03713060555378,1039.4416970716798,5.661544291616515,-198291.22940101917,10.5,10499801708.7706,47.655,-122.3035,60.0,5.316666666666666
2026-01-20T23:05:20+00:00,SAT-45671,8.931534745434476,45.801885241860994,1045.088143911852,5.677126679310552,-198836.99053149894,10.5,10499801163.009468,47.655,-122.3035,60.0,5.333333333333333
2026-01-20T23:05:21+00:00,SAT-45671,8.79483800924827,45.56876816177055,1050.7501315866843,5.692452107992492,-199373.75187043953,10.5,10499800626.248129,47.655,-122.3035,60.0,5.35
2026-01-20T23:05:22+00:00,SAT-45671,8.660326675977696,45.33775503482322,1056.427403822389,5.70752534200959,-199901.680285435,10.5,10499800098.319715,47.655,-122.3035,60.0,5.366666666666666
2026-01-20T23:05:23+00:00,SAT-45671,8.527940922600163,45.10882165018872,1062.1197090968199,5.7223510952409775,-200420.94087647216,10.5,10499799579.059124,47.655,-122.3035,60.0,5.383333333333334
2026-01-20T23:05:24+00:00,SAT-45671,8.397623059241786,44.88194392719009,1067.82680058914,5.736933931925933,-200931.69350251736,10.5,10499799068.306498,47.655,-122.3035,60.0,5.4
2026-01-20T23:05:25+00:00,SAT-45671,8.269317437621963,44.657097928942946,1073.548436030581,5.751278367466489,-201434.09631204978,10.5,10499798565.903688,47.655,-122.3035,60.0,5.416666666666667
2026-01-20T23:05:26+00:00,SAT-45671,8.1429703621058,44.43425987099587,1079.284377655734,5.76538881551107,-201928.30388970705,10.5,10499798071.69611,47.655,-122.3035,60.0,5.433333333333334
2026-01-20T23:05:27+00:00,SAT-45671,8.018530006353718,44.21340613130509,1085.0343921010706,5.779269623745877,-202414.46850985065,10.5,10499797585.53149,47.655,-122.3035,60.0,5.45
2026-01-20T23:05:28+00:00,SAT-45671,7.895946333470502,43.994513258037756,1090.798250339153,5.792925025470568,-202892.73844054132,10.5,10499797107.261559,47.655,-122.3035,60.0,5.466666666666667
2026-01-20T23:05:29+00:00,SAT-45671,7.775171021104939,43.77755797853843,1096.5757275645558,5.80635918634227,-203363.25958071245,10.5,10499796636.74042,47.655,-122.3035,60.0,5.483333333333333
2026-01-20T23:05:30+00:00,SAT-45671,7.656157389375562,43.56251720579873,1102.366603126401,5.819576199919893,-203826.1753041128,10.5,10499796173.824696,47.655,-122.3035,60.0,5.5
2026-01-20T23:05:31+00:00,SAT-45671,7.538860332424587,43.3493680445195,1108.1706604564547,5.832580064973137,-204281.62566457206,10.5,10499795718.374336,47.655,-122.3035,60.0,5.516666666666667
2026-01-20T23:05:32+00:00,SAT-45671,7.4232362538043795,43.138087797433506,1113.9876869745879,5.845374716458611,-204729.74848091547,10.5,10499795270.251518,47.655,-122.3035,60.0,5.533333333333333
2026-01-20T23:05:33+00:00,SAT-45671,7.309243004395455,42.928653969938466,1119.8174740251359,5.857963971325818,-205170.67743886035,10.5,10499794829.322561,47.655,-122.3035,60.0,5.55
2026-01-20T23:05:34+00:00,SAT-45671,7.196839824343202,42.72104427619734,1125.6598167592047,5.8703516356124,-205604.54584194443,10.5,10499794395.454159,47.655,-122.3035,60.0,5.566666666666666
2026-01-20T23:05:35+00:00,SAT-45671,7.085987285846678,42.515236640897605,1131.5145141237888,5.882541381195894,-206031.4822948511,10.5,10499793968.517706,47.655,-122.3035,60.0,5.583333333333333
2026-01-20T23:05:36+00:00,SAT-45671,6.976647240897749,42.31120920501273,1137.3813687279683,5.894536860766505,-206451.61473024217,10.5,10499793548.38527,47.655,-122.3035,60.0,5.6
2026-01-20T23:05:37+00:00,SAT-45671,6.868782769456623,42.108940327077065,1143.2601868237728,5.906341574653327,-206865.06574444892,10.5,10499793134.934256,47.655,-122.3035,60.0,5.616666666666666
2026-01-20T23:05:38+00:00,SAT-45671,6.7623581323800614,41.90840858873466,1149.150778154227,5.917959053841402,-207271.95900750355,10.5,10499792728.040993,47.655,-122.3035,60.0,5.633333333333334
2026-01-20T23:05:39+00:00,SAT-45671,6.657338723447108,41.70959279358177,1155.0529559839247,5.929392678727202,-207672.41291518958,10.5,10499792327.587086,47.655,-122.3035,60.0,5.65
2026-01-20T23:05:40+00:00,SAT-45671,6.55369102666436,41.512471971967166,1160.966536948842,5.94064581671621,-208066.5454082911,10.5,10499791933.454592,47.655,-122.3035,60.0,5.666666666666667
2026-01-20T23:05:41+00:00,SAT-45671,6.451382573238201,41.31702538077341,1166.8913410433804,5.951721713628433,-208454.4701691546,10.5,10499791545.52983,47.655,-122.3035,60.0,5.683333333333334
2026-01-20T23:05:42+00:00,SAT-45671,6.35038190233729,41.12323250656811,1172.8271914991058,5.9626235940987335,-208836.30013813323,10.5,10499791163.699862,47.655,-122.3035,60.0,5.7
2026-01-20T23:05:43+00:00,SAT-45671,6.250658521974996,40.931073065160184,1178.77391476362,5.973354625402769,-209212.14624661795,10.5,10499790787.853754,47.655,-122.3035,60.0,5.716666666666667
2026-01-20T23:05:44+00:00,SAT-45671,6.152182872325403,40.7405270021378,1184.7313404433553,5.983917832687962,-209582.11444806794,10.5,10499790417.885551,47.655,-122.3035,60.0,5.733333333333333
2026-01-20T23:05:45+00:00,SAT-45671,6.05492629189077,40.55157449592453,1190.6993011618226,5.994316304899581,-209946.31293041265,10.5,10499790053.687069,47.655,-122.3035,60.0,5.75
2026-01-20T23:05:46+00:00,SAT-45671,5.958860982160577,40.36419595396729,1196.6776326232425,6.004552960418748,-210304.84390770385,10.5,10499789695.156092,47.655,-122.3035,60.0,5.766666666666667
2026-01-20T23:05:47+00:00,SAT-45671,5.863959977263246,40.178372016310604,1202.6661734424335,6.01463071564326,-210657.80952452857,10.5,10499789342.190475,47.655,-122.3035,60.0,5.783333333333333
