satellites_20260120_184412/SAT-55422.csv

timestamp,satellite,azimuth_deg,elevation_deg,distance_km,relative_velocity_kms,doppler_shift_hz,tx_freq_ghz,rx_freq_hz,ue_lat,ue_lon,ue_alt_m,time_minutes
2026-01-20T23:03:55+00:00,SAT-55422,258.74580078123256,40.01910432478001,2691.3877264389544,-6.213948791899644,217638.77166965374,10.5,10500217638.77167,47.655,-122.3035,60.0,3.9166666666666665
2026-01-20T23:03:56+00:00,SAT-55422,258.7979768977879,40.09385211171507,2685.1903481771665,-6.211362092645295,217548.17452003944,10.5,10500217548.17452,47.655,-122.3035,60.0,3.933333333333333
2026-01-20T23:03:57+00:00,SAT-55422,258.85057554472473,40.16876859875365,2678.9955497167684,-6.2087501198881725,217456.69218545122,10.5,10500217456.692186,47.655,-122.3035,60.0,3.95
2026-01-20T23:03:58+00:00,SAT-55422,258.90360074674334,40.24385444386905,2672.8033562638666,-6.206112665862954,217364.31738906863,10.5,10500217364.317389,47.655,-122.3035,60.0,3.966666666666667
2026-01-20T23:03:59+00:00,SAT-55422,258.95705657720293,40.31911030367387,2666.6137932317793,-6.203449520070094,217271.0427583071,10.5,10500217271.042759,47.655,-122.3035,60.0,3.9833333333333334
2026-01-20T23:04:00+00:00,SAT-55422,259.010947158797,40.394536833279545,2660.426886243763,-6.200760485737571,217176.86140137818,10.5,10500217176.8614,47.655,-122.3035,60.0,4.0
2026-01-20T23:04:01+00:00,SAT-55422,259.06527666442605,40.47013468635547,2654.2426611193205,-6.1980452951016645,217081.76394006374,10.5,10500217081.76394,47.655,-122.3035,60.0,4.016666666666667
2026-01-20T23:04:02+00:00,SAT-55422,259.12004931722464,40.54590451413968,2648.061143945006,-6.1953037996925815,216985.74517432356,10.5,10500216985.745174,47.655,-122.3035,60.0,4.033333333333333
2026-01-20T23:04:03+00:00,SAT-55422,259.17526939250394,40.6218469667906,2641.8823609554456,-6.192535737755791,216888.7959364068,10.5,10500216888.795937,47.655,-122.3035,60.0,4.05
2026-01-20T23:04:04+00:00,SAT-55422,259.2309412173704,40.69796269186874,2635.7063386463237,-6.189740893121035,216790.9086551166,10.5,10500216790.908655,47.655,-122.3035,60.0,4.066666666666666
2026-01-20T23:04:05+00:00,SAT-55422,259.28706917197894,40.77425233477383,2629.533103728918,-6.186919052040734,216692.07584410848,10.5,10500216692.075844,47.655,-122.3035,60.0,4.083333333333333
2026-01-20T23:04:06+00:00,SAT-55422,259.3436576903146,40.850716538644306,2623.3626831276824,-6.184069983076686,216592.28939743777,10.5,10500216592.289398,47.655,-122.3035,60.0,4.1
2026-01-20T23:04:07+00:00,SAT-55422,259.400711260841,40.92735594400548,2617.195103997894,-6.181193467836695,216491.54166608586,10.5,10500216491.541666,47.655,-122.3035,60.0,4.116666666666666
2026-01-20T23:04:08+00:00,SAT-55422,259.4582344274262,41.00417118879336,2611.030393712638,-6.178289233342199,216389.8230891889,10.5,10500216389.82309,47.655,-122.3035,60.0,4.133333333333334
2026-01-20T23:04:09+00:00,SAT-55422,259.51623178960824,41.081162907529084,2604.8685799172517,-6.175357114139205,216287.1278718481,10.5,10500216287.127872,47.655,-122.3035,60.0,4.15
2026-01-20T23:04:10+00:00,SAT-55422,259.57470800455206,41.15833173252047,2598.7096904220834,-6.172396821853143,216183.44591396625,10.5,10500216183.445913,47.655,-122.3035,60.0,4.166666666666667
2026-01-20T23:04:11+00:00,SAT-55422,259.63366778662385,41.23567829216837,2592.5537533250886,-6.169408138867356,216078.7695936875,10.5,10500216078.769594,47.655,-122.3035,60.0,4.183333333333334
2026-01-20T23:04:12+00:00,SAT-55422,259.6931159089783,41.313203211698514,2586.400796941258,-6.166390792848727,215973.0893727541,10.5,10500215973.089373,47.655,-122.3035,60.0,4.2
2026-01-20T23:04:13+00:00,SAT-55422,259.75305720387746,41.390907112309876,2580.2508498571906,-6.163344603016872,215866.39891947235,10.5,10500215866.39892,47.655,-122.3035,60.0,4.216666666666667
2026-01-20T23:04:14+00:00,SAT-55422,259.8134965645499,41.46879061217074,2574.1039408397814,-6.160269265752668,215758.6875998162,10.5,10500215758.6876,47.655,-122.3035,60.0,4.233333333333333
2026-01-20T23:04:15+00:00,SAT-55422,259.8744389447904,41.546854324688226,2567.9600989587375,-6.157164563603611,215649.94779767914,10.5,10500215649.947798,47.655,-122.3035,60.0,4.25
2026-01-20T23:04:16+00:00,SAT-55422,259.93588936079266,41.6250988594269,2561.8193535006367,-6.154030229860542,215540.17017177827,10.5,10500215540.170172,47.655,-122.3035,60.0,4.266666666666667
2026-01-20T23:04:17+00:00,SAT-55422,259.9978528915791,41.70352482130271,2555.681734018056,-6.150866015350422,215429.34599501977,10.5,10500215429.345995,47.655,-122.3035,60.0,4.283333333333333
2026-01-20T23:04:18+00:00,SAT-55422,260.06033468010844,41.78213281061452,2549.5472703120795,-6.147671658567245,215317.4661083571,10.5,10500215317.466108,47.655,-122.3035,60.0,4.3
2026-01-20T23:04:19+00:00,SAT-55422,260.1233399341357,41.860923422699635,2543.415992444602,-6.144446915494373,215204.52196529545,10.5,10500215204.521965,47.655,-122.3035,60.0,4.316666666666666
2026-01-20T23:04:20+00:00,SAT-55422,260.186873927372,41.93989724795706,2537.2879307208823,-6.141191503243467,215090.50365788856,10.5,10500215090.503658,47.655,-122.3035,60.0,4.333333333333333
2026-01-20T23:04:21+00:00,SAT-55422,260.25094200005714,42.019054871143574,2531.163115728314,-6.137905172514944,214975.4024546105,10.5,10500214975.402454,47.655,-122.3035,60.0,4.35
2026-01-20T23:04:22+00:00,SAT-55422,260.3155495603396,42.09839687159757,2525.0415783029257,-6.1345876556223375,214859.2089799489,10.5,10500214859.20898,47.655,-122.3035,60.0,4.366666666666666
2026-01-20T23:04:23+00:00,SAT-55422,260.3807020851201,42.177923822785836,2518.9233495477188,-6.131238661086363,214741.9130250662,10.5,10500214741.913025,47.655,-122.3035,60.0,4.383333333333334
2026-01-20T23:04:24+00:00,SAT-55422,260.44640512079036,42.257636291767916,2512.8084608563954,-6.127857946865831,214623.5061126562,10.5,10500214623.506113,47.655,-122.3035,60.0,4.4
2026-01-20T23:04:25+00:00,SAT-55422,260.5126642849107,42.337534839616666,2506.6969438640544,-6.124445220699308,214503.9780064872,10.5,10500214503.978006,47.655,-122.3035,60.0,4.416666666666667
2026-01-20T23:04:26+00:00,SAT-55422,260.579485266668,42.417620020521106,2500.588830497277,-6.1210002035207784,214383.31893248687,10.5,10500214383.318932,47.655,-122.3035,60.0,4.433333333333334
2026-01-20T23:04:27+00:00,SAT-55422,260.6468738281511,42.49789238172027,2494.4841529609653,-6.117522592163936,214261.51827248879,10.5,10500214261.518272,47.655,-122.3035,60.0,4.45
2026-01-20T23:04:28+00:00,SAT-55422,260.7148358051543,42.57835246293017,2488.382943762381,-6.114012142912499,214138.56749051786,10.5,10500214138.56749,47.655,-122.3035,60.0,4.466666666666667
2026-01-20T23:04:29+00:00,SAT-55422,260.7833771090575,42.65900079687734,2482.2852356518492,-6.1104685467561435,214014.4557637254,10.5,10500214014.455763,47.655,-122.3035,60.0,4.483333333333333
2026-01-20T23:04:30+00:00,SAT-55422,260.85250372716314,42.73983790816956,2476.1910616878845,-6.106891512258274,213889.1728847691,10.5,10500213889.172884,47.655,-122.3035,60.0,4.5
2026-01-20T23:04:31+00:00,SAT-55422,260.9222217240965,42.820864313255335,2470.100455219659,-6.103280718796766,213762.70762410588,10.5,10500213762.707624,47.655,-122.3035,60.0,4.516666666666667
2026-01-20T23:04:32+00:00,SAT-55422,260.99253724259216,42.90208051974897,2464.013449916112,-6.099635931146159,213635.05174314516,10.5,10500213635.051743,47.655,-122.3035,60.0,4.533333333333333
2026-01-20T23:04:33+00:00,SAT-55422,261.06345650583387,42.98348702729539,2457.9300796807825,-6.095956801633822,213506.1930649207,10.5,10500213506.193066,47.655,-122.3035,60.0,4.55
2026-01-20T23:04:34+00:00,SAT-55422,261.13498581720944,43.06508432575993,2451.8503787639534,-6.092243026308755,213376.12094378282,10.5,10500213376.120943,47.655,-122.3035,60.0,4.566666666666666
2026-01-20T23:04:35+00:00,SAT-55422,261.2071315621376,43.146872895510604,2445.7743817190476,-6.088494308230348,213244.82497961525,10.5,10500213244.82498,47.655,-122.3035,60.0,4.583333333333333
2026-01-20T23:04:36+00:00,SAT-55422,261.2799002094122,43.22885320719982,2439.7021233956393,-6.0847103367604465,213112.29429255583,10.5,10500213112.294292,47.655,-122.3035,60.0,4.6
2026-01-20T23:04:37+00:00,SAT-55422,261.3532983123165,43.3110257212572,2433.63363895311,-6.080890818404674,212978.51860319008,10.5,10500212978.518602,47.655,-122.3035,60.0,4.616666666666666
2026-01-20T23:04:38+00:00,SAT-55422,261.42733251015346,43.39339088779167,2427.5689638435547,-6.077035389710683,212843.48518187928,10.5,10500212843.485182,47.655,-122.3035,60.0,4.633333333333334
2026-01-20T23:04:39+00:00,SAT-55422,261.502009528656,43.475949145297974,2421.50813388155,-6.073143765742008,212707.18404894325,10.5,10500212707.18405,47.655,-122.3035,60.0,4.65
2026-01-20T23:04:40+00:00,SAT-55422,261.57733618235113,43.55870092137369,2415.45118516585,-6.069215617433974,212569.60367914502,10.5,10500212569.60368,47.655,-122.3035,60.0,4.666666666666667
2026-01-20T23:04:41+00:00,SAT-55422,261.6533193753823,43.64164663176148,2409.3981541233957,-6.065250606731497,212430.73223236564,10.5,10500212430.732233,47.655,-122.3035,60.0,4.683333333333334
2026-01-20T23:04:42+00:00,SAT-55422,261.7299661027345,43.724786679850176,2403.349077518282,-6.061248402451639,212290.55810917768,10.5,10500212290.55811,47.655,-122.3035,60.0,4.7
2026-01-20T23:04:43+00:00,SAT-55422,261.80728345176425,43.80812145638807,2397.3039924449035,-6.0572086749147775,212149.06976280626,10.5,10500212149.069763,47.655,-122.3035,60.0,4.716666666666667
2026-01-20T23:04:44+00:00,SAT-55422,261.8852786036359,43.89165133911212,2391.2629363264555,-6.053131101446082,212006.2558918139,10.5,10500212006.255892,47.655,-122.3035,60.0,4.733333333333333
2026-01-20T23:04:45+00:00,SAT-55422,261.9639588349088,43.97537669244739,2385.2259469079463,-6.049015314051753,211862.10360750105,10.5,10500211862.103607,47.655,-122.3035,60.0,4.75
2026-01-20T23:04:46+00:00,SAT-55422,262.0433315183383,44.05929786645645,2379.1930623013986,-6.044860977674183,211716.6011747331,10.5,10500211716.601175,47.655,-122.3035,60.0,4.766666666666667
2026-01-20T23:04:47+00:00,SAT-55422,262.12340412488203,44.14341519687742,2373.1643209529984,-6.0406677323245415,211569.73598517838,10.5,10500211569.735985,47.655,-122.3035,60.0,4.783333333333333
2026-01-20T23:04:48+00:00,SAT-55422,262.2041842248197,44.227729004331884,2367.13976166796,-6.036435255957681,211421.49675945367,10.5,10500211421.49676,47.655,-122.3035,60.0,4.8
2026-01-20T23:04:49+00:00,SAT-55422,262.2856794899166,44.312239594417484,2361.1194235726853,-6.032163165698108,211271.87008763955,10.5,10500211271.870089,47.655,-122.3035,60.0,4.816666666666666
2026-01-20T23:04:50+00:00,SAT-55422,262.3678976940479,44.39694725638246,2355.103346175429,-6.027851095792762,211120.84315951672,10.5,10500211120.843159,47.655,-122.3035,60.0,4.833333333333333
2026-01-20T23:04:51+00:00,SAT-55422,262.45084671508346,44.481852262894854,2349.0915693492248,-6.023498686617201,210968.403379516,10.5,10500210968.40338,47.655,-122.3035,60.0,4.85
2026-01-20T23:04:52+00:00,SAT-55422,262.53453453656954,44.56695486963931,2343.0841333257717,-6.019105589844205,210814.53854774477,10.5,10500210814.538548,47.655,-122.3035,60.0,4.866666666666666
2026-01-20T23:04:53+00:00,SAT-55422,262.61896924957125,44.6522553149789,2337.0810786841676,-6.014671417723943,210659.23508356372,10.5,10500210659.235083,47.655,-122.3035,60.0,4.883333333333334
2026-01-20T23:04:54+00:00,SAT-55422,262.7041590537457,44.73775381888158,2331.082446390224,-6.010195783299409,210502.47943410167,10.5,10500210502.479435,47.655,-122.3035,60.0,4.9
2026-01-20T23:04:55+00:00,SAT-55422,262.7901122590224,44.8234505823961,2325.08827779568,-6.005678321199213,210344.25880250704,10.5,10500210344.258802,47.655,-122.3035,60.0,4.916666666666667
2026-01-20T23:04:56+00:00,SAT-55422,262.87683728768684,44.90934578742126,2319.0986146166706,-6.001118651585999,210184.559885269,10.5,10500210184.559885,47.655,-122.3035,60.0,4.933333333333334
2026-01-20T23:04:57+00:00,SAT-55422,262.9643426758802,44.99543959593947,2313.113498948155,-5.996516355076814,210023.3679938224,10.5,10500210023.367994,47.655,-122.3035,60.0,4.95
2026-01-20T23:04:58+00:00,SAT-55422,263.0526370747631,45.081732148871716,2307.132973303359,-5.991871068893208,209860.67042213143,10.5,10500209860.670422,47.655,-122.3035,60.0,4.966666666666667
2026-01-20T23:04:59+00:00,SAT-55422,263.1417292531985,45.16822356630585,2301.157080557316,-5.987182390558665,209696.45307376605,10.5,10500209696.453074,47.655,-122.3035,60.0,4.983333333333333
2026-01-20T23:05:00+00:00,SAT-55422,263.23162809895933,45.25491394631951,2295.1858639864654,-5.982449908175803,209530.7015223376,10.5,10500209530.701523,47.655,-122.3035,60.0,5.0
2026-01-20T23:05:01+00:00,SAT-55422,263.32234262041356,45.34180336421786,2289.219367278045,-5.977673210654292,209363.40136972375,10.5,10500209363.40137,47.655,-122.3035,60.0,5.016666666666667
2026-01-20T23:05:02+00:00,SAT-55422,263.4138819484196,45.42889187190593,2283.2576345292855,-5.972851917805336,209194.5393001048,10.5,10500209194.5393,47.655,-122.3035,60.0,5.033333333333333
2026-01-20T23:05:03+00:00,SAT-55422,263.50625533873654,45.51617949768829,2277.3007102165943,-5.967985579425508,209024.09954545234,10.5,10500209024.099545,47.655,-122.3035,60.0,5.05
2026-01-20T23:05:04+00:00,SAT-55422,263.59947217281075,45.60366624456636,2271.348639265381,-5.963073801245026,208852.06829677077,10.5,10500208852.068296,47.655,-122.3035,60.0,5.066666666666666
2026-01-20T23:05:05+00:00,SAT-55422,263.69354196064353,45.69135209036797,2265.4014669942726,-5.958116144333279,208678.43018085344,10.5,10500208678.430182,47.655,-122.3035,60.0,5.083333333333333
2026-01-20T23:05:06+00:00,SAT-55422,263.7884743420592,45.779236986381264,2259.4592391596575,-5.953112185095698,208503.17036162675,10.5,10500208503.170362,47.655,-122.3035,60.0,5.1
2026-01-20T23:05:07+00:00,SAT-55422,263.8842790889445,45.8673208568481,2253.5220019403887,-5.948061485544674,208326.27349891196,10.5,10500208326.273499,47.655,-122.3035,60.0,5.116666666666666
2026-01-20T23:05:08+00:00,SAT-55422,263.98096610707887,45.95560359800395,2247.5898019521387,-5.942963622751151,208147.72477994455,10.5,10500208147.72478,47.655,-122.3035,60.0,5.133333333333334
2026-01-20T23:05:09+00:00,SAT-55422,264.078545438443,46.044085077532124,2241.6626862323815,-5.937818134201091,207967.50800552644,10.5,10500207967.508005,47.655,-122.3035,60.0,5.15
2026-01-20T23:05:10+00:00,SAT-55422,264.1770272626377,46.13276513318271,2235.7407022798716,-5.932624587511276,207785.6080317684,10.5,10500207785.608032,47.655,-122.3035,60.0,5.166666666666667
2026-01-20T23:05:11+00:00,SAT-55422,264.2764218995355,46.22164357241251,2229.8238980245937,-5.927382535635844,207602.00920123333,10.5,10500207602.009201,47.655,-122.3035,60.0,5.183333333333334
2026-01-20T23:05:12+00:00,SAT-55422,264.37673981120145,46.31072017133564,2223.9123218423865,-5.922091491249467,207416.69444572687,10.5,10500207416.694447,47.655,-122.3035,60.0,5.2
2026-01-20T23:05:13+00:00,SAT-55422,264.47799160329987,46.399994673254824,2218.006022595114,-5.916751022761754,207229.64864912783,10.5,10500207229.64865,47.655,-122.3035,60.0,5.216666666666667
2026-01-20T23:05:14+00:00,SAT-55422,264.5801880283871,46.48946678863414,2212.105049575079,-5.9113606528552385,207040.85509375957,10.5,10500207040.855093,47.655,-122.3035,60.0,5.233333333333333
2026-01-20T23:05:15+00:00,SAT-55422,264.68333998725393,46.57913619349939,2206.2094525506313,-5.905919919654457,206850.29760278962,10.5,10500206850.297604,47.655,-122.3035,60.0,5.25
2026-01-20T23:05:16+00:00,SAT-55422,264.7874585315369,46.669002528753964,2200.319281750763,-5.900428311024828,206657.95823909852,10.5,10500206657.958239,47.655,-122.3035,60.0,5.266666666666667
2026-01-20T23:05:17+00:00,SAT-55422,264.89255486502253,46.75906539845553,2194.434587915234,-5.8948853897626705,206463.82168996407,10.5,10500206463.82169,47.655,-122.3035,60.0,5.283333333333333
2026-01-20T23:05:18+00:00,SAT-55422,264.9986403474403,46.84932436999685,2188.555422219844,-5.889290643292772,206267.87000283413,10.5,10500206267.870003,47.655,-122.3035,60.0,5.3
2026-01-20T23:05:19+00:00,SAT-55422,265.1057264953472,46.93977897194423,2182.6818363516,-5.883643599081542,206070.08662758349,10.5,10500206070.086628,47.655,-122.3035,60.0,5.316666666666666
2026-01-20T23:05:20+00:00,SAT-55422,265.2138249853335,47.03042869363571,2176.813882468783,-5.87794371402043,205870.45254225348,10.5,10500205870.452541,47.655,-122.3035,60.0,5.333333333333333
2026-01-20T23:05:21+00:00,SAT-55422,265.3229476549703,47.121272983023346,2170.951613271333,-5.8721905248775395,205668.95152250348,10.5,10500205668.951523,47.655,-122.3035,60.0,5.35
2026-01-20T23:05:22+00:00,SAT-55422,265.43310650691444,47.2123112468443,2165.0950819211885,-5.866383527525284,205465.56591165307,10.5,10500205465.565912,47.655,-122.3035,60.0,5.366666666666666
2026-01-20T23:05:23+00:00,SAT-55422,265.54431371051515,47.303542848872326,2159.24434208307,-5.860522188043988,205260.27700957662,10.5,10500205260.27701,47.655,-122.3035,60.0,5.383333333333334
2026-01-20T23:05:24+00:00,SAT-55422,265.6565816037488,47.39496710831795,2153.3994479541943,-5.854605976672983,205053.06626181476,10.5,10500205053.066261,47.655,-122.3035,60.0,5.4
2026-01-20T23:05:25+00:00,SAT-55422,265.7699226957741,47.486583298720234,2147.560454260126,-5.848634392856206,204843.9161367767,10.5,10500204843.916138,47.655,-122.3035,60.0,5.416666666666667
2026-01-20T23:05:26+00:00,SAT-55422,265.8843496701299,47.57839064721325,2141.7274162256504,-5.842606900651258,204632.80786349272,10.5,10500204632.807863,47.655,-122.3035,60.0,5.433333333333334
2026-01-20T23:05:27+00:00,SAT-55422,265.99987538656944,47.670388332741794,2135.9003896100676,-5.836522953508693,204419.7222994892,10.5,10500204419.7223,47.655,-122.3035,60.0,5.45
2026-01-20T23:05:28+00:00,SAT-55422,266.11651288343546,47.76257548463092,2130.079430717768,-5.8303820040288095,204204.64027251312,10.5,10500204204.640272,47.655,-122.3035,60.0,5.466666666666667
2026-01-20T23:05:29+00:00,SAT-55422,266.2342753802589,47.85495118127785,2124.264596399083,-5.824183533636352,203987.5436198655,10.5,10500203987.54362,47.655,-122.3035,60.0,5.483333333333333
2026-01-20T23:05:30+00:00,SAT-55422,266.35317628107464,47.94751444929108,2118.4559440215367,-5.817926958581455,203768.4118961568,10.5,10500203768.411896,47.655,-122.3035,60.0,5.5
2026-01-20T23:05:31+00:00,SAT-55422,266.4732291756445,48.0402642610859,2112.653531534845,-5.811611723858657,203547.22566274798,10.5,10500203547.225662,47.655,-122.3035,60.0,5.516666666666667
2026-01-20T23:05:32+00:00,SAT-55422,266.59444784281817,48.1331995339497,2106.8574174422497,-5.805237273363466,203323.96544250753,10.5,10500203323.965443,47.655,-122.3035,60.0,5.533333333333333
2026-01-20T23:05:33+00:00,SAT-55422,266.71684625322365,48.22631912859648,2101.067660801615,-5.798803030130498,203098.6110276671,10.5,10500203098.611027,47.655,-122.3035,60.0,5.55
2026-01-20T23:05:34+00:00,SAT-55422,266.84043857156615,48.319621847362676,2095.2843212462317,-5.7923084257360165,202871.14250962302,10.5,10500202871.14251,47.655,-122.3035,60.0,5.566666666666666
2026-01-20T23:05:35+00:00,SAT-55422,266.9652391595736,48.41310643284079,2089.5074589762976,-5.785752851694844,202641.53857665046,10.5,10500202641.538576,47.655,-122.3035,60.0,5.583333333333333
2026-01-20T23:05:36+00:00,SAT-55422,267.09126257789603,48.50677156568915,2083.737134798874,-5.779135732037199,202409.7790558513,10.5,10500202409.779057,47.655,-122.3035,60.0,5.6
2026-01-20T23:05:37+00:00,SAT-55422,267.218523589629,48.600615863573864,2077.9734100954556,-5.772456475048903,202175.84322289217,10.5,10500202175.843224,47.655,-122.3035,60.0,5.616666666666666
2026-01-20T23:05:38+00:00,SAT-55422,267.3470371628192,48.694637879296145,2072.2163468376734,-5.765714472782732,201939.7097848895,10.5,10500201939.709785,47.655,-122.3035,60.0,5.633333333333334
2026-01-20T23:05:39+00:00,SAT-55422,267.47681847290585,48.788836098862966,2066.4660076034847,-5.758909125658535,201701.35774201035,10.5,10500201701.357742,47.655,-122.3035,60.0,5.65
2026-01-20T23:05:40+00:00,SAT-55422,267.60788290581814,48.883208939922945,2060.722455568828,-5.752039783591825,201460.76432554604,10.5,10500201460.764326,47.655,-122.3035,60.0,5.666666666666667
2026-01-20T23:05:41+00:00,SAT-55422,267.7402460595563,48.97775474917849,2054.9857545579925,-5.7451058779616755,201217.90961998646,10.5,10500201217.90962,47.655,-122.3035,60.0,5.683333333333334
2026-01-20T23:05:42+00:00,SAT-55422,267.87392374917437,49.07247180195344,2049.255968962372,-5.738106735915606,200972.77005919162,10.5,10500200972.77006,47.655,-122.3035,60.0,5.7
2026-01-20T23:05:43+00:00,SAT-55422,268.00893200702194,49.16735829862165,2043.533163844419,-5.7310417174377255,200725.32322709772,10.5,10500200725.323227,47.655,-122.3035,60.0,5.716666666666667
2026-01-20T23:05:44+00:00,SAT-55422,268.14528708652,49.26241236327432,2037.8174049048944,-5.723910228524578,200475.54831919112,10.5,10500200475.548319,47.655,-122.3035,60.0,5.733333333333333
2026-01-20T23:05:45+00:00,SAT-55422,268.28300546622063,49.3576320425597,2032.1087584369793,-5.716711591473237,200223.4215994486,10.5,10500200223.4216,47.655,-122.3035,60.0,5.75
2026-01-20T23:05:46+00:00,SAT-55422,268.42210385065954,49.45301530231675,2026.4072914097499,-5.709445131171675,199968.9194225913,10.5,10500199968.919422,47.655,-122.3035,60.0,5.766666666666667
2026-01-20T23:05:47+00:00,SAT-55422,268.56259917325804,49.54856002558209,2020.7130714655948,-5.702110214103113,199712.01960018184,10.5,10500199712.0196,47.655,-122.3035,60.0,5.783333333333333
2026-01-20T23:05:48+00:00,SAT-55422,268.70450860039534,49.64426401122314,2015.026166878729,-5.694706166034748,199452.69851773544,10.5,10500199452.698517,47.655,-122.3035,60.0,5.8
2026-01-20T23:05:49+00:00,SAT-55422,268.84784953325766,49.74012497112921,2009.3466465958038,-5.6872323010419255,199190.9321512692,10.5,10500199190.932152,47.655,-122.3035,60.0,5.816666666666666
2026-01-20T23:05:50+00:00,SAT-55422,268.99263961046256,49.836140527836854,2003.6745802475648,-5.679687935668158,198926.696563246,10.5,10500198926.696564,47.655,-122.3035,60.0,5.833333333333333
2026-01-20T23:05:51+00:00,SAT-55422,269.1388967110013,49.932308212340544,1998.0100381463917,-5.672072394044683,198659.96808188275,10.5,10500198659.968082,47.655,-122.3035,60.0,5.85
2026-01-20T23:05:52+00:00,SAT-55422,269.28663895742625,50.02862546194661,1992.3530912787312,-5.6643849592736455,198390.72159838415,10.5,10500198390.721598,47.655,-122.3035,60.0,5.866666666666666
2026-01-20T23:05:53+00:00,SAT-55422,269.4358847175461,50.12508961722903,1986.7038113460155,-5.656624945842808,198118.93310321198,10.5,10500198118.933104,47.655,-122.3035,60.0,5.883333333333334
2026-01-20T23:05:54+00:00,SAT-55422,269.5866526082365,50.22169792018019,1981.0622707333616,-5.6487916273760215,197844.57715560083,10.5,10500197844.577156,47.655,-122.3035,60.0,5.9
2026-01-20T23:05:55+00:00,SAT-55422,269.73896149711896,50.318447511055815,1975.4285425503251,-5.640884275184221,197567.6282337774,10.5,10500197567.628233,47.655,-122.3035,60.0,5.916666666666667
2026-01-20T23:05:56+00:00,SAT-55422,269.89283050534067,50.415335425827266,1969.8027006332084,-5.632902214863589,197288.06271726717,10.5,10500197288.062717,47.655,-122.3035,60.0,5.933333333333334
2026-01-20T23:05:57+00:00,SAT-55422,270.0482790119749,50.51235859455716,1964.1848194909176,-5.624844641255266,197005.85240600113,10.5,10500197005.852406,47.655,-122.3035,60.0,5.95
2026-01-20T23:05:58+00:00,SAT-55422,270.2053266529905,50.60951383650524,1958.5749744353723,-5.616710850679431,196720.97265413537,10.5,10500196720.972654,47.655,-122.3035,60.0,5.966666666666667
2026-01-20T23:05:59+00:00,SAT-55422,270.36399332691246,50.706797859194694,1952.9732414802945,-5.60850009902967,196433.3973999157,10.5,10500196433.3974,47.655,-122.3035,60.0,5.983333333333333
2026-01-20T23:06:00+00:00,SAT-55422,270.5242991964352,50.80420725496896,1947.379697381529,-5.600211615462377,196143.09964513837,10.5,10500196143.099646,47.655,-122.3035,60.0,6.0
2026-01-20T23:06:01+00:00,SAT-55422,270.68626469019983,50.90173849770305,1941.794419663708,-5.5918446358940335,195850.05262836648,10.5,10500195850.052628,47.655,-122.3035,60.0,6.016666666666667
2026-01-20T23:06:02+00:00,SAT-55422,270.8499105056454,50.999387940045004,1936.2174866135097,-5.583398393115315,195554.22947868425,10.5,10500195554.229479,47.655,-122.3035,60.0,6.033333333333333
2026-01-20T23:06:03+00:00,SAT-55422,271.01525761143154,51.097151810413216,1930.648977282776,-5.574872117145829,195255.60322812124,10.5,10500195255.603228,47.655,-122.3035,60.0,6.05
2026-01-20T23:06:04+00:00,SAT-55422,271.18232724991617,51.19502620994259,1925.0889714912757,-5.566265015693062,194954.14612724233,10.5,10500194954.146128,47.655,-122.3035,60.0,6.066666666666666
2026-01-20T23:06:05+00:00,SAT-55422,271.3511409387943,51.29300710900397,1919.537549848958,-5.557576275057019,194649.82967683164,10.5,10500194649.829678,47.655,-122.3035,60.0,6.083333333333333
2026-01-20T23:06:06+00:00,SAT-55422,271.52172047282966,51.391090343681185,1913.9947937773013,-5.548805106153324,194342.62623981657,10.5,10500194342.62624,47.655,-122.3035,60.0,6.1
2026-01-20T23:06:07+00:00,SAT-55422,271.6940879268391,51.48927161298312,1908.4607854847643,-5.539950707582929,194032.50774781252,10.5,10500194032.507748,47.655,-122.3035,60.0,6.116666666666666
2026-01-20T23:06:08+00:00,SAT-55422,271.86826565757497,51.587546475342876,1902.935607979068,-5.53101224623972,193719.44502191932,10.5,10500193719.445023,47.655,-122.3035,60.0,6.133333333333334
2026-01-20T23:06:09+00:00,SAT-55422,272.0442763046731,51.68591034468525,1897.4193450988184,-5.521988890722655,193403.40894295572,10.5,10500193403.408943,47.655,-122.3035,60.0,6.15
2026-01-20T23:06:10+00:00,SAT-55422,272.2221427927311,51.784358487022644,1891.9120815118044,-5.512879833968072,193084.37124413837,10.5,10500193084.371244,47.655,-122.3035,60.0,6.166666666666667
2026-01-20T23:06:11+00:00,SAT-55422,272.40188833401675,51.882886017386895,1886.413902690727,-5.503684205041024,192762.30142164134,10.5,10500192762.301422,47.655,-122.3035,60.0,6.183333333333334
2026-01-20T23:06:12+00:00,SAT-55422,272.58353642801427,51.981487895096016,1880.9248949768992,-5.494401166647918,192437.17014990127,10.5,10500192437.17015,47.655,-122.3035,60.0,6.2
2026-01-20T23:06:13+00:00,SAT-55422,272.7671108641986,52.08015892069939,1875.4451455466956,-5.485029841026635,192108.94668597588,10.5,10500192108.946686,47.655,-122.3035,60.0,6.216666666666667
2026-01-20T23:06:14+00:00,SAT-55422,272.95263572210706,52.178893731512666,1869.9747424519119,-5.475569388270827,191777.60161279203,10.5,10500191777.601612,47.655,-122.3035,60.0,6.233333333333333
2026-01-20T23:06:15+00:00,SAT-55422,273.1401353740061,52.27768679848954,1864.5137745820098,-5.466018914114193,191443.10360936107,10.5,10500191443.10361,47.655,-122.3035,60.0,6.25
2026-01-20T23:06:16+00:00,SAT-55422,273.32963448413665,52.376532421346575,1859.0623317183333,-5.456377529923542,191105.4215519898,10.5,10500191105.421553,47.655,-122.3035,60.0,6.266666666666667
2026-01-20T23:06:17+00:00,SAT-55422,273.52115800988236,52.47542472469228,1853.6205045284894,-5.446644366207526,190764.52498741317,10.5,10500190764.524988,47.655,-122.3035,60.0,6.283333333333333
2026-01-20T23:06:18+00:00,SAT-55422,273.7147312033321,52.574357654329795,1848.1883845472585,-5.4368185037851315,190420.38172202412,10.5,10500190420.381721,47.655,-122.3035,60.0,6.3
2026-01-20T23:06:19+00:00,SAT-55422,273.91037961001985,52.67332497221815,1842.76606422615,-5.4268990426990165,190072.96023550956,10.5,10500190072.960236,47.655,-122.3035,60.0,6.316666666666666
2026-01-20T23:06:20+00:00,SAT-55422,274.1081290701141,52.772320252616886,1837.3536369142316,-5.416885060665487,189722.22822559334,10.5,10500189722.228226,47.655,-122.3035,60.0,6.333333333333333
2026-01-20T23:06:21+00:00,SAT-55422,274.30800571769646,52.87133687738119,1831.9511968803945,-5.406775618167371,189368.15278640998,10.5,10500189368.152786,47.655,-122.3035,60.0,6.35
2026-01-20T23:06:22+00:00,SAT-55422,274.5100359801066,52.97036803127625,1826.5588393305425,-5.396569807899738,189010.7021403028,10.5,10500189010.70214,47.655,-122.3035,60.0,6.366666666666666
2026-01-20T23:06:23+00:00,SAT-55422,274.71424657888275,53.06940669811479,1821.1766603754636,-5.386266668815193,188649.84262732693,10.5,10500188649.842627,47.655,-122.3035,60.0,6.383333333333334
2026-01-20T23:06:24+00:00,SAT-55422,274.92066452715267,53.168445655233924,1815.8047570844321,-5.37586524027927,188285.54060199985,10.5,10500188285.540602,47.655,-122.3035,60.0,6.4
2026-01-20T23:06:25+00:00,SAT-55422,275.1293171286938,53.2674774688777,1810.4432274847934,-5.365364603047688,187917.76386849838,10.5,10500187917.763868,47.655,-122.3035,60.0,6.416666666666667
2026-01-20T23:06:26+00:00,SAT-55422,275.340231978661,53.366494490274604,1805.0921705206872,-5.354763752262219,187546.4772324369,10.5,10500187546.477232,47.655,-122.3035,60.0,6.433333333333334
2026-01-20T23:06:27+00:00,SAT-55422,275.5534369585002,53.4654888492616,1799.751686138431,-5.344061706520507,187171.64632095356,10.5,10500187171.64632,47.655,-122.3035,60.0,6.45
2026-01-20T23:06:28+00:00,SAT-55422,275.7689602352184,53.56445244986049,1794.421875263128,-5.333257506942459,186793.23755001143,10.5,10500186793.23755,47.655,-122.3035,60.0,6.466666666666667
2026-01-20T23:06:29+00:00,SAT-55422,275.9868302601697,53.66337696575262,1789.102839776204,-5.322350141461775,186411.2154727676,10.5,10500186411.215473,47.655,-122.3035,60.0,6.483333333333333
2026-01-20T23:06:30+00:00,SAT-55422,276.20707576438923,53.762253834268726,1783.7946825684528,-5.311338611613883,186025.5451187694,10.5,10500186025.545118,47.655,-122.3035,60.0,6.5
2026-01-20T23:06:31+00:00,SAT-55422,276.4297257562226,53.861074251535506,1778.49750752647,-5.3002219015805485,185636.19090976517,10.5,10500185636.19091,47.655,-122.3035,60.0,6.516666666666667
2026-01-20T23:06:32+00:00,SAT-55422,276.65480951733804,53.95982916697241,1773.2114195499603,-5.288999004667602,185243.11758706692,10.5,10500185243.117586,47.655,-122.3035,60.0,6.533333333333333
2026-01-20T23:06:33+00:00,SAT-55422,276.8823565994077,54.05850927820401,1767.9365245426384,-5.277668870153543,184846.2883499631,10.5,10500184846.28835,47.655,-122.3035,60.0,6.55
2026-01-20T23:06:34+00:00,SAT-55422,277.1123968179934,54.15710502489997,1762.6729294561385,-5.266230496278507,184445.66811258584,10.5,10500184445.668112,47.655,-122.3035,60.0,6.566666666666666
2026-01-20T23:06:35+00:00,SAT-55422,277.34496025012834,54.255606584284756,1757.4207422411835,-5.254682797589256,184041.21885777122,10.5,10500184041.218859,47.655,-122.3035,60.0,6.583333333333333
2026-01-20T23:06:36+00:00,SAT-55422,277.5800772253618,54.35400386408371,1752.1800719310543,-5.243024737499403,183632.9042798793,10.5,10500183632.90428,47.655,-122.3035,60.0,6.6
2026-01-20T23:06:37+00:00,SAT-55422,277.8177783223011,54.452286497885304,1746.951028592855,-5.231255262106247,183220.6874667794,10.5,10500183220.687468,47.655,-122.3035,60.0,6.616666666666666
2026-01-20T23:06:38+00:00,SAT-55422,278.05809436169034,54.55044383919731,1741.733723344781,-5.219373282520473,182804.53028096177,10.5,10500182804.530281,47.655,-122.3035,60.0,6.633333333333334
2026-01-20T23:06:39+00:00,SAT-55422,278.30105639789406,54.64846495509588,1736.528268391014,-5.207377732258906,182384.3953696744,10.5,10500182384.39537,47.655,-122.3035,60.0,6.65
2026-01-20T23:06:40+00:00,SAT-55422,278.54669571265174,54.74633862089832,1731.3347769993743,-5.195267523097747,181960.24461871665,10.5,10500181960.24462,47.655,-122.3035,60.0,6.666666666666667
2026-01-20T23:06:41+00:00,SAT-55422,278.7950438059835,54.844053313938794,1726.153363523005,-5.183041554083561,181532.0394680422,10.5,10500181532.039469,47.655,-122.3035,60.0,6.683333333333334
2026-01-20T23:06:42+00:00,SAT-55422,279.0461323868927,54.94159720745751,1720.9841434130658,-5.170698698698693,181099.74046223762,10.5,10500181099.740461,47.655,-122.3035,60.0,6.7
2026-01-20T23:06:43+00:00,SAT-55422,279.2999933626969,55.038958164195336,1715.82723324423,-5.158237900066851,180663.31058502456,10.5,10500180663.310585,47.655,-122.3035,60.0,6.716666666666667
2026-01-20T23:06:44+00:00,SAT-55422,279.5566588326059,55.136123731737534,1710.68275064523,-5.145657975994905,180222.708430999,10.5,10500180222.708431,47.655,-122.3035,60.0,6.733333333333333
2026-01-20T23:06:45+00:00,SAT-55422,279.8161610702992,55.233081134121974,1705.550814423838,-5.1329578357934285,179777.89579960346,10.5,10500179777.8958,47.655,-122.3035,60.0,6.75
2026-01-20T23:06:46+00:00,SAT-55422,280.07853251724487,55.32981726751582,1700.4315444756066,-5.120136324240771,179328.8322300893,10.5,10500179328.83223,47.655,-122.3035,60.0,6.766666666666667
2026-01-20T23:06:47+00:00,SAT-55422,280.3438057667541,55.42631869289632,1695.3250618482305,-5.10719229980596,178875.47774121314,10.5,10500178875.477741,47.655,-122.3035,60.0,6.783333333333333
2026-01-20T23:06:48+00:00,SAT-55422,280.6120135515463,55.522571630187535,1690.2314887278906,-5.094124604235813,178417.79176604917,10.5,10500178417.791765,47.655,-122.3035,60.0,6.8
2026-01-20T23:06:49+00:00,SAT-55422,280.883188728636,55.61856195179581,1685.1509484559328,-5.080932088456873,177955.73405918424,10.5,10500177955.734058,47.655,-122.3035,60.0,6.816666666666666
2026-01-20T23:06:50+00:00,SAT-55422,281.15736426484955,55.71427517661675,1680.0835655197118,-5.067613565675095,177489.26305407088,10.5,10500177489.263054,47.655,-122.3035,60.0,6.833333333333333
2026-01-20T23:06:51+00:00,SAT-55422,281.43457321864855,55.80969646314609,1675.0294655902119,-5.054167875403421,177018.3381055434,10.5,10500177018.338106,47.655,-122.3035,60.0,6.85
2026-01-20T23:06:52+00:00,SAT-55422,281.7148487247139,55.904810603798445,1669.9887754958095,-5.040593819726944,176542.9172575546,10.5,10500176542.917257,47.655,-122.3035,60.0,6.866666666666666
2026-01-20T23:06:53+00:00,SAT-55422,281.998223973722,55.999602018024284,1664.961623259602,-5.026890205965931,176062.9587374152,10.5,10500176062.958738,47.655,-122.3035,60.0,6.883333333333334
2026-01-20T23:06:54+00:00,SAT-55422,282.28473219360444,56.09405474624868,1659.9481380941852,-5.01305584234477,175578.42080410203,10.5,10500175578.420805,47.655,-122.3035,60.0,6.9
2026-01-20T23:06:55+00:00,SAT-55422,282.57440662946146,56.188152443749175,1654.9484504007532,-4.999089517123963,175089.26101737225,10.5,10500175089.261017,47.655,-122.3035,60.0,6.916666666666667
2026-01-20T23:06:56+00:00,SAT-55422,282.8672805210773,56.28187837417119,1649.9626917890082,-4.9849900238388205,174595.4371217291,10.5,10500174595.437122,47.655,-122.3035,60.0,6.933333333333334
2026-01-20T23:06:57+00:00,SAT-55422,283.1633870807882,56.375215403562606,1644.9909950718995,-4.970756115672771,174096.9054483822,10.5,10500174096.905449,47.655,-122.3035,60.0,6.95
2026-01-20T23:06:58+00:00,SAT-55422,283.46275946731225,56.46814599360329,1640.0334943058685,-4.956386592977623,173593.6239805774,10.5,10500173593.623981,47.655,-122.3035,60.0,6.966666666666667
2026-01-20T23:06:59+00:00,SAT-55422,283.7654307637949,56.56065219654232,1635.0903247438057,-4.9418802034886875,173085.54885870818,10.5,10500173085.548859,47.655,-122.3035,60.0,6.983333333333333
2026-01-20T23:07:00+00:00,SAT-55422,284.07143394833133,56.65271564833969,1630.1616228875264,-4.927235709116287,172572.6367196369,10.5,10500172572.636719,47.655,-122.3035,60.0,7.0
2026-01-20T23:07:01+00:00,SAT-55422,284.38080186737136,56.74431756314967,1625.2475264736345,-4.912451856988915,172054.84368250388,10.5,10500172054.843683,47.655,-122.3035,60.0,7.016666666666667
2026-01-20T23:07:02+00:00,SAT-55422,284.6935672058763,56.835438727365414,1620.3481744882642,-4.8975274043372075,171532.12622026895,10.5,10500171532.12622,47.655,-122.3035,60.0,7.033333333333333
2026-01-20T23:07:03+00:00,SAT-55422,285.0097624577976,56.926059494242715,1615.463707157005,-4.882461073549774,171004.439585577,10.5,10500171004.439585,47.655,-122.3035,60.0,7.05
2026-01-20T23:07:04+00:00,SAT-55422,285.3294198920665,57.01615977782339,1610.5942659796513,-4.867251613748858,170471.73996739776,10.5,10500170471.739967,47.655,-122.3035,60.0,7.066666666666666
2026-01-20T23:07:05+00:00,SAT-55422,285.65257152134586,57.105719048146725,1605.7399937035393,-4.8518977357166015,169933.98221186842,10.5,10500169933.982212,47.655,-122.3035,60.0,7.083333333333333
2026-01-20T23:07:06+00:00,SAT-55422,285.97924906475396,57.194716325422235,1600.9010343617845,-4.836398177151735,169391.12210785906,10.5,10500169391.122108,47.655,-122.3035,60.0,7.1
2026-01-20T23:07:07+00:00,SAT-55422,286.3094839136998,57.28313017558735,1596.0775332464384,-4.820751642053192,168843.11426393027,10.5,10500168843.114264,47.655,-122.3035,60.0,7.116666666666666
2026-01-20T23:07:08+00:00,SAT-55422,286.6433070918103,57.37093870494997,1591.2696369420973,-4.8049568454797855,168289.9136760063,10.5,10500168289.913675,47.655,-122.3035,60.0,7.133333333333334
2026-01-20T23:07:09+00:00,SAT-55422,286.980749216531,57.45811955587187,1586.4774933148722,-4.789012493590636,167731.47502830668,10.5,10500167731.475029,47.655,-122.3035,60.0,7.15
2026-01-20T23:07:10+00:00,SAT-55422,287.32184045764575,57.544649902323854,1581.7012515212646,-4.772917283900554,167167.75270229054,10.5,10500167167.752703,47.655,-122.3035,60.0,7.166666666666667
2026-01-20T23:07:11+00:00,SAT-55422,287.6666104942431,57.6305064457057,1576.9410620167878,-4.7566699214848835,166598.70134421886,10.5,10500166598.701344,47.655,-122.3035,60.0,7.183333333333334
2026-01-20T23:07:12+00:00,SAT-55422,288.01508847120766,57.71566541123812,1572.1970765484268,-4.740269099296145,166024.27517576018,10.5,10500166024.275175,47.655,-122.3035,60.0,7.2
2026-01-20T23:07:13+00:00,SAT-55422,288.36730295264306,57.80010254429965,1567.4694481667289,-4.723713498545716,165444.4280073584,10.5,10500165444.428007,47.655,-122.3035,60.0,7.216666666666667
2026-01-20T23:07:14+00:00,SAT-55422,288.72328187357374,57.88379310710146,1562.7583312375127,-4.7070018049211155,164859.11380623098,10.5,10500164859.113806,47.655,-122.3035,60.0,7.233333333333333
2026-01-20T23:07:15+00:00,SAT-55422,289.08305249119525,57.966711875999785,1558.0638814374045,-4.690132712507434,164268.28683371365,10.5,10500164268.286833,47.655,-122.3035,60.0,7.25
2026-01-20T23:07:16+00:00,SAT-55422,289.44664133492034,58.04883313924343,1553.3862557454638,-4.673104888932857,163671.90042450966,10.5,10500163671.900425,47.655,-122.3035,60.0,7.266666666666667
2026-01-20T23:07:17+00:00,SAT-55422,289.8140741518617,58.130130694510086,1548.7256124695682,-4.655917011063735,163069.90823688172,10.5,10500163069.908237,47.655,-122.3035,60.0,7.283333333333333
2026-01-20T23:07:18+00:00,SAT-55422,290.18537585345416,58.21057784749791,1544.0821112372007,-4.638567761139317,162462.26411727417,10.5,10500162462.264118,47.655,-122.3035,60.0,7.3
2026-01-20T23:07:19+00:00,SAT-55422,290.5605704602904,58.290147410889276,1539.4559129900908,-4.6210558117025275,161848.92157252514,10.5,10500161848.921572,47.655,-122.3035,60.0,7.316666666666666
2026-01-20T23:07:20+00:00,SAT-55422,290.9396810439282,58.368811703537055,1534.8471799938864,-4.603379826001207,161229.83378391954,10.5,10500161229.833784,47.655,-122.3035,60.0,7.333333333333333
2026-01-20T23:07:21+00:00,SAT-55422,291.32272966716613,58.446542550165574,1530.256075847421,-4.585538477766243,160604.9542999029,10.5,10500160604.9543,47.655,-122.3035,60.0,7.35
2026-01-20T23:07:22+00:00,SAT-55422,291.7097373243049,58.52331128194783,1525.6827654722622,-4.567530435912126,159974.23650023018,10.5,10500159974.2365,47.655,-122.3035,60.0,7.366666666666666
2026-01-20T23:07:23+00:00,SAT-55422,292.100723878777,58.59908873737476,1521.1274151175126,-4.549354365315283,159337.63362322634,10.5,10500159337.633623,47.655,-122.3035,60.0,7.383333333333334
2026-01-20T23:07:24+00:00,SAT-55422,292.4957079990153,58.6738452637463,1516.5901923638382,-4.5310089458204885,158695.0994314711,10.5,10500158695.099432,47.655,-122.3035,60.0,7.4
2026-01-20T23:07:25+00:00,SAT-55422,292.8947070949517,58.7475507195819,1512.07126610854,-4.512492831418866,158046.58678204007,10.5,10500158046.586782,47.655,-122.3035,60.0,7.416666666666667
2026-01-20T23:07:26+00:00,SAT-55422,293.29773724900286,58.82017447703523,1507.570806591338,-4.4938047069631875,157392.0496129141,10.5,10500157392.049612,47.655,-122.3035,60.0,7.433333333333334
2026-01-20T23:07:27+00:00,SAT-55422,293.70481315136027,58.89168542589366,1503.0889853635936,-4.474943232481207,156731.4409925972,10.5,10500156731.440992,47.655,-122.3035,60.0,7.45
2026-01-20T23:07:28+00:00,SAT-55422,294.11594802846787,58.96205197741653,1498.6259753130655,-4.455907080993581,156064.71444465956,10.5,10500156064.714445,47.655,-122.3035,60.0,7.466666666666667
2026-01-20T23:07:29+00:00,SAT-55422,294.5311535742229,59.03124206950599,1494.1819506509546,-4.436694938982172,155391.8239641399,10.5,10500155391.823965,47.655,-122.3035,60.0,7.483333333333333
2026-01-20T23:07:30+00:00,SAT-55422,294.9504398799461,59.09922317266615,1489.7570868984762,-4.4173054733936485,154712.7228618717,10.5,10500154712.722862,47.655,-122.3035,60.0,7.5
2026-01-20T23:07:31+00:00,SAT-55422,295.3738153604021,59.16596229625065,1485.351560906345,-4.397737369381136,154027.3650863556,10.5,10500154027.365086,47.655,-122.3035,60.0,7.516666666666667
2026-01-20T23:07:32+00:00,SAT-55422,295.8012866824781,59.231425996138206,1480.9655508366156,-4.377989308530567,153335.7044611541,10.5,10500153335.704462,47.655,-122.3035,60.0,7.533333333333333
2026-01-20T23:07:33+00:00,SAT-55422,296.232858691238,59.2955803829287,1476.599236166241,-4.358059991444441,152637.69547587028,10.5,10500152637.695477,47.655,-122.3035,60.0,7.55
2026-01-20T23:07:34+00:00,SAT-55422,296.66853433748634,59.35839113137931,1472.2527976681074,-4.33794809458101,151933.2917744735,10.5,10500151933.291775,47.655,-122.3035,60.0,7.566666666666666
2026-01-20T23:07:35+00:00,SAT-55422,297.1083146006651,59.419823490133176,1467.9264174351117,-4.317652339726896,151222.44858852457,10.5,10500151222.44859,47.655,-122.3035,60.0,7.583333333333333
2026-01-20T23:07:36+00:00,SAT-55422,297.55219841867796,59.4798422933877,1463.6202788349574,-4.297171425845595,150505.12035022158,10.5,10500150505.12035,47.655,-122.3035,60.0,7.6
2026-01-20T23:07:37+00:00,SAT-55422,298.0001826105124,59.53841197257841,1459.334566532914,-4.276504055270347,149781.26160978552,10.5,10500149781.26161,47.655,-122.3035,60.0,7.616666666666666
2026-01-20T23:07:38+00:00,SAT-55422,298.45226180167055,59.59549656944925,1455.0694664884577,-4.255648951940596,149050.82767417803,10.5,10500149050.827675,47.655,-122.3035,60.0,7.633333333333334
2026-01-20T23:07:39+00:00,SAT-55422,298.9084283520339,59.6510597503777,1450.8251659337225,-4.23460484443939,148313.77401299932,10.5,10500148313.774014,47.655,-122.3035,60.0,7.65
2026-01-20T23:07:40+00:00,SAT-55422,299.3686722822444,59.70506482153413,1446.6018533688682,-4.213370483323929,147570.05686547744,10.5,10500147570.056866,47.655,-122.3035,60.0,7.666666666666667
2026-01-20T23:07:41+00:00,SAT-55422,299.83298120310735,59.75747474529743,1442.3997185401665,-4.191944605579152,146819.6319954823,10.5,10500146819.631996,47.655,-122.3035,60.0,7.683333333333334
2026-01-20T23:07:42+00:00,SAT-55422,300.30134024161646,59.808252157345414,1438.2189524535356,-4.170325963145378,146062.45569068473,10.5,10500146062.45569,47.655,-122.3035,60.0,7.7
2026-01-20T23:07:43+00:00,SAT-55422,300.77373197174114,59.85735938518636,1434.0597473596254,-4.148513320370857,145298.4846733336,10.5,10500145298.484673,47.655,-122.3035,60.0,7.716666666666667
2026-01-20T23:07:44+00:00,SAT-55422,301.2501363460743,59.90475846780108,1429.922296741442,-4.126505476388693,144527.67688399044,10.5,10500144527.676884,47.655,-122.3035,60.0,7.733333333333333
2026-01-20T23:07:45+00:00,SAT-55422,301.7305306324219,59.95041117660565,1425.806795279657,-4.104301208429488,143749.98949609877,10.5,10500143749.989496,47.655,-122.3035,60.0,7.75
2026-01-20T23:07:46+00:00,SAT-55422,302.2148893451934,59.9942790369616,1421.71343887445,-4.081899300247362,142965.37991158303,10.5,10500142965.379911,47.655,-122.3035,60.0,7.766666666666667
2026-01-20T23:07:47+00:00,SAT-55422,302.70318418258637,60.036323351160355,1417.6424246390034,-4.059298610318709,142173.808149458,10.5,10500142173.80815,47.655,-122.3035,60.0,7.783333333333333
2026-01-20T23:07:48+00:00,SAT-55422,303.19538397495387,60.076505223196776,1413.5939508249787,-4.036497940449103,141375.23224388648,10.5,10500141375.232244,47.655,-122.3035,60.0,7.8
2026-01-20T23:07:49+00:00,SAT-55422,303.69145461974784,60.11478558337251,1409.5682168790374,-4.013496155320307,140569.6124312214,10.5,10500140569.61243,47.655,-122.3035,60.0,7.816666666666666
2026-01-20T23:07:50+00:00,SAT-55422,304.19135903439604,60.15112521523145,1405.5654233801313,-3.9902921087811207,139756.90856839955,10.5,10500139756.90857,47.655,-122.3035,60.0,7.833333333333333
2026-01-20T23:07:51+00:00,SAT-55422,304.6950571036624,60.18548478288529,1401.5857720503072,-3.9668846820924517,138937.08147244566,10.5,10500138937.081472,47.655,-122.3035,60.0,7.85
2026-01-20T23:07:52+00:00,SAT-55422,305.2025056353991,60.217824859834096,1397.629465727367,-3.9432727905067217,138110.093150911,10.5,10500138110.093151,47.655,-122.3035,60.0,7.866666666666666
2026-01-20T23:07:53+00:00,SAT-55422,305.71365832164946,60.24810595887434,1393.6967083309682,-3.919455319445126,137275.90456653122,10.5,10500137275.904566,47.655,-122.3035,60.0,7.883333333333334
2026-01-20T23:07:54+00:00,SAT-55422,306.2284656952307,60.27628856265483,1389.787704892375,-3.8954312357263503,136434.47953292634,10.5,10500136434.479532,47.655,-122.3035,60.0,7.9
2026-01-20T23:07:55+00:00,SAT-55422,306.7468751064604,60.302333156028716,1385.902661473277,-3.871199487886131,135585.7812233701,10.5,10500135585.781223,47.655,-122.3035,60.0,7.916666666666667
2026-01-20T23:07:56+00:00,SAT-55422,307.26883069104383,60.32620025874919,1382.0417851840252,-3.8467590620239975,134729.77412677932,10.5,10500134729.774126,47.655,-122.3035,60.0,7.933333333333334
2026-01-20T23:07:57+00:00,SAT-55422,307.79427335113957,60.347850459493685,1378.2052841461668,-3.822108941554807,133866.42263804207,10.5,10500133866.422638,47.655,-122.3035,60.0,7.95
2026-01-20T23:07:58+00:00,SAT-55422,308.32314073612844,60.367244450636015,1374.393367495123,-3.797248174489677,132995.6934144808,10.5,10500132995.693415,47.655,-122.3035,60.0,7.966666666666667
2026-01-20T23:07:59+00:00,SAT-55422,308.8553672390667,60.38434306420712,1370.6062453157651,-3.772175792401863,132117.55253769446,10.5,10500132117.552538,47.655,-122.3035,60.0,7.983333333333333
2026-01-20T23:08:00+00:00,SAT-55422,309.3908839874258,60.39910730834533,1366.8441286588097,-3.7468908988930805,131231.9686120234,10.5,10500131231.968613,47.655,-122.3035,60.0,8.0
2026-01-20T23:08:01+00:00,SAT-55422,309.9296188533774,60.41149840484337,1363.1072294689804,-3.721392556242209,130338.90879450741,10.5,10500130338.908794,47.655,-122.3035,60.0,8.016666666666667
2026-01-20T23:08:02+00:00,SAT-55422,310.4714964534232,60.42147782712946,1359.3957606262213,-3.6956799250709382,129438.3436865675,10.5,10500129438.343687,47.655,-122.3035,60.0,8.033333333333333
2026-01-20T23:08:03+00:00,SAT-55422,311.0164381762089,60.42900733922608,1355.7099358476173,-3.669752157333015,128530.24358603664,10.5,10500128530.243586,47.655,-122.3035,60.0,8.05
2026-01-20T23:08:04+00:00,SAT-55422,311.5643622010269,60.43404903504353,1352.0499696960374,-3.6436084350250884,127614.57984297734,10.5,10500127614.579844,47.655,-122.3035,60.0,8.066666666666666
2026-01-20T23:08:05+00:00,SAT-55422,312.1151835291879,60.43656537832909,1348.416077550172,-3.6172479769023305,126691.32509489104,10.5,10500126691.325094,47.655,-122.3035,60.0,8.083333333333334
2026-01-20T23:08:06+00:00,SAT-55422,312.66881402385724,60.43651924303662,1344.808475567875,-3.590670041942711,125760.45338805174,10.5,10500125760.453388,47.655,-122.3035,60.0,8.1
2026-01-20T23:08:07+00:00,SAT-55422,313.22516245811613,60.43387395398965,1341.227380646044,-3.5638739074894814,124821.9394119633,10.5,10500124821.939411,47.655,-122.3035,60.0,8.116666666666667
2026-01-20T23:08:08+00:00,SAT-55422,313.7841345665606,60.42859332791663,1337.673010402308,-3.5368588818608737,123875.75894100436,10.5,10500123875.758942,47.655,-122.3035,60.0,8.133333333333333
2026-01-20T23:08:09+00:00,SAT-55422,314.345633106792,60.42064171462888,1334.1455831441317,-3.5096243346201765,122921.88989461453,10.5,10500122921.889894,47.655,-122.3035,60.0,8.15
2026-01-20T23:08:10+00:00,SAT-55422,314.90955793336764,60.40998403819183,1330.6453178077375,-3.4821696365178774,121960.31023381419,10.5,10500121960.310234,47.655,-122.3035,60.0,8.166666666666666
2026-01-20T23:08:11+00:00,SAT-55422,315.4758060694146,60.39658583828263,1327.1724339569168,-3.454494236094872,120991.00064417283,10.5,10500120991.000645,47.655,-122.3035,60.0,8.183333333333334
2026-01-20T23:08:12+00:00,SAT-55422,316.0442717984048,60.38041331116897,1323.7271517054514,-3.4265975686496235,120013.94134745393,10.5,10500120013.941347,47.655,-122.3035,60.0,8.2
2026-01-20T23:08:13+00:00,SAT-55422,316.61484674813937,60.36143335089546,1320.3096917303183,-3.3984791604895452,119029.11575293941,10.5,10500119029.115753,47.655,-122.3035,60.0,8.216666666666667
2026-01-20T23:08:14+00:00,SAT-55422,317.1874199996422,60.33961358963056,1316.9202751809235,-3.3701385415184673,118036.50739587288,10.5,10500118036.507397,47.655,-122.3035,60.0,8.233333333333333
2026-01-20T23:08:15+00:00,SAT-55422,317.76187818838525,60.31492243808626,1313.5591236755156,-3.3415753091119824,117036.10217464447,10.5,10500117036.102175,47.655,-122.3035,60.0,8.25
2026-01-20T23:08:16+00:00,SAT-55422,318.3381056232644,60.28732912505234,1310.2264592338947,-3.312789083718609,116027.88679575585,10.5,10500116027.886795,47.655,-122.3035,60.0,8.266666666666667
2026-01-20T23:08:17+00:00,SAT-55422,318.915984404843,60.25680373659026,1306.9225042543994,-3.2837795389281004,115011.84982693946,10.5,10500115011.849827,47.655,-122.3035,60.0,8.283333333333333
2026-01-20T23:08:18+00:00,SAT-55422,319.49539455490543,60.22331725436021,1303.6474814609085,-3.2545463985545244,113987.98159499564,10.5,10500113987.981594,47.655,-122.3035,60.0,8.3
2026-01-20T23:08:19+00:00,SAT-55422,320.07621415215186,60.18684159302841,1300.40161385275,-3.2250894302156614,112956.27396091612,10.5,10500112956.27396,47.655,-122.3035,60.0,8.316666666666666
2026-01-20T23:08:20+00:00,SAT-55422,320.65831947220323,60.14734963688307,1297.185124661015,-3.195408431092436,111916.71982111898,10.5,10500111916.719822,47.655,-122.3035,60.0,8.333333333333334
2026-01-20T23:08:21+00:00,SAT-55422,321.24158513030136,60.10481527567344,1293.998237319072,-3.165503278544559,110869.31488022248,10.5,10500110869.31488,47.655,-122.3035,60.0,8.35
2026-01-20T23:08:22+00:00,SAT-55422,321.82588423879804,60.05921343857004,1290.8411753826038,-3.135373881254085,109814.05593988587,10.5,10500109814.05594,47.655,-122.3035,60.0,8.366666666666667
2026-01-20T23:08:23+00:00,SAT-55422,322.41108855992445,60.01052012760834,1287.7141624983662,-3.1050201997330995,108750.94161707546,10.5,10500108750.941618,47.655,-122.3035,60.0,8.383333333333333
2026-01-20T23:08:24+00:00,SAT-55422,322.9970686662539,59.95871244963473,1284.617422352499,-3.0744422415858415,107679.97217812376,10.5,10500107679.972178,47.655,-122.3035,60.0,8.4
2026-01-20T23:08:25+00:00,SAT-55422,323.5836941042028,59.903768646887116,1281.5511786235575,-3.043640090553462,106601.15055600015,10.5,10500106601.150557,47.655,-122.3035,60.0,8.416666666666666
2026-01-20T23:08:26+00:00,SAT-55422,324.170833566293,59.845668125565155,1278.515654906579,-3.0126138622308,105514.48079932484,10.5,10500105514.480799,47.655,-122.3035,60.0,8.433333333333334
2026-01-20T23:08:27+00:00,SAT-55422,324.75835505721227,59.784391483715325,1275.5110746813139,-2.9813637287343577,104419.9689363458,10.5,10500104419.968937,47.655,-122.3035,60.0,8.45
2026-01-20T23:08:28+00:00,SAT-55422,325.3461260665336,59.71992053712816,1272.5376612558562,-2.949889940261744,103317.62373004164,10.5,10500103317.62373,47.655,-122.3035,60.0,8.466666666666667
2026-01-20T23:08:29+00:00,SAT-55422,325.93401374792325,59.65223834288966,1269.5956376887686,-2.9181927788690856,102207.45505921099,10.5,10500102207.45506,47.655,-122.3035,60.0,8.483333333333333
2026-01-20T23:08:30+00:00,SAT-55422,326.52188508908085,59.581329222445575,1266.6852267573097,-2.886272609406338,101089.4757024426,10.5,10500101089.475702,47.655,-122.3035,60.0,8.5
2026-01-20T23:08:31+00:00,SAT-55422,327.1096070930406,59.50717878152587,1263.8066508748618,-2.8541298289384898,99963.69956663201,10.5,10500099963.699566,47.655,-122.3035,60.0,8.516666666666667
2026-01-20T23:08:32+00:00,SAT-55422,327.69704694816255,59.42977392967313,1260.9601320588004,-2.821764927878053,98830.14382809977,10.5,10500098830.143827,47.655,-122.3035,60.0,8.533333333333333
2026-01-20T23:08:33+00:00,SAT-55422,328.2840722108344,59.34910289606091,1258.145891837397,-2.789178431972024,97688.82690072962,10.5,10500097688.8269,47.655,-122.3035,60.0,8.55
2026-01-20T23:08:34+00:00,SAT-55422,328.8705509735577,59.26515524528158,1255.3641512145769,-2.7563709522225377,96539.77018440086,10.5,10500096539.770184,47.655,-122.3035,60.0,8.566666666666666
2026-01-20T23:08:35+00:00,SAT-55422,329.4563520426642,59.17792188948268,1252.6151305848934,-2.7233431356263926,95382.99633967818,10.5,10500095382.99634,47.655,-122.3035,60.0,8.583333333333334
2026-01-20T23:08:36+00:00,SAT-55422,330.0413451018325,59.08739510039321,1249.8990496976287,-2.6900957338716283,94218.53169385635,10.5,10500094218.531694,47.655,-122.3035,60.0,8.6
2026-01-20T23:08:37+00:00,SAT-55422,330.6254008885554,58.993568516830514,1247.2161275523808,-2.65662952992162,93046.40366962469,10.5,10500093046.40367,47.655,-122.3035,60.0,8.616666666666667
2026-01-20T23:08:38+00:00,SAT-55422,331.2083913498946,58.89643715300529,1244.5665823678721,-2.6229453829091804,91866.64235744848,10.5,10500091866.642357,47.655,-122.3035,60.0,8.633333333333333
2026-01-20T23:08:39+00:00,SAT-55422,331.79018980454657,58.79599740322728,1241.9506315059841,-2.589044237049464,90679.28082773641,10.5,10500090679.280828,47.655,-122.3035,60.0,8.65
2026-01-20T23:08:40+00:00,SAT-55422,332.37067110238274,58.69224704422517,1239.3684913869001,-2.554927082078362,89484.35374522599,10.5,10500089484.353745,47.655,-122.3035,60.0,8.666666666666666
2026-01-20T23:08:41+00:00,SAT-55422,332.9497117696768,58.5851852372004,1236.8203774437072,-2.520594996884949,88281.89889717626,10.5,10500088281.898897,47.655,-122.3035,60.0,8.683333333333334
2026-01-20T23:08:42+00:00,SAT-55422,333.52719015895565,58.474812526181054,1234.3065040334807,-2.4860491175724087,87071.9560747265,10.5,10500087071.956076,47.655,-122.3035,60.0,8.7
2026-01-20T23:08:43+00:00,SAT-55422,334.1029865858441,58.36113083575879,1231.8270843802218,-2.4512906511014507,85854.56755074617,10.5,10500085854.56755,47.655,-122.3035,60.0,8.716666666666667
2026-01-20T23:08:44+00:00,SAT-55422,334.6769834621158,58.24414346668065,1229.38233050419,-2.416320891484478,84629.77864702327,10.5,10500084629.778646,47.655,-122.3035,60.0,8.733333333333333
2026-01-20T23:08:45+00:00,SAT-55422,335.24906542702604,58.123855088514496,1226.9724531350828,-2.3811411939967373,83397.63683102975,10.5,10500083397.636831,47.655,-122.3035,60.0,8.75
2026-01-20T23:08:46+00:00,SAT-55422,335.8191194648431,58.00027173205782,1224.5976616509367,-2.345752987207151,82158.19213729216,10.5,10500082158.192137,47.655,-122.3035,60.0,8.766666666666667
2026-01-20T23:08:47+00:00,SAT-55422,336.3870350185391,57.873400779378436,1222.2581640050287,-2.3101577706908225,80911.49708727375,10.5,10500080911.497087,47.655,-122.3035,60.0,8.783333333333333
2026-01-20T23:08:48+00:00,SAT-55422,336.9527040952269,57.74325095246894,1219.95416665506,-2.274357132797665,79657.60731170724,10.5,10500079657.607311,47.655,-122.3035,60.0,8.8
2026-01-20T23:08:49+00:00,SAT-55422,337.5160213692182,57.60983229905516,1217.6858744746162,-2.238352726377289,78396.58070037751,10.5,10500078396.5807,47.655,-122.3035,60.0,8.816666666666666
2026-01-20T23:08:50+00:00,SAT-55422,338.07688427058787,57.473156178535305,1215.4534906888427,-2.202146277834714,77128.47771929104,10.5,10500077128.477718,47.655,-122.3035,60.0,8.833333333333334
2026-01-20T23:08:51+00:00,SAT-55422,338.6351930687124,57.33323524583099,1213.2572168010822,-2.1657395919312674,75853.36157882366,10.5,10500075853.361578,47.655,-122.3035,60.0,8.85
2026-01-20T23:08:52+00:00,SAT-55422,339.190850948982,57.19008343365039,1211.0972525147295,-2.1291345629346705,74571.29862424372,10.5,10500074571.298624,47.655,-122.3035,60.0,8.866666666666667
2026-01-20T23:08:53+00:00,SAT-55422,339.74376408514195,57.043715932433216,1208.9737956439624,-2.092333135172039,73282.35695411127,10.5,10500073282.356955,47.655,-122.3035,60.0,8.883333333333333
2026-01-20T23:08:54+00:00,SAT-55422,340.2938416923745,56.89414917218096,1206.8870420638177,-2.0553373511903104,71986.60810706006,10.5,10500071986.608107,47.655,-122.3035,60.0,8.9
2026-01-20T23:08:55+00:00,SAT-55422,340.8409960866354,56.74140079929552,1204.8371856122305,-2.018149326298756,70684.12617016849,10.5,10500070684.126171,47.655,-122.3035,60.0,8.916666666666666
2026-01-20T23:08:56+00:00,SAT-55422,341.38514272848147,56.58548965446619,1202.8244180174686,-1.9807712522395953,69374.98790752018,10.5,10500069374.987907,47.655,-122.3035,60.0,8.933333333333334
2026-01-20T23:08:57+00:00,SAT-55422,341.9262002609525,56.426435749024684,1200.8489288219016,-1.9432053879333162,68059.27243606582,10.5,10500068059.272436,47.655,-122.3035,60.0,8.95
2026-01-20T23:08:58+00:00,SAT-55422,342.4640905366546,56.26426024144757,1198.9109053150028,-1.905454087690717,66737.06221372829,10.5,10500066737.062214,47.655,-122.3035,60.0,8.966666666666667
2026-01-20T23:08:59+00:00,SAT-55422,342.9987386464354,56.098985410223214,1197.0105324382125,-1.8675197741070027,65408.44209003926,10.5,10500065408.442091,47.655,-122.3035,60.0,8.983333333333333
2026-01-20T23:09:00+00:00,SAT-55422,343.5300729324795,55.93063462849938,1195.1479927168366,-1.8294049392096008,64073.49934634049,10.5,10500064073.499346,47.655,-122.3035,60.0,9.0
2026-01-20T23:09:01+00:00,SAT-55422,344.05802499512106,55.75923233786325,1193.3234661907982,-1.791112167439352,62732.324500682385,10.5,10500062732.324501,47.655,-122.3035,60.0,9.016666666666667
2026-01-20T23:09:02+00:00,SAT-55422,344.5825296996137,55.584804019336794,1191.537130322472,-1.752644105157576,61385.01023983249,10.5,10500061385.01024,47.655,-122.3035,60.0,9.033333333333333
2026-01-20T23:09:03+00:00,SAT-55422,345.10352516749344,55.4073761666822,1189.7891599349282,-1.7140034904531634,60031.65246324581,10.5,10500060031.652464,47.655,-122.3035,60.0,9.05
2026-01-20T23:09:04+00:00,SAT-55422,345.6209527710617,55.22697625605381,1188.0797271204494,-1.6751931237339273,58672.34925304971,10.5,10500058672.349253,47.655,-122.3035,60.0,9.066666666666666
2026-01-20T23:09:05+00:00,SAT-55422,346.1347571125653,55.04363271844178,1186.409001178379,-1.6362158882010023,57307.20159114385,10.5,10500057307.201591,47.655,-122.3035,60.0,9.083333333333334
2026-01-20T23:09:06+00:00,SAT-55422,346.64488600433316,54.85737490945422,1184.7771485325463,-1.5970747374503138,55936.31292495121,10.5,10500055936.312925,47.655,-122.3035,60.0,9.1
2026-01-20T23:09:07+00:00,SAT-55422,347.1512904400865,54.668233079969845,1183.1843326610626,-1.5577727114693023,54559.789727691124,10.5,10500054559.789728,47.655,-122.3035,60.0,9.116666666666667
2026-01-20T23:09:08+00:00,SAT-55422,347.65392456619077,54.47623834469431,1181.6307140101571,-1.5183129028992643,53177.74031674364,10.5,10500053177.740316,47.655,-122.3035,60.0,9.133333333333333
2026-01-20T23:09:09+00:00,SAT-55422,348.1527456370395,54.28142265474993,1180.1164499416657,-1.4786984991294152,51790.27632796172,10.5,10500051790.276327,47.655,-122.3035,60.0,9.15
