satellites_20260120_184412/SAT-47389.csv

timestamp,satellite,azimuth_deg,elevation_deg,distance_km,relative_velocity_kms,doppler_shift_hz,tx_freq_ghz,rx_freq_hz,ue_lat,ue_lon,ue_alt_m,time_minutes
2026-01-20T23:06:51+00:00,SAT-47389,205.93970658456627,40.054333851073864,1214.793552169204,-4.950288077418598,173380.0281690051,10.5,10500173380.02817,47.655,-122.3035,60.0,6.85
2026-01-20T23:06:52+00:00,SAT-47389,205.9886647465554,40.30434265274445,1209.8564648599918,-4.93089285241354,172700.72534760754,10.5,10500172700.725348,47.655,-122.3035,60.0,6.866666666666666
2026-01-20T23:06:53+00:00,SAT-47389,206.03870861622215,40.55614198805525,1204.9387210551847,-4.911253791980762,172012.8823781084,10.5,10500172012.882378,47.655,-122.3035,60.0,6.883333333333334
2026-01-20T23:06:54+00:00,SAT-47389,206.08986384218014,40.80974527487258,1200.0405639399826,-4.891367869917014,171316.393270069,10.5,10500171316.39327,47.655,-122.3035,60.0,6.9
2026-01-20T23:06:55+00:00,SAT-47389,206.14215688138614,41.06516586532362,1195.1622397177186,-4.871232086317133,170611.15295412097,10.5,10500170611.152954,47.655,-122.3035,60.0,6.916666666666667
2026-01-20T23:06:56+00:00,SAT-47389,206.1956150314652,41.32241703925357,1190.3039975836316,-4.850843403760692,169897.05504695274,10.5,10500169897.055046,47.655,-122.3035,60.0,6.933333333333334
2026-01-20T23:06:57+00:00,SAT-47389,206.25026646385479,41.5815119940287,1185.466089762281,-4.830198753632235,169173.99207267072,10.5,10500169173.992073,47.655,-122.3035,60.0,6.95
2026-01-20T23:06:58+00:00,SAT-47389,206.30614025856846,41.84246383415672,1180.6487715386586,-4.8092950778814245,168441.8569254166,10.5,10500168441.856926,47.655,-122.3035,60.0,6.966666666666667
2026-01-20T23:06:59+00:00,SAT-47389,206.36326644110028,42.1052855626882,1175.8523012476514,-4.788129263643377,167700.5405794947,10.5,10500167700.540579,47.655,-122.3035,60.0,6.983333333333333
2026-01-20T23:07:00+00:00,SAT-47389,206.4216760203356,42.36999006862996,1171.0769403287109,-4.76669823206175,166949.9352003324,10.5,10500166949.9352,47.655,-122.3035,60.0,7.0
2026-01-20T23:07:01+00:00,SAT-47389,206.48140102934406,42.636590118665524,1166.3229532919347,-4.744998829807961,166189.9303450242,10.5,10500166189.930346,47.655,-122.3035,60.0,7.016666666666667
2026-01-20T23:07:02+00:00,SAT-47389,206.54247456684496,42.90509834244512,1161.5906077923398,-4.723027931417341,165420.4165465766,10.5,10500165420.416546,47.655,-122.3035,60.0,7.033333333333333
2026-01-20T23:07:03+00:00,SAT-47389,206.60493084195258,43.175527222926014,1156.8801746020727,-4.700782393689366,164641.28371681162,10.5,10500164641.283716,47.655,-122.3035,60.0,7.05
2026-01-20T23:07:04+00:00,SAT-47389,206.66880522059932,43.447889083694044,1152.1919276280998,-4.678259045458974,163852.4207881148,10.5,10500163852.420788,47.655,-122.3035,60.0,7.066666666666666
2026-01-20T23:07:05+00:00,SAT-47389,206.73413427407414,43.722196075077626,1147.5261439400956,-4.655454708829989,163053.71645711942,10.5,10500163053.716457,47.655,-122.3035,60.0,7.083333333333333
2026-01-20T23:07:06+00:00,SAT-47389,206.80095583030007,43.99846016085054,1142.8831037771558,-4.632366197065873,162245.05911083217,10.5,10500162245.05911,47.655,-122.3035,60.0,7.1
2026-01-20T23:07:07+00:00,SAT-47389,206.86930902767565,44.276693104186954,1138.2630905566152,-4.608990339483613,161426.33769852188,10.5,10500161426.337698,47.655,-122.3035,60.0,7.116666666666666
2026-01-20T23:07:08+00:00,SAT-47389,206.9392343720161,44.556906454473385,1133.666390858037,-4.585323930919006,160597.43996178036,10.5,10500160597.439962,47.655,-122.3035,60.0,7.133333333333334
2026-01-20T23:07:09+00:00,SAT-47389,207.01077379567604,44.839111530441485,1129.0932944576005,-4.561363749499997,159758.25305701979,10.5,10500159758.253057,47.655,-122.3035,60.0,7.15
2026-01-20T23:07:10+00:00,SAT-47389,207.08397071994006,45.1233194035717,1124.5440943447659,-4.537106610691788,158908.66544836087,10.5,10500158908.66545,47.655,-122.3035,60.0,7.166666666666667
2026-01-20T23:07:11+00:00,SAT-47389,207.15887012155807,45.40954088409919,1120.0190866850357,-4.512549323612043,158048.56537760684,10.5,10500158048.565378,47.655,-122.3035,60.0,7.183333333333334
2026-01-20T23:07:12+00:00,SAT-47389,207.23551860209255,45.69778650366472,1115.5185708262866,-4.487688635580423,157177.8389221334,10.5,10500157177.838923,47.655,-122.3035,60.0,7.2
2026-01-20T23:07:13+00:00,SAT-47389,207.31396445992345,45.98806649356104,1111.0428493604013,-4.462521378987882,156296.37513887277,10.5,10500156296.37514,47.655,-122.3035,60.0,7.216666666666667
2026-01-20T23:07:14+00:00,SAT-47389,207.39425776864698,46.28039077144608,1106.5922280384239,-4.437044354186813,155404.0619626313,10.5,10500155404.061962,47.655,-122.3035,60.0,7.233333333333333
2026-01-20T23:07:15+00:00,SAT-47389,207.4764504576879,46.57476891985938,1102.167015802515,-4.411254364932785,154500.7874474088,10.5,10500154500.787447,47.655,-122.3035,60.0,7.25
2026-01-20T23:07:16+00:00,SAT-47389,207.56059639782282,46.871210166017946,1097.7675247825555,-4.385148204514187,153586.43928060046,10.5,10500153586.439281,47.655,-122.3035,60.0,7.266666666666667
2026-01-20T23:07:17+00:00,SAT-47389,207.64675149113822,47.16972335972866,1093.3940703065866,-4.358722734015427,152660.90752410452,10.5,10500152660.907524,47.655,-122.3035,60.0,7.283333333333333
2026-01-20T23:07:18+00:00,SAT-47389,207.73497376747554,47.47031695561904,1089.0469708331952,-4.3319747783141915,151724.0809717068,10.5,10500151724.08097,47.655,-122.3035,60.0,7.3
2026-01-20T23:07:19+00:00,SAT-47389,207.82532348417425,47.77299898738956,1084.7265479876232,-4.304901192895699,150775.84948919842,10.5,10500150775.84949,47.655,-122.3035,60.0,7.316666666666666
2026-01-20T23:07:20+00:00,SAT-47389,207.917863232715,48.07777704547864,1080.433126531242,-4.277498836974994,149816.1030730047,10.5,10500149816.103073,47.655,-122.3035,60.0,7.333333333333333
2026-01-20T23:07:21+00:00,SAT-47389,208.01265805081445,48.384658251772485,1076.167034357832,-4.249764637934387,148844.73410705704,10.5,10500148844.734108,47.655,-122.3035,60.0,7.35
2026-01-20T23:07:22+00:00,SAT-47389,208.10977554237405,48.69364923777521,1071.9286024255987,-4.22169548460454,147861.63362504492,10.5,10500147861.633625,47.655,-122.3035,60.0,7.366666666666666
2026-01-20T23:07:23+00:00,SAT-47389,208.20928600184456,49.00475611397892,1067.71816479562,-4.193288342500507,146866.69534646973,10.5,10500146866.695347,47.655,-122.3035,60.0,7.383333333333334
2026-01-20T23:07:24+00:00,SAT-47389,208.3112625484897,49.317984446245696,1063.536058555366,-4.164540148846528,145859.81199996878,10.5,10500145859.812,47.655,-122.3035,60.0,7.4
2026-01-20T23:07:25+00:00,SAT-47389,208.4157812659278,49.633339223210434,1059.3826238469164,-4.135447971002228,144840.88087207114,10.5,10500144840.880873,47.655,-122.3035,60.0,7.416666666666667
2026-01-20T23:07:26+00:00,SAT-47389,208.52292135390329,49.950824834147234,1055.25820373717,-4.106008787677574,143809.7961444198,10.5,10500143809.796144,47.655,-122.3035,60.0,7.433333333333334
2026-01-20T23:07:27+00:00,SAT-47389,208.63276528340637,50.27044502897548,1051.16314430626,-4.076219710159915,142766.45664207838,10.5,10500142766.456642,47.655,-122.3035,60.0,7.45
2026-01-20T23:07:28+00:00,SAT-47389,208.74539896690194,50.592202893457035,1047.097794515327,-4.046077856256042,141710.76141844917,10.5,10500141710.76142,47.655,-122.3035,60.0,7.466666666666667
2026-01-20T23:07:29+00:00,SAT-47389,208.8609119354791,50.91610081332229,1043.062506200021,-4.015580380747897,140642.61082196044,10.5,10500140642.610823,47.655,-122.3035,60.0,7.483333333333333
2026-01-20T23:07:30+00:00,SAT-47389,208.97939752761474,51.242140439023,1039.0576340336218,-3.9847245162298073,139561.90792635942,10.5,10500139561.907927,47.655,-122.3035,60.0,7.5
2026-01-20T23:07:31+00:00,SAT-47389,209.1009530907413,51.57032265203635,1035.0835354494352,-3.95350750487464,138468.55614087437,10.5,10500138468.55614,47.655,-122.3035,60.0,7.516666666666667
2026-01-20T23:07:32+00:00,SAT-47389,209.22568019325473,51.90064752388993,1031.1405706312403,-3.9219266943447946,137362.46256942308,10.5,10500137362.46257,47.655,-122.3035,60.0,7.533333333333333
2026-01-20T23:07:33+00:00,SAT-47389,209.3536848527863,52.23311428107857,1027.2291024080803,-3.8899794494929454,136243.5349179996,10.5,10500136243.534918,47.655,-122.3035,60.0,7.55
2026-01-20T23:07:34+00:00,SAT-47389,209.48507777607003,52.567721260774945,1023.3494962371194,-3.857663233868812,135111.68434938588,10.5,10500135111.68435,47.655,-122.3035,60.0,7.566666666666666
2026-01-20T23:07:35+00:00,SAT-47389,209.61997461678996,52.90446587120138,1019.5021201052075,-3.8249755377609485,133966.82296287108,10.5,10500133966.822964,47.655,-122.3035,60.0,7.583333333333333
2026-01-20T23:07:36+00:00,SAT-47389,209.7584962474962,53.24334454368451,1015.687344502214,-3.791913966899018,132808.86690098018,10.5,10500132808.866901,47.655,-122.3035,60.0,7.6
2026-01-20T23:07:37+00:00,SAT-47389,209.90076905236347,53.584352690011904,1011.9055423058934,-3.75847617614038,131637.73402689802,10.5,10500131637.734026,47.655,-122.3035,60.0,7.616666666666666
2026-01-20T23:07:38+00:00,SAT-47389,210.0469252366729,53.927484651597325,1008.1570887328894,-3.724659914169801,130453.34549004203,10.5,10500130453.34549,47.655,-122.3035,60.0,7.633333333333334
2026-01-20T23:07:39+00:00,SAT-47389,210.19710315842661,54.272733649937614,1004.4423612451575,-3.690462987363378,129255.62446042411,10.5,10500129255.62446,47.655,-122.3035,60.0,7.65
2026-01-20T23:07:40+00:00,SAT-47389,210.35144768061173,54.62009173101862,1000.761739492427,-3.6558833340775605,128044.49873056641,10.5,10500128044.49873,47.655,-122.3035,60.0,7.666666666666667
2026-01-20T23:07:41+00:00,SAT-47389,210.51011055022622,54.969549713606625,997.1156051805737,-3.620918952965769,126819.89820484603,10.5,10500126819.898205,47.655,-122.3035,60.0,7.683333333333334
2026-01-20T23:07:42+00:00,SAT-47389,210.6732508000228,55.32109712783405,993.5043420114824,-3.5855679422759867,125581.75627586288,10.5,10500125581.756275,47.655,-122.3035,60.0,7.7
2026-01-20T23:07:43+00:00,SAT-47389,210.84103517938567,55.67472215400407,989.9283355837192,-3.5498285268757144,124330.01077096809,10.5,10500124330.01077,47.655,-122.3035,60.0,7.716666666666667
2026-01-20T23:07:44+00:00,SAT-47389,211.01363861631896,56.03041156057545,986.3879732662484,-3.5136990243151,123064.60276365107,10.5,10500123064.602764,47.655,-122.3035,60.0,7.733333333333333
2026-01-20T23:07:45+00:00,SAT-47389,211.19124471005082,56.38815063508443,982.8836441059982,-3.4771778456853126,121785.47660360349,10.5,10500121785.476604,47.655,-122.3035,60.0,7.75
2026-01-20T23:07:46+00:00,SAT-47389,211.3740462582072,56.747923110971286,979.415738734568,-3.4402635563492874,120492.58204376682,10.5,10500120492.582045,47.655,-122.3035,60.0,7.766666666666667
2026-01-20T23:07:47+00:00,SAT-47389,211.56224582458933,57.10971109624748,975.984649214369,-3.4029548186351106,119185.8722332123,10.5,10500119185.872232,47.655,-122.3035,60.0,7.783333333333333
2026-01-20T23:07:48+00:00,SAT-47389,211.7560563446097,57.473494991748204,972.590768941917,-3.3652504379907686,117865.30533367544,10.5,10500117865.305334,47.655,-122.3035,60.0,7.8
2026-01-20T23:07:49+00:00,SAT-47389,211.95570177694972,57.839253409115614,969.2344925050942,-3.3271493155545313,116530.8428583703,10.5,10500116530.84286,47.655,-122.3035,60.0,7.816666666666666
2026-01-20T23:07:50+00:00,SAT-47389,212.16141779987842,58.206963078353496,965.9162155877144,-3.288650546283553,115182.45310886808,10.5,10500115182.45311,47.655,-122.3035,60.0,7.833333333333333
2026-01-20T23:07:51+00:00,SAT-47389,212.3734525647321,58.576598760177966,962.6363347762209,-3.2497533227108963,113820.10780426109,10.5,10500113820.107803,47.655,-122.3035,60.0,7.85
2026-01-20T23:07:52+00:00,SAT-47389,212.59206749924988,58.9481331417542,959.3952474623707,-3.210456996899683,112443.78425105901,10.5,10500112443.78425,47.655,-122.3035,60.0,7.866666666666666
2026-01-20T23:07:53+00:00,SAT-47389,212.81753817480958,59.32153673235637,956.1933516841293,-3.170761095100658,111053.46585655904,10.5,10500111053.465857,47.655,-122.3035,60.0,7.883333333333334
2026-01-20T23:07:54+00:00,SAT-47389,213.05015524017477,59.696777753592436,953.031045951949,-3.130665259490894,109649.14008828865,10.5,10500109649.140089,47.655,-122.3035,60.0,7.9
2026-01-20T23:07:55+00:00,SAT-47389,213.29022542186053,60.0738220149176,949.90872913315,-3.0901693224128826,108230.80107417268,10.5,10500108230.801075,47.655,-122.3035,60.0,7.916666666666667
2026-01-20T23:07:56+00:00,SAT-47389,213.53807260644678,60.45263278915017,946.8268002622636,-3.049273278471998,106798.44862526855,10.5,10500106798.448626,47.655,-122.3035,60.0,7.933333333333334
2026-01-20T23:07:57+00:00,SAT-47389,213.79403900429176,60.83317067545923,943.7856583792009,-3.0079773075970957,105352.08904344586,10.5,10500105352.089043,47.655,-122.3035,60.0,7.95
2026-01-20T23:07:58+00:00,SAT-47389,214.05848640551437,61.21539345503552,940.785702344424,-2.9662817380868383,103891.73382711249,10.5,10500103891.733828,47.655,-122.3035,60.0,7.966666666666667
2026-01-20T23:07:59+00:00,SAT-47389,214.33179753085398,61.59925593102659,937.8273306909721,-2.9241871019959937,102417.401611077,10.5,10500102417.401611,47.655,-122.3035,60.0,7.983333333333333
2026-01-20T23:08:00+00:00,SAT-47389,214.61437749360593,61.98470976323625,934.910941421248,-2.881694113451729,100929.11740709352,10.5,10500100929.117407,47.655,-122.3035,60.0,8.0
2026-01-20T23:08:01+00:00,SAT-47389,214.90665537537106,62.37170328693236,932.0369318254322,-2.8388036783127086,99426.91294216429,10.5,10500099426.912943,47.655,-122.3035,60.0,8.016666666666667
2026-01-20T23:08:02+00:00,SAT-47389,215.20908592800876,62.76018131838014,929.2056982902617,-2.7955169017819768,97910.82692517486,10.5,10500097910.826925,47.655,-122.3035,60.0,8.033333333333333
2026-01-20T23:08:03+00:00,SAT-47389,215.5221514124637,63.15008494549903,926.4176361002178,-2.7518350760912584,96380.90461554645,10.5,10500096380.904615,47.655,-122.3035,60.0,8.05
2026-01-20T23:08:04+00:00,SAT-47389,215.84636358367277,63.54135129932332,923.6731392509961,-2.7077597372059716,94837.19980928507,10.5,10500094837.19981,47.655,-122.3035,60.0,8.066666666666666
2026-01-20T23:08:05+00:00,SAT-47389,216.18226584211175,63.933913314273504,920.9726002064226,-2.6632925738626487,93279.77165308746,10.5,10500093279.771652,47.655,-122.3035,60.0,8.083333333333334
2026-01-20T23:08:06+00:00,SAT-47389,216.53043554791682,64.32769945444844,918.3164097460902,-2.618435535187396,91708.68841359463,10.5,10500091708.688414,47.655,-122.3035,60.0,8.1
2026-01-20T23:08:07+00:00,SAT-47389,216.8914865354518,64.72263343193194,915.7049567056634,-2.573190784380812,90124.02585524193,10.5,10500090124.025856,47.655,-122.3035,60.0,8.116666666666667
2026-01-20T23:08:08+00:00,SAT-47389,217.26607182582316,65.11863389315036,913.1386277633742,-2.527560678078038,88525.86651736048,10.5,10500088525.866518,47.655,-122.3035,60.0,8.133333333333333
2026-01-20T23:08:09+00:00,SAT-47389,217.65488655511305,65.51561407361083,910.6178072471045,-2.4815478192621843,86914.30156742949,10.5,10500086914.301567,47.655,-122.3035,60.0,8.15
2026-01-20T23:08:10+00:00,SAT-47389,218.05867114615035,65.91348142939796,908.1428768886936,-2.43515504473049,85289.43036208785,10.5,10500085289.430363,47.655,-122.3035,60.0,8.166666666666666
2026-01-20T23:08:11+00:00,SAT-47389,218.47821473319166,66.31213723250909,905.7142155907491,-2.388385426483542,83651.36049579068,10.5,10500083651.360497,47.655,-122.3035,60.0,8.183333333333334
2026-01-20T23:08:12+00:00,SAT-47389,218.91435885978868,66.71147612842765,903.3321991920694,-2.341242231713,82000.20639941016,10.5,10500082000.2064,47.655,-122.3035,60.0,8.2
2026-01-20T23:08:13+00:00,SAT-47389,219.36800146043677,67.11138564472418,900.9972002729744,-2.2937290274337645,80336.09300489651,10.5,10500080336.093004,47.655,-122.3035,60.0,8.216666666666667
2026-01-20T23:08:14+00:00,SAT-47389,219.8401011720232,67.51174567053617,898.7095878562805,-2.2458495709300834,78659.15190823739,10.5,10500078659.151909,47.655,-122.3035,60.0,8.233333333333333
2026-01-20T23:08:15+00:00,SAT-47389,220.33168195415325,67.91242786619625,896.4697272175396,-2.197607895996129,76969.52438996764,10.5,10500076969.52439,47.655,-122.3035,60.0,8.25
2026-01-20T23:08:16+00:00,SAT-47389,220.84383807282416,68.31329503051518,894.277979609266,-2.1490082624406797,75267.35964660971,10.5,10500075267.359646,47.655,-122.3035,60.0,8.266666666666667
2026-01-20T23:08:17+00:00,SAT-47389,221.37773943610006,68.71420039630696,892.1347020355253,-2.100055178431638,73552.81557327302,10.5,10500073552.815573,47.655,-122.3035,60.0,8.283333333333333
2026-01-20T23:08:18+00:00,SAT-47389,221.93463730887373,69.11498686010174,890.0402470042361,-2.0507534099841114,71826.05909596688,10.5,10500071826.059095,47.655,-122.3035,60.0,8.3
2026-01-20T23:08:19+00:00,SAT-47389,222.51587041297074,69.51548613680144,887.9949622700119,-2.001107964436663,70087.2655928688,10.5,10500070087.265593,47.655,-122.3035,60.0,8.316666666666666
2026-01-20T23:08:20+00:00,SAT-47389,223.12287140706627,69.91551782647721,885.9991905934805,-1.9511241024696935,68336.61931525903,10.5,10500068336.619316,47.655,-122.3035,60.0,8.333333333333334
2026-01-20T23:08:21+00:00,SAT-47389,223.75717374582544,70.3148883900546,884.0532694886173,-1.9008073248440802,66574.31292305174,10.5,10500066574.312923,47.655,-122.3035,60.0,8.35
2026-01-20T23:08:22+00:00,SAT-47389,224.42041889059396,70.71339001975407,882.1575309833062,-1.8501634075290758,64800.54871512244,10.5,10500064800.548716,47.655,-122.3035,60.0,8.366666666666667
2026-01-20T23:08:23+00:00,SAT-47389,225.1143638512154,71.11079940447833,880.3123013448638,-1.799198344044899,63015.53660990178,10.5,10500063015.53661,47.655,-122.3035,60.0,8.383333333333333
2026-01-20T23:08:24+00:00,SAT-47389,225.8408889684749,71.50687636065649,878.5179008630697,-1.747918395648805,61219.49590310392,10.5,10500061219.495903,47.655,-122.3035,60.0,8.4
2026-01-20T23:08:25+00:00,SAT-47389,226.60200588674542,71.90136234027395,876.7746435831426,-1.6963300690551097,59412.654487387576,10.5,10500059412.654488,47.655,-122.3035,60.0,8.416666666666666
2026-01-20T23:08:26+00:00,SAT-47389,227.3998655685185,72.29397879052217,875.0828370609383,-1.6444401212147433,57595.2490197562,10.5,10500057595.24902,47.655,-122.3035,60.0,8.433333333333334
2026-01-20T23:08:27+00:00,SAT-47389,228.23676618926666,72.68442536033841,873.4427821133802,-1.592255535522434,55767.52408823292,10.5,10500055767.524088,47.655,-122.3035,60.0,8.45
2026-01-20T23:08:28+00:00,SAT-47389,229.11516066723084,73.07237793756033,871.8547725926192,-1.5397835536613769,53929.7333271955,10.5,10500053929.733328,47.655,-122.3035,60.0,8.466666666666667
2026-01-20T23:08:29+00:00,SAT-47389,230.03766354965725,73.45748652170667,870.3190951284341,-1.4870316563666077,52082.13874362837,10.5,10500052082.138744,47.655,-122.3035,60.0,8.483333333333333
2026-01-20T23:08:30+00:00,SAT-47389,231.00705683298088,73.83937291524097,868.8360288898178,-1.4340075492441464,50225.01022044904,10.5,10500050225.01022,47.655,-122.3035,60.0,8.5
2026-01-20T23:08:31+00:00,SAT-47389,232.0262942014191,74.2176282322752,867.405845360705,-1.3807191776174952,48358.62603649522,10.5,10500048358.626036,47.655,-122.3035,60.0,8.516666666666667
2026-01-20T23:08:32+00:00,SAT-47389,233.0985030487209,74.59181023605608,866.0288081008946,-1.3271747086504984,46483.27224039182,10.5,10500046483.27224,47.655,-122.3035,60.0,8.533333333333333
2026-01-20T23:08:33+00:00,SAT-47389,234.22698344164343,74.96144050871023,864.7051725248004,-1.2733825383629362,44599.24289626669,10.5,10500044599.242897,47.655,-122.3035,60.0,8.55
2026-01-20T23:08:34+00:00,SAT-47389,235.4152030251415,75.32600148222873,863.4351856732064,-1.2193512840519516,42706.83981831688,10.5,10500042706.839819,47.655,-122.3035,60.0,8.566666666666666
2026-01-20T23:08:35+00:00,SAT-47389,236.6667866165315,75.68493336365596,862.2190859925787,-1.1650897564698126,40806.37159635627,10.5,10500040806.371597,47.655,-122.3035,60.0,8.583333333333334
2026-01-20T23:08:36+00:00,SAT-47389,237.98549896801987,76.03763100364769,861.0571031421262,-1.1106070001624593,38898.15500864208,10.5,10500038898.155008,47.655,-122.3035,60.0,8.6
2026-01-20T23:08:37+00:00,SAT-47389,239.3752190007094,76.38344080764257,859.9494577606307,-1.0559122458800585,36982.513355091185,10.5,10500036982.513355,47.655,-122.3035,60.0,8.616666666666667
2026-01-20T23:08:38+00:00,SAT-47389,240.83990338129723,76.72165777325837,858.8963612807397,-1.0010149128873713,35059.77653819897,10.5,10500035059.776539,47.655,-122.3035,60.0,8.633333333333333
2026-01-20T23:08:39+00:00,SAT-47389,242.38353719401675,77.05152281372865,857.8980157409534,-0.9459246205470974,33130.28146873702,10.5,10500033130.28147,47.655,-122.3035,60.0,8.65
2026-01-20T23:08:40+00:00,SAT-47389,244.01006925401745,77.3722205603232,856.9546135860611,-0.8906511643401609,31194.371225882172,10.5,10500031194.371225,47.655,-122.3035,60.0,8.666666666666666
2026-01-20T23:08:41+00:00,SAT-47389,245.72332947606807,77.68287787172649,856.0663374914925,-0.8352045029275786,29252.39460406831,10.5,10500029252.394604,47.655,-122.3035,60.0,8.683333333333334
2026-01-20T23:08:42+00:00,SAT-47389,247.5269259039971,77.98256334734569,855.2333602005726,-0.7795947688313338,27304.70648707582,10.5,10500027304.706488,47.655,-122.3035,60.0,8.7
2026-01-20T23:08:43+00:00,SAT-47389,249.42411949462593,78.27028820342403,854.4558443511249,-0.723832246003207,25351.667062397122,10.5,10500025351.667063,47.655,-122.3035,60.0,8.716666666666667
2026-01-20T23:08:44+00:00,SAT-47389,251.4176755101214,78.54500890374803,853.7339423244445,-0.6679273666226103,23393.641709083317,10.5,10500023393.641708,47.655,-122.3035,60.0,8.733333333333333
2026-01-20T23:08:45+00:00,SAT-47389,253.50969188221708,78.80563199484529,853.0677960974662,-0.6118906956224395,21431.00045577402,10.5,10500021431.000456,47.655,-122.3035,60.0,8.75
2026-01-20T23:08:46+00:00,SAT-47389,255.7014069155773,79.05102160107964,852.4575371103654,-0.5557329270941809,19464.11785478906,10.5,10500019464.117855,47.655,-122.3035,60.0,8.766666666666667
2026-01-20T23:08:47+00:00,SAT-47389,257.9929915387635,79.28001002236398,851.9032861377434,-0.4994648786400654,17493.372784316965,10.5,10500017493.372784,47.655,-122.3035,60.0,8.783333333333333
2026-01-20T23:08:48+00:00,SAT-47389,260.3833347232825,79.49141179598811,851.4051531654463,-0.4430974670797823,15519.147597561356,10.5,10500015519.147598,47.655,-122.3035,60.0,8.8
2026-01-20T23:08:49+00:00,SAT-47389,262.86983446858,79.68404142998523,850.9632372916121,-0.38664171425739824,13541.828326123807,10.5,10500013541.828325,47.655,-122.3035,60.0,8.816666666666666
2026-01-20T23:08:50+00:00,SAT-47389,265.4482108318588,79.85673480707167,850.5776266219261,-0.33010872351688064,11561.80385607715,10.5,10500011561.803856,47.655,-122.3035,60.0,8.833333333333334
2026-01-20T23:08:51+00:00,SAT-47389,268.1123604125586,80.00837392181543,850.2483981883386,-0.2735096775261551,9579.46585175478,10.5,10500009579.46585,47.655,-122.3035,60.0,8.85
2026-01-20T23:08:52+00:00,SAT-47389,270.8542735910682,80.13791425414821,849.9756178699524,-0.2168558247264411,7595.20828114906,10.5,10500007595.20828,47.655,-122.3035,60.0,8.866666666666667
2026-01-20T23:08:53+00:00,SAT-47389,273.6640348386775,80.24441365340792,849.7593403274253,-0.160158465777396,5609.426941162936,10.5,10500005609.42694,47.655,-122.3035,60.0,8.883333333333333
2026-01-20T23:08:54+00:00,SAT-47389,276.5299223925497,80.32706121804627,849.59960895089,-0.10342894736293225,3622.519240663448,10.5,10500003622.519241,47.655,-122.3035,60.0,8.9
2026-01-20T23:08:55+00:00,SAT-47389,279.4386161784226,80.38520435962691,849.4964558140534,-0.04667864625713014,1634.8836424025933,10.5,10500001634.883642,47.655,-122.3035,60.0,8.916666666666666
2026-01-20T23:08:56+00:00,SAT-47389,282.3755120912218,80.4183720987613,849.4499016441862,0.010081038964191316,-353.0806272785182,10.5,10499999646.919373,47.655,-122.3035,60.0,8.933333333333334
2026-01-20T23:08:57+00:00,SAT-47389,285.3251287573738,80.42629274313447,849.4599558003798,0.06683870102754004,-2340.974037409475,10.5,10499997659.025963,47.655,-122.3035,60.0,8.95
2026-01-20T23:08:58+00:00,SAT-47389,288.2715808733162,80.40890443545929,849.5266162648713,0.12358293408675916,-4328.397107011182,10.5,10499995671.602894,47.655,-122.3035,60.0,8.966666666666667
2026-01-20T23:08:59+00:00,SAT-47389,291.1990840875883,80.36635763041504,849.6498696444672,0.18030234589743155,-6314.950831495004,10.5,10499993685.049168,47.655,-122.3035,60.0,8.983333333333333
2026-01-20T23:09:00+00:00,SAT-47389,294.0924519962349,80.29900927352189,849.8296911841089,0.23698556977745092,-8300.237101572564,10.5,10499991699.762897,47.655,-122.3035,60.0,9.0
2026-01-20T23:09:01+00:00,SAT-47389,296.937546778144,80.20740920722326,850.0660447923669,0.29362127304359725,-10283.858998740292,10.5,10499989716.141,47.655,-122.3035,60.0,9.016666666666667
2026-01-20T23:09:02+00:00,SAT-47389,299.72165164899377,80.09227999952408,850.3588830753491,0.35019817287485394,-12265.421350879902,10.5,10499987734.57865,47.655,-122.3035,60.0,9.033333333333333
2026-01-20T23:09:03+00:00,SAT-47389,302.43374388893983,79.9544918703877,850.7081473864296,0.40670504293629084,-14244.53096425479,10.5,10499985755.469036,47.655,-122.3035,60.0,9.05
2026-01-20T23:09:04+00:00,SAT-47389,305.0646592814619,79.79503464138318,851.1137678825847,0.46313072898458724,-16220.797170081463,10.5,10499983779.20283,47.655,-122.3035,60.0,9.066666666666666
2026-01-20T23:09:05+00:00,SAT-47389,307.60715078287996,79.61498862479694,851.575663596292,0.5194641519536879,-18193.83193260226,10.5,10499981806.168068,47.655,-122.3035,60.0,9.083333333333334
2026-01-20T23:09:06+00:00,SAT-47389,310.0558535213421,79.41549616824288,852.0937425105072,0.5756943280904708,-20163.25055432163,10.5,10499979836.749445,47.655,-122.3035,60.0,9.1
2026-01-20T23:09:07+00:00,SAT-47389,312.4071745773723,79.19773521212086,852.6679016537228,0.6318103745488487,-22128.67187193519,10.5,10499977871.328129,47.655,-122.3035,60.0,9.116666666666667
2026-01-20T23:09:08+00:00,SAT-47389,314.6591285006204,78.9628958191599,853.2980272006062,0.6878015180829959,-24089.718560803343,10.5,10499975910.281439,47.655,-122.3035,60.0,9.133333333333333
2026-01-20T23:09:09+00:00,SAT-47389,316.8111393781858,78.71216022110569,853.9839945813077,0.743657104923074,-26046.017480840954,10.5,10499973953.98252,47.655,-122.3035,60.0,9.15
2026-01-20T23:09:10+00:00,SAT-47389,318.86382786790364,78.4466865721092,854.7256686006176,0.7993666208103996,-27997.20037823365,10.5,10499972002.799622,47.655,-122.3035,60.0,9.166666666666666
2026-01-20T23:09:11+00:00,SAT-47389,320.8187980685626,78.16759631609587,855.5229035771057,0.8549196825312644,-29942.903588916422,10.5,10499970057.09641,47.655,-122.3035,60.0,9.183333333333334
2026-01-20T23:09:12+00:00,SAT-47389,322.6784350623854,77.87596489411952,856.375543473817,0.9103060590751408,-31882.768779623464,10.5,10499968117.23122,47.655,-122.3035,60.0,9.2
2026-01-20T23:09:13+00:00,SAT-47389,324.4457203954273,77.57281538005766,857.2834220500679,0.9655156799971849,-33816.4432407784,10.5,10499966183.556759,47.655,-122.3035,60.0,9.216666666666667
2026-01-20T23:09:14+00:00,SAT-47389,326.1240694405843,77.2591145961506,858.246363021585,1.0205386410673523,-35743.580084350215,10.5,10499964256.419916,47.655,-122.3035,60.0,9.233333333333333
2026-01-20T23:09:15+00:00,SAT-47389,327.7171921338167,76.93577125160364,859.2641802262763,1.0753652129448208,-37663.83854766826,10.5,10499962336.161453,47.655,-122.3035,60.0,9.25
2026-01-20T23:09:16+00:00,SAT-47389,329.22897678378723,76.60363567330242,860.3366777986532,1.1299858419108426,-39576.88401908978,10.5,10499960423.11598,47.655,-122.3035,60.0,9.266666666666667
2026-01-20T23:09:17+00:00,SAT-47389,330.66339545354896,76.26350074774844,861.4636503449857,1.184391176141674,-41482.38895818913,10.5,10499958517.611042,47.655,-122.3035,60.0,9.283333333333333
2026-01-20T23:09:18+00:00,SAT-47389,332.0244287726671,75.91610373818658,862.6448831446576,1.2385720486736849,-43380.03229912371,10.5,10499956619.967701,47.655,-122.3035,60.0,9.3
2026-01-20T23:09:19+00:00,SAT-47389,333.3160076363798,75.56212871827405,863.8801523345348,1.2925195061189168,-45269.50045637447,10.5,10499954730.499544,47.655,-122.3035,60.0,9.316666666666666
2026-01-20T23:09:20+00:00,SAT-47389,334.5419693174926,75.2022093898966,865.1692251219707,1.3462247930788744,-47150.48677885079,10.5,10499952849.513222,47.655,-122.3035,60.0,9.333333333333334
2026-01-20T23:09:21+00:00,SAT-47389,335.70602552540964,74.83693212702,866.5118599822681,1.3996793729802641,-49022.69227964625,10.5,10499950977.30772,47.655,-122.3035,60.0,9.35
2026-01-20T23:09:22+00:00,SAT-47389,336.8117402556903,74.46683910476507,867.9078068769204,1.4528749391231839,-50885.82602299298,10.5,10499949114.173977,47.655,-122.3035,60.0,9.366666666666667
2026-01-20T23:09:23+00:00,SAT-47389,337.86251548120697,74.09243142054136,869.3568074828726,1.5058033994122961,-52739.60458948273,10.5,10499947260.39541,47.655,-122.3035,60.0,9.383333333333333
2026-01-20T23:09:24+00:00,SAT-47389,338.86158300827265,73.71417214502407,870.8585954065531,1.558456883480162,-54583.75232555617,10.5,10499945416.247675,47.655,-122.3035,60.0,9.4
2026-01-20T23:09:25+00:00,SAT-47389,339.8120011259052,73.33248924940193,872.4128964050108,1.610827769577531,-56418.00228531458,10.5,10499943581.997715,47.655,-122.3035,60.0,9.416666666666666
2026-01-20T23:09:26+00:00,SAT-47389,340.7166549062094,72.94777837396589,874.0194286338693,1.6629086739351584,-58242.0958579257,10.5,10499941757.904142,47.655,-122.3035,60.0,9.433333333333334
2026-01-20T23:09:27+00:00,SAT-47389,341.5782591941403,72.56040542986764,875.677902884674,1.7146924340739944,-60055.782183075935,10.5,10499939944.217817,47.655,-122.3035,60.0,9.45
2026-01-20T23:09:28+00:00,SAT-47389,342.3993635379912,72.17070902655522,877.3880228055904,1.7661721403195103,-61858.81925473542,10.5,10499938141.180746,47.655,-122.3035,60.0,9.466666666666667
2026-01-20T23:09:29+00:00,SAT-47389,343.18235849062245,71.77900271219491,879.1494851535357,1.8173411411650702,-63650.974109005896,10.5,10499936349.02589,47.655,-122.3035,60.0,9.483333333333333
2026-01-20T23:09:30+00:00,SAT-47389,343.92948279771804,71.38557703727756,880.9619800516577,1.8681930114635974,-65432.021710058405,10.5,10499934567.97829,47.655,-122.3035,60.0,9.5
2026-01-20T23:09:31+00:00,SAT-47389,344.6428310997546,70.99070145581769,882.8251912150909,1.918721575336218,-67201.74575249084,10.5,10499932798.254248,47.655,-122.3035,60.0,9.516666666666667
2026-01-20T23:09:32+00:00,SAT-47389,345.32436189871476,70.59462606074032,884.7387961995595,1.9689209186283432,-68959.93909759265,10.5,10499931040.060902,47.655,-122.3035,60.0,9.533333333333333
2026-01-20T23:09:33+00:00,SAT-47389,345.9759055762157,70.19758316623697,886.7024666624047,2.0187853780490164,-70706.40339295885,10.5,10499929293.596607,47.655,-122.3035,60.0,9.55
2026-01-20T23:09:34+00:00,SAT-47389,346.59917230330484,69.79978875260615,888.715868612779,2.0683095265818263,-72440.94856151845,10.5,10499927559.05144,47.655,-122.3035,60.0,9.566666666666666
2026-01-20T23:09:35+00:00,SAT-47389,347.19575973462594,69.40144378458635,890.7786626472899,2.117488182769957,-74163.3931267362,10.5,10499925836.606873,47.655,-122.3035,60.0,9.583333333333334
2026-01-20T23:09:36+00:00,SAT-47389,347.7671604200382,69.00273540885111,892.8905041949058,2.166316447486524,-75873.56550046532,10.5,10499924126.4345,47.655,-122.3035,60.0,9.6
2026-01-20T23:09:37+00:00,SAT-47389,348.31476888953927,68.60383803609119,895.0510437985323,2.2147896342704727,-77571.301543016,10.5,10499922428.698458,47.655,-122.3035,60.0,9.616666666666667
2026-01-20T23:09:38+00:00,SAT-47389,348.83988835343246,68.20491433720386,897.2599273271114,2.2629033243576364,-79256.44649057576,10.5,10499920743.553509,47.655,-122.3035,60.0,9.633333333333333
2026-01-20T23:09:39+00:00,SAT-47389,349.34373703728403,67.80611613896333,899.5167962426042,2.310653331515737,-80928.85372358246,10.5,10499919071.146276,47.655,-122.3035,60.0,9.65
2026-01-20T23:09:40+00:00,SAT-47389,349.8274541236528,67.40758524436795,901.8212878319025,2.358035735856882,-82588.385950981,10.5,10499917411.61405,47.655,-122.3035,60.0,9.666666666666666
2026-01-20T23:09:41+00:00,SAT-47389,350.29210532116116,67.0094541729522,904.1730354724638,2.40504683403622,-84234.91346596954,10.5,10499915765.086535,47.655,-122.3035,60.0,9.683333333333334
2026-01-20T23:09:42+00:00,SAT-47389,350.73868805282996,66.61184684258359,906.5716688482759,2.451683174168164,-85868.31536891339,10.5,10499914131.684631,47.655,-122.3035,60.0,9.7
2026-01-20T23:09:43+00:00,SAT-47389,351.16813629572306,66.21487918446203,909.0168142006462,2.497941555157573,-87488.47954392007,10.5,10499912511.520456,47.655,-122.3035,60.0,9.716666666666667
2026-01-20T23:09:44+00:00,SAT-47389,351.5813250797808,65.81865970358018,911.5080945783234,2.543818982370538,-89095.30110624281,10.5,10499910904.698895,47.655,-122.3035,60.0,9.733333333333333
2026-01-20T23:09:45+00:00,SAT-47389,351.9790746572958,65.42328999662176,914.0451300434077,2.5893127188602674,-90688.68419642768,10.5,10499909311.315804,47.655,-122.3035,60.0,9.75
2026-01-20T23:09:46+00:00,SAT-47389,352.36215437813763,65.02886521679719,916.627537928351,2.634420230885035,-92268.54007212172,10.5,10499907731.459929,47.655,-122.3035,60.0,9.766666666666667
2026-01-20T23:09:47+00:00,SAT-47389,352.7312862720838,64.63547450662861,919.2549330386203,2.679139246025654,-93834.78914359269,10.5,10499906165.210855,47.655,-122.3035,60.0,9.783333333333333
2026-01-20T23:09:48+00:00,SAT-47389,353.0871483744994,64.24320138525192,921.9269279133232,2.7234676665601807,-95387.35793974475,10.5,10499904612.64206,47.655,-122.3035,60.0,9.8
2026-01-20T23:09:49+00:00,SAT-47389,353.43037779277375,63.85212411541375,924.6431329994392,2.7674036491180862,-96926.18189794457,10.5,10499903073.818102,47.655,-122.3035,60.0,9.816666666666666
2026-01-20T23:09:50+00:00,SAT-47389,353.7615735544518,63.462316028617686,927.403156905493,2.8109455387731757,-98451.20305567642,10.5,10499901548.796944,47.655,-122.3035,60.0,9.833333333333334
2026-01-20T23:09:51+00:00,SAT-47389,354.0812992339663,63.073845832620485,930.2066065894961,2.8540919069793937,-99962.37137921473,10.5,10499900037.62862,47.655,-122.3035,60.0,9.85
2026-01-20T23:09:52+00:00,SAT-47389,354.3900853873538,62.68677788882672,933.0530875847236,2.8968415188038716,-101459.64361598667,10.5,10499898540.356384,47.655,-122.3035,60.0,9.866666666666667
2026-01-20T23:09:53+00:00,SAT-47389,354.68843180117506,62.301172471830576,935.9422041928106,2.9391933446293135,-102942.98370443925,10.5,10499897057.016296,47.655,-122.3035,60.0,9.883333333333333
2026-01-20T23:09:54+00:00,SAT-47389,354.97680957487387,61.917086006972546,938.8735596885209,2.9811465366654835,-104412.36195137228,10.5,10499895587.638048,47.655,-122.3035,60.0,9.9
2026-01-20T23:09:55+00:00,SAT-47389,355.2556630457897,61.5345712924369,941.8467565010886,3.0227004635067463,-105867.75624228959,10.5,10499894132.243757,47.655,-122.3035,60.0,9.916666666666666
2026-01-20T23:09:56+00:00,SAT-47389,355.5254115745975,61.153677700041314,944.861396430026,3.063854658604307,-107309.15023667882,10.5,10499892690.849764,47.655,-122.3035,60.0,9.933333333333334
2026-01-20T23:09:57+00:00,SAT-47389,355.7864511939978,60.774451367315685,947.9170808095407,3.104608825205975,-108736.53354102302,10.5,10499891263.46646,47.655,-122.3035,60.0,9.95
2026-01-20T23:09:58+00:00,SAT-47389,356.03915613690543,60.39693537470696,951.0134106778795,3.1449628821430795,-110149.90331245204,10.5,10499889850.096687,47.655,-122.3035,60.0,9.966666666666667
2026-01-20T23:09:59+00:00,SAT-47389,356.283880256426,60.02116990446329,954.1499869923368,3.184916884731152,-111549.26148834972,10.5,10499888450.738512,47.655,-122.3035,60.0,9.983333333333333
2026-01-20T23:10:00+00:00,SAT-47389,356.5209583361577,59.64719239746753,957.3264107653754,3.224471058573648,-112934.61597030338,10.5,10499887065.38403,47.655,-122.3035,60.0,10.0
2026-01-20T23:10:01+00:00,SAT-47389,356.75070730855936,59.27503769507382,960.5422832344594,3.2636258042326167,-114305.98078769038,10.5,10499885694.019213,47.655,-122.3035,60.0,10.016666666666667
2026-01-20T23:10:02+00:00,SAT-47389,356.97342738601463,58.904738170647285,963.7972060365475,3.302381669320704,-115663.37512022199,10.5,10499884336.62488,47.655,-122.3035,60.0,10.033333333333333
2026-01-20T23:10:03+00:00,SAT-47389,357.18940310916423,58.53632385529609,967.09078135475,3.340739343729473,-117006.82313081896,10.5,10499882993.176868,47.655,-122.3035,60.0,10.05
2026-01-20T23:10:04+00:00,SAT-47389,357.398904320742,58.16982255571054,970.4226120602295,3.3786996823388282,-118336.35476099167,10.5,10499881663.645239,47.655,-122.3035,60.0,10.066666666666666
2026-01-20T23:10:05+00:00,SAT-47389,357.60218707229046,57.80525996182917,973.7923018767488,3.4162636576945076,-119652.00407340577,10.5,10499880347.995926,47.655,-122.3035,60.0,10.083333333333334
2026-01-20T23:10:06+00:00,SAT-47389,357.7994944646422,57.44265975260423,977.1994554980229,3.4534323977474686,-120953.81057367501,10.5,10499879046.189426,47.655,-122.3035,60.0,10.1
2026-01-20T23:10:07+00:00,SAT-47389,357.9910574323996,57.0820436911009,980.6436787427095,3.4902071494592564,-122241.81793566734,10.5,10499877758.182064,47.655,-122.3035,60.0,10.116666666666667
2026-01-20T23:10:08+00:00,SAT-47389,358.17709547233864,56.723431717453884,984.1245786731035,3.5265892904281633,-123516.07440870214,10.5,10499876483.92559,47.655,-122.3035,60.0,10.133333333333333
2026-01-20T23:10:09+00:00,SAT-47389,358.3578173227906,56.36684203492365,987.641763725424,3.562580307171979,-124776.63205692047,10.5,10499875223.367943,47.655,-122.3035,60.0,10.15
2026-01-20T23:10:10+00:00,SAT-47389,358.53342159589243,56.01229119295771,991.1948438184435,3.5981818226801185,-126023.54772427678,10.5,10499873976.452276,47.655,-122.3035,60.0,10.166666666666666
2026-01-20T23:10:11+00:00,SAT-47389,358.70409736874524,55.65979416261788,994.7834304895964,3.63339554907764,-127256.88137663295,10.5,10499872743.118624,47.655,-122.3035,60.0,10.183333333333334
2026-01-20T23:10:12+00:00,SAT-47389,358.87002473291267,55.30936441220446,998.4071369838766,3.66822330997333,-128476.69688448253,10.5,10499871523.303116,47.655,-122.3035,60.0,10.2
2026-01-20T23:10:13+00:00,SAT-47389,359.0313753086983,54.96101397638492,1002.0655783650234,3.702667056688675,-129683.06259135807,10.5,10499870316.937408,47.655,-122.3035,60.0,10.216666666666667
2026-01-20T23:10:14+00:00,SAT-47389,359.18831272636953,54.614753519960125,1005.7583716428941,3.736728778134245,-130876.0481573208,10.5,10499869123.951843,47.655,-122.3035,60.0,10.233333333333333
2026-01-20T23:10:15+00:00,SAT-47389,359.340993072297,54.270592406343084,1009.4851358109534,3.7704106271031845,-132055.72898229293,10.5,10499867944.271017,47.655,-122.3035,60.0,10.25
2026-01-20T23:10:16+00:00,SAT-47389,359.48956531161207,53.92853875082769,1013.2454920097176,3.803714781488219,-133222.1813452902,10.5,10499866777.818655,47.655,-122.3035,60.0,10.266666666666667
2026-01-20T23:10:17+00:00,SAT-47389,359.6341716782086,53.5885994834288,1017.0390635517886,3.836643548270145,-134375.48604653866,10.5,10499865624.513954,47.655,-122.3035,60.0,10.283333333333333
2026-01-20T23:10:18+00:00,SAT-47389,359.7749480441606,53.25078039916134,1020.8654760505967,3.8691992665063073,-135515.72500972066,10.5,10499864484.27499,47.655,-122.3035,60.0,10.3
2026-01-20T23:10:19+00:00,SAT-47389,359.91202426225493,52.91508621412663,1024.7243574523923,3.9013844100352015,-136642.98487912468,10.5,10499863357.015121,47.655,-122.3035,60.0,10.316666666666666
2026-01-20T23:10:20+00:00,SAT-47389,0.04552449091974492,52.581520609885,1028.6153381706674,3.933201465603726,-137757.352751146,10.5,10499862242.64725,47.655,-122.3035,60.0,10.333333333333334
2026-01-20T23:10:21+00:00,SAT-47389,0.17556749476183833,52.250086285868036,1032.5380510990294,3.9646530136790767,-138858.91900466123,10.5,10499861141.080996,47.655,-122.3035,60.0,10.35
2026-01-20T23:10:22+00:00,SAT-47389,0.30226692953552986,51.92078500235547,1036.4921317046721,3.9957416998349604,-139947.77629885235,10.5,10499860052.223701,47.655,-122.3035,60.0,10.366666666666667
2026-01-20T23:10:23+00:00,SAT-47389,0.4257316087813545,51.593617623679435,1040.4772180933076,4.026470225252966,-141024.01924052456,10.5,10499858975.980759,47.655,-122.3035,60.0,10.383333333333333
2026-01-20T23:10:24+00:00,SAT-47389,0.546065754126036,51.26858416006438,1044.4929510646264,4.056841320770705,-142087.7434751624,10.5,10499857912.256525,47.655,-122.3035,60.0,10.4
2026-01-20T23:10:25+00:00,SAT-47389,0.6633692298729476,50.945683809434684,1048.538974141875,4.08685781061498,-143139.04791913508,10.5,10499856860.952082,47.655,-122.3035,60.0,10.416666666666666
2026-01-20T23:10:26+00:00,SAT-47389,0.7777377655720816,50.62491499219941,1052.614933664995,4.116522538011374,-144178.03215422927,10.5,10499855821.967846,47.655,-122.3035,60.0,10.433333333333334
2026-01-20T23:10:27+00:00,SAT-47389,0.8892631633535776,50.306275390144535,1056.720478809572,4.145838404790707,-145204.79781483507,10.5,10499854795.202185,47.655,-122.3035,60.0,10.45
2026-01-20T23:10:28+00:00,SAT-47389,0.9980334943137846,49.98976198042136,1060.855261645283,4.174808323962985,-146219.44692688482,10.5,10499853780.553074,47.655,-122.3035,60.0,10.466666666666667
2026-01-20T23:10:29+00:00,SAT-47389,1.1041332822962358,49.675371071469534,1065.0189371470487,4.203435289634199,-147222.08435663543,10.5,10499852777.915644,47.655,-122.3035,60.0,10.483333333333333
2026-01-20T23:10:30+00:00,SAT-47389,1.2076436789708447,49.363098332069335,1069.2111632759106,4.231722311764896,-148212.81552563744,10.5,10499851787.184475,47.655,-122.3035,60.0,10.5
2026-01-20T23:10:31+00:00,SAT-47389,1.3086426272433547,49.05293882384413,1073.4316009948443,4.259672391166907,-149191.74553501452,10.5,10499850808.254465,47.655,-122.3035,60.0,10.516666666666667
2026-01-20T23:10:32+00:00,SAT-47389,1.4072050149645121,48.744887034004975,1077.6799142596346,4.2872886373103345,-150158.9832915627,10.5,10499849841.016708,47.655,-122.3035,60.0,10.533333333333333
2026-01-20T23:10:33+00:00,SAT-47389,1.5034028227712917,48.43893689818363,1081.9557701272454,4.314574122883767,-151114.63641383385,10.5,10499848885.363586,47.655,-122.3035,60.0,10.55
2026-01-20T23:10:34+00:00,SAT-47389,1.597305260353041,48.13508183251718,1086.258838719135,4.341531956758372,-152058.81378764674,10.5,10499847941.186213,47.655,-122.3035,60.0,10.566666666666666
2026-01-20T23:10:35+00:00,SAT-47389,1.6889788969403694,47.833314759104965,1090.5887932573419,4.368165280208265,-152991.62543370845,10.5,10499847008.374567,47.655,-122.3035,60.0,10.583333333333334
2026-01-20T23:10:36+00:00,SAT-47389,1.7784877845330846,47.53362813061637,1094.9453100968028,4.394477223651098,-153913.18099248692,10.5,10499846086.819008,47.655,-122.3035,60.0,10.6
2026-01-20T23:10:37+00:00,SAT-47389,1.8658935735883944,47.236013956668934,1099.3280687145243,4.420470990538502,-154823.5926624087,10.5,10499845176.407337,47.655,-122.3035,60.0,10.616666666666667
2026-01-20T23:10:38+00:00,SAT-47389,1.9512556241757,46.94046382344915,1103.7367517824212,4.446149719565629,-155722.9703738548,10.5,10499844277.029627,47.655,-122.3035,60.0,10.633333333333333
2026-01-20T23:10:39+00:00,SAT-47389,2.0346311084774467,46.646968921518955,1108.1710451027348,4.471516609552322,-156611.42616302703,10.5,10499843388.573837,47.655,-122.3035,60.0,10.65
2026-01-20T23:10:40+00:00,SAT-47389,2.116075110342912,46.35552006420284,1112.630637667995,4.496574878706497,-157489.07274517967,10.5,10499842510.927256,47.655,-122.3035,60.0,10.666666666666666
2026-01-20T23:10:41+00:00,SAT-47389,2.1956407187614726,46.06610770782288,1117.1152216803582,4.5213276929326325,-158356.02100367929,10.5,10499841643.978996,47.655,-122.3035,60.0,10.683333333333334
2026-01-20T23:10:42+00:00,SAT-47389,2.2733791152411515,45.77872197555316,1121.624492499443,4.545778271852893,-159212.38370331313,10.5,10499840787.616297,47.655,-122.3035,60.0,10.7
2026-01-20T23:10:43+00:00,SAT-47389,2.349339658543831,45.49335267352317,1126.1581486959044,4.569929829757584,-160058.273422124,10.5,10499839941.726578,47.655,-122.3035,60.0,10.716666666666667
2026-01-20T23:10:44+00:00,SAT-47389,2.4235699640261137,45.20998930991685,1130.7158920461159,4.593785560397563,-160893.80201877662,10.5,10499839106.19798,47.655,-122.3035,60.0,10.733333333333333
2026-01-20T23:10:45+00:00,SAT-47389,2.4961159787233655,44.928621114111465,1135.2974275116858,4.617348675971172,-161719.0819980445,10.5,10499838280.918001,47.655,-122.3035,60.0,10.75
2026-01-20T23:10:46+00:00,SAT-47389,2.5670220532737513,44.64923705261312,1139.9024632578544,4.640622356307099,-162534.22473097887,10.5,10499837465.775269,47.655,-122.3035,60.0,10.766666666666667
2026-01-20T23:10:47+00:00,SAT-47389,2.63633100943864,44.371825847298645,1144.5307106212113,4.663609836940629,-163339.34353971173,10.5,10499836660.65646,47.655,-122.3035,60.0,10.783333333333333
2026-01-20T23:10:48+00:00,SAT-47389,2.704084205614911,44.096375987679586,1149.1818841652535,4.6863142614675555,-164134.54852626522,10.5,10499835865.451473,47.655,-122.3035,60.0,10.8
2026-01-20T23:10:49+00:00,SAT-47389,2.7703215968901334,43.822875751200336,1153.8557015886902,4.708738846329349,-164919.95234402517,10.5,10499835080.047655,47.655,-122.3035,60.0,10.816666666666666
2026-01-20T23:10:50+00:00,SAT-47389,2.8350817946031985,43.55131321313593,1158.551883798096,4.730886732896434,-165695.6650170718,10.5,10499834304.334984,47.655,-122.3035,60.0,10.833333333333334
2026-01-20T23:10:51+00:00,SAT-47389,2.898402120861408,43.281676264473504,1163.2701548330383,4.752761092484813,-166461.79761830613,10.5,10499833538.202381,47.655,-122.3035,60.0,10.85
2026-01-20T23:10:52+00:00,SAT-47389,2.9603186619182784,43.01395262307382,1168.0102418959432,4.774365075814376,-167218.46049926628,10.5,10499832781.539501,47.655,-122.3035,60.0,10.866666666666667
2026-01-20T23:10:53+00:00,SAT-47389,3.020866318279571,42.748129847157045,1172.7718753315553,4.795701828820375,-167965.7638439121,10.5,10499832034.236156,47.655,-122.3035,60.0,10.883333333333333
2026-01-20T23:10:54+00:00,SAT-47389,3.0800788526412655,42.48419534731933,1177.5547886221655,4.816774415591559,-168703.8149695926,10.5,10499831296.18503,47.655,-122.3035,60.0,10.9
2026-01-20T23:10:55+00:00,SAT-47389,3.137988934600355,42.222136402147065,1182.3587183059822,4.837586005671005,-169432.72488711358,10.5,10499830567.275112,47.655,-122.3035,60.0,10.916666666666666
2026-01-20T23:10:56+00:00,SAT-47389,3.19462818559746,41.96194016311585,1187.1834040823046,4.858139651458662,-170152.60050443278,10.5,10499829847.399496,47.655,-122.3035,60.0,10.933333333333334
2026-01-20T23:10:57+00:00,SAT-47389,3.250027219015314,41.70359367107921,1192.0285886946929,4.878438412808531,-170863.5489905806,10.5,10499829136.45101,47.655,-122.3035,60.0,10.95
2026-01-20T23:10:58+00:00,SAT-47389,3.304215679975176,41.447083865440526,1196.8940179384003,4.898485364381861,-171565.67803319969,10.5,10499828434.321966,47.655,-122.3035,60.0,10.966666666666667
2026-01-20T23:10:59+00:00,SAT-47389,3.3572222833292074,41.19239759254911,1201.779440675144,4.918283519556971,-172259.09317354544,10.5,10499827740.906826,47.655,-122.3035,60.0,10.983333333333333
2026-01-20T23:11:00+00:00,SAT-47389,3.40907484909381,40.939521617617004,1206.684608771982,4.937835896491998,-172943.90012028246,10.5,10499827056.09988,47.655,-122.3035,60.0,11.0
2026-01-20T23:11:01+00:00,SAT-47389,3.4598003369925094,40.688442632726435,1211.6092771060835,4.957145462845812,-173620.20281337775,10.5,10499826379.797186,47.655,-122.3035,60.0,11.016666666666667
2026-01-20T23:11:02+00:00,SAT-47389,3.509424878861675,40.439147267240685,1216.5532035143617,4.976215227890832,-174288.1066502805,10.5,10499825711.89335,47.655,-122.3035,60.0,11.033333333333333
2026-01-20T23:11:03+00:00,SAT-47389,3.55797381056827,40.191622093176655,1221.5161488349781,4.99504809397715,-174947.71328356792,10.5,10499825052.286716,47.655,-122.3035,60.0,11.05
