satellites_20260120_184412/SAT-58543.csv

timestamp,satellite,azimuth_deg,elevation_deg,distance_km,relative_velocity_kms,doppler_shift_hz,tx_freq_ghz,rx_freq_hz,ue_lat,ue_lon,ue_alt_m,time_minutes
2026-01-20T23:06:07+00:00,SAT-58543,156.30021588724267,40.12322886659448,588.2191853618904,-3.4089602934920653,119396.2093658363,10.5,10500119396.209366,47.655,-122.3035,60.0,6.116666666666666
2026-01-20T23:06:08+00:00,SAT-58543,155.95450782988848,40.702143090540055,584.8193156291809,-3.3430372360761527,117087.30504087465,10.5,10500117087.30504,47.655,-122.3035,60.0,6.133333333333334
2026-01-20T23:06:09+00:00,SAT-58543,155.59917037628028,41.28648009684352,581.4851931590676,-3.275970364106542,114738.33949191173,10.5,10500114738.339493,47.655,-122.3035,60.0,6.15
2026-01-20T23:06:10+00:00,SAT-58543,155.23379153398753,41.876149945938565,578.217958715932,-3.207756906444177,112349.21566193589,10.5,10500112349.215662,47.655,-122.3035,60.0,6.166666666666667
2026-01-20T23:06:11+00:00,SAT-58543,154.85793705417836,42.471051655911126,575.018755827905,-3.138395399322993,109919.88228366782,10.5,10500109919.882284,47.655,-122.3035,60.0,6.183333333333334
2026-01-20T23:06:12+00:00,SAT-58543,154.47114903771413,43.07107265088074,571.8887294829802,-3.067885685599788,107450.33385328784,10.5,10500107450.333853,47.655,-122.3035,60.0,6.2
2026-01-20T23:06:13+00:00,SAT-58543,154.07294445823655,43.67608818081899,568.8290248258754,-2.996229039682449,104940.61500595092,10.5,10500104940.615005,47.655,-122.3035,60.0,6.216666666666667
2026-01-20T23:06:14+00:00,SAT-58543,153.66281358228778,44.28596073504816,565.8407857302988,-2.923428214228748,102390.82215137598,10.5,10500102390.822151,47.655,-122.3035,60.0,6.233333333333333
2026-01-20T23:06:15+00:00,SAT-58543,153.24021829029206,44.90053943555054,562.9251533246413,-2.849487514118299,99801.10606465669,10.5,10500099801.106064,47.655,-122.3035,60.0,6.25
2026-01-20T23:06:16+00:00,SAT-58543,152.80459028972388,45.519659414846664,560.0832644438939,-2.7744128211616945,97171.67275168007,10.5,10500097171.672752,47.655,-122.3035,60.0,6.266666666666667
2026-01-20T23:06:17+00:00,SAT-58543,152.35532922305305,46.14314116791428,557.3162500569221,-2.6982117271868087,94502.78811037165,10.5,10500094502.78811,47.655,-122.3035,60.0,6.283333333333333
2026-01-20T23:06:18+00:00,SAT-58543,151.89180064891335,46.770789900856336,554.6252335610078,-2.6208935307169483,91794.77781435034,10.5,10500091794.777815,47.655,-122.3035,60.0,6.3
2026-01-20T23:06:19+00:00,SAT-58543,151.41333391277018,47.402394847540656,552.011329079706,-2.5424693219501497,89048.03028926288,10.5,10500089048.030289,47.655,-122.3035,60.0,6.316666666666666
2026-01-20T23:06:20+00:00,SAT-58543,150.9192198899443,48.03772857240226,549.4756396759477,-2.4629520145231085,86262.997825291,10.5,10500086262.997826,47.655,-122.3035,60.0,6.333333333333333
2026-01-20T23:06:21+00:00,SAT-58543,150.40870860716038,48.676546247548096,547.0192555334634,-2.3823564261287453,83440.19940071949,10.5,10500083440.1994,47.655,-122.3035,60.0,6.35
2026-01-20T23:06:22+00:00,SAT-58543,149.8810067313729,49.318584915330334,544.6432520578043,-2.3006992764296452,80580.22060885625,10.5,10500080580.22061,47.655,-122.3035,60.0,6.366666666666666
2026-01-20T23:06:23+00:00,SAT-58543,149.33527494281878,49.96356271614786,542.3486879794451,-2.2179992486231033,77683.71581430038,10.5,10500077683.715815,47.655,-122.3035,60.0,6.383333333333334
2026-01-20T23:06:24+00:00,SAT-58543,148.77062518225478,50.61117809598019,540.1366033954849,-2.134277012178115,74751.40894928787,10.5,10500074751.408949,47.655,-122.3035,60.0,6.4
2026-01-20T23:06:25+00:00,SAT-58543,148.18611778573185,51.26110898418213,538.0080177886728,-2.04955525598871,71784.09467486155,10.5,10500071784.094675,47.655,-122.3035,60.0,6.416666666666667
2026-01-20T23:06:26+00:00,SAT-58543,147.5807585131905,51.91301194348251,535.9639280133666,-1.9638586838358045,68782.63822192601,10.5,10500068782.638222,47.655,-122.3035,60.0,6.433333333333334
2026-01-20T23:06:27+00:00,SAT-58543,146.9534954952204,52.56652128142384,534.005306286021,-1.8772140250708713,65747.97576543487,10.5,10500065747.975765,47.655,-122.3035,60.0,6.45
2026-01-20T23:06:28+00:00,SAT-58543,146.30321611498258,53.221248125943,532.133098165017,-1.789650045474878,62681.11480471673,10.5,10500062681.114805,47.655,-122.3035,60.0,6.466666666666667
2026-01-20T23:06:29+00:00,SAT-58543,145.62874385189994,53.87677946622895,530.3482205196634,-1.701197538897821,59583.13387065635,10.5,10500059583.133871,47.655,-122.3035,60.0,6.483333333333333
2026-01-20T23:06:30+00:00,SAT-58543,144.9288351285773,54.532677152821634,528.651559507536,-1.6118892862175003,56455.181088257246,10.5,10500056455.181087,47.655,-122.3035,60.0,6.5
2026-01-20T23:06:31+00:00,SAT-58543,144.20217622248083,55.188476846134044,527.0439685927483,-1.5217600436418879,53298.473766941206,10.5,10500053298.473766,47.655,-122.3035,60.0,6.516666666666667
2026-01-20T23:06:32+00:00,SAT-58543,143.44738029407526,55.84368692382136,525.5262665758895,-1.430846507274077,50114.297159462934,10.5,10500050114.29716,47.655,-122.3035,60.0,6.533333333333333
2026-01-20T23:06:33+00:00,SAT-58543,142.66298461772578,56.497787341893535,524.0992356593016,-1.3391872595912775,46904.00258737801,10.5,10500046904.002588,47.655,-122.3035,60.0,6.55
2026-01-20T23:06:34+00:00,SAT-58543,141.84744812253854,57.15022844544329,522.7636195657359,-1.2468227069611,43669.00525259895,10.5,10500043669.005253,47.655,-122.3035,60.0,6.566666666666666
2026-01-20T23:06:35+00:00,SAT-58543,140.99914937219788,57.8004297297706,521.5201217193267,-1.1537950201724112,40410.78215453411,10.5,10500040410.782154,47.655,-122.3035,60.0,6.583333333333333
2026-01-20T23:06:36+00:00,SAT-58543,140.1163851334744,58.44777856015187,520.3694034858747,-1.0601480549582105,37130.8693064627,10.5,10500037130.869307,47.655,-122.3035,60.0,6.6
2026-01-20T23:06:37+00:00,SAT-58543,139.1973697288261,59.09162885231748,519.3120824923964,-0.9659272723403778,33830.858945670894,10.5,10500033830.858946,47.655,-122.3035,60.0,6.616666666666666
2026-01-20T23:06:38+00:00,SAT-58543,138.24023539494095,59.73129972759533,518.3487310261156,-0.8711796240106132,30512.395519007485,10.5,10500030512.39552,47.655,-122.3035,60.0,6.633333333333334
2026-01-20T23:06:39+00:00,SAT-58543,137.24303394459847,60.366074141786704,517.479874547769,-0.7759534702533906,27177.172808198535,10.5,10500027177.172808,47.655,-122.3035,60.0,6.65
2026-01-20T23:06:40+00:00,SAT-58543,136.20374002017968,60.995197531410675,516.7059902867696,-0.6802984514695871,23826.929430061464,10.5,10500023826.92943,47.655,-122.3035,60.0,6.666666666666667
2026-01-20T23:06:41+00:00,SAT-58543,135.12025635261446,61.617876482100435,516.0275059645039,-0.5842653767324653,20463.44493326408,10.5,10500020463.444933,47.655,-122.3035,60.0,6.683333333333334
2026-01-20T23:06:42+00:00,SAT-58543,133.99042143976712,62.23327747113235,515.4447986287761,-0.48790608381067085,17088.534895737917,10.5,10500017088.534895,47.655,-122.3035,60.0,6.7
2026-01-20T23:06:43+00:00,SAT-58543,132.81202017750934,62.84052571314781,514.9581936278556,-0.3912733204891977,13704.04676803636,10.5,10500013704.046768,47.655,-122.3035,60.0,6.716666666666667
2026-01-20T23:06:44+00:00,SAT-58543,131.58279795988835,63.43870419435418,514.5679637028877,-0.29442059194603576,10311.854527819294,10.5,10500010311.854528,47.655,-122.3035,60.0,6.733333333333333
2026-01-20T23:06:45+00:00,SAT-58543,130.3004789143447,64.0268529444753,514.2743282325202,-0.1974020183928898,6913.853693828893,10.5,10500006913.853693,47.655,-122.3035,60.0,6.75
2026-01-20T23:06:46+00:00,SAT-58543,128.96278891861007,64.60396864934852,514.0774526195097,-0.10027218767982073,3511.956163480663,10.5,10500003511.956163,47.655,-122.3035,60.0,6.766666666666667
2026-01-20T23:06:47+00:00,SAT-58543,127.56748408263371,65.16900471802022,513.9774478243304,-0.0030860016485938354,108.08483150778689,10.5,10500000108.084831,47.655,-122.3035,60.0,6.783333333333333
2026-01-20T23:06:48+00:00,SAT-58543,126.1123853911457,65.72087193005699,513.9743700520195,0.09410147842114577,-3295.8318231675817,10.5,10499996704.168177,47.655,-122.3035,60.0,6.8
2026-01-20T23:06:49+00:00,SAT-58543,124.59542014614034,66.25843981485329,514.0682205931648,0.19123518763281644,-6697.865194942871,10.5,10499993302.134806,47.655,-122.3035,60.0,6.816666666666666
2026-01-20T23:06:50+00:00,SAT-58543,123.01467069096879,66.78053894909029,514.2589458202973,0.2882602104441279,-10096.091909234563,10.5,10499989903.90809,47.655,-122.3035,60.0,6.833333333333333
2026-01-20T23:06:51+00:00,SAT-58543,121.36843082634572,67.28596433483946,514.5464373368469,0.38512194156577545,-13488.599457831064,10.5,10499986511.400541,47.655,-122.3035,60.0,6.85
2026-01-20T23:06:52+00:00,SAT-58543,119.65526980747727,67.77348010853046,514.9305322865685,0.48176623056743406,-16873.491263606298,10.5,10499983126.508736,47.655,-122.3035,60.0,6.866666666666666
2026-01-20T23:06:53+00:00,SAT-58543,117.8741036964221,68.24182573865572,515.4110138071877,0.5781395333480227,-20248.89198564908,10.5,10499979751.108015,47.655,-122.3035,60.0,6.883333333333334
2026-01-20T23:06:54+00:00,SAT-58543,116.02427301282582,68.68972395364182,515.9876116351136,0.6741890677613646,-23612.95296993204,10.5,10499976387.04703,47.655,-122.3035,60.0,6.9
2026-01-20T23:06:55+00:00,SAT-58543,114.10562508096847,69.11589056930939,516.6600028653609,0.7698629342782322,-26963.856475406854,10.5,10499973036.143524,47.655,-122.3035,60.0,6.916666666666667
2026-01-20T23:06:56+00:00,SAT-58543,112.1185987508304,69.51904632827478,517.4278128318143,0.865110276697064,-30299.821302773307,10.5,10499969700.178698,47.655,-122.3035,60.0,6.933333333333334
2026-01-20T23:06:57+00:00,SAT-58543,110.06430804142782,69.89793084895595,518.2906161477736,0.9598813798281238,-33619.1062157918,10.5,10499966380.893784,47.655,-122.3035,60.0,6.95
2026-01-20T23:06:58+00:00,SAT-58543,107.94462068795218,70.25131861140471,519.2479378439222,1.054127823679946,-36920.01534154483,10.5,10499963079.98466,47.655,-122.3035,60.0,6.966666666666667
2026-01-20T23:06:59+00:00,SAT-58543,105.7622264182146,70.57803685209156,520.2992546600723,1.1478025731973502,-40200.90131344191,10.5,10499959799.098686,47.655,-122.3035,60.0,6.983333333333333
2026-01-20T23:07:00+00:00,SAT-58543,103.52068951652741,70.87698502565665,521.4439964264078,1.2408600902478604,-43460.169193457616,10.5,10499956539.830807,47.655,-122.3035,60.0,7.0
2026-01-20T23:07:01+00:00,SAT-58543,101.2244797697065,71.14715536799005,522.681547556415,1.3332564344309692,-46696.28000289846,10.5,10499953303.719997,47.655,-122.3035,60.0,7.016666666666667
2026-01-20T23:07:02+00:00,SAT-58543,98.87897625812785,71.38765390522552,524.0112486403541,1.4249493385367034,-49907.75336528108,10.5,10499950092.246635,47.655,-122.3035,60.0,7.033333333333333
2026-01-20T23:07:03+00:00,SAT-58543,96.49043936384824,71.5977210980176,525.432398113988,1.5158983098948113,-53093.17105600942,10.5,10499946906.828943,47.655,-122.3035,60.0,7.05
2026-01-20T23:07:04+00:00,SAT-58543,94.06594783618722,71.77675120077265,526.9442540283898,1.6060646635934033,-56251.17816583209,10.5,10499943748.821835,47.655,-122.3035,60.0,7.066666666666666
2026-01-20T23:07:05+00:00,SAT-58543,91.61330010244808,71.92430933993337,528.5460358528803,1.695411610642186,-59380.48618869176,10.5,10499940619.513811,47.655,-122.3035,60.0,7.083333333333333
2026-01-20T23:07:06+00:00,SAT-58543,89.14088143660548,72.04014535092013,530.2369263658942,1.7839042848802849,-62479.873964150866,10.5,10499937520.126036,47.655,-122.3035,60.0,7.1
2026-01-20T23:07:07+00:00,SAT-58543,86.65750162847058,72.12420350113446,532.0160735726814,1.8715098053819472,-65548.18986310338,10.5,10499934451.810137,47.655,-122.3035,60.0,7.116666666666666
2026-01-20T23:07:08+00:00,SAT-58543,84.17221030653378,72.17662742945218,533.8825926852489,1.9581972764206492,-68584.35178651764,10.5,10499931415.648214,47.655,-122.3035,60.0,7.133333333333334
2026-01-20T23:07:09+00:00,SAT-58543,81.69409935198331,72.19775989239442,535.8355681022658,2.0439378269122233,-71587.34854690154,10.5,10499928412.651453,47.655,-122.3035,60.0,7.15
2026-01-20T23:07:10+00:00,SAT-58543,79.23210297666064,72.18813722863702,537.8740554283062,2.128704622697511,-74556.24029849298,10.5,10499925443.7597,47.655,-122.3035,60.0,7.166666666666667
2026-01-20T23:07:11+00:00,SAT-58543,76.7948063708336,72.14847877998362,539.9970835053433,2.2124728415808352,-77490.15766300156,10.5,10499922509.842337,47.655,-122.3035,60.0,7.183333333333334
2026-01-20T23:07:12+00:00,SAT-58543,74.39027297167004,72.0796718192595,542.2036564193465,2.2952197091100044,-80388.30298277565,10.5,10499919611.697018,47.655,-122.3035,60.0,7.2
2026-01-20T23:07:13+00:00,SAT-58543,72.02589847832058,71.98275278603657,544.4927555425656,2.3769244491325607,-83249.9485890732,10.5,10499916750.05141,47.655,-122.3035,60.0,7.216666666666667
2026-01-20T23:07:14+00:00,SAT-58543,69.70829742524059,71.85888580766867,546.8633415265004,2.4575682713058415,-86074.43636461107,10.5,10499913925.563635,47.655,-122.3035,60.0,7.233333333333333
2026-01-20T23:07:15+00:00,SAT-58543,67.44322517208455,71.70933956170119,549.3143562824162,2.537134348846603,-88861.17696426284,10.5,10499911138.823036,47.655,-122.3035,60.0,7.25
2026-01-20T23:07:16+00:00,SAT-58543,65.23553546980209,71.5354635251713,551.8447249396659,2.615607784099961,-91609.64860913742,10.5,10499908390.35139,47.655,-122.3035,60.0,7.266666666666667
2026-01-20T23:07:17+00:00,SAT-58543,63.089171363240574,71.33866456851739,554.4533577696749,2.692975561471759,-94319.3954380716,10.5,10499905680.604563,47.655,-122.3035,60.0,7.283333333333333
2026-01-20T23:07:18+00:00,SAT-58543,61.00718535388706,71.12038470528248,557.1391520629827,2.769226484819387,-96990.02531479149,10.5,10499903009.974686,47.655,-122.3035,60.0,7.3
2026-01-20T23:07:19+00:00,SAT-58543,58.991783574063376,70.88208062828765,559.9009939438426,2.8443511837161615,-99621.21004731779,10.5,10499900378.789953,47.655,-122.3035,60.0,7.316666666666666
2026-01-20T23:07:20+00:00,SAT-58543,57.04438814129754,70.62520546294068,562.7377601910689,2.9183419811635614,-102212.68075468861,10.5,10499897787.319244,47.655,-122.3035,60.0,7.333333333333333
2026-01-20T23:07:21+00:00,SAT-58543,55.165712052888914,70.35119300268411,565.6483199269493,2.9911928942556014,-104764.2278902287,10.5,10499895235.77211,47.655,-122.3035,60.0,7.35
2026-01-20T23:07:22+00:00,SAT-58543,53.35584123525764,70.06144450524498,568.6315363068202,3.0628995484340225,-107275.69823840345,10.5,10499892724.301762,47.655,-122.3035,60.0,7.366666666666666
2026-01-20T23:07:23+00:00,SAT-58543,51.61431926260232,69.75731801501513,571.686268123125,3.1334591170194153,-109746.99279694307,10.5,10499890253.007202,47.655,-122.3035,60.0,7.383333333333334
2026-01-20T23:07:24+00:00,SAT-58543,49.94023104693198,69.44012006785945,574.8113713491658,3.20287025111018,-112178.06432160776,10.5,10499887821.935678,47.655,-122.3035,60.0,7.4
2026-01-20T23:07:25+00:00,SAT-58543,48.332282722730795,69.11109956906034,578.0057006129397,3.2711330351449996,-114568.9157697973,10.5,10499885431.08423,47.655,-122.3035,60.0,7.416666666666667
2026-01-20T23:07:26+00:00,SAT-58543,46.78887577228989,68.77144359241312,581.2681106266576,3.3382488853661805,-116919.59674430799,10.5,10499883080.403255,47.655,-122.3035,60.0,7.433333333333334
2026-01-20T23:07:27+00:00,SAT-58543,45.3081742135342,68.42227483977868,584.5974575149962,3.4042204742364457,-119230.20084608893,10.5,10499880769.799154,47.655,-122.3035,60.0,7.45
2026-01-20T23:07:28+00:00,SAT-58543,43.888164230729146,68.0646504934174,587.9926000679679,3.469051727993134,-121500.86558857963,10.5,10499878499.13441,47.655,-122.3035,60.0,7.466666666666667
2026-01-20T23:07:29+00:00,SAT-58543,42.52670608757846,67.69956220062107,591.4524009913531,3.532747689209429,-123731.76758402311,10.5,10499876268.232416,47.655,-122.3035,60.0,7.483333333333333
2026-01-20T23:07:30+00:00,SAT-58543,41.22157859515745,67.32793697529917,594.975728020058,3.595314464870317,-125923.12072486602,10.5,10499874076.879274,47.655,-122.3035,60.0,7.5
2026-01-20T23:07:31+00:00,SAT-58543,39.970516542809726,66.95063880222192,598.5614549796886,3.656759162813344,-128075.17395764543,10.5,10499871924.826042,47.655,-122.3035,60.0,7.516666666666667
2026-01-20T23:07:32+00:00,SAT-58543,38.77124169327109,66.56847076838494,602.2084627847345,3.717089844636596,-130188.2096336268,10.5,10499869811.790367,47.655,-122.3035,60.0,7.533333333333333
2026-01-20T23:07:33+00:00,SAT-58543,37.621488007791655,66.18217756955482,605.9156403897854,3.7763154155470193,-132262.5396508264,10.5,10499867737.46035,47.655,-122.3035,60.0,7.55
2026-01-20T23:07:34+00:00,SAT-58543,36.51902181459521,65.79244827478024,609.681885630891,3.8344456141606993,-134298.5050967738,10.5,10499865701.494904,47.655,-122.3035,60.0,7.566666666666666
2026-01-20T23:07:35+00:00,SAT-58543,35.46165756835545,65.39991923668369,613.5061060567473,3.89149088222289,-136296.47168555635,10.5,10499863703.528315,47.655,-122.3035,60.0,7.583333333333333
2026-01-20T23:07:36+00:00,SAT-58543,34.447269878362405,65.00517707996919,617.3872196299508,3.9474623843201986,-138256.83044822325,10.5,10499861743.169552,47.655,-122.3035,60.0,7.6
2026-01-20T23:07:37+00:00,SAT-58543,33.47380235141375,64.60876168907517,621.3241554479129,4.002371884706164,-140179.99341869607,10.5,10499859820.00658,47.655,-122.3035,60.0,7.616666666666666
2026-01-20T23:07:38+00:00,SAT-58543,32.539273817988246,64.2111691620123,625.3158543409265,4.056231705927206,-142066.39218467486,10.5,10499857933.607815,47.655,-122.3035,60.0,7.633333333333334
2026-01-20T23:07:39+00:00,SAT-58543,31.64178238438382,63.81285468590775,629.3612694289712,4.109054703891654,-143916.47701444966,10.5,10499856083.522985,47.655,-122.3035,60.0,7.65
2026-01-20T23:07:40+00:00,SAT-58543,30.779507714169622,63.41423530719663,633.4593666536525,4.160854158521689,-145730.71302706932,10.5,10499854269.286972,47.655,-122.3035,60.0,7.666666666666667
2026-01-20T23:07:41+00:00,SAT-58543,29.950711905298586,63.015692587307306,637.6091252010848,4.211643812521996,-147509.58155018347,10.5,10499852490.41845,47.655,-122.3035,60.0,7.683333333333334
2026-01-20T23:07:42+00:00,SAT-58543,29.15373922673407,62.61757511822814,641.8095379634401,4.261437702298485,-149253.57419810107,10.5,10499850746.425802,47.655,-122.3035,60.0,7.7
2026-01-20T23:07:43+00:00,SAT-58543,28.38701500494107,62.22020091237763,646.0596118318657,4.310250215396013,-150963.19488350218,10.5,10499849036.805117,47.655,-122.3035,60.0,7.716666666666667
2026-01-20T23:07:44+00:00,SAT-58543,27.64904382153149,61.82385964257849,650.3583680466874,4.358096011127669,-152638.95703754004,10.5,10499847361.042963,47.655,-122.3035,60.0,7.733333333333333
2026-01-20T23:07:45+00:00,SAT-58543,26.93840722088603,61.42881474632405,654.7048424684521,4.404989970382231,-154281.3818518858,10.5,10499845718.618149,47.655,-122.3035,60.0,7.75
2026-01-20T23:07:46+00:00,SAT-58543,26.25376106055885,61.03530539462849,659.0980857989133,4.4509471535172676,-155890.99680396667,10.5,10499844109.003197,47.655,-122.3035,60.0,7.766666666666667
2026-01-20T23:07:47+00:00,SAT-58543,25.593832616447592,60.64354832902579,663.5371637600211,4.495982796383842,-157468.33551773455,10.5,10499842531.664482,47.655,-122.3035,60.0,7.783333333333333
2026-01-20T23:07:48+00:00,SAT-58543,24.957417528598473,60.25373956909024,668.021157268948,4.540112240535234,-159013.93531928,10.5,10499840986.06468,47.655,-122.3035,60.0,7.8
2026-01-20T23:07:49+00:00,SAT-58543,24.34337667048543,59.86605600264334,672.5491625435085,4.58335092479697,-160528.33694157904,10.5,10499839471.66306,47.655,-122.3035,60.0,7.816666666666666
2026-01-20T23:07:50+00:00,SAT-58543,23.7506329895848,59.48065686002112,677.1202911991726,4.625714311031286,-162012.0819244509,10.5,10499837987.918076,47.655,-122.3035,60.0,7.833333333333333
2026-01-20T23:07:51+00:00,SAT-58543,23.178168372861588,59.097685084726145,681.7336702720411,4.6672179551806705,-163465.71510280302,10.5,10499836534.284897,47.655,-122.3035,60.0,7.85
2026-01-20T23:07:52+00:00,SAT-58543,22.62502055284943,58.7172685951554,686.3884423126746,4.7078773497978625,-164889.7790913658,10.5,10499835110.22091,47.655,-122.3035,60.0,7.866666666666666
2026-01-20T23:07:53+00:00,SAT-58543,22.090280108476765,58.3395214635095,691.083765322873,4.747707992313625,-166284.81667571858,10.5,10499833715.183325,47.655,-122.3035,60.0,7.883333333333334
2026-01-20T23:07:54+00:00,SAT-58543,21.573087551076274,57.96454499920116,695.8188127605405,4.786725356402368,-167651.3698093928,10.5,10499832348.63019,47.655,-122.3035,60.0,7.9
2026-01-20T23:07:55+00:00,SAT-58543,21.072630521627836,57.59242875146772,700.5927735159925,4.824944814059099,-168989.9768846771,10.5,10499831010.023115,47.655,-122.3035,60.0,7.916666666666667
2026-01-20T23:07:56+00:00,SAT-58543,20.588141112172575,57.223251440983994,705.4048518105474,4.862381677358317,-170301.17419519048,10.5,10499829698.825806,47.655,-122.3035,60.0,7.933333333333334
2026-01-20T23:07:57+00:00,SAT-58543,20.11889330400424,56.857081816383825,710.2542671367661,4.8990511399701155,-171585.49388752872,10.5,10499828414.506113,47.655,-122.3035,60.0,7.95
2026-01-20T23:07:58+00:00,SAT-58543,19.664200535521907,56.49397944913081,715.1402541403629,4.934968285564104,-172843.46425560545,10.5,10499827156.535744,47.655,-122.3035,60.0,7.966666666666667
2026-01-20T23:07:59+00:00,SAT-58543,19.223413393218678,56.133995466365356,720.0620625104989,4.970148065336564,-174075.60895355785,10.5,10499825924.391047,47.655,-122.3035,60.0,7.983333333333333
2026-01-20T23:08:00+00:00,SAT-58543,18.79591742752816,55.77717322880659,725.0189568476612,5.004605310301872,-175282.44742624465,10.5,10499824717.552574,47.655,-122.3035,60.0,8.0
2026-01-20T23:08:01+00:00,SAT-58543,18.381131087977003,55.42354895547688,730.0102165438022,5.0383546343001555,-176464.4915121635,10.5,10499823535.508488,47.655,-122.3035,60.0,8.016666666666667
2026-01-20T23:08:02+00:00,SAT-58543,17.978503782822223,55.07315230716506,735.0351355657443,5.071410524849704,-177622.2486254871,10.5,10499822377.751375,47.655,-122.3035,60.0,8.033333333333333
2026-01-20T23:08:03+00:00,SAT-58543,17.58751404360208,54.72600691858905,740.0930223291945,5.103787291847019,-178756.21995932166,10.5,10499821243.78004,47.655,-122.3035,60.0,8.05
2026-01-20T23:08:04+00:00,SAT-58543,17.207667801951956,54.38213089322355,745.1831995215965,5.135499045322408,-179866.899706614,10.5,10499820133.100294,47.655,-122.3035,60.0,8.066666666666666
2026-01-20T23:08:05+00:00,SAT-58543,16.838496770971304,54.041537261704164,750.305003902798,5.16655970089433,-180954.77525118546,10.5,10499819045.224749,47.655,-122.3035,60.0,8.083333333333334
2026-01-20T23:08:06+00:00,SAT-58543,16.479556924044594,53.70423440474623,755.4577861111567,5.196982987651628,-182020.32744380145,10.5,10499817979.672556,47.655,-122.3035,60.0,8.1
2026-01-20T23:08:07+00:00,SAT-58543,16.130427066162344,53.37022644321907,760.6409104775079,5.226782427406606,-183064.02987552597,10.5,10499816935.970125,47.655,-122.3035,60.0,8.116666666666667
2026-01-20T23:08:08+00:00,SAT-58543,15.790707494486163,53.039513599895805,765.8537548184414,5.255971282778973,-184086.34705940206,10.5,10499815913.65294,47.655,-122.3035,60.0,8.133333333333333
2026-01-20T23:08:09+00:00,SAT-58543,15.4600187450603,52.7120925368931,771.0957101777997,5.284562684897504,-185087.7389031041,10.5,10499814912.261097,47.655,-122.3035,60.0,8.15
2026-01-20T23:08:10+00:00,SAT-58543,15.138000409599966,52.38795665955189,776.3661806955374,5.312569480717729,-186068.65536135717,10.5,10499813931.344639,47.655,-122.3035,60.0,8.166666666666666
2026-01-20T23:08:11+00:00,SAT-58543,14.824310035381297,52.06709640666949,781.6645833243065,5.340004321189676,-187029.53952394493,10.5,10499812970.460476,47.655,-122.3035,60.0,8.183333333333334
2026-01-20T23:08:12+00:00,SAT-58543,14.518622088488273,51.74949951347414,786.9903476339731,5.3668796357411805,-187970.82672200643,10.5,10499812029.173279,47.655,-122.3035,60.0,8.2
2026-01-20T23:08:13+00:00,SAT-58543,14.220626983594226,51.435151256182316,792.3429155906856,5.393207609386387,-188892.9437262797,10.5,10499811107.056274,47.655,-122.3035,60.0,8.216666666666667
2026-01-20T23:08:14+00:00,SAT-58543,13.93003017547732,51.124034679545275,797.7217413131136,5.419000225582787,-189796.3102481359,10.5,10499810203.689753,47.655,-122.3035,60.0,8.233333333333333
2026-01-20T23:08:15+00:00,SAT-58543,13.646551305220981,50.81613080468696,803.1262908714282,5.4442692450127845,-190681.33819642066,10.5,10499809318.661804,47.655,-122.3035,60.0,8.25
2026-01-20T23:08:16+00:00,SAT-58543,13.369923400786154,50.5114188226142,808.556042065121,5.4690261623327965,-191548.4301626239,10.5,10499808451.569838,47.655,-122.3035,60.0,8.266666666666667
2026-01-20T23:08:17+00:00,SAT-58543,13.099892129547921,50.209876275502715,814.0104841576875,5.493282286298802,-192397.98222721607,10.5,10499807602.017773,47.655,-122.3035,60.0,8.283333333333333
2026-01-20T23:08:18+00:00,SAT-58543,12.836215093341739,49.91147922001532,819.4891176912228,5.51704870200714,-193230.38263716086,10.5,10499806769.617363,47.655,-122.3035,60.0,8.3
2026-01-20T23:08:19+00:00,SAT-58543,12.578661169196439,49.61620238035519,824.991454263358,5.540336228102398,-194046.0103071545,10.5,10499805953.989693,47.655,-122.3035,60.0,8.316666666666666
2026-01-20T23:08:20+00:00,SAT-58543,12.327009892545517,49.3240192921441,830.5170162615188,5.563155507427817,-194845.23799458653,10.5,10499805154.762005,47.655,-122.3035,60.0,8.333333333333334
2026-01-20T23:08:21+00:00,SAT-58543,12.081050874499882,49.0349024306812,836.0653366875935,5.585516934033876,-195628.42974307147,10.5,10499804371.570257,47.655,-122.3035,60.0,8.35
2026-01-20T23:08:22+00:00,SAT-58543,11.840583257978727,48.74882333336294,841.6359589098032,5.607430712033189,-196395.94294379643,10.5,10499803604.057056,47.655,-122.3035,60.0,8.366666666666667
2026-01-20T23:08:23+00:00,SAT-58543,11.60541520463792,48.465752709850086,847.228436473271,5.6289067802617545,-197148.12569683933,10.5,10499802851.874304,47.655,-122.3035,60.0,8.383333333333333
2026-01-20T23:08:24+00:00,SAT-58543,11.37536341593588,48.1856605477802,852.842332835452,5.649954906875172,-197885.3201243285,10.5,10499802114.679876,47.655,-122.3035,60.0,8.4
2026-01-20T23:08:25+00:00,SAT-58543,11.150252679501254,47.90851620571792,858.4772211959089,5.670584643080948,-198607.8607499524,10.5,10499801392.13925,47.655,-122.3035,60.0,8.416666666666666
2026-01-20T23:08:26+00:00,SAT-58543,10.92991544458729,47.634288501388646,864.1326842799416,5.6908053124270035,-199316.0741237978,10.5,10499800683.925877,47.655,-122.3035,60.0,8.433333333333334
2026-01-20T23:08:27+00:00,SAT-58543,10.71419142336589,47.36294579369555,869.8083141115355,5.710626031233122,-200010.2795379455,10.5,10499799989.720463,47.655,-122.3035,60.0,8.45
2026-01-20T23:08:28+00:00,SAT-58543,10.502927215113436,47.09445605754318,875.5037118066853,5.730055732955519,-200690.7898798206,10.5,10499799309.21012,47.655,-122.3035,60.0,8.466666666666667
2026-01-20T23:08:29+00:00,SAT-58543,10.295975951911863,46.82878695174234,881.2184873910196,5.749103145327491,-201357.91083156154,10.5,10499798642.089169,47.655,-122.3035,60.0,8.483333333333333
2026-01-20T23:08:30+00:00,SAT-58543,10.093196965938775,46.5659058828091,886.9522595946263,5.767776804293285,-202011.94135804274,10.5,10499797988.058641,47.655,-122.3035,60.0,8.5
2026-01-20T23:08:31+00:00,SAT-58543,9.894455475829057,46.305780063167276,892.7046556607748,5.786084997853235,-202653.17174009417,10.5,10499797346.82826,47.655,-122.3035,60.0,8.516666666666667
2026-01-20T23:08:32+00:00,SAT-58543,9.699622293032062,46.04837656737143,898.4753110986337,5.804035907562319,-203281.88853037907,10.5,10499796718.11147,47.655,-122.3035,60.0,8.533333333333333
2026-01-20T23:08:33+00:00,SAT-58543,9.508573540690524,45.793662377620734,904.2638695771092,5.821637497368389,-203898.3706600387,10.5,10499796101.62934,47.655,-122.3035,60.0,8.55
2026-01-20T23:08:34+00:00,SAT-58543,9.321190392183912,45.5416044306073,910.0699827078179,5.838897494518222,-204502.8887699414,10.5,10499795497.11123,47.655,-122.3035,60.0,8.566666666666666
2026-01-20T23:08:35+00:00,SAT-58543,9.137358825171539,45.292169661408785,915.8933098090174,5.855823533823462,-205095.7102634862,10.5,10499794904.289736,47.655,-122.3035,60.0,8.583333333333334
2026-01-20T23:08:36+00:00,SAT-58543,8.956969385240802,45.04532503777069,921.7335178134174,5.87242298956578,-205677.09341921032,10.5,10499794322.90658,47.655,-122.3035,60.0,8.6
2026-01-20T23:08:37+00:00,SAT-58543,8.779916967894414,44.801037598639006,927.5902810083444,5.888703141717775,-206247.29321254854,10.5,10499793752.706787,47.655,-122.3035,60.0,8.616666666666667
2026-01-20T23:08:38+00:00,SAT-58543,8.606100607935092,44.55927448267471,933.4632809416842,5.904671021094892,-206806.55589239794,10.5,10499793193.444107,47.655,-122.3035,60.0,8.633333333333333
2026-01-20T23:08:39+00:00,SAT-58543,8.435423284986568,44.32000296071369,939.3522061733895,5.92033356131478,-207355.12430337787,10.5,10499792644.875696,47.655,-122.3035,60.0,8.65
2026-01-20T23:08:40+00:00,SAT-58543,8.267791735541401,44.08319045939969,945.2567521785408,5.935697493670769,-207893.23420385405,10.5,10499792106.765797,47.655,-122.3035,60.0,8.666666666666666
2026-01-20T23:08:41+00:00,SAT-58543,8.10311627825102,43.8488045869537,951.1766211455617,5.950769408701928,-208421.11642238256,10.5,10499791578.883577,47.655,-122.3035,60.0,8.683333333333334
2026-01-20T23:08:42+00:00,SAT-58543,7.941310647068916,43.616813154331034,957.1115218358404,5.965555702195602,-208938.9949664905,10.5,10499791061.005033,47.655,-122.3035,60.0,8.7
2026-01-20T23:08:43+00:00,SAT-58543,7.782291834905522,43.38718419655483,963.0611693894969,5.98006268081861,-209447.090722327,10.5,10499790552.909277,47.655,-122.3035,60.0,8.716666666666667
2026-01-20T23:08:44+00:00,SAT-58543,7.625979942966074,43.15988598815597,969.0252852364999,5.9942964423623675,-209945.61726034098,10.5,10499790054.38274,47.655,-122.3035,60.0,8.733333333333333
2026-01-20T23:08:45+00:00,SAT-58543,7.472298041228469,42.93488706163844,975.0035968883494,6.0082629883913246,-210434.78478070622,10.5,10499789565.21522,47.655,-122.3035,60.0,8.75
2026-01-20T23:08:46+00:00,SAT-58543,7.321172033523797,42.71215622006218,980.995837842105,6.0219681171055335,-210914.7963609148,10.5,10499789085.20364,47.655,-122.3035,60.0,8.766666666666667
2026-01-20T23:08:47+00:00,SAT-58543,7.172530532360435,42.49166255230631,987.0017473775649,6.035417552604324,-211385.85248313818,10.5,10499788614.147516,47.655,-122.3035,60.0,8.783333333333333
2026-01-20T23:08:48+00:00,SAT-58543,7.026304737246322,42.273375442160706,993.0210704833623,6.0486168426050275,-211848.14745190417,10.5,10499788151.852549,47.655,-122.3035,60.0,8.8
2026-01-20T23:08:49+00:00,SAT-58543,6.882428321782622,42.05726458006957,999.0535576810537,6.061571426160351,-212301.87176584575,10.5,10499787698.128235,47.655,-122.3035,60.0,8.816666666666666
2026-01-20T23:08:50+00:00,SAT-58543,6.740837325018436,41.84329997128198,1005.0989649167443,6.074286551189934,-212747.20922930728,10.5,10499787252.790771,47.655,-122.3035,60.0,8.833333333333334
2026-01-20T23:08:51+00:00,SAT-58543,6.601470050235962,41.63145194592356,1011.1570533704644,6.086767430464681,-213184.34241557587,10.5,10499786815.657585,47.655,-122.3035,60.0,8.85
2026-01-20T23:08:52+00:00,SAT-58543,6.464266965537069,41.42169116257576,1017.2275894211145,6.099019091262519,-213613.44740118994,10.5,10499786386.552599,47.655,-122.3035,60.0,8.866666666666667
2026-01-20T23:08:53+00:00,SAT-58543,6.329170612706991,41.21398861638134,1023.310344461467,6.111046464877472,-214034.6969009255,10.5,10499785965.303099,47.655,-122.3035,60.0,8.883333333333333
2026-01-20T23:08:54+00:00,SAT-58543,6.196125518759602,41.00831564318117,1029.4050948024383,6.122854324077868,-214448.25807731834,10.5,10499785551.741922,47.655,-122.3035,60.0,8.9
2026-01-20T23:08:55+00:00,SAT-58543,6.065078113250131,40.80464392506279,1035.511621514985,6.134447386789158,-214854.29617207433,10.5,10499785145.703829,47.655,-122.3035,60.0,8.916666666666666
2026-01-20T23:08:56+00:00,SAT-58543,5.935976647549656,40.60294549174522,1041.6297103754096,6.145830223194632,-215252.9712523443,10.5,10499784747.028748,47.655,-122.3035,60.0,8.933333333333334
2026-01-20T23:08:57+00:00,SAT-58543,5.808771120044944,40.40319272450919,1047.759151718009,6.157007292810441,-215644.43950924755,10.5,10499784355.560492,47.655,-122.3035,60.0,8.95
2026-01-20T23:08:58+00:00,SAT-58543,5.683413204214366,40.205358358311386,1053.8997403247051,6.167982932758425,-216028.85284713688,10.5,10499783971.147152,47.655,-122.3035,60.0,8.966666666666667
2026-01-20T23:08:59+00:00,SAT-58543,5.559856180473255,40.009415483748384,1060.0512753029764,6.178761437556355,-216406.3616781905,10.5,10499783593.63832,47.655,-122.3035,60.0,8.983333333333333
