satellites_20260120_184412/SAT-62178.csv

timestamp,satellite,azimuth_deg,elevation_deg,distance_km,relative_velocity_kms,doppler_shift_hz,tx_freq_ghz,rx_freq_hz,ue_lat,ue_lon,ue_alt_m,time_minutes
2026-01-20T23:04:46+00:00,SAT-62178,248.45543592885025,40.05772588040815,2397.73966287862,-0.6774658286037796,23727.718995318035,10.5,10500023727.718996,47.655,-122.3035,60.0,4.766666666666667
2026-01-20T23:04:47+00:00,SAT-62178,248.65709557749753,40.136850976753614,2397.0640036255586,-0.6588004326511899,23073.977874511755,10.5,10500023073.977875,47.655,-122.3035,60.0,4.783333333333333
2026-01-20T23:04:48+00:00,SAT-62178,248.85943340194495,40.215504650657834,2396.4069599940613,-0.6401192877043894,22419.685157310025,10.5,10500022419.685158,47.655,-122.3035,60.0,4.8
2026-01-20T23:04:49+00:00,SAT-62178,249.0624463910084,40.293682711247364,2395.7685476911247,-0.6214228312974001,21764.85616800507,10.5,10500021764.856169,47.655,-122.3035,60.0,4.816666666666666
2026-01-20T23:04:50+00:00,SAT-62178,249.26613143747392,40.37138098326986,2395.148781987377,-0.602711509204519,21109.506519498398,10.5,10500021109.50652,47.655,-122.3035,60.0,4.833333333333333
2026-01-20T23:04:51+00:00,SAT-62178,249.4704853391632,40.44859530850796,2394.547677708864,-0.5839857596168961,20453.651559097627,10.5,10500020453.65156,47.655,-122.3035,60.0,4.85
2026-01-20T23:04:52+00:00,SAT-62178,249.6755047958909,40.52532154562819,2393.9652492446057,-0.5652460304464011,19797.306974571093,10.5,10500019797.306974,47.655,-122.3035,60.0,4.866666666666666
2026-01-20T23:04:53+00:00,SAT-62178,249.88118641126414,40.60155557185133,2393.401510536907,-0.5464927633812443,19140.488235708268,10.5,10500019140.488235,47.655,-122.3035,60.0,4.883333333333334
2026-01-20T23:04:54+00:00,SAT-62178,250.0875266897015,40.67729328284095,2392.8564750875616,-0.527726412185954,18483.211235262348,10.5,10500018483.211235,47.655,-122.3035,60.0,4.9
2026-01-20T23:04:55+00:00,SAT-62178,250.29452203934227,40.75253059475205,2392.330155945808,-0.508947420391037,17825.491507547827,10.5,10500017825.491508,47.655,-122.3035,60.0,4.916666666666667
2026-01-20T23:04:56+00:00,SAT-62178,250.50216876787422,40.82726344367128,2391.822565718538,-0.49015624135444597,17167.344931077896,10.5,10500017167.34493,47.655,-122.3035,60.0,4.933333333333334
2026-01-20T23:04:57+00:00,SAT-62178,250.71046308477804,40.90148778740995,2391.333716560494,-0.471353327246424,16508.787342767147,10.5,10500016508.787342,47.655,-122.3035,60.0,4.95
2026-01-20T23:04:58+00:00,SAT-62178,250.91940110007832,40.97519960599935,2390.863620175454,-0.45253912985350797,15849.834566091165,10.5,10500015849.834566,47.655,-122.3035,60.0,4.966666666666667
2026-01-20T23:04:59+00:00,SAT-62178,251.12897882341747,41.0483949023136,2390.412287816613,-0.4337141060800081,15190.50260377159,10.5,10500015190.502604,47.655,-122.3035,60.0,4.983333333333333
2026-01-20T23:05:00+00:00,SAT-62178,251.33919216501283,41.121069703343906,2389.9797302814823,-0.4148787104731112,14530.80737597364,10.5,10500014530.807377,47.655,-122.3035,60.0,5.0
2026-01-20T23:05:01+00:00,SAT-62178,251.5500369340814,41.193220060573736,2389.5659579142375,-0.3960334008697107,13870.76491808197,10.5,10500013870.764917,47.655,-122.3035,60.0,5.016666666666667
2026-01-20T23:05:02+00:00,SAT-62178,251.7615088393099,41.26484205105945,2389.170980602437,-0.37717863519360556,13210.391268525036,10.5,10500013210.391268,47.655,-122.3035,60.0,5.033333333333333
2026-01-20T23:05:03+00:00,SAT-62178,251.97360348823275,41.33593177812796,2388.794807776937,-0.35831487491800157,12549.702590046534,10.5,10500012549.70259,47.655,-122.3035,60.0,5.05
2026-01-20T23:05:04+00:00,SAT-62178,252.1863163879812,41.406485372517835,2388.4374484083523,-0.3394425779138429,11888.714919223721,10.5,10500011888.71492,47.655,-122.3035,60.0,5.066666666666666
2026-01-20T23:05:05+00:00,SAT-62178,252.39964294323477,41.476498992581895,2388.0989110106457,-0.3205622081852699,11227.444507444327,10.5,10500011227.444508,47.655,-122.3035,60.0,5.083333333333333
2026-01-20T23:05:06+00:00,SAT-62178,252.61357845814865,41.54596882580049,2387.779203635016,-0.3016742272923939,10565.907520495848,10.5,10500010565.90752,47.655,-122.3035,60.0,5.1
2026-01-20T23:05:07+00:00,SAT-62178,252.82811813492413,41.61489108916992,2387.4783338723296,-0.2827790987438409,9904.12019241101,10.5,10500009904.120192,47.655,-122.3035,60.0,5.116666666666666
2026-01-20T23:05:08+00:00,SAT-62178,253.043257073955,41.68326203010281,2387.1963088511825,-0.263877286723661,9242.09878087874,10.5,10500009242.098782,47.655,-122.3035,60.0,5.133333333333334
2026-01-20T23:05:09+00:00,SAT-62178,253.2589902739487,41.751077927304074,2386.9331352372233,-0.24496925701425554,8579.85959956899,10.5,10500008579.8596,47.655,-122.3035,60.0,5.15
2026-01-20T23:05:10+00:00,SAT-62178,253.47531263213543,41.818335091662696,2386.688819231561,-0.2260554762675897,7917.418992607519,10.5,10500007917.418993,47.655,-122.3035,60.0,5.166666666666667
2026-01-20T23:05:11+00:00,SAT-62178,253.69221894467194,41.88502986718058,2386.4633665698966,-0.20713640974768058,7254.793255508269,10.5,10500007254.793255,47.655,-122.3035,60.0,5.183333333333334
2026-01-20T23:05:12+00:00,SAT-62178,253.9097039052292,41.951158631335495,2386.2567825239084,-0.18821252540956898,6591.998778036218,10.5,10500006591.998777,47.655,-122.3035,60.0,5.2
2026-01-20T23:05:13+00:00,SAT-62178,254.12776210658063,42.016717796356964,2386.0690718985666,-0.16928429027012198,5929.05191709753,10.5,10500005929.051918,47.655,-122.3035,60.0,5.216666666666667
2026-01-20T23:05:14+00:00,SAT-62178,254.34638803927925,42.081703809599084,2385.9002390330706,-0.15035217475534485,5265.969149000809,10.5,10500005265.969149,47.655,-122.3035,60.0,5.233333333333333
2026-01-20T23:05:15+00:00,SAT-62178,254.56557609463988,42.14611315518314,2385.7502877974484,-0.131416645728114,4602.766825258817,10.5,10500004602.766825,47.655,-122.3035,60.0,5.25
2026-01-20T23:05:16+00:00,SAT-62178,254.78532056140511,42.209942353747444,2385.619221596108,-0.11247817296238888,3939.461399342752,10.5,10500003939.4614,47.655,-122.3035,60.0,5.266666666666667
2026-01-20T23:05:17+00:00,SAT-62178,255.00561562806928,42.273187963870946,2385.5070433649407,-0.09353722663158945,3276.0693387146157,10.5,10500003276.069338,47.655,-122.3035,60.0,5.283333333333333
2026-01-20T23:05:18+00:00,SAT-62178,255.226455383203,42.33584658287428,2385.4137555709135,-0.07459427670686433,2612.6071037520082,10.5,10500002612.607103,47.655,-122.3035,60.0,5.3
2026-01-20T23:05:19+00:00,SAT-62178,255.44783381578648,42.39791484760464,2385.339360212278,-0.055649792631829974,1949.091136356121,10.5,10500001949.091137,47.655,-122.3035,60.0,5.316666666666666
2026-01-20T23:05:20+00:00,SAT-62178,255.6697448138936,42.45938943475653,2385.283858819093,-0.0367042449209219,1285.5379159327617,10.5,10500001285.537916,47.655,-122.3035,60.0,5.333333333333333
2026-01-20T23:05:21+00:00,SAT-62178,255.89218216698742,42.52026706218491,2385.2472524521586,-0.01775810505063566,621.9639555831469,10.5,10500000621.963955,47.655,-122.3035,60.0,5.35
2026-01-20T23:05:22+00:00,SAT-62178,256.115139566642,42.58054448975111,2385.229541702055,0.001188157123754277,-41.61428837352509,10.5,10499999958.385712,47.655,-122.3035,60.0,5.366666666666666
2026-01-20T23:05:23+00:00,SAT-62178,256.33861060584434,42.64021851976016,2385.2307266907596,0.02013407116557001,-705.1803392548492,10.5,10499999294.81966,47.655,-122.3035,60.0,5.383333333333334
2026-01-20T23:05:24+00:00,SAT-62178,256.56258877880384,42.69928599754339,2385.2508070710687,0.039079165738584665,-1368.7176888724098,10.5,10499998631.28231,47.655,-122.3035,60.0,5.4
2026-01-20T23:05:25+00:00,SAT-62178,256.7870674846169,42.75774381303774,2385.2897820256985,0.05802297086555102,-2032.2098766350075,10.5,10499997967.790123,47.655,-122.3035,60.0,5.416666666666667
2026-01-20T23:05:26+00:00,SAT-62178,257.01204002481893,42.8155889007149,2385.3476502686417,0.07696501605642807,-2695.640423991236,10.5,10499997304.359575,47.655,-122.3035,60.0,5.433333333333334
2026-01-20T23:05:27+00:00,SAT-62178,257.2374996050155,42.872818240594405,2385.4244100446554,0.09590483097262438,-3358.992857694092,10.5,10499996641.007143,47.655,-122.3035,60.0,5.45
2026-01-20T23:05:28+00:00,SAT-62178,257.46343933638616,42.929428859179,2385.5200591294124,0.11484194584678745,-4022.2507245037777,10.5,10499995977.749275,47.655,-122.3035,60.0,5.466666666666667
2026-01-20T23:05:29+00:00,SAT-62178,257.6898522358556,42.98541783003014,2385.63459483007,0.1337758909969458,-4685.397574170898,10.5,10499995314.602427,47.655,-122.3035,60.0,5.483333333333333
2026-01-20T23:05:30+00:00,SAT-62178,257.91673122691213,43.040782274494745,2385.768013985358,0.15270619708468441,-5348.416968478861,10.5,10499994651.58303,47.655,-122.3035,60.0,5.5
2026-01-20T23:05:31+00:00,SAT-62178,258.1440691392434,43.0955193621275,2385.9203129659163,0.17163239542617537,-6011.292492137482,10.5,10499993988.707508,47.655,-122.3035,60.0,5.516666666666667
2026-01-20T23:05:32+00:00,SAT-62178,258.37185871260925,43.14962631211834,2386.091487674955,0.19055401739451136,-6674.007731850177,10.5,10499993325.992268,47.655,-122.3035,60.0,5.533333333333333
2026-01-20T23:05:33+00:00,SAT-62178,258.60009259479546,43.20310039326507,2386.281533548303,0.20947059544021107,-7336.546312056377,10.5,10499992663.453688,47.655,-122.3035,60.0,5.55
2026-01-20T23:05:34+00:00,SAT-62178,258.8287633445774,43.25593892512972,2386.4904455554893,0.2283816624056305,-7998.891870919315,10.5,10499992001.10813,47.655,-122.3035,60.0,5.566666666666666
2026-01-20T23:05:35+00:00,SAT-62178,259.05786343152795,43.30813927842354,2386.718218200128,0.24728675122409707,-8661.028049788427,10.5,10499991338.97195,47.655,-122.3035,60.0,5.583333333333333
2026-01-20T23:05:36+00:00,SAT-62178,259.28738523730397,43.35969887573162,2386.964845520016,0.26618539637087685,-9322.938544018365,10.5,10499990677.061457,47.655,-122.3035,60.0,5.6
2026-01-20T23:05:37+00:00,SAT-62178,259.5173210571103,43.41061519223741,2387.230321088663,0.285077132570772,-9984.607057703586,10.5,10499990015.392942,47.655,-122.3035,60.0,5.616666666666666
2026-01-20T23:05:38+00:00,SAT-62178,259.74766310067145,43.46088575632532,2387.514638015547,0.30396149563465025,-10646.01733297716,10.5,10499989353.982668,47.655,-122.3035,60.0,5.633333333333334
2026-01-20T23:05:39+00:00,SAT-62178,259.97840349359797,43.510508150245954,2387.817788947193,0.3228380214440217,-11307.153114446355,10.5,10499988692.846886,47.655,-122.3035,60.0,5.65
2026-01-20T23:05:40+00:00,SAT-62178,260.2095342778383,43.559480010559874,2388.1397660672465,0.3417062484306437,-11967.998236038875,10.5,10499988032.001764,47.655,-122.3035,60.0,5.666666666666667
2026-01-20T23:05:41+00:00,SAT-62178,260.4410474143031,43.60779902902948,2388.4805610990147,0.36056571429748596,-12628.536506157212,10.5,10499987371.463493,47.655,-122.3035,60.0,5.683333333333334
2026-01-20T23:05:42+00:00,SAT-62178,260.6729347830313,43.65546295296232,2388.840165304741,0.37941595782748544,-13288.751771028867,10.5,10499986711.248228,47.655,-122.3035,60.0,5.7
2026-01-20T23:05:43+00:00,SAT-62178,260.9051881840712,43.702469585691546,2389.2185694866803,0.39825652150443547,-13948.628006500992,10.5,10499986051.371994,47.655,-122.3035,60.0,5.716666666666667
2026-01-20T23:05:44+00:00,SAT-62178,261.1377993417541,43.74881678772704,2389.615763990794,0.41708694519530565,-14608.149096768504,10.5,10499985391.850903,47.655,-122.3035,60.0,5.733333333333333
2026-01-20T23:05:45+00:00,SAT-62178,261.3707599022364,43.794502476501165,2390.0317387041355,0.43590677140167694,-15267.29901830155,10.5,10499984732.700981,47.655,-122.3035,60.0,5.75
2026-01-20T23:05:46+00:00,SAT-62178,261.60406143703887,43.83952462733438,2390.46648305748,0.45471554611253456,-15926.061869713925,10.5,10499984073.93813,47.655,-122.3035,60.0,5.766666666666667
2026-01-20T23:05:47+00:00,SAT-62178,261.8376954455187,43.88388127412488,2390.9199860288036,0.4735128129383949,-16584.42166631539,10.5,10499983415.578333,47.655,-122.3035,60.0,5.783333333333333
2026-01-20T23:05:48+00:00,SAT-62178,262.0716533540205,43.927570509383244,2391.3922361409072,0.49229811936190077,-17242.36255903395,10.5,10499982757.637442,47.655,-122.3035,60.0,5.8
2026-01-20T23:05:49+00:00,SAT-62178,262.3059265192647,43.970590485071504,2391.883221465284,0.5110710123239328,-17899.86867982281,10.5,10499982100.13132,47.655,-122.3035,60.0,5.816666666666666
2026-01-20T23:05:50+00:00,SAT-62178,262.5405062287713,44.01293941284298,2392.3929296215756,0.5298310424530146,-18556.92428979202,10.5,10499981443.07571,47.655,-122.3035,60.0,5.833333333333333
2026-01-20T23:05:51+00:00,SAT-62178,262.7753837037072,44.0546155647164,2392.921347781248,0.5485777597093601,-19213.513626644606,10.5,10499980786.486374,47.655,-122.3035,60.0,5.85
2026-01-20T23:05:52+00:00,SAT-62178,263.0105500996033,44.095617273335016,2393.468462666932,0.5673107184091354,-19869.62108064747,10.5,10499980130.37892,47.655,-122.3035,60.0,5.866666666666666
2026-01-20T23:05:53+00:00,SAT-62178,263.24599650926683,44.13594293259026,2394.0342605567585,0.5860294709489601,-20525.230974836868,10.5,10499979474.769026,47.655,-122.3035,60.0,5.883333333333334
2026-01-20T23:05:54+00:00,SAT-62178,263.481713962939,44.175590997746866,2394.6187272824513,0.6047335726533085,-21180.327734794915,10.5,10499978819.672266,47.655,-122.3035,60.0,5.9
2026-01-20T23:05:55+00:00,SAT-62178,263.7176934306858,44.21455998593619,2395.2218482322446,0.6234225825236246,-21834.89591488675,10.5,10499978165.104086,47.655,-122.3035,60.0,5.916666666666667
2026-01-20T23:05:56+00:00,SAT-62178,263.9539258252711,44.25284847669714,2395.843608354548,0.6420960579919693,-22488.920014511103,10.5,10499977511.079985,47.655,-122.3035,60.0,5.933333333333334
2026-01-20T23:05:57+00:00,SAT-62178,264.1904020023539,44.290455112049905,2396.4839921563853,0.6607535615715856,-23142.38471103115,10.5,10499976857.61529,47.655,-122.3035,60.0,5.95
2026-01-20T23:05:58+00:00,SAT-62178,264.42711276406214,44.32737859710413,2397.1429837084593,0.6793946544787388,-23795.274636384474,10.5,10499976204.725363,47.655,-122.3035,60.0,5.966666666666667
2026-01-20T23:05:59+00:00,SAT-62178,264.6640488592129,44.36361770009514,2397.82056664386,0.6980189034992755,-24447.574617578917,10.5,10499975552.425383,47.655,-122.3035,60.0,5.983333333333333
2026-01-20T23:06:00+00:00,SAT-62178,264.90120098717875,44.399171252985376,2398.516724163616,0.7166258711921778,-25099.269333579658,10.5,10499974900.730667,47.655,-122.3035,60.0,6.0
2026-01-20T23:06:01+00:00,SAT-62178,265.1385597971429,44.43403815132224,2399.2314390324855,0.7352151317439881,-25750.343870598223,10.5,10499974249.65613,47.655,-122.3035,60.0,6.016666666666667
2026-01-20T23:06:02+00:00,SAT-62178,265.37611589405765,44.4682173550917,2399.964693590545,0.7537862504839947,-26400.78300462764,10.5,10499973599.216995,47.655,-122.3035,60.0,6.033333333333333
2026-01-20T23:06:03+00:00,SAT-62178,265.6138598363156,44.501707888306434,2400.7164697443604,0.7723388029704255,-27050.57186992165,10.5,10499972949.42813,47.655,-122.3035,60.0,6.05
2026-01-20T23:06:04+00:00,SAT-62178,265.85178214115194,44.534508839723124,2401.48674897719,0.7908723619312318,-27699.69550160576,10.5,10499972300.304499,47.655,-122.3035,60.0,6.066666666666666
2026-01-20T23:06:05+00:00,SAT-62178,266.0898732846027,44.56661936273184,2402.275512346156,0.8093865068348841,-28348.13917088696,10.5,10499971651.860828,47.655,-122.3035,60.0,6.083333333333333
2026-01-20T23:06:06+00:00,SAT-62178,266.328123705539,44.59803867581164,2403.0827404889724,0.8278808127059796,-28995.88799332899,10.5,10499971004.112007,47.655,-122.3035,60.0,6.1
2026-01-20T23:06:07+00:00,SAT-62178,266.56652380524815,44.62876606234232,2403.9084136195115,0.846354866100621,-29642.927488377714,10.5,10499970357.072512,47.655,-122.3035,60.0,6.116666666666666
2026-01-20T23:06:08+00:00,SAT-62178,266.80506395295464,44.65880087120022,2404.7525115393023,0.8648082437388271,-30289.242830977706,10.5,10499969710.75717,47.655,-122.3035,60.0,6.133333333333334
2026-01-20T23:06:09+00:00,SAT-62178,267.04373448378885,44.6881425163306,2405.6150136277247,0.8832405371104983,-30934.81971337729,10.5,10499969065.180286,47.655,-122.3035,60.0,6.15
2026-01-20T23:06:10+00:00,SAT-62178,267.2825257051599,44.716790477391385,2406.4958988567364,0.9016513352655724,-31579.64374236696,10.5,10499968420.356258,47.655,-122.3035,60.0,6.166666666666667
2026-01-20T23:06:11+00:00,SAT-62178,267.52142789728396,44.74474429961208,2407.395145788441,0.9200402211385785,-32223.700310549753,10.5,10499967776.29969,47.655,-122.3035,60.0,6.183333333333334
2026-01-20T23:06:12+00:00,SAT-62178,267.7604313129149,44.77200359356841,2408.3127325689898,0.9384067946843264,-32866.97540665092,10.5,10499967133.024593,47.655,-122.3035,60.0,6.2
2026-01-20T23:06:13+00:00,SAT-62178,267.99952618393047,44.798568035743756,2409.248636945555,0.9567506507403604,-33509.454840167404,10.5,10499966490.54516,47.655,-122.3035,60.0,6.216666666666667
2026-01-20T23:06:14+00:00,SAT-62178,268.238702721314,44.82443736827795,2410.202836261227,0.9750713836664984,-34151.124403864196,10.5,10499965848.875597,47.655,-122.3035,60.0,6.233333333333333
2026-01-20T23:06:15+00:00,SAT-62178,268.47795111655495,44.849611398880484,2411.175307454537,0.9933685969135934,-34791.97020891276,10.5,10499965208.02979,47.655,-122.3035,60.0,6.25
2026-01-20T23:06:16+00:00,SAT-62178,268.7172615458161,44.87409000102524,2412.166027068525,1.0116418936087626,-35431.97835514597,10.5,10499964568.021645,47.655,-122.3035,60.0,6.266666666666667
2026-01-20T23:06:17+00:00,SAT-62178,268.95662417136424,44.89787311381712,2413.1749712504175,1.0298908788068009,-36071.13500991212,10.5,10499963928.86499,47.655,-122.3035,60.0,6.283333333333333
2026-01-20T23:06:18+00:00,SAT-62178,269.1960291436612,44.92096074191352,2414.202115753548,1.048115158464593,-36709.42637215452,10.5,10499963290.573627,47.655,-122.3035,60.0,6.3
2026-01-20T23:06:19+00:00,SAT-62178,269.4354666032202,44.9433529554106,2415.2474359382563,1.066314349288888,-37346.83901732219,10.5,10499962653.160982,47.655,-122.3035,60.0,6.316666666666666
2026-01-20T23:06:20+00:00,SAT-62178,269.6749266850222,44.96504988994914,2416.3109067826135,1.084488058659078,-37983.35919418066,10.5,10499962016.640806,47.655,-122.3035,60.0,6.333333333333333
2026-01-20T23:06:21+00:00,SAT-62178,269.914399517651,44.98605174629253,2417.3925028731164,1.102635909748501,-38618.97370466625,10.5,10499961381.026295,47.655,-122.3035,60.0,6.35
2026-01-20T23:06:22+00:00,SAT-62178,270.1538752289806,45.00635879050843,2418.492198420439,1.1207575178779905,-39253.66907568736,10.5,10499960746.330925,47.655,-122.3035,60.0,6.366666666666666
2026-01-20T23:06:23+00:00,SAT-62178,270.3933439457297,45.02597135355556,2419.6099672516025,1.138852504087378,-39887.43203445588,10.5,10499960112.567966,47.655,-122.3035,60.0,6.383333333333334
2026-01-20T23:06:24+00:00,SAT-62178,270.63279579665186,45.04488983119722,2420.745782815679,1.1569204954236523,-40520.24951857978,10.5,10499959479.75048,47.655,-122.3035,60.0,6.4
2026-01-20T23:06:25+00:00,SAT-62178,270.87222091540553,45.06311468384525,2421.8996181897814,1.1749611233878396,-41152.108621666244,10.5,10499958847.891378,47.655,-122.3035,60.0,6.416666666666667
2026-01-20T23:06:26+00:00,SAT-62178,271.1116094433414,45.08064643638124,2423.071446083507,1.192974009746526,-41782.9960963812,10.5,10499958217.003904,47.655,-122.3035,60.0,6.433333333333334
2026-01-20T23:06:27+00:00,SAT-62178,271.350951528821,45.09748567769067,2424.2612388292278,1.2109587974870129,-42412.899438629756,10.5,10499957587.100561,47.655,-122.3035,60.0,6.45
2026-01-20T23:06:28+00:00,SAT-62178,271.59023733374033,45.11363306073422,2425.4689684032546,1.2289151209121425,-43041.805840150584,10.5,10499956958.19416,47.655,-122.3035,60.0,6.466666666666667
2026-01-20T23:06:29+00:00,SAT-62178,271.82945703304915,45.129089302056535,2426.6946064171775,1.2468426166696835,-43669.702574811534,10.5,10499956330.297424,47.655,-122.3035,60.0,6.483333333333333
2026-01-20T23:06:30+00:00,SAT-62178,272.0686008170886,45.14385518151384,2427.9381241202027,1.264740927651901,-44296.577135189174,10.5,10499955703.422865,47.655,-122.3035,60.0,6.5
2026-01-20T23:06:31+00:00,SAT-62178,272.3076588944397,45.15793154200089,2429.199492405381,1.2826097047473886,-44922.41729392532,10.5,10499955077.582706,47.655,-122.3035,60.0,6.516666666666667
2026-01-20T23:06:32+00:00,SAT-62178,272.5466214952534,45.171319289184716,2430.478681817582,1.3004485940664592,-45547.210656306175,10.5,10499954452.789343,47.655,-122.3035,60.0,6.533333333333333
2026-01-20T23:06:33+00:00,SAT-62178,272.7854788718084,45.1840193910511,2431.7756625487314,1.3182572465561522,-46170.94499702057,10.5,10499953829.055002,47.655,-122.3035,60.0,6.55
2026-01-20T23:06:34+00:00,SAT-62178,273.0242213011986,45.196032877571014,2433.09040444263,1.3360353185882456,-46793.60828075461,10.5,10499953206.39172,47.655,-122.3035,60.0,6.566666666666666
2026-01-20T23:06:35+00:00,SAT-62178,273.2628390879244,45.20736084033663,2434.4228770003688,1.3537824662422904,-47415.188461959406,10.5,10499952584.811539,47.655,-122.3035,60.0,6.583333333333333
2026-01-20T23:06:36+00:00,SAT-62178,273.50132256552604,45.2180044321342,2435.7730493800345,1.3714983566892263,-48035.67388355339,10.5,10499951964.326117,47.655,-122.3035,60.0,6.6
2026-01-20T23:06:37+00:00,SAT-62178,273.73966210017164,45.22796486658728,2437.1408904077725,1.3891826537091503,-48655.05276969335,10.5,10499951344.94723,47.655,-122.3035,60.0,6.616666666666666
2026-01-20T23:06:38+00:00,SAT-62178,273.97784809161857,45.23724341766156,2438.5263685744053,1.406835017494636,-49273.31321888584,10.5,10499950726.68678,47.655,-122.3035,60.0,6.633333333333334
2026-01-20T23:06:39+00:00,SAT-62178,274.21587097409827,45.24584141916535,2439.929452031853,1.4244551270810137,-49890.443989590436,10.5,10499950109.556011,47.655,-122.3035,60.0,6.65
2026-01-20T23:06:40+00:00,SAT-62178,274.45372122136945,45.253760264404825,2441.3501086119286,1.4420426583455355,-50506.43372965748,10.5,10499949493.56627,47.655,-122.3035,60.0,6.666666666666667
2026-01-20T23:06:41+00:00,SAT-62178,274.6913893475567,45.26100140563603,2442.788305823185,1.459597278632952,-51121.270788093,10.5,10499948878.729212,47.655,-122.3035,60.0,6.683333333333334
2026-01-20T23:06:42+00:00,SAT-62178,274.92886590718126,45.26756635350042,2444.2440108424084,1.4771186806822314,-51734.944403315945,10.5,10499948265.055597,47.655,-122.3035,60.0,6.7
2026-01-20T23:06:43+00:00,SAT-62178,275.1661415011562,45.27345667664088,2445.7171905399423,1.4946065431424562,-52347.44332025788,10.5,10499947652.55668,47.655,-122.3035,60.0,6.716666666666667
2026-01-20T23:06:44+00:00,SAT-62178,275.4032067757187,45.27867400106451,2447.2078114656365,1.5120605550695259,-52958.75664834111,10.5,10499947041.243351,47.655,-122.3035,60.0,6.733333333333333
2026-01-20T23:06:45+00:00,SAT-62178,275.6400524256551,45.283220009634505,2448.715839859226,1.5294804074947892,-53568.87356617653,10.5,10499946431.126434,47.655,-122.3035,60.0,6.75
2026-01-20T23:06:46+00:00,SAT-62178,275.8766691961267,45.287096441506314,2450.2412416523007,1.5468657963925418,-54177.783425497946,10.5,10499945822.216574,47.655,-122.3035,60.0,6.766666666666667
2026-01-20T23:06:47+00:00,SAT-62178,276.1130478847758,45.29030509154897,2451.783982473236,1.5642164170575878,-54785.475554240504,10.5,10499945214.524446,47.655,-122.3035,60.0,6.783333333333333
2026-01-20T23:06:48+00:00,SAT-62178,276.34917934307737,45.29284780974898,2453.3440276465144,1.581531973431076,-55391.9395831709,10.5,10499944608.060417,47.655,-122.3035,60.0,6.8
2026-01-20T23:06:49+00:00,SAT-62178,276.58505447902917,45.294726500617244,2454.92134220135,1.5988121650661844,-55997.16498937054,10.5,10499944002.83501,47.655,-122.3035,60.0,6.816666666666666
2026-01-20T23:06:50+00:00,SAT-62178,276.82066425780386,45.295943122558995,2456.5158908673093,1.6160567079671653,-56601.14182610703,10.5,10499943398.858173,47.655,-122.3035,60.0,6.833333333333333
2026-01-20T23:06:51+00:00,SAT-62178,277.0559997056086,45.29649968726224,2458.1276380907216,1.6332653098786836,-57203.85985736232,10.5,10499942796.140142,47.655,-122.3035,60.0,6.85
2026-01-20T23:06:52+00:00,SAT-62178,277.29105190967095,45.296398259037844,2459.7565480264407,1.6504376845688244,-57805.30905808396,10.5,10499942194.690943,47.655,-122.3035,60.0,6.866666666666666
2026-01-20T23:06:53+00:00,SAT-62178,277.5258120203835,45.29564095417033,2461.402584543851,1.6675735532739626,-58405.47966479066,10.5,10499941594.520336,47.655,-122.3035,60.0,6.883333333333334
2026-01-20T23:06:54+00:00,SAT-62178,277.7602712536725,45.294229940253324,2463.065711234316,1.684672632520801,-59004.36174904844,10.5,10499940995.63825,47.655,-122.3035,60.0,6.9
2026-01-20T23:06:55+00:00,SAT-62178,277.99442089146015,45.29216743551392,2464.7458914064837,1.7017346574709349,-59601.94603509611,10.5,10499940398.053965,47.655,-122.3035,60.0,6.916666666666667
2026-01-20T23:06:56+00:00,SAT-62178,278.2282522855735,45.2894557081137,2466.443088104868,1.7187593489023263,-60198.222743396786,10.5,10499939801.777256,47.655,-122.3035,60.0,6.933333333333334
2026-01-20T23:06:57+00:00,SAT-62178,278.46175685670727,45.2860970754617,2468.1572640955064,1.7357464420314586,-60793.18260011169,10.5,10499939206.8174,47.655,-122.3035,60.0,6.95
2026-01-20T23:06:58+00:00,SAT-62178,278.69492609766314,45.28209390349817,2469.8883818803592,1.7526956714852815,-61386.816310754075,10.5,10499938613.18369,47.655,-122.3035,60.0,6.966666666666667
2026-01-20T23:06:59+00:00,SAT-62178,278.9277515742608,45.27744860597902,2471.6364036967207,1.7696067825862292,-61979.114955438294,10.5,10499938020.885044,47.655,-122.3035,60.0,6.983333333333333
2026-01-20T23:07:00+00:00,SAT-62178,279.1602249278902,45.272163643730124,2473.4012915278863,1.7864795067152515,-62570.06912598896,10.5,10499937429.930874,47.655,-122.3035,60.0,7.0
2026-01-20T23:07:01+00:00,SAT-62178,279.3923378745397,45.266241523955586,2475.18300708925,1.8033136051533911,-63159.670461458394,10.5,10499936840.329538,47.655,-122.3035,60.0,7.016666666666667
2026-01-20T23:07:02+00:00,SAT-62178,279.6240822098778,45.25968479941728,2476.981511858123,1.820108819254395,-63747.90990296076,10.5,10499936252.090097,47.655,-122.3035,60.0,7.033333333333333
2026-01-20T23:07:03+00:00,SAT-62178,279.8554498073939,45.25249606774633,2478.7967670538596,1.836864902665845,-64334.77882219229,10.5,10499935665.221178,47.655,-122.3035,60.0,7.05
2026-01-20T23:07:04+00:00,SAT-62178,280.086432620986,45.24467797065975,2480.6287336501186,1.8535816155608658,-64920.26881940135,10.5,10499935079.73118,47.655,-122.3035,60.0,7.066666666666666
2026-01-20T23:07:05+00:00,SAT-62178,280.31702268666726,45.2362331931774,2482.4773723813714,1.870258712579084,-65504.3713010298,10.5,10499934495.628698,47.655,-122.3035,60.0,7.083333333333333
2026-01-20T23:07:06+00:00,SAT-62178,280.54721212262547,45.22716446288426,2484.3426437373837,1.8868959687798899,-66087.07838870598,10.5,10499933912.921612,47.655,-122.3035,60.0,7.1
2026-01-20T23:07:07+00:00,SAT-62178,280.7769931326783,45.21747454907113,2486.2245079835798,1.9034931411951004,-66668.38157265636,10.5,10499933331.618427,47.655,-122.3035,60.0,7.116666666666666
2026-01-20T23:07:08+00:00,SAT-62178,281.0063580046307,45.20716626204582,2488.1229251430655,1.9200500058029673,-67248.2730066917,10.5,10499932751.726994,47.655,-122.3035,60.0,7.133333333333334
2026-01-20T23:07:09+00:00,SAT-62178,281.23529911344855,45.196242452267185,2490.0378550155197,1.936566340803169,-67826.74492242654,10.5,10499932173.255077,47.655,-122.3035,60.0,7.15
2026-01-20T23:07:10+00:00,SAT-62178,281.46380892214063,45.18470600954636,2491.969257179414,1.953041924752664,-68403.78956398887,10.5,10499931596.210436,47.655,-122.3035,60.0,7.166666666666667
2026-01-20T23:07:11+00:00,SAT-62178,281.69187998243393,45.17255986225808,2493.917090992367,1.9694765267296028,-68979.3988435187,10.5,10499931020.601156,47.655,-122.3035,60.0,7.183333333333334
2026-01-20T23:07:12+00:00,SAT-62178,281.9195049341949,45.159806976615876,2495.881315581692,1.985869948488127,-69553.5658176075,10.5,10499930446.434183,47.655,-122.3035,60.0,7.2
2026-01-20T23:07:13+00:00,SAT-62178,282.14667650999877,45.14645035568015,2497.861889876984,2.0022219710139764,-70126.28281544945,10.5,10499929873.717184,47.655,-122.3035,60.0,7.216666666666667
2026-01-20T23:07:14+00:00,SAT-62178,282.3733875330727,45.13249303869003,2499.858772589409,2.0185323903184083,-70697.5426924959,10.5,10499929302.457308,47.655,-122.3035,60.0,7.233333333333333
2026-01-20T23:07:15+00:00,SAT-62178,282.59963091957366,45.11793810017124,2501.8719222266864,2.034800999236307,-71267.33819294823,10.5,10499928732.661806,47.655,-122.3035,60.0,7.25
2026-01-20T23:07:16+00:00,SAT-62178,282.8253996786497,45.102788649159585,2503.9012970899244,2.051027599150814,-71835.66236040382,10.5,10499928164.337639,47.655,-122.3035,60.0,7.266666666666667
2026-01-20T23:07:17+00:00,SAT-62178,283.0506869138559,45.08704782834165,2505.9468552821445,2.067211991611764,-72402.50824429854,10.5,10499927597.491756,47.655,-122.3035,60.0,7.283333333333333
2026-01-20T23:07:18+00:00,SAT-62178,283.27548582349306,45.070718813251965,2508.0085547084454,2.083353990277331,-72967.86931815335,10.5,10499927032.130682,47.655,-122.3035,60.0,7.3
2026-01-20T23:07:19+00:00,SAT-62178,283.4997897023412,45.05380481137718,2510.086353088082,2.099453396863031,-73531.73863720689,10.5,10499926468.261362,47.655,-122.3035,60.0,7.316666666666666
2026-01-20T23:07:20+00:00,SAT-62178,283.723591940551,45.03630906144729,2512.1802079425534,2.1155100268124123,-74094.10973751158,10.5,10499925905.890263,47.655,-122.3035,60.0,7.333333333333333
2026-01-20T23:07:21+00:00,SAT-62178,283.94688602547956,45.018234832527774,2514.290076609294,2.131523700964793,-74654.97634410246,10.5,10499925345.023657,47.655,-122.3035,60.0,7.35
2026-01-20T23:07:22+00:00,SAT-62178,284.1696655424469,44.99958542316885,2516.4159162470564,2.1474942419555405,-75214.33224491983,10.5,10499924785.667755,47.655,-122.3035,60.0,7.366666666666666
2026-01-20T23:07:23+00:00,SAT-62178,284.3919241751373,44.980364160586944,2518.5576838377,2.1634214633549043,-75772.17091040527,10.5,10499924227.82909,47.655,-122.3035,60.0,7.383333333333334
2026-01-20T23:07:24+00:00,SAT-62178,284.6136557046982,44.96057439994763,2520.7153361771525,2.179305205457872,-76328.48674701368,10.5,10499923671.513252,47.655,-122.3035,60.0,7.4
2026-01-20T23:07:25+00:00,SAT-62178,284.8348540127951,44.940219523326455,2522.8888299020628,2.195145290506956,-76883.27352892593,10.5,10499923116.72647,47.655,-122.3035,60.0,7.416666666666667
2026-01-20T23:07:26+00:00,SAT-62178,285.0555130796498,44.91930293907538,2525.078121471795,2.210941562347568,-77436.52578694778,10.5,10499922563.474213,47.655,-122.3035,60.0,7.433333333333334
2026-01-20T23:07:27+00:00,SAT-62178,285.27562698642475,44.897828080825214,2527.283167189976,2.226693851836543,-77988.23759697018,10.5,10499922011.762403,47.655,-122.3035,60.0,7.45
2026-01-20T23:07:28+00:00,SAT-62178,285.49518991377766,44.87579840681504,2529.503923191541,2.2424019967699547,-78538.40327792543,10.5,10499921461.596722,47.655,-122.3035,60.0,7.466666666666667
2026-01-20T23:07:29+00:00,SAT-62178,285.71419614261225,44.85321739903938,2531.740345449653,2.2580658552563997,-79087.01786017643,10.5,10499920912.98214,47.655,-122.3035,60.0,7.483333333333333
2026-01-20T23:07:30+00:00,SAT-62178,285.93264005602083,44.830088562255476,2533.9923897959625,2.273685260711602,-79634.0755092372,10.5,10499920365.92449,47.655,-122.3035,60.0,7.5
2026-01-20T23:07:31+00:00,SAT-62178,286.1505161366888,44.80641542344775,2536.2600118959786,2.2892600801334324,-80179.57156681053,10.5,10499919820.428432,47.655,-122.3035,60.0,7.516666666666667
2026-01-20T23:07:32+00:00,SAT-62178,286.3678189700952,44.782201530702864,2538.543167282565,2.3047901554553794,-80723.50049673858,10.5,10499919276.499504,47.655,-122.3035,60.0,7.533333333333333
2026-01-20T23:07:33+00:00,SAT-62178,286.58454324186124,44.75745045269229,2540.841811330939,2.320275354877759,-81265.85768283892,10.5,10499918734.142317,47.655,-122.3035,60.0,7.55
2026-01-20T23:07:34+00:00,SAT-62178,286.800683740087,44.73216577762273,2543.1558992848704,2.335715532667538,-81806.63802092429,10.5,10499918193.361979,47.655,-122.3035,60.0,7.566666666666666
2026-01-20T23:07:35+00:00,SAT-62178,287.0162353537744,44.706351112616616,2545.485386242784,2.3511105619674706,-82345.83706791731,10.5,10499917654.162931,47.655,-122.3035,60.0,7.583333333333333
2026-01-20T23:07:36+00:00,SAT-62178,287.2311930743433,44.68001008274059,2547.8302271765865,2.3664603056232725,-82883.45002009478,10.5,10499917116.54998,47.655,-122.3035,60.0,7.6
2026-01-20T23:07:37+00:00,SAT-62178,287.44555199433745,44.65314633036048,2550.190376921395,2.3817646415869826,-83419.47260282084,10.5,10499916580.527397,47.655,-122.3035,60.0,7.616666666666666
2026-01-20T23:07:38+00:00,SAT-62178,287.6593073085064,44.62576351421649,2552.5657901906043,2.397023433251668,-83953.90003154286,10.5,10499916046.099968,47.655,-122.3035,60.0,7.633333333333334
2026-01-20T23:07:39+00:00,SAT-62178,287.8724543120819,44.59786530884258,2554.9564215613673,2.4122365731852597,-84486.72854353537,10.5,10499915513.271456,47.655,-122.3035,60.0,7.65
2026-01-20T23:07:40+00:00,SAT-62178,288.0849884030665,44.5694554034856,2557.3622255036908,2.4274039353248607,-85017.95372354244,10.5,10499914982.046276,47.655,-122.3035,60.0,7.666666666666667
2026-01-20T23:07:41+00:00,SAT-62178,288.29690508008565,44.540537501583245,2559.7831563618547,2.4425254047594414,-85547.57154689373,10.5,10499914452.428453,47.655,-122.3035,60.0,7.683333333333334
2026-01-20T23:07:42+00:00,SAT-62178,288.5081999429251,44.51111531990414,2562.2191683655346,2.4576008781735124,-86075.5783950438,10.5,10499913924.421604,47.655,-122.3035,60.0,7.7
2026-01-20T23:07:43+00:00,SAT-62178,288.71886869312044,44.48119258768021,2564.670215641366,2.4726302327699963,-86601.96996711958,10.5,10499913398.030033,47.655,-122.3035,60.0,7.716666666666667
2026-01-20T23:07:44+00:00,SAT-62178,288.92890713163683,44.450773046126784,2567.1362521935157,2.487613379985501,-87126.74316125645,10.5,10499912873.256838,47.655,-122.3035,60.0,7.733333333333333
2026-01-20T23:07:45+00:00,SAT-62178,289.1383111614196,44.4198604473106,2569.617231937821,2.502550205448724,-87649.89397168759,10.5,10499912350.106028,47.655,-122.3035,60.0,7.75
2026-01-20T23:07:46+00:00,SAT-62178,289.34707678449286,44.38845855376298,2572.1131086760556,2.5174406145494745,-88171.4190847639,10.5,10499911828.580915,47.655,-122.3035,60.0,7.766666666666667
2026-01-20T23:07:47+00:00,SAT-62178,289.5552001031217,44.3565711375368,2574.6238361156325,2.5322845095052515,-88691.31507572862,10.5,10499911308.684925,47.655,-122.3035,60.0,7.783333333333333
2026-01-20T23:07:48+00:00,SAT-62178,289.76267731888464,44.32420197955699,2577.1493678664456,2.547081804335435,-89209.57893317673,10.5,10499910790.421066,47.655,-122.3035,60.0,7.8
2026-01-20T23:07:49+00:00,SAT-62178,289.96950473306487,44.291354868783465,2579.6896574526363,2.561832403247714,-89726.20730205628,10.5,10499910273.792698,47.655,-122.3035,60.0,7.816666666666666
2026-01-20T23:07:50+00:00,SAT-62178,290.1756787450879,44.258033601663804,2582.244658302809,2.57653622438059,-90241.1973152313,10.5,10499909758.802685,47.655,-122.3035,60.0,7.833333333333333
2026-01-20T23:07:51+00:00,SAT-62178,290.38119585305174,44.2242419812838,2584.8143237639247,2.591193180242503,-90754.54590837733,10.5,10499909245.454092,47.655,-122.3035,60.0,7.85
2026-01-20T23:07:52+00:00,SAT-62178,290.5860526524933,44.18998381678173,2587.398607095686,2.605803197307776,-91266.25050631411,10.5,10499908733.749495,47.655,-122.3035,60.0,7.866666666666666
2026-01-20T23:07:53+00:00,SAT-62178,290.79024583682667,44.155262922512286,2589.997461484468,2.6203661809499543,-91776.30779482292,10.5,10499908223.692205,47.655,-122.3035,60.0,7.883333333333334
2026-01-20T23:07:54+00:00,SAT-62178,290.99377219483847,44.12008311768549,2592.610840022269,2.6348820857855197,-92284.71618438099,10.5,10499907715.283815,47.655,-122.3035,60.0,7.9
2026-01-20T23:07:55+00:00,SAT-62178,291.19662861391816,44.084448225069224,2595.2386957558256,2.6493508165481687,-92791.47233835941,10.5,10499907208.527662,47.655,-122.3035,60.0,7.916666666666667
2026-01-20T23:07:56+00:00,SAT-62178,291.398812075196,44.04836207103441,2597.8809816368625,2.6637723162812046,-93296.57426189371,10.5,10499906703.425737,47.655,-122.3035,60.0,7.933333333333334
2026-01-20T23:07:57+00:00,SAT-62178,291.60031965581834,44.01182848441927,2600.537650560301,2.6781465177217396,-93800.01959915305,10.5,10499906199.9804,47.655,-122.3035,60.0,7.95
2026-01-20T23:07:58+00:00,SAT-62178,291.8011485272663,43.97485129605845,2603.208655353975,2.6924733633006723,-94301.80633382397,10.5,10499905698.193666,47.655,-122.3035,60.0,7.966666666666667
2026-01-20T23:07:59+00:00,SAT-62178,292.0012959552566,43.937434338048014,2605.893948788307,2.7067527824704913,-94801.93199503423,10.5,10499905198.068005,47.655,-122.3035,60.0,7.983333333333333
2026-01-20T23:08:00+00:00,SAT-62178,292.2007592978515,43.89958144333537,2608.5934835633575,2.7209847280338435,-95300.39492973288,10.5,10499904699.60507,47.655,-122.3035,60.0,8.0
2026-01-20T23:08:01+00:00,SAT-62178,292.3995360063914,43.86129644480975,2611.3072123321163,2.735169144265448,-95797.19318618483,10.5,10499904202.806814,47.655,-122.3035,60.0,8.016666666666667
2026-01-20T23:08:02+00:00,SAT-62178,292.5976236238927,43.82258317484787,2614.035087691997,2.749305982939822,-96292.32507532972,10.5,10499903707.674925,47.655,-122.3035,60.0,8.033333333333333
2026-01-20T23:08:03+00:00,SAT-62178,292.7950197847153,43.78344546464161,2616.777062192316,2.763395191747938,-96785.7887650841,10.5,10499903214.211235,47.655,-122.3035,60.0,8.05
2026-01-20T23:08:04+00:00,SAT-62178,292.99172221330775,43.74388714370123,2619.5330883302195,2.777436728033895,-97277.58276145792,10.5,10499902722.417238,47.655,-122.3035,60.0,8.066666666666666
2026-01-20T23:08:05+00:00,SAT-62178,293.18772872397375,43.70391203917165,2622.3031185603118,2.7914305496225666,-97767.70558729983,10.5,10499902232.294413,47.655,-122.3035,60.0,8.083333333333334
2026-01-20T23:08:06+00:00,SAT-62178,293.3830372199331,43.663523975287504,2625.087105295135,2.805376617245336,-98256.15586725676,10.5,10499901743.844133,47.655,-122.3035,60.0,8.1
2026-01-20T23:08:07+00:00,SAT-62178,293.5776456925762,43.622726772802885,2627.885000908068,2.8192748941828167,-98742.93231526049,10.5,10499901257.067684,47.655,-122.3035,60.0,8.116666666666667
2026-01-20T23:08:08+00:00,SAT-62178,293.7715522206237,43.5815242484361,2630.6967577358664,2.8331253489640087,-99228.03382906347,10.5,10499900771.966171,47.655,-122.3035,60.0,8.133333333333333
2026-01-20T23:08:09+00:00,SAT-62178,293.96475496953,43.53992021428306,2633.5223280839,2.846927945576457,-99711.4591473572,10.5,10499900288.540854,47.655,-122.3035,60.0,8.15
2026-01-20T23:08:10+00:00,SAT-62178,294.1572521901213,43.49791847738571,2636.3616642216216,2.8606826603737145,-100193.20744194307,10.5,10499899806.792559,47.655,-122.3035,60.0,8.166666666666666
2026-01-20T23:08:11+00:00,SAT-62178,294.3490422184789,43.45552283905711,2639.2147183949005,2.874389455181361,-100673.27737579138,10.5,10499899326.722624,47.655,-122.3035,60.0,8.183333333333334
2026-01-20T23:08:12+00:00,SAT-62178,294.54012347385986,43.4127370946197,2642.081442811535,2.8880483311561043,-101151.66898941499,10.5,10499898848.33101,47.655,-122.3035,60.0,8.2
2026-01-20T23:08:13+00:00,SAT-62178,294.730494460409,43.36956503234462,2644.961789680475,2.901659240727049,-101628.38061667987,10.5,10499898371.619383,47.655,-122.3035,60.0,8.216666666666667
2026-01-20T23:08:14+00:00,SAT-62178,294.9201537627258,43.32601043372013,2647.8557111632267,2.9152221904100815,-102103.41248579994,10.5,10499897896.587515,47.655,-122.3035,60.0,8.233333333333333
2026-01-20T23:08:15+00:00,SAT-62178,295.1091000485277,43.28207707218645,2650.7631594277955,2.9287371399267523,-102576.76318605353,10.5,10499897423.236814,47.655,-122.3035,60.0,8.25
2026-01-20T23:08:16+00:00,SAT-62178,295.2973320643986,43.23776871339963,2653.6840866020157,2.9422040986313536,-103048.43304506752,10.5,10499896951.566956,47.655,-122.3035,60.0,8.266666666666667
2026-01-20T23:08:17+00:00,SAT-62178,295.48484863807903,43.19308911404569,2656.618444823051,2.9556230385428304,-103518.42108282697,10.5,10499896481.578917,47.655,-122.3035,60.0,8.283333333333333
2026-01-20T23:08:18+00:00,SAT-62178,295.6716486748678,43.148042021985326,2659.566186200157,2.9689939591123053,-103986.72728010791,10.5,10499896013.27272,47.655,-122.3035,60.0,8.3
2026-01-20T23:08:19+00:00,SAT-62178,295.85773115839584,43.102631175420875,2662.5272628420457,2.982316862325393,-104453.35170645495,10.5,10499895546.648294,47.655,-122.3035,60.0,8.316666666666666
2026-01-20T23:08:20+00:00,SAT-62178,296.0430951496601,43.05686030245106,2665.5016268594045,2.995591729910067,-104918.29372190445,10.5,10499895081.706278,47.655,-122.3035,60.0,8.333333333333334
2026-01-20T23:08:21+00:00,SAT-62178,296.22773978465136,43.010733120987894,2668.4892303447014,3.0088185737419,-105381.55374238918,10.5,10499894618.446259,47.655,-122.3035,60.0,8.35
2026-01-20T23:08:22+00:00,SAT-62178,296.41166427518965,42.96425333790541,2671.490025402247,3.0219973879900865,-105843.13156368968,10.5,10499894156.868437,47.655,-122.3035,60.0,8.366666666666667
2026-01-20T23:08:23+00:00,SAT-62178,296.594867906704,42.91742464893646,2674.5039641305357,3.0351281790302433,-106303.02740910699,10.5,10499893696.972591,47.655,-122.3035,60.0,8.383333333333333
2026-01-20T23:08:24+00:00,SAT-62178,296.7773500379009,42.87025073811603,2677.530998634422,3.0482109532908415,-106761.24150379338,10.5,10499893238.758495,47.655,-122.3035,60.0,8.4
2026-01-20T23:08:25+00:00,SAT-62178,296.9591100996781,42.8227352774221,2680.5710810251708,3.0612457245532774,-107217.77433043165,10.5,10499892782.22567,47.655,-122.3035,60.0,8.416666666666666
2026-01-20T23:08:26+00:00,SAT-62178,297.14014759445587,42.77488192631103,2683.6241634277917,3.0742324882232444,-107672.62572810975,10.5,10499892327.374271,47.655,-122.3035,60.0,8.433333333333334
2026-01-20T23:08:27+00:00,SAT-62178,297.32046209397913,42.72669433166526,2686.690197962713,3.0871712729277445,-108125.7966994664,10.5,10499891874.2033,47.655,-122.3035,60.0,8.45
2026-01-20T23:08:28+00:00,SAT-62178,297.50005324021646,42.678176126943065,2689.769136778913,3.1000620890359873,-108577.28760767513,10.5,10499891422.712393,47.655,-122.3035,60.0,8.466666666666667
2026-01-20T23:08:29+00:00,SAT-62178,297.67892074316825,42.629330932140746,2692.860932035712,3.112904962050439,-109027.09934594022,10.5,10499890972.900654,47.655,-122.3035,60.0,8.483333333333333
2026-01-20T23:08:30+00:00,SAT-62178,297.8570643806429,42.58016235324192,2695.9655359178632,3.125699890639057,-109475.2318676079,10.5,10499890524.768133,47.655,-122.3035,60.0,8.5
2026-01-20T23:08:31+00:00,SAT-62178,298.03448399559386,42.530673982338314,2699.082900608794,3.1384469151682124,-109921.6865864792,10.5,10499890078.313414,47.655,-122.3035,60.0,8.516666666666667
2026-01-20T23:08:32+00:00,SAT-62178,298.211179497471,42.48086939667509,2702.2129783321884,3.1511460572931496,-110366.46426101243,10.5,10499889633.53574,47.655,-122.3035,60.0,8.533333333333333
2026-01-20T23:08:33+00:00,SAT-62178,298.3871508600197,42.43075215865792,2705.355721333329,3.163797335005356,-110809.56552134558,10.5,10499889190.434479,47.655,-122.3035,60.0,8.55
2026-01-20T23:08:34+00:00,SAT-62178,298.5623981199705,42.38032581563708,2708.5110818754406,3.1764007847635023,-111250.99164441547,10.5,10499888749.008356,47.655,-122.3035,60.0,8.566666666666666
2026-01-20T23:08:35+00:00,SAT-62178,298.7369213770282,42.329593899341475,2711.6790122581115,3.1889564368686667,-111690.74369149406,10.5,10499888309.256308,47.655,-122.3035,60.0,8.583333333333334
2026-01-20T23:08:36+00:00,SAT-62178,298.9107207923972,42.27855992571659,2714.8594648111484,3.201464321078641,-112128.82270482513,10.5,10499887871.177296,47.655,-122.3035,60.0,8.6
2026-01-20T23:08:37+00:00,SAT-62178,299.0837965876887,42.22722739468178,2718.0523918940376,3.2139244662348987,-112565.22969455902,10.5,10499887434.770306,47.655,-122.3035,60.0,8.616666666666667
2026-01-20T23:08:38+00:00,SAT-62178,299.256149043773,42.1755997899004,2721.257745895029,3.2263369224341854,-112999.9664152957,10.5,10499887000.033585,47.655,-122.3035,60.0,8.633333333333333
2026-01-20T23:08:39+00:00,SAT-62178,299.42777850089755,42.123680578202965,2724.475479252337,3.238701708768794,-113433.03353572804,10.5,10499886566.966465,47.655,-122.3035,60.0,8.65
2026-01-20T23:08:40+00:00,SAT-62178,299.5986853558843,42.07147320985913,2727.7055444232155,3.2510188875871253,-113864.43323956073,10.5,10499886135.566761,47.655,-122.3035,60.0,8.666666666666666
2026-01-20T23:08:41+00:00,SAT-62178,299.7688700634402,42.01898111765994,2730.9478939271025,3.2632884787788683,-114294.16622341485,10.5,10499885705.833776,47.655,-122.3035,60.0,8.683333333333334
2026-01-20T23:08:42+00:00,SAT-62178,299.93833313277173,41.96620771739334,2734.2024803032714,3.2755105460595355,-114722.23471887715,10.5,10499885277.765282,47.655,-122.3035,60.0,8.7
2026-01-20T23:08:43+00:00,SAT-62178,300.10707512890946,41.913156406930405,2737.469256154541,3.2876851240587133,-115148.63993882225,10.5,10499884851.360062,47.655,-122.3035,60.0,8.716666666666667
2026-01-20T23:08:44+00:00,SAT-62178,300.27509667006154,41.8598305665025,2740.748174118269,3.2998122690449705,-115573.3838540134,10.5,10499884426.616146,47.655,-122.3035,60.0,8.733333333333333
2026-01-20T23:08:45+00:00,SAT-62178,300.44239842774357,41.80623355816058,2744.03918688793,3.3118920164732417,-115996.46770623242,10.5,10499884003.532293,47.655,-122.3035,60.0,8.75
2026-01-20T23:08:46+00:00,SAT-62178,300.6089811246209,41.75236872593465,2747.3422471923595,3.3239244261706506,-116417.89359087823,10.5,10499883582.10641,47.655,-122.3035,60.0,8.766666666666667
2026-01-20T23:08:47+00:00,SAT-62178,300.7748455347741,41.69823939526421,2750.6573078200604,3.3359095568299737,-116837.66356362014,10.5,10499883162.336437,47.655,-122.3035,60.0,8.783333333333333
2026-01-20T23:08:48+00:00,SAT-62178,300.9399924825734,41.643848872850604,2753.9843216180716,3.3478474521250763,-117255.77915410168,10.5,10499882744.220846,47.655,-122.3035,60.0,8.8
2026-01-20T23:08:49+00:00,SAT-62178,301.10442284091084,41.589200446744385,2757.3232414769914,3.3597381827284916,-117672.24283757387,10.5,10499882327.757162,47.655,-122.3035,60.0,8.816666666666666
2026-01-20T23:08:50+00:00,SAT-62178,301.26813753154175,41.534297385753604,2760.6740203578993,3.3715817927709746,-118087.05615968243,10.5,10499881912.94384,47.655,-122.3035,60.0,8.833333333333334
2026-01-20T23:08:51+00:00,SAT-62178,301.43113752274166,41.47914293973418,2764.0366112658894,3.3833783477945794,-118500.22141598734,10.5,10499881499.778584,47.655,-122.3035,60.0,8.85
2026-01-20T23:08:52+00:00,SAT-62178,301.5934238293853,41.42374033910259,2767.4109672714235,3.3951279123127236,-118911.74086602138,10.5,10499881088.259134,47.655,-122.3035,60.0,8.866666666666667
2026-01-20T23:08:53+00:00,SAT-62178,301.75499751190114,41.36809279472281,2770.797041509303,3.4068305407394823,-119321.61641559562,10.5,10499880678.383585,47.655,-122.3035,60.0,8.883333333333333
2026-01-20T23:08:54+00:00,SAT-62178,301.9158596747761,41.31220349794987,2774.1947871686007,3.4184863038342925,-119729.85054300488,10.5,10499880270.149458,47.655,-122.3035,60.0,8.9
2026-01-20T23:08:55+00:00,SAT-62178,302.07601146640707,41.25607562024375,2777.604157508958,3.4300952794625212,-120136.44597542369,10.5,10499879863.554024,47.655,-122.3035,60.0,8.916666666666666
2026-01-20T23:08:56+00:00,SAT-62178,302.2354540784355,41.19971231294416,2781.0251058676754,3.441657509370866,-120541.40417499794,10.5,10499879458.595825,47.655,-122.3035,60.0,8.933333333333334
2026-01-20T23:08:57+00:00,SAT-62178,302.3941887430796,41.14311670776021,2784.457585623688,3.453173083350579,-120944.72828659712,10.5,10499879055.271713,47.655,-122.3035,60.0,8.95
2026-01-20T23:08:58+00:00,SAT-62178,302.5522167344741,41.08629191588409,2787.901550245483,3.4646420665828765,-121346.42059314315,10.5,10499878653.579407,47.655,-122.3035,60.0,8.966666666666667
2026-01-20T23:08:59+00:00,SAT-62178,302.7095393665523,41.02924102830454,2791.356953266555,3.4760645432121837,-121746.48404172972,10.5,10499878253.515959,47.655,-122.3035,60.0,8.983333333333333
2026-01-20T23:09:00+00:00,SAT-62178,302.86615799299614,40.971967115410344,2794.8237483043185,3.4874405488255715,-122144.9198787666,10.5,10499877855.080122,47.655,-122.3035,60.0,9.0
2026-01-20T23:09:01+00:00,SAT-62178,303.0220740040737,40.9144732277127,2798.3018890116805,3.4987702058735115,-122541.73239298727,10.5,10499877458.267607,47.655,-122.3035,60.0,9.016666666666667
2026-01-20T23:09:02+00:00,SAT-62178,303.17728882973046,40.85676239433986,2801.791329163672,3.51005356750766,-122936.92344598753,10.5,10499877063.076553,47.655,-122.3035,60.0,9.033333333333333
2026-01-20T23:09:03+00:00,SAT-62178,303.33180393549105,40.79883762411346,2805.2920225883327,3.5212907147575603,-123330.49587576477,10.5,10499876669.504124,47.655,-122.3035,60.0,9.05
2026-01-20T23:09:04+00:00,SAT-62178,303.4856208228341,40.740701905028246,2808.803923194517,3.5324817211056927,-123722.45225598628,10.5,10499876277.547745,47.655,-122.3035,60.0,9.066666666666666
2026-01-20T23:09:05+00:00,SAT-62178,303.6387410279867,40.68235820432048,2812.326984964367,3.5436266731694763,-124112.79562036047,10.5,10499875887.20438,47.655,-122.3035,60.0,9.083333333333334
2026-01-20T23:09:06+00:00,SAT-62178,303.79116612161584,40.62380946820222,2815.861161966408,3.5547256624869146,-124501.52917493542,10.5,10499875498.470825,47.655,-122.3035,60.0,9.1
2026-01-20T23:09:07+00:00,SAT-62178,303.9428977081889,40.56505862173392,2819.4064083604617,3.56577876010205,-124888.65540797402,10.5,10499875111.344591,47.655,-122.3035,60.0,9.116666666666667
2026-01-20T23:09:08+00:00,SAT-62178,304.09393742419115,40.50610856912564,2822.9626783772037,3.5767860386166164,-125274.17686229608,10.5,10499874725.823137,47.655,-122.3035,60.0,9.133333333333333
2026-01-20T23:09:09+00:00,SAT-62178,304.2442869373826,40.44696219367688,2826.529926319717,3.5877476235222727,-125658.09793315033,10.5,10499874341.902067,47.655,-122.3035,60.0,9.15
2026-01-20T23:09:10+00:00,SAT-62178,304.3939479482269,40.387622356872235,2830.1081066162433,3.5986635593756615,-126040.4201810989,10.5,10499873959.579819,47.655,-122.3035,60.0,9.166666666666666
2026-01-20T23:09:11+00:00,SAT-62178,304.54292218558203,40.32809189969725,2833.6971737394606,3.6095339650544696,-126421.14776974119,10.5,10499873578.85223,47.655,-122.3035,60.0,9.183333333333334
2026-01-20T23:09:12+00:00,SAT-62178,304.691211409063,40.268373641389196,2837.2970822806083,3.6203589087241816,-126800.28308652082,10.5,10499873199.716913,47.655,-122.3035,60.0,9.2
2026-01-20T23:09:13+00:00,SAT-62178,304.838817406086,40.2084703802622,2840.9077868989093,3.6311384965148066,-127177.82984855966,10.5,10499872822.17015,47.655,-122.3035,60.0,9.216666666666667
2026-01-20T23:09:14+00:00,SAT-62178,304.98574199265994,40.14838489306928,2844.5292423594333,3.6418728141462493,-127553.79105813135,10.5,10499872446.208942,47.655,-122.3035,60.0,9.233333333333333
2026-01-20T23:09:15+00:00,SAT-62178,305.13198701175384,40.08811993533512,2848.161403512742,3.6525619452074465,-127928.16964287403,10.5,10499872071.830357,47.655,-122.3035,60.0,9.25
2026-01-20T23:09:16+00:00,SAT-62178,305.2775543324285,40.027678241390724,2851.8042252927617,3.6632059994103425,-128300.96944536408,10.5,10499871699.030554,47.655,-122.3035,60.0,9.266666666666667
