satellites_20260120_184412/SAT-53509.csv

timestamp,satellite,azimuth_deg,elevation_deg,distance_km,relative_velocity_kms,doppler_shift_hz,tx_freq_ghz,rx_freq_hz,ue_lat,ue_lon,ue_alt_m,time_minutes
2026-01-20T23:00:00+00:00,SAT-53509,289.93138778290773,43.33970230644506,2672.8376226369405,-6.596879481660664,231050.62422029636,10.5,10500231050.62422,47.655,-122.3035,60.0,0.0
2026-01-20T23:00:01+00:00,SAT-53509,289.8512155805523,43.40257487726471,2666.258334833897,-6.594184951627097,230956.2503806701,10.5,10500230956.250381,47.655,-122.3035,60.0,0.016666666666666666
2026-01-20T23:00:02+00:00,SAT-53509,289.77047240636585,43.46553883054944,2659.6817343754747,-6.591462297302103,230860.89150939242,10.5,10500230860.89151,47.655,-122.3035,60.0,0.03333333333333333
2026-01-20T23:00:03+00:00,SAT-53509,289.68915297732775,43.528594039816305,2653.1078493109653,-6.588711287704366,230764.5395165206,10.5,10500230764.539516,47.655,-122.3035,60.0,0.05
2026-01-20T23:00:04+00:00,SAT-53509,289.6072519511958,43.591740366707235,2646.5367079200278,-6.5859316560718755,230667.18505892062,10.5,10500230667.185059,47.655,-122.3035,60.0,0.06666666666666667
2026-01-20T23:00:05+00:00,SAT-53509,289.52476392619957,43.65497766036689,2639.968338748372,-6.5831231493472675,230568.8192734532,10.5,10500230568.819273,47.655,-122.3035,60.0,0.08333333333333333
2026-01-20T23:00:06+00:00,SAT-53509,289.4416834400987,43.718305757288526,2633.4027705940903,-6.580285522562009,230469.43358028404,10.5,10500230469.43358,47.655,-122.3035,60.0,0.1
2026-01-20T23:00:07+00:00,SAT-53509,289.35800496936037,43.781724481097974,2626.8400324995882,-6.577418522385315,230369.01910669752,10.5,10500230369.019106,47.655,-122.3035,60.0,0.11666666666666667
2026-01-20T23:00:08+00:00,SAT-53509,289.2737229284486,43.845233642175224,2620.2801537599294,-6.574521859684354,230267.56572603874,10.5,10500230267.565725,47.655,-122.3035,60.0,0.13333333333333333
2026-01-20T23:00:09+00:00,SAT-53509,289.18883166948626,43.908833037002665,2613.7231639585375,-6.5715952807634395,230165.0645528118,10.5,10500230165.064552,47.655,-122.3035,60.0,0.15
2026-01-20T23:00:10+00:00,SAT-53509,289.10332548103304,43.97252244819203,2607.169092931856,-6.568638545275787,230061.50716905546,10.5,10500230061.50717,47.655,-122.3035,60.0,0.16666666666666666
2026-01-20T23:00:11+00:00,SAT-53509,289.0171985871598,44.03630164429472,2600.6179707560345,-6.565651349700862,229956.88294419684,10.5,10500229956.882944,47.655,-122.3035,60.0,0.18333333333333332
2026-01-20T23:00:12+00:00,SAT-53509,288.93044514734805,44.100170378861606,2594.0698278099326,-6.562633425732679,229851.18248102535,10.5,10500229851.182482,47.655,-122.3035,60.0,0.2
2026-01-20T23:00:13+00:00,SAT-53509,288.8430592552901,44.16412839044742,2587.524694740002,-6.559584512889291,229744.39665636138,10.5,10500229744.396656,47.655,-122.3035,60.0,0.21666666666666667
2026-01-20T23:00:14+00:00,SAT-53509,288.75503493795503,44.22817540234455,2580.98260245248,-6.556504309286636,229636.51489694804,10.5,10500229636.514896,47.655,-122.3035,60.0,0.23333333333333334
2026-01-20T23:00:15+00:00,SAT-53509,288.6663661552679,44.29231112182777,2574.4435821546854,-6.553392553566086,229527.52804890074,10.5,10500229527.52805,47.655,-122.3035,60.0,0.25
2026-01-20T23:00:16+00:00,SAT-53509,288.5770467987569,44.35653524018991,2567.9076653145953,-6.550248942899812,229417.42550590792,10.5,10500229417.425507,47.655,-122.3035,60.0,0.26666666666666666
2026-01-20T23:00:17+00:00,SAT-53509,288.48707069124265,44.42084743196931,2561.37488370221,-6.54707318760763,229306.1971221441,10.5,10500229306.197123,47.655,-122.3035,60.0,0.2833333333333333
2026-01-20T23:00:18+00:00,SAT-53509,288.39643158577957,44.48524735470121,2554.8452693764357,-6.543865016489748,229193.83339904548,10.5,10500229193.833399,47.655,-122.3035,60.0,0.3
2026-01-20T23:00:19+00:00,SAT-53509,288.3051231646013,44.54973464871445,2548.318854666657,-6.540624100478945,229080.3228112861,10.5,10500229080.322811,47.655,-122.3035,60.0,0.31666666666666665
2026-01-20T23:00:20+00:00,SAT-53509,288.2131390389263,44.61430893616942,2541.7956722304457,-6.5373501562015415,228965.65543392085,10.5,10500228965.655434,47.655,-122.3035,60.0,0.3333333333333333
2026-01-20T23:00:21+00:00,SAT-53509,288.12047274754616,44.67896982110298,2535.275755007994,-6.534042891378819,228849.82103011277,10.5,10500228849.82103,47.655,-122.3035,60.0,0.35
2026-01-20T23:00:22+00:00,SAT-53509,288.0271177559964,44.743716888930635,2528.759136230992,-6.530701977567654,228732.80809639438,10.5,10500228732.808096,47.655,-122.3035,60.0,0.36666666666666664
2026-01-20T23:00:23+00:00,SAT-53509,287.93306745616303,44.80854970566645,2522.245849458698,-6.527327126371117,228614.60653188522,10.5,10500228614.606531,47.655,-122.3035,60.0,0.38333333333333336
2026-01-20T23:00:24+00:00,SAT-53509,287.8383151648277,44.87346781788862,2515.7359285379976,-6.52391801319534,228495.20496793507,10.5,10500228495.204967,47.655,-122.3035,60.0,0.4
2026-01-20T23:00:25+00:00,SAT-53509,287.7428541232365,44.93847075193915,2509.2294076395037,-6.520474298962192,228374.59152859348,10.5,10500228374.591528,47.655,-122.3035,60.0,0.4166666666666667
2026-01-20T23:00:26+00:00,SAT-53509,287.6466774963459,45.003558013327826,2502.7263212720054,-6.516995717018925,228252.75687455322,10.5,10500228252.756874,47.655,-122.3035,60.0,0.43333333333333335
2026-01-20T23:00:27+00:00,SAT-53509,287.5497783709668,45.06872908699281,2496.226704210232,-6.513481888355565,228129.68773128185,10.5,10500228129.68773,47.655,-122.3035,60.0,0.45
2026-01-20T23:00:28+00:00,SAT-53509,287.45214975626953,45.133983435708004,2489.7305916069117,-6.5099325062874,228005.37335738345,10.5,10500228005.373358,47.655,-122.3035,60.0,0.4666666666666667
2026-01-20T23:00:29+00:00,SAT-53509,287.35378458191224,45.199320500321456,2483.2380189206415,-6.506347249436577,227879.80249684618,10.5,10500227879.802496,47.655,-122.3035,60.0,0.48333333333333334
2026-01-20T23:00:30+00:00,SAT-53509,287.2546756972496,45.26473969911594,2476.749021930537,-6.5027257708760215,227752.96299881642,10.5,10500227752.963,47.655,-122.3035,60.0,0.5
2026-01-20T23:00:31+00:00,SAT-53509,287.1548158707317,45.33024042704789,2470.263636761716,-6.499067714433629,227624.84238864042,10.5,10500227624.842388,47.655,-122.3035,60.0,0.5166666666666667
2026-01-20T23:00:32+00:00,SAT-53509,287.05419778904036,45.3958220551364,2463.7818998945213,-6.495372763320264,227495.42957102266,10.5,10500227495.429571,47.655,-122.3035,60.0,0.5333333333333333
2026-01-20T23:00:33+00:00,SAT-53509,286.9528140555818,45.46148393033226,2457.303848125236,-6.491640564216968,227364.71217123867,10.5,10500227364.712172,47.655,-122.3035,60.0,0.55
2026-01-20T23:00:34+00:00,SAT-53509,286.8506571900044,45.52722537461068,2450.829518602524,-6.4878707598447365,227232.67767586646,10.5,10500227232.677675,47.655,-122.3035,60.0,0.5666666666666667
2026-01-20T23:00:35+00:00,SAT-53509,286.7477196272299,45.593045684378204,2444.358948831372,-6.484062983371049,227099.31323687942,10.5,10500227099.313236,47.655,-122.3035,60.0,0.5833333333333334
2026-01-20T23:00:36+00:00,SAT-53509,286.64399371664655,45.65894412981001,2437.8921766826234,-6.4802168801286415,226964.60643232972,10.5,10500226964.606432,47.655,-122.3035,60.0,0.6
2026-01-20T23:00:37+00:00,SAT-53509,286.53947172086794,45.72491995439651,2431.4292403808417,-6.476332123588347,226828.5458257847,10.5,10500226828.545826,47.655,-122.3035,60.0,0.6166666666666667
2026-01-20T23:00:38+00:00,SAT-53509,286.4341458143401,45.79097237464051,2424.9701784762497,-6.472408280390658,226691.11623916138,10.5,10500226691.11624,47.655,-122.3035,60.0,0.6333333333333333
2026-01-20T23:00:39+00:00,SAT-53509,286.3280080838538,45.857100578363834,2418.5150299512734,-6.468445010128451,226552.3057499623,10.5,10500226552.30575,47.655,-122.3035,60.0,0.65
2026-01-20T23:00:40+00:00,SAT-53509,286.2210505261888,45.92330372503749,2412.0638341278386,-6.464441967922267,226412.10227904998,10.5,10500226412.10228,47.655,-122.3035,60.0,0.6666666666666666
2026-01-20T23:00:41+00:00,SAT-53509,286.1132650470882,45.98958094510772,2405.616630671831,-6.460398712881799,226270.49038458095,10.5,10500226270.490385,47.655,-122.3035,60.0,0.6833333333333333
2026-01-20T23:00:42+00:00,SAT-53509,286.00464346171634,46.05593133836655,2399.17345968885,-6.456314875149602,226127.45711258292,10.5,10500226127.457113,47.655,-122.3035,60.0,0.7
2026-01-20T23:00:43+00:00,SAT-53509,285.8951774924887,46.12235397401844,2392.7343616533676,-6.452190107232953,225982.9902923909,10.5,10500225982.990292,47.655,-122.3035,60.0,0.7166666666666667
2026-01-20T23:00:44+00:00,SAT-53509,285.7848587677181,46.18884789023869,2386.2993773864205,-6.4480239547721965,225837.07401040776,10.5,10500225837.07401,47.655,-122.3035,60.0,0.7333333333333333
2026-01-20T23:00:45+00:00,SAT-53509,285.6736788221623,46.25541209238337,2379.8685481621947,-6.443816071830777,225689.6961504721,10.5,10500225689.69615,47.655,-122.3035,60.0,0.75
2026-01-20T23:00:46+00:00,SAT-53509,285.56162909432476,46.32204555340245,2373.4419155998885,-6.439565994801981,225540.84047511563,10.5,10500225540.840475,47.655,-122.3035,60.0,0.7666666666666667
2026-01-20T23:00:47+00:00,SAT-53509,285.44870092719503,46.388747211903414,2367.0195217810724,-6.435273368265364,225390.494536011,10.5,10500225390.494535,47.655,-122.3035,60.0,0.7833333333333333
2026-01-20T23:00:48+00:00,SAT-53509,285.3348855655067,46.455515972535075,2360.601409141789,-6.430937756735536,225238.64308061788,10.5,10500225238.64308,47.655,-122.3035,60.0,0.8
2026-01-20T23:00:49+00:00,SAT-53509,285.22017415591034,46.52235070440563,2354.1876205524054,-6.426558725279038,225085.2708757266,10.5,10500225085.270876,47.655,-122.3035,60.0,0.8166666666666667
2026-01-20T23:00:50+00:00,SAT-53509,285.1045577459132,46.58925024031798,2347.77819931706,-6.4221358823054215,224930.36420618335,10.5,10500224930.364206,47.655,-122.3035,60.0,0.8333333333333334
2026-01-20T23:00:51+00:00,SAT-53509,284.98802728207966,46.656213376435545,2341.373189130441,-6.417668777631077,224773.90730465375,10.5,10500224773.907305,47.655,-122.3035,60.0,0.85
2026-01-20T23:00:52+00:00,SAT-53509,284.8705736099355,46.723238870868435,2334.9726341362166,-6.413156993512057,224615.8855399778,10.5,10500224615.88554,47.655,-122.3035,60.0,0.8666666666666667
2026-01-20T23:00:53+00:00,SAT-53509,284.75218747231986,46.79032544319122,2328.5765788946874,-6.408600048258176,224456.28204132756,10.5,10500224456.282042,47.655,-122.3035,60.0,0.8833333333333333
2026-01-20T23:00:54+00:00,SAT-53509,284.6328595094114,46.85747177293377,2322.185068446558,-6.403997567348056,224295.08369138022,10.5,10500224295.08369,47.655,-122.3035,60.0,0.9
2026-01-20T23:00:55+00:00,SAT-53509,284.5125802558175,46.92467649984842,2315.798148206056,-6.399349047986665,224132.2728801269,10.5,10500224132.27288,47.655,-122.3035,60.0,0.9166666666666666
2026-01-20T23:00:56+00:00,SAT-53509,284.3913401416743,46.991938221688365,2309.415864088864,-6.394654040938731,223967.8338734481,10.5,10500223967.833874,47.655,-122.3035,60.0,0.9333333333333333
2026-01-20T23:00:57+00:00,SAT-53509,284.2691294906459,47.0592554938735,2303.038262458701,-6.389912118297438,223801.75168423718,10.5,10500223801.751684,47.655,-122.3035,60.0,0.95
2026-01-20T23:00:58+00:00,SAT-53509,284.14593851851686,47.12662682880326,2296.6653901060527,-6.385122771945173,223634.00851606583,10.5,10500223634.008516,47.655,-122.3035,60.0,0.9666666666666667
2026-01-20T23:00:59+00:00,SAT-53509,284.0217573334425,47.19405069407459,2290.2972943281657,-6.380285568370468,223464.58918552884,10.5,10500223464.589186,47.655,-122.3035,60.0,0.9833333333333333
2026-01-20T23:01:00+00:00,SAT-53509,283.8965759336527,47.26152551231755,2283.9340228546444,-6.375400015075591,223293.47644327232,10.5,10500223293.476442,47.655,-122.3035,60.0,1.0
2026-01-20T23:01:01+00:00,SAT-53509,283.7703842073367,47.32904965959473,2277.5756239062757,-6.370465624688201,223120.6532194553,10.5,10500223120.65322,47.655,-122.3035,60.0,1.0166666666666666
2026-01-20T23:01:02+00:00,SAT-53509,283.64317193158,47.39662146446201,2271.2221461899203,-6.3654819147385036,222946.10261594466,10.5,10500222946.102615,47.655,-122.3035,60.0,1.0333333333333334
2026-01-20T23:01:03+00:00,SAT-53509,283.51492877114873,47.46423920700134,2264.8736388936204,-6.3604483863638155,222769.8071604592,10.5,10500222769.807161,47.655,-122.3035,60.0,1.05
2026-01-20T23:01:04+00:00,SAT-53509,283.38564427778107,47.531901117608626,2258.530151702954,-6.355364550796989,222591.74973430583,10.5,10500222591.749735,47.655,-122.3035,60.0,1.0666666666666667
2026-01-20T23:01:05+00:00,SAT-53509,283.2553078889358,47.599605376040614,2252.191734790959,-6.350229902721971,222411.91263917883,10.5,10500222411.91264,47.655,-122.3035,60.0,1.0833333333333333
2026-01-20T23:01:06+00:00,SAT-53509,283.12390892707634,47.6673501101557,2245.8584388346444,-6.345043909601437,222230.27722336858,10.5,10500222230.277224,47.655,-122.3035,60.0,1.1
2026-01-20T23:01:07+00:00,SAT-53509,282.99143659912977,47.735133394515216,2239.5303150421355,-6.33980609125385,222046.82666888647,10.5,10500222046.82667,47.655,-122.3035,60.0,1.1166666666666667
2026-01-20T23:01:08+00:00,SAT-53509,282.8578799945442,47.8029532498166,2233.207415100458,-6.334515892345693,221861.5415256036,10.5,10500221861.541525,47.655,-122.3035,60.0,1.1333333333333333
2026-01-20T23:01:09+00:00,SAT-53509,282.7232280856346,47.8708076409329,2226.889791250492,-6.329172777964728,221674.40305863082,10.5,10500221674.403059,47.655,-122.3035,60.0,1.15
2026-01-20T23:01:10+00:00,SAT-53509,282.58746972628074,47.93869447595446,2220.5774962666014,-6.323776259721673,221485.39416250947,10.5,10500221485.394163,47.655,-122.3035,60.0,1.1666666666666667
2026-01-20T23:01:11+00:00,SAT-53509,282.4505936499903,48.006611605488516,2214.2705834102394,-6.318325752980579,221294.4943608157,10.5,10500221294.49436,47.655,-122.3035,60.0,1.1833333333333333
2026-01-20T23:01:12+00:00,SAT-53509,282.312588470852,48.07455682039608,2207.9691065259335,-6.31282070373565,221101.68424992307,10.5,10500221101.68425,47.655,-122.3035,60.0,1.2
2026-01-20T23:01:13+00:00,SAT-53509,282.17344268197763,48.142527850868454,2201.673120010741,-6.307260577892126,220906.94512357382,10.5,10500220906.945124,47.655,-122.3035,60.0,1.2166666666666666
2026-01-20T23:01:14+00:00,SAT-53509,282.03314465421073,48.210522365364746,2195.38267879439,-6.301644824086443,220710.2576706838,10.5,10500220710.257671,47.655,-122.3035,60.0,1.2333333333333334
2026-01-20T23:01:15+00:00,SAT-53509,281.8916826355169,48.27853796912147,2189.097838356501,-6.2959728474814165,220511.60105753853,10.5,10500220511.601057,47.655,-122.3035,60.0,1.25
2026-01-20T23:01:16+00:00,SAT-53509,281.7490447510274,48.346572202351105,2182.8186547699465,-6.290244078074015,220310.9553202208,10.5,10500220310.95532,47.655,-122.3035,60.0,1.2666666666666666
2026-01-20T23:01:17+00:00,SAT-53509,281.6052190016358,48.41462253915108,2176.5451846760807,-6.284457949604503,220108.3006259193,10.5,10500220108.300627,47.655,-122.3035,60.0,1.2833333333333334
2026-01-20T23:01:18+00:00,SAT-53509,281.460193263131,48.48268638616172,2170.2774852810085,-6.278613852029504,219903.61560833457,10.5,10500219903.615608,47.655,-122.3035,60.0,1.3
2026-01-20T23:01:19+00:00,SAT-53509,281.31395528625137,48.5507610806745,2164.015614399251,-6.272711205180573,219696.87994751363,10.5,10500219696.879948,47.655,-122.3035,60.0,1.3166666666666667
2026-01-20T23:01:20+00:00,SAT-53509,281.1664926953185,48.61884388951624,2157.7596304239505,-6.266749400731866,219488.0723373121,10.5,10500219488.072338,47.655,-122.3035,60.0,1.3333333333333333
2026-01-20T23:01:21+00:00,SAT-53509,281.0177929880576,48.686932007271594,2151.5095923549543,-6.260727833760063,219277.17159075648,10.5,10500219277.17159,47.655,-122.3035,60.0,1.35
2026-01-20T23:01:22+00:00,SAT-53509,280.8678435348164,48.755022554820016,2145.265559795417,-6.2546458867908505,219064.1560812845,10.5,10500219064.156082,47.655,-122.3035,60.0,1.3666666666666667
2026-01-20T23:01:23+00:00,SAT-53509,280.7166315781376,48.823112577669406,2139.0275929643244,-6.248502898526379,218849.0026474481,10.5,10500218849.002647,47.655,-122.3035,60.0,1.3833333333333333
2026-01-20T23:01:24+00:00,SAT-53509,280.56414423311566,48.891199043916295,2132.7957527401945,-6.24229829953308,218631.6913452751,10.5,10500218631.691345,47.655,-122.3035,60.0,1.4
2026-01-20T23:01:25+00:00,SAT-53509,280.41036848471003,48.95927884366157,2126.57010056946,-6.236031408379978,218412.19830817016,10.5,10500218412.198309,47.655,-122.3035,60.0,1.4166666666666667
2026-01-20T23:01:26+00:00,SAT-53509,280.2552911897014,49.02734878616328,2120.350698578169,-6.229701583091486,218190.50105143272,10.5,10500218190.50105,47.655,-122.3035,60.0,1.4333333333333333
2026-01-20T23:01:27+00:00,SAT-53509,280.09889907527116,49.095405598616026,2114.1376095326323,-6.223308179223336,217966.5770038986,10.5,10500217966.577003,47.655,-122.3035,60.0,1.45
2026-01-20T23:01:28+00:00,SAT-53509,279.9411787385849,49.163445924440055,2107.930896841887,-6.216850534121495,217740.40295662038,10.5,10500217740.402956,47.655,-122.3035,60.0,1.4666666666666666
2026-01-20T23:01:29+00:00,SAT-53509,279.7821166467608,49.231466321365446,2101.7306245758564,-6.210327956548888,217511.95469955192,10.5,10500217511.9547,47.655,-122.3035,60.0,1.4833333333333334
2026-01-20T23:01:30+00:00,SAT-53509,279.62169913719396,49.29946325936887,2095.5368574938584,-6.203739809667518,217281.20992793268,10.5,10500217281.209929,47.655,-122.3035,60.0,1.5
2026-01-20T23:01:31+00:00,SAT-53509,279.45991241590957,49.3674331194916,2089.34966099035,-6.1970853551565455,217048.14278264373,10.5,10500217048.142782,47.655,-122.3035,60.0,1.5166666666666666
2026-01-20T23:01:32+00:00,SAT-53509,279.2967425597357,49.43537219090551,2083.1691011961407,-6.1903639400282735,216812.73039329387,10.5,10500216812.730392,47.655,-122.3035,60.0,1.5333333333333334
2026-01-20T23:01:33+00:00,SAT-53509,279.13217551403704,49.503276670007885,2076.995244893286,-6.183574840821954,216574.94742122738,10.5,10500216574.947422,47.655,-122.3035,60.0,1.55
2026-01-20T23:01:34+00:00,SAT-53509,278.9661970942834,49.571142657760284,2070.8281595853728,-6.176717346544738,216334.76896446722,10.5,10500216334.768965,47.655,-122.3035,60.0,1.5666666666666667
2026-01-20T23:01:35+00:00,SAT-53509,278.79879298564725,49.63896615790976,2064.667913485085,-6.169790753374501,216092.17037218547,10.5,10500216092.170372,47.655,-122.3035,60.0,1.5833333333333333
2026-01-20T23:01:36+00:00,SAT-53509,278.62994874285334,49.70674307511953,2058.514575507053,-6.162794317893212,215847.125606738,10.5,10500215847.125607,47.655,-122.3035,60.0,1.6
2026-01-20T23:01:37+00:00,SAT-53509,278.4596497911845,49.77446921254332,2052.368215307341,-6.155727308910097,215599.60905873097,10.5,10500215599.609058,47.655,-122.3035,60.0,1.6166666666666667
2026-01-20T23:01:38+00:00,SAT-53509,278.2878814263569,49.84214026994094,2046.2289032712547,-6.148588981318055,215349.5946313619,10.5,10500215349.594631,47.655,-122.3035,60.0,1.6333333333333333
2026-01-20T23:01:39+00:00,SAT-53509,278.11462881506634,49.90975184146773,2040.0967105272202,-6.1413785813809225,215097.055925602,10.5,10500215097.055925,47.655,-122.3035,60.0,1.65
2026-01-20T23:01:40+00:00,SAT-53509,277.93987699555106,49.977299413489106,2033.9717089553897,-6.134095336047388,214841.9658659244,10.5,10500214841.965866,47.655,-122.3035,60.0,1.6666666666666667
2026-01-20T23:01:41+00:00,SAT-53509,277.76361087844884,50.04477836223622,2027.853971206905,-6.126738509781146,214584.29869073635,10.5,10500214584.29869,47.655,-122.3035,60.0,1.6833333333333333
2026-01-20T23:01:42+00:00,SAT-53509,277.5858152463338,50.11218395206181,2021.7435706664833,-6.119307275640022,214324.02543702492,10.5,10500214324.025436,47.655,-122.3035,60.0,1.7
2026-01-20T23:01:43+00:00,SAT-53509,277.4064747566771,50.1795113322226,2015.6405815435783,-6.1118008644583,214061.11916535324,10.5,10500214061.119165,47.655,-122.3035,60.0,1.7166666666666666
2026-01-20T23:01:44+00:00,SAT-53509,277.2255739410534,50.246755535288926,2009.5450788147584,-6.104218487463908,213795.5522495867,10.5,10500213795.55225,47.655,-122.3035,60.0,1.7333333333333334
2026-01-20T23:01:45+00:00,SAT-53509,277.0430972064015,50.31391147465095,2003.4571382432612,-6.096559326146292,213527.29602202354,10.5,10500213527.296022,47.655,-122.3035,60.0,1.75
2026-01-20T23:01:46+00:00,SAT-53509,276.8590288367885,50.38097394188313,1997.3768364086511,-6.088822547394763,213256.32130360336,10.5,10500213256.321304,47.655,-122.3035,60.0,1.7666666666666666
2026-01-20T23:01:47+00:00,SAT-53509,276.6733529947748,50.44793760423194,1991.304250721383,-6.081007354666059,212982.60019601166,10.5,10500212982.600197,47.655,-122.3035,60.0,1.7833333333333334
2026-01-20T23:01:48+00:00,SAT-53509,276.4860537215973,50.51479700264478,1985.2394593863294,-6.073112890681352,212706.1026737177,10.5,10500212706.102674,47.655,-122.3035,60.0,1.8
2026-01-20T23:01:49+00:00,SAT-53509,276.297114940084,50.58154654867305,1979.1825414633565,-6.065138314021322,212426.79926665762,10.5,10500212426.799267,47.655,-122.3035,60.0,1.8166666666666667
2026-01-20T23:01:50+00:00,SAT-53509,276.1065204556414,50.64818052219501,1973.1335768515057,-6.0570827682693364,212144.65997949833,10.5,10500212144.659979,47.655,-122.3035,60.0,1.8333333333333333
2026-01-20T23:01:51+00:00,SAT-53509,275.91425395816924,50.71469306875543,1967.092646303952,-6.048945382245741,211859.65429984327,10.5,10500211859.6543,47.655,-122.3035,60.0,1.85
2026-01-20T23:01:52+00:00,SAT-53509,275.72029902424543,50.78107819687861,1961.0598314427255,-6.040725299874411,211571.7522442853,10.5,10500211571.752245,47.655,-122.3035,60.0,1.8666666666666667
2026-01-20T23:01:53+00:00,SAT-53509,275.52463911839675,50.847329775666054,1955.0352147436508,-6.032421599455087,211280.92153098265,10.5,10500211280.921532,47.655,-122.3035,60.0,1.8833333333333333
2026-01-20T23:01:54+00:00,SAT-53509,275.3272575971021,50.91344153147159,1949.0188796017942,-6.024033419823351,210987.1319983146,10.5,10500210987.131998,47.655,-122.3035,60.0,1.9
2026-01-20T23:01:55+00:00,SAT-53509,275.12813770906394,50.97940704593737,1943.0109102710906,-6.015559834045806,210690.35118115268,10.5,10500210690.351181,47.655,-122.3035,60.0,1.9166666666666667
2026-01-20T23:01:56+00:00,SAT-53509,274.9272625995296,51.04521975259372,1937.0113919299354,-6.006999929932766,210390.5471307555,10.5,10500210390.54713,47.655,-122.3035,60.0,1.9333333333333333
2026-01-20T23:01:57+00:00,SAT-53509,274.72461531228083,51.11087293431602,1931.0204106664826,-5.998352779914543,210087.68735970903,10.5,10500210087.687359,47.655,-122.3035,60.0,1.95
2026-01-20T23:01:58+00:00,SAT-53509,274.5201787928013,51.176359720417956,1925.0380534939811,-5.989617445730032,209781.7390061405,10.5,10500209781.739006,47.655,-122.3035,60.0,1.9666666666666666
2026-01-20T23:01:59+00:00,SAT-53509,274.31393589140254,51.24167308375641,1919.0644083614395,-5.980792973500788,209472.66866119183,10.5,10500209472.668661,47.655,-122.3035,60.0,1.9833333333333334
2026-01-20T23:02:00+00:00,SAT-53509,274.1058693667784,51.306805837753465,1913.0995641692016,-5.971878423659831,209160.4434172531,10.5,10500209160.443417,47.655,-122.3035,60.0,2.0
2026-01-20T23:02:01+00:00,SAT-53509,273.8959618887456,51.37175063371625,1907.1436107546713,-5.962872795631709,208845.0282299395,10.5,10500208845.02823,47.655,-122.3035,60.0,2.0166666666666666
2026-01-20T23:02:02+00:00,SAT-53509,273.6841960436791,51.43649995729254,1901.1966389531615,-5.953775123052282,208526.38925309113,10.5,10500208526.389254,47.655,-122.3035,60.0,2.033333333333333
2026-01-20T23:02:03+00:00,SAT-53509,273.4705543370174,51.50104612594547,1895.2587405637705,-5.944584428424867,208204.49225063928,10.5,10500208204.49225,47.655,-122.3035,60.0,2.05
2026-01-20T23:02:04+00:00,SAT-53509,273.25501919752077,51.56538128590193,1889.3300083604881,-5.935299683145938,207879.3011965376,10.5,10500207879.301197,47.655,-122.3035,60.0,2.066666666666667
2026-01-20T23:02:05+00:00,SAT-53509,273.03757298303685,51.62949740862742,1883.4105361431639,-5.925919877463621,207550.78072500418,10.5,10500207550.780725,47.655,-122.3035,60.0,2.0833333333333335
2026-01-20T23:02:06+00:00,SAT-53509,272.81819798424965,51.693386288046696,1877.500418718707,-5.916443995158441,207218.89524373435,10.5,10500207218.895245,47.655,-122.3035,60.0,2.1
2026-01-20T23:02:07+00:00,SAT-53509,272.5968764294376,51.75703953745749,1871.5997519075356,-5.90687098879962,206883.60806727165,10.5,10500206883.608067,47.655,-122.3035,60.0,2.1166666666666667
2026-01-20T23:02:08+00:00,SAT-53509,272.37359049041316,51.82044858615013,1865.7086325747061,-5.897199829162079,206544.8831478003,10.5,10500206544.883148,47.655,-122.3035,60.0,2.1333333333333333
2026-01-20T23:02:09+00:00,SAT-53509,272.14832228693206,51.88360467654053,1859.827158611755,-5.887429425952042,206202.6822986202,10.5,10500206202.682299,47.655,-122.3035,60.0,2.15
2026-01-20T23:02:10+00:00,SAT-53509,271.92105389425285,51.946498860418835,1853.9554289976056,-5.877558721747129,205856.9684843268,10.5,10500205856.968485,47.655,-122.3035,60.0,2.1666666666666665
2026-01-20T23:02:11+00:00,SAT-53509,271.691767347575,52.00912199620061,1848.0935437657831,-5.867586647402874,205507.70425895829,10.5,10500205507.70426,47.655,-122.3035,60.0,2.183333333333333
2026-01-20T23:02:12+00:00,SAT-53509,271.460444648411,52.071464745675,1842.2416040161065,-5.857512082324416,205154.85037454264,10.5,10500205154.850374,47.655,-122.3035,60.0,2.2
2026-01-20T23:02:13+00:00,SAT-53509,271.22706777261993,52.133517570299375,1836.3997119660016,-5.847333913991746,204798.3678659232,10.5,10500204798.367867,47.655,-122.3035,60.0,2.216666666666667
2026-01-20T23:02:14+00:00,SAT-53509,270.9916186767161,52.19527072813482,1830.5679709424471,-5.837051066849461,204438.21906260008,10.5,10500204438.219063,47.655,-122.3035,60.0,2.2333333333333334
2026-01-20T23:02:15+00:00,SAT-53509,270.75407930325593,52.25671427107127,1824.7464853451095,-5.826662364893024,204074.36277592,10.5,10500204074.362776,47.655,-122.3035,60.0,2.25
2026-01-20T23:02:16+00:00,SAT-53509,270.51443159177313,52.3178380405628,1818.9353607465227,-5.816166674024687,203706.75928498246,10.5,10500203706.759285,47.655,-122.3035,60.0,2.2666666666666666
2026-01-20T23:02:17+00:00,SAT-53509,270.2726574846958,52.37863166489107,1813.1347038502954,-5.805562847966703,203335.36844229212,10.5,10500203335.368443,47.655,-122.3035,60.0,2.283333333333333
2026-01-20T23:02:18+00:00,SAT-53509,270.02873893564583,52.43908455584245,1807.3446225032567,-5.79484971324217,202960.14914772403,10.5,10500202960.149147,47.655,-122.3035,60.0,2.3
2026-01-20T23:02:19+00:00,SAT-53509,269.78265791857916,52.4991859052108,1801.5652257225831,-5.784026094033832,202581.06021918415,10.5,10500202581.060219,47.655,-122.3035,60.0,2.316666666666667
2026-01-20T23:02:20+00:00,SAT-53509,269.5343964364894,52.558924681584045,1795.7966236981335,-5.77309077761675,202198.0591819154,10.5,10500202198.059181,47.655,-122.3035,60.0,2.3333333333333335
2026-01-20T23:02:21+00:00,SAT-53509,269.28393653169456,52.618289626752585,1790.038927829257,-5.762042587473343,201811.10482929528,10.5,10500201811.10483,47.655,-122.3035,60.0,2.35
2026-01-20T23:02:22+00:00,SAT-53509,269.03126029368207,52.67726925290719,1784.2922506886835,-5.750880295539329,201420.154149318,10.5,10500201420.15415,47.655,-122.3035,60.0,2.3666666666666667
2026-01-20T23:02:23+00:00,SAT-53509,268.77634987077886,52.735851838912524,1778.5567060739324,-5.739602642068258,201025.16302033424,10.5,10500201025.163021,47.655,-122.3035,60.0,2.3833333333333333
2026-01-20T23:02:24+00:00,SAT-53509,268.5191874815533,52.79402542681718,1772.8324090389096,-5.728208426951496,200626.0894094631,10.5,10500200626.089409,47.655,-122.3035,60.0,2.4
2026-01-20T23:02:25+00:00,SAT-53509,268.2597554227137,52.85177781932401,1767.11947583443,-5.716696379479534,200222.88881108243,10.5,10500200222.888811,47.655,-122.3035,60.0,2.4166666666666665
2026-01-20T23:02:26+00:00,SAT-53509,267.9980360829045,52.90909657592977,1761.4180239786292,-5.705065211338891,199815.51610300466,10.5,10500199815.516104,47.655,-122.3035,60.0,2.433333333333333
2026-01-20T23:02:27+00:00,SAT-53509,267.7340119546789,52.965969009639586,1755.7281722745204,-5.693313650489534,199403.92673300707,10.5,10500199403.926733,47.655,-122.3035,60.0,2.45
2026-01-20T23:02:28+00:00,SAT-53509,267.46766564554275,53.02238218407098,1750.0500407937657,-5.681440426143436,198988.0761927176,10.5,10500198988.076193,47.655,-122.3035,60.0,2.466666666666667
2026-01-20T23:02:29+00:00,SAT-53509,267.198979889892,53.07832291042075,1744.383750875425,-5.66944419737265,198567.91751716723,10.5,10500198567.917517,47.655,-122.3035,60.0,2.4833333333333334
2026-01-20T23:02:30+00:00,SAT-53509,266.9279375647028,53.133777743759794,1738.7294251959122,-5.657323662691653,198143.40512282788,10.5,10500198143.405123,47.655,-122.3035,60.0,2.5
2026-01-20T23:02:31+00:00,SAT-53509,266.6545217006698,53.18873298046968,1733.0871877296543,-5.645077488774702,197714.49231099195,10.5,10500197714.492311,47.655,-122.3035,60.0,2.5166666666666666
2026-01-20T23:02:32+00:00,SAT-53509,266.37871549712145,53.243174655025605,1727.4571637808497,-5.63270431493706,197281.13142472427,10.5,10500197281.131424,47.655,-122.3035,60.0,2.533333333333333
2026-01-20T23:02:33+00:00,SAT-53509,266.10050233709853,53.297088536868365,1721.8394800107526,-5.620202800885036,196843.2755212704,10.5,10500196843.27552,47.655,-122.3035,60.0,2.55
2026-01-20T23:02:34+00:00,SAT-53509,265.8198658007917,53.35046012782464,1716.2342644173366,-5.607571555174146,196400.87586635863,10.5,10500196400.875866,47.655,-122.3035,60.0,2.566666666666667
2026-01-20T23:02:35+00:00,SAT-53509,265.53678968265433,53.403274658868675,1710.6416463863095,-5.5948092068619975,195953.88444378733,10.5,10500195953.884443,47.655,-122.3035,60.0,2.5833333333333335
2026-01-20T23:02:36+00:00,SAT-53509,265.2512580058199,53.45551708769102,1705.0617566706658,-5.581914357237324,195502.25226477146,10.5,10500195502.252264,47.655,-122.3035,60.0,2.6
2026-01-20T23:02:37+00:00,SAT-53509,264.9632550390065,53.50717209583556,1699.494727418381,-5.568885585740748,195045.92957531256,10.5,10500195045.929575,47.655,-122.3035,60.0,2.6166666666666667
2026-01-20T23:02:38+00:00,SAT-53509,264.6727653139419,53.55822408602375,1693.9406921942023,-5.5557214630415235,194584.86631420194,10.5,10500194584.866314,47.655,-122.3035,60.0,2.6333333333333333
2026-01-20T23:02:39+00:00,SAT-53509,264.3797736423735,53.608657179664895,1688.3997859883955,-5.542420580148625,194119.01313261376,10.5,10500194119.013132,47.655,-122.3035,60.0,2.65
2026-01-20T23:02:40+00:00,SAT-53509,264.0842651323722,53.65845521477348,1682.8721451964607,-5.5289814535881145,193648.3180730157,10.5,10500193648.318073,47.655,-122.3035,60.0,2.6666666666666665
2026-01-20T23:02:41+00:00,SAT-53509,263.7862252095314,53.70760174305848,1677.3579076934154,-5.515402643731189,193172.73071351746,10.5,10500193172.730713,47.655,-122.3035,60.0,2.683333333333333
2026-01-20T23:02:42+00:00,SAT-53509,263.48563963309823,53.756080028292075,1671.8572127900675,-5.5016826601862805,192692.19885430188,10.5,10500192692.198854,47.655,-122.3035,60.0,2.7
2026-01-20T23:02:43+00:00,SAT-53509,263.1824945170339,53.803873043870205,1666.3702012836416,-5.487820013812546,192206.6703393577,10.5,10500192206.67034,47.655,-122.3035,60.0,2.716666666666667
2026-01-20T23:02:44+00:00,SAT-53509,262.87677634909915,53.85096347101512,1660.8970154565327,-5.473813212192904,191716.0928979257,10.5,10500191716.092897,47.655,-122.3035,60.0,2.7333333333333334
2026-01-20T23:02:45+00:00,SAT-53509,262.56847201067836,53.89733369708028,1655.4377990795724,-5.459660749727563,191220.4137975326,10.5,10500191220.413797,47.655,-122.3035,60.0,2.75
2026-01-20T23:02:46+00:00,SAT-53509,262.2575687974056,53.94296581388418,1649.9926974251773,-5.445361052988701,190719.5779300804,10.5,10500190719.57793,47.655,-122.3035,60.0,2.7666666666666666
2026-01-20T23:02:47+00:00,SAT-53509,261.9440544433768,53.987841615749616,1644.5618573349966,-5.430912637317468,190213.53329653616,10.5,10500190213.533297,47.655,-122.3035,60.0,2.783333333333333
2026-01-20T23:02:48+00:00,SAT-53509,261.627917137366,54.031942599079144,1639.1454271313785,-5.416313931833495,189702.22487802446,10.5,10500189702.224878,47.655,-122.3035,60.0,2.8
2026-01-20T23:02:49+00:00,SAT-53509,261.3091455489001,54.07524996056733,1633.7435567033633,-5.40156334853449,189185.59705598778,10.5,10500189185.597055,47.655,-122.3035,60.0,2.816666666666667
2026-01-20T23:02:50+00:00,SAT-53509,260.9877288510517,54.11774459620526,1628.3563975237582,-5.386659337775792,188663.59555531517,10.5,10500188663.595556,47.655,-122.3035,60.0,2.8333333333333335
2026-01-20T23:02:51+00:00,SAT-53509,260.66365674072614,54.15940710097005,1622.9841026108834,-5.3716003052938435,188136.1645381531,10.5,10500188136.164537,47.655,-122.3035,60.0,2.85
2026-01-20T23:02:52+00:00,SAT-53509,260.33691946377365,54.200217767986025,1617.62682657307,-5.356384640503351,187603.24759499182,10.5,10500187603.247595,47.655,-122.3035,60.0,2.8666666666666667
2026-01-20T23:02:53+00:00,SAT-53509,260.0075078391309,54.24015658816892,1612.2847256249415,-5.341010734241531,187064.78836614388,10.5,10500187064.788366,47.655,-122.3035,60.0,2.8833333333333333
2026-01-20T23:02:54+00:00,SAT-53509,259.6754132822136,54.27920325022343,1606.9579575859914,-5.325476952215146,186520.72961174705,10.5,10500186520.729612,47.655,-122.3035,60.0,2.9
2026-01-20T23:02:55+00:00,SAT-53509,259.3406278303364,54.31733714067768,1601.6466819056486,-5.309781684268098,185971.01493732387,10.5,10500185971.014936,47.655,-122.3035,60.0,2.9166666666666665
2026-01-20T23:02:56+00:00,SAT-53509,259.0031441654788,54.354537344534116,1596.3510596392055,-5.293923259305178,185415.58581405127,10.5,10500185415.585814,47.655,-122.3035,60.0,2.933333333333333
2026-01-20T23:02:57+00:00,SAT-53509,258.662955642495,54.3907826455297,1591.0712535085916,-5.277900003969599,184854.38363389642,10.5,10500184854.383635,47.655,-122.3035,60.0,2.95
2026-01-20T23:02:58+00:00,SAT-53509,258.3200563141603,54.42605152712064,1585.8074279046327,-5.261710291996219,184287.35143817493,10.5,10500184287.351439,47.655,-122.3035,60.0,2.966666666666667
2026-01-20T23:02:59+00:00,SAT-53509,257.97444095352273,54.46032217410819,1580.5597488400817,-5.245352396590978,183714.42874725445,10.5,10500183714.428747,47.655,-122.3035,60.0,2.9833333333333334
2026-01-20T23:03:00+00:00,SAT-53509,257.62610508538097,54.493572473450904,1575.3283840498816,-5.228824647550337,183135.5570635421,10.5,10500183135.557064,47.655,-122.3035,60.0,3.0
2026-01-20T23:03:01+00:00,SAT-53509,257.27504500860397,54.52578001656051,1570.1135029347247,-5.212125332614306,182550.67641645012,10.5,10500182550.676416,47.655,-122.3035,60.0,3.0166666666666666
2026-01-20T23:03:02+00:00,SAT-53509,256.9212578244774,54.55692210115895,1564.9152766029974,-5.195252751749896,181959.72726363217,10.5,10500181959.727264,47.655,-122.3035,60.0,3.033333333333333
2026-01-20T23:03:03+00:00,SAT-53509,256.56474146204897,54.58697573387196,1559.7338778585856,-5.17820516817678,181362.64877569463,10.5,10500181362.648775,47.655,-122.3035,60.0,3.05
2026-01-20T23:03:04+00:00,SAT-53509,256.205494706546,54.61591763280453,1554.5694812375239,-5.160980848914846,180759.3802563435,10.5,10500180759.380257,47.655,-122.3035,60.0,3.066666666666667
2026-01-20T23:03:05+00:00,SAT-53509,255.84351722544739,54.643724230751594,1549.4222630042061,-5.143578060068679,180149.86097722687,10.5,10500180149.860977,47.655,-122.3035,60.0,3.0833333333333335
2026-01-20T23:03:06+00:00,SAT-53509,255.4788095947677,54.67037167871212,1544.2924011522975,-5.125995058868072,179534.0298991603,10.5,10500179534.0299,47.655,-122.3035,60.0,3.1
2026-01-20T23:03:07+00:00,SAT-53509,255.11137332599156,54.6958358497389,1539.1800754135866,-5.10823004994538,178911.82414077438,10.5,10500178911.82414,47.655,-122.3035,60.0,3.1166666666666667
2026-01-20T23:03:08+00:00,SAT-53509,254.7412108957942,54.72009234289241,1534.0854673104411,-5.090281290705735,178283.1826690257,10.5,10500178283.182669,47.655,-122.3035,60.0,3.1333333333333333
2026-01-20T23:03:09+00:00,SAT-53509,254.36832576875227,54.743116488222256,1529.0087601031773,-5.072147008360168,177648.0433933457,10.5,10500177648.043394,47.655,-122.3035,60.0,3.15
2026-01-20T23:03:10+00:00,SAT-53509,253.99272242533334,54.7648833516363,1523.9501388201727,-5.0538254097146895,177006.34350849557,10.5,10500177006.343508,47.655,-122.3035,60.0,3.1666666666666665
2026-01-20T23:03:11+00:00,SAT-53509,253.61440638923534,54.785367740266686,1518.9097902782173,-5.035314689863382,176358.01979903548,10.5,10500176358.019798,47.655,-122.3035,60.0,3.183333333333333
2026-01-20T23:03:12+00:00,SAT-53509,253.2333842537943,54.80454420829533,1513.8879030941935,-5.016613075783755,175703.0101662178,10.5,10500175703.010166,47.655,-122.3035,60.0,3.2
2026-01-20T23:03:13+00:00,SAT-53509,252.84966370512387,54.82238706342584,1508.8846676532785,-4.997718744941015,175041.25077716485,10.5,10500175041.250776,47.655,-122.3035,60.0,3.216666666666667
2026-01-20T23:03:14+00:00,SAT-53509,252.46325355055026,54.83887037338354,1503.900276158324,-4.978629886219314,174372.67819893852,10.5,10500174372.6782,47.655,-122.3035,60.0,3.2333333333333334
2026-01-20T23:03:15+00:00,SAT-53509,252.07416374245258,54.853967973179195,1498.934922618468,-4.959344699370821,173697.2293792448,10.5,10500173697.22938,47.655,-122.3035,60.0,3.25
2026-01-20T23:03:16+00:00,SAT-53509,251.6824054014646,54.8676534727696,1493.9888028382954,-4.939861337309668,173014.83962532342,10.5,10500173014.839624,47.655,-122.3035,60.0,3.2666666666666666
2026-01-20T23:03:17+00:00,SAT-53509,251.28799084358442,54.879900264997204,1489.062114464552,-4.920177982004147,172325.44526201373,10.5,10500172325.445263,47.655,-122.3035,60.0,3.283333333333333
2026-01-20T23:03:18+00:00,SAT-53509,250.8909336009749,54.890681534274194,1484.1550569571664,-4.900292832315779,171628.98320582727,10.5,10500171628.983206,47.655,-122.3035,60.0,3.3
2026-01-20T23:03:19+00:00,SAT-53509,250.4912484429854,54.899970265669936,1479.2678315724033,-4.880203999868885,170925.38731786006,10.5,10500170925.387318,47.655,-122.3035,60.0,3.316666666666667
2026-01-20T23:03:20+00:00,SAT-53509,250.08895140431008,54.90773925415554,1474.4006414498674,-4.859909698146719,170214.59502673865,10.5,10500170214.595026,47.655,-122.3035,60.0,3.3333333333333335
2026-01-20T23:03:21+00:00,SAT-53509,249.68405979808875,54.9139611149429,1469.553691510916,-4.839408050527458,169496.5406052287,10.5,10500169496.540606,47.655,-122.3035,60.0,3.35
2026-01-20T23:03:22+00:00,SAT-53509,249.27659224264227,54.918608293708274,1464.7271885485231,-4.818697245483339,168771.16060596512,10.5,10500168771.160606,47.655,-122.3035,60.0,3.3666666666666667
2026-01-20T23:03:23+00:00,SAT-53509,248.86656867547754,54.92165307777016,1459.9213411623612,-4.797775428808585,168038.39008681843,10.5,10500168038.390087,47.655,-122.3035,60.0,3.3833333333333333
2026-01-20T23:03:24+00:00,SAT-53509,248.45401037450705,54.923067607459544,1455.1363598013627,-4.7766407465014735,167298.16411280588,10.5,10500167298.164112,47.655,-122.3035,60.0,3.4
2026-01-20T23:03:25+00:00,SAT-53509,248.0389399750219,54.922823888140535,1450.3724567635186,-4.755291377362056,166550.41889780157,10.5,10500166550.418898,47.655,-122.3035,60.0,3.4166666666666665
2026-01-20T23:03:26+00:00,SAT-53509,247.62138148270023,54.92089380272806,1445.629846163163,-4.73372548503171,165795.09012475875,10.5,10500165795.090124,47.655,-122.3035,60.0,3.433333333333333
2026-01-20T23:03:27+00:00,SAT-53509,247.20136028935096,54.91724912464882,1440.9087439460914,-4.7119412025793475,165032.1124058536,10.5,10500165032.112406,47.655,-122.3035,60.0,3.45
2026-01-20T23:03:28+00:00,SAT-53509,246.77890318861597,54.911861531304474,1436.209367920052,-4.6899367065658035,164261.42187653345,10.5,10500164261.421877,47.655,-122.3035,60.0,3.466666666666667
2026-01-20T23:03:29+00:00,SAT-53509,246.35403838429983,54.904702618105425,1431.5319377113703,-4.667710180489619,163482.9549152334,10.5,10500163482.954916,47.655,-122.3035,60.0,3.4833333333333334
2026-01-20T23:03:30+00:00,SAT-53509,245.92679550005425,54.89574391290851,1426.876674758029,-4.6452597843647565,162696.64707785926,10.5,10500162696.647078,47.655,-122.3035,60.0,3.5
2026-01-20T23:03:31+00:00,SAT-53509,245.4972055903363,54.88495689099681,1422.243802333089,-4.622583683286611,161902.43409829013,10.5,10500161902.4341,47.655,-122.3035,60.0,3.5166666666666666
2026-01-20T23:03:32+00:00,SAT-53509,245.06530114727047,54.87231299052577,1417.6335455396245,-4.599680088548517,161100.2533284524,10.5,10500161100.253328,47.655,-122.3035,60.0,3.533333333333333
2026-01-20T23:03:33+00:00,SAT-53509,244.63111610243152,54.85778362843537,1413.0461312646453,-4.576547162200621,160290.04039556763,10.5,10500160290.040396,47.655,-122.3035,60.0,3.55
2026-01-20T23:03:34+00:00,SAT-53509,244.19468583498258,54.84134021685359,1408.4817882282107,-4.553183118638429,159471.7327602134,10.5,10500159471.73276,47.655,-122.3035,60.0,3.566666666666667
2026-01-20T23:03:35+00:00,SAT-53509,243.75604716950528,54.82295417994315,1403.940746931222,-4.5295861605213865,158645.26747192073,10.5,10500158645.267471,47.655,-122.3035,60.0,3.5833333333333335
2026-01-20T23:03:36+00:00,SAT-53509,243.31523837727497,54.80259697117314,1399.4232396671289,-4.5057545053225265,157810.58209905511,10.5,10500157810.5821,47.655,-122.3035,60.0,3.6
2026-01-20T23:03:37+00:00,SAT-53509,242.87229917368973,54.78024009109673,1394.9295005071535,-4.481686384255876,156967.61469124982,10.5,10500156967.61469,47.655,-122.3035,60.0,3.6166666666666667
2026-01-20T23:03:38+00:00,SAT-53509,242.42727071345055,54.75585510542898,1390.4597652865891,-4.457380026328262,156116.3032208327,10.5,10500156116.30322,47.655,-122.3035,60.0,3.6333333333333333
2026-01-20T23:03:39+00:00,SAT-53509,241.98019558570482,54.72941366373066,1386.014271606998,-4.4328336958405945,155256.58689627956,10.5,10500155256.586897,47.655,-122.3035,60.0,3.65
2026-01-20T23:03:40+00:00,SAT-53509,241.53111780327419,54.70088751822413,1381.5932588010128,-4.408045656513909,154388.40490575664,10.5,10500154388.404905,47.655,-122.3035,60.0,3.6666666666666665
2026-01-20T23:03:41+00:00,SAT-53509,241.08008279347132,54.67024854320865,1377.1969679329163,-4.383014191016938,153511.69710105864,10.5,10500153511.697102,47.655,-122.3035,60.0,3.683333333333333
2026-01-20T23:03:42+00:00,SAT-53509,240.62713738482742,54.637468754710056,1372.825641779742,-4.357737598924604,152626.4039261066,10.5,10500152626.403927,47.655,-122.3035,60.0,3.7
2026-01-20T23:03:43+00:00,SAT-53509,240.17232979203408,54.60252033052172,1368.4795248144146,-4.332214201055671,151732.46656887062,10.5,10500151732.466568,47.655,-122.3035,60.0,3.716666666666667
2026-01-20T23:03:44+00:00,SAT-53509,239.7157095982039,54.565375630496355,1364.1588631845618,-4.306442319003169,150829.82624443903,10.5,10500150829.826244,47.655,-122.3035,60.0,3.7333333333333334
2026-01-20T23:03:45+00:00,SAT-53509,239.25732773713517,54.52600721732014,1359.8639047117424,-4.2804203355597075,149918.42631136815,10.5,10500149918.426311,47.655,-122.3035,60.0,3.75
2026-01-20T23:03:46+00:00,SAT-53509,238.79723646735195,54.48438787713087,1355.594898830411,-4.254146606826438,148998.2091933667,10.5,10500148998.209194,47.655,-122.3035,60.0,3.7666666666666666
2026-01-20T23:03:47+00:00,SAT-53509,238.33548935273302,54.440490640996956,1351.352096614536,-4.227619541758611,148069.11916531745,10.5,10500148069.119165,47.655,-122.3035,60.0,3.783333333333333
2026-01-20T23:03:48+00:00,SAT-53509,237.87214123308075,54.39428880608235,1347.1357507248888,-4.200837566156681,147131.10109209333,10.5,10500147131.101091,47.655,-122.3035,60.0,3.8
2026-01-20T23:03:49+00:00,SAT-53509,237.40724819613015,54.34575595726145,1342.9461153922418,-4.173799128228498,146184.10062336933,10.5,10500146184.100624,47.655,-122.3035,60.0,3.816666666666667
2026-01-20T23:03:50+00:00,SAT-53509,236.94086754690034,54.29486598888944,1338.7834463950219,-4.146502714498898,145228.06475084316,10.5,10500145228.06475,47.655,-122.3035,60.0,3.8333333333333335
2026-01-20T23:03:51+00:00,SAT-53509,236.47305777333793,54.241593126589,1334.648001021095,-4.118946828846897,144262.94107402937,10.5,10500144262.941074,47.655,-122.3035,60.0,3.85
2026-01-20T23:03:52+00:00,SAT-53509,236.00387851190425,54.185911949296084,1330.5400380504586,-4.091130009436267,143288.67839323962,10.5,10500143288.678392,47.655,-122.3035,60.0,3.8666666666666667
2026-01-20T23:03:53+00:00,SAT-53509,235.5333905095785,54.127797411316855,1326.459817721047,-4.063050829475328,142305.2267361941,10.5,10500142305.226736,47.655,-122.3035,60.0,3.8833333333333333
2026-01-20T23:03:54+00:00,SAT-53509,235.0616555836239,54.06722486437715,1322.4076016937838,-4.034707881801884,141312.53681812028,10.5,10500141312.536818,47.655,-122.3035,60.0,3.9
2026-01-20T23:03:55+00:00,SAT-53509,234.58873658125185,54.00417007994815,1318.3836530330002,-4.0060998148834726,140310.56130263445,10.5,10500140310.561302,47.655,-122.3035,60.0,3.9166666666666665
2026-01-20T23:03:56+00:00,SAT-53509,234.11469733334116,53.93860927107913,1314.3882361509566,-3.9772253068552135,139299.25389243694,10.5,10500139299.253893,47.655,-122.3035,60.0,3.933333333333333
2026-01-20T23:03:57+00:00,SAT-53509,233.63960260931918,53.87051911456059,1310.4216167782529,-3.948083050004371,138278.56878589618,10.5,10500138278.568787,47.655,-122.3035,60.0,3.95
2026-01-20T23:03:58+00:00,SAT-53509,233.16351807200508,53.79987677326344,1306.484061949715,-3.918671814255636,137248.46290057164,10.5,10500137248.4629,47.655,-122.3035,60.0,3.966666666666667
2026-01-20T23:03:59+00:00,SAT-53509,232.6865102237585,53.72665991747965,1302.5758399269641,-3.888990400548831,136208.89424030384,10.5,10500136208.89424,47.655,-122.3035,60.0,3.9833333333333334
2026-01-20T23:04:00+00:00,SAT-53509,232.20864635622382,53.6508467467821,1298.6972201674835,-3.8590376330341756,135159.82162185962,10.5,10500135159.82162,47.655,-122.3035,60.0,4.0
2026-01-20T23:04:01+00:00,SAT-53509,231.7299944996408,53.57241601192887,1294.8484733014707,-3.8288123843907753,134101.20556169274,10.5,10500134101.205563,47.655,-122.3035,60.0,4.016666666666667
2026-01-20T23:04:02+00:00,SAT-53509,231.2506233678672,53.491347036175576,1291.0298710834384,-3.798313614238128,133033.00962127722,10.5,10500133033.00962,47.655,-122.3035,60.0,4.033333333333333
2026-01-20T23:04:03+00:00,SAT-53509,230.77060229772138,53.40761973568238,1287.2416863055048,-3.7675402804146825,131955.19729970713,10.5,10500131955.1973,47.655,-122.3035,60.0,4.05
2026-01-20T23:04:04+00:00,SAT-53509,230.29000119740024,53.32121464120649,1283.4841927991713,-3.7364914054529703,130867.73436193711,10.5,10500130867.734362,47.655,-122.3035,60.0,4.066666666666666
2026-01-20T23:04:05+00:00,SAT-53509,229.8088904864098,53.23211291845899,1279.7576653707993,-3.705166082968192,129770.58906253744,10.5,10500129770.589062,47.655,-122.3035,60.0,4.083333333333333
2026-01-20T23:04:06+00:00,SAT-53509,229.32734103348048,53.140296387856544,1276.0623797307192,-3.6735634512567046,128663.73122100155,10.5,10500128663.73122,47.655,-122.3035,60.0,4.1
2026-01-20T23:04:07+00:00,SAT-53509,228.8454240971174,53.04574754454455,1272.3986124486657,-3.6416826976867878,127547.13237552918,10.5,10500127547.132376,47.655,-122.3035,60.0,4.116666666666666
2026-01-20T23:04:08+00:00,SAT-53509,228.36321126484003,52.94844957792819,1268.7666409048395,-3.6095230586971194,126420.76578297293,10.5,10500126420.765783,47.655,-122.3035,60.0,4.133333333333334
2026-01-20T23:04:09+00:00,SAT-53509,227.88077439215272,52.848386390919345,1265.1667432409656,-3.5770838523223287,125284.60755802087,10.5,10500125284.607557,47.655,-122.3035,60.0,4.15
2026-01-20T23:04:10+00:00,SAT-53509,227.3981855369701,52.74554261793378,1261.599198278916,-3.544364455253488,124138.6358697577,10.5,10500124138.63587,47.655,-122.3035,60.0,4.166666666666667
2026-01-20T23:04:11+00:00,SAT-53509,226.91551689677019,52.63990364299902,1258.06428546221,-3.51136429185522,122982.83055699758,10.5,10500122982.830557,47.655,-122.3035,60.0,4.183333333333334
2026-01-20T23:04:12+00:00,SAT-53509,226.43284074695114,52.53145561764533,1254.5622848084665,-3.478082861965074,121817.17410193582,10.5,10500121817.174103,47.655,-122.3035,60.0,4.2
2026-01-20T23:04:13+00:00,SAT-53509,225.9502293759557,52.42018547768534,1251.0934768341333,-3.4445197414726376,120641.65165043177,10.5,10500120641.651651,47.655,-122.3035,60.0,4.216666666666667
2026-01-20T23:04:14+00:00,SAT-53509,225.46775502028538,52.3060809593384,1247.658142478638,-3.4106745578767055,119456.25015591756,10.5,10500119456.250156,47.655,-122.3035,60.0,4.233333333333333
2026-01-20T23:04:15+00:00,SAT-53509,224.9854898032379,52.189130615578875,1244.2565630529155,-3.3765470188045437,118260.95937826332,10.5,10500118260.95938,47.655,-122.3035,60.0,4.25
2026-01-20T23:04:16+00:00,SAT-53509,224.50350567028394,52.069323831069255,1240.8890201594943,-3.342136914836066,117055.77198269175,10.5,10500117055.771982,47.655,-122.3035,60.0,4.266666666666667
2026-01-20T23:04:17+00:00,SAT-53509,224.02187432493062,51.946650836493255,1237.5557956097646,-3.3074440898710624,115840.68250191321,10.5,10500115840.682503,47.655,-122.3035,60.0,4.283333333333333
2026-01-20T23:04:18+00:00,SAT-53509,223.54066716892055,51.821102723037654,1234.2571713707998,-3.272468489850702,114615.6890425588,10.5,10500114615.689043,47.655,-122.3035,60.0,4.3
2026-01-20T23:04:19+00:00,SAT-53509,223.05995523733424,51.692671454959026,1230.9934294635887,-3.237210121117825,113380.79182678158,10.5,10500113380.791826,47.655,-122.3035,60.0,4.316666666666666
2026-01-20T23:04:20+00:00,SAT-53509,222.57980913987052,51.561349882619304,1227.764851902794,-3.201669069334396,112135.99385482591,10.5,10500112135.993855,47.655,-122.3035,60.0,4.333333333333333
2026-01-20T23:04:21+00:00,SAT-53509,222.10029900117243,51.42713175449072,1224.5717206176446,-3.1658455253255027,110881.30181019357,10.5,10500110881.30181,47.655,-122.3035,60.0,4.35
2026-01-20T23:04:22+00:00,SAT-53509,221.6214943986279,51.29001172742203,1221.4143173470532,-3.1297397505681848,109616.72485091651,10.5,10500109616.724852,47.655,-122.3035,60.0,4.366666666666666
2026-01-20T23:04:23+00:00,SAT-53509,221.14346430647782,51.14998537750281,1218.2929235691531,-3.093352076736064,108342.27459360794,10.5,10500108342.274593,47.655,-122.3035,60.0,4.383333333333334
2026-01-20T23:04:24+00:00,SAT-53509,220.66627704154868,51.00704921033883,1215.2078204312884,-3.0566829602170995,107057.96702290472,10.5,10500107057.967024,47.655,-122.3035,60.0,4.4
2026-01-20T23:04:25+00:00,SAT-53509,220.19000020302664,50.86120066851697,1212.1592886256317,-3.019732914122167,105763.82011012016,10.5,10500105763.82011,47.655,-122.3035,60.0,4.416666666666667
2026-01-20T23:04:26+00:00,SAT-53509,219.71470062342829,50.71243814095792,1209.147608332614,-2.982502571661841,104459.85603296709,10.5,10500104459.856033,47.655,-122.3035,60.0,4.433333333333334
2026-01-20T23:04:27+00:00,SAT-53509,219.24044431267606,50.56076096914474,1206.173059101143,-2.944992629962704,103146.09920776721,10.5,10500103146.099207,47.655,-122.3035,60.0,4.45
2026-01-20T23:04:28+00:00,SAT-53509,218.7672964119867,50.40616945487597,1203.2359197848605,-2.907203906182935,101822.57825485662,10.5,10500101822.578255,47.655,-122.3035,60.0,4.466666666666667
2026-01-20T23:04:29+00:00,SAT-53509,218.2953211418154,50.24866486497263,1200.3364684224273,-2.869137311847214,100489.3250996853,10.5,10500100489.3251,47.655,-122.3035,60.0,4.483333333333333
2026-01-20T23:04:30+00:00,SAT-53509,217.82458175554024,50.08824943630235,1197.4749821434116,-2.830793847026338,99146.37476896282,10.5,10500099146.37477,47.655,-122.3035,60.0,4.5
2026-01-20T23:04:31+00:00,SAT-53509,217.35514049626153,49.924926380395334,1194.6517370799775,-2.7921746122229485,97793.76580694687,10.5,10500097793.765806,47.655,-122.3035,60.0,4.516666666666667
2026-01-20T23:04:32+00:00,SAT-53509,216.8870585540217,49.75869988677897,1191.8670082667204,-2.7532808211979902,96431.54072467992,10.5,10500096431.540724,47.655,-122.3035,60.0,4.533333333333333
2026-01-20T23:04:33+00:00,SAT-53509,216.42039602363462,49.589575125062694,1189.1210695277123,-2.7141137924791163,95059.74570257775,10.5,10500095059.745703,47.655,-122.3035,60.0,4.55
2026-01-20T23:04:34+00:00,SAT-53509,215.95521186572788,49.41755824646105,1186.414193372013,-2.674674925959459,93678.42977081939,10.5,10500093678.429771,47.655,-122.3035,60.0,4.566666666666666
2026-01-20T23:04:35+00:00,SAT-53509,215.49156387420467,49.242656386107164,1183.746650912523,-2.6349657618328224,92287.64687350686,10.5,10500092287.646873,47.655,-122.3035,60.0,4.583333333333333
2026-01-20T23:04:36+00:00,SAT-53509,215.02950863671992,49.06487766131167,1181.118711726055,-2.5949879213980243,90887.45379538285,10.5,10500090887.453794,47.655,-122.3035,60.0,4.6
2026-01-20T23:04:37+00:00,SAT-53509,214.56910150694196,48.884231172398835,1178.5306437724473,-2.5547431466794572,89477.91154951036,10.5,10500089477.911549,47.655,-122.3035,60.0,4.616666666666666
2026-01-20T23:04:38+00:00,SAT-53509,214.1103965729662,48.700727000580244,1175.982713274159,-2.5142332884879877,88059.08495911484,10.5,10500088059.084959,47.655,-122.3035,60.0,4.633333333333334
2026-01-20T23:04:39+00:00,SAT-53509,213.65344663032792,48.51437620593716,1173.4751846077736,-2.4734603053724977,86631.04262086282,10.5,10500086631.042622,47.655,-122.3035,60.0,4.65
2026-01-20T23:04:40+00:00,SAT-53509,213.19830315722868,48.32519082451203,1171.0083201965488,-2.4324262783577524,85193.85742104426,10.5,10500085193.857422,47.655,-122.3035,60.0,4.666666666666667
2026-01-20T23:04:41+00:00,SAT-53509,212.74501629026614,48.13318386403846,1168.5823803882665,-2.3911333918183106,83747.60586569612,10.5,10500083747.605865,47.655,-122.3035,60.0,4.683333333333334
2026-01-20T23:04:42+00:00,SAT-53509,212.29363480536185,47.93836929996974,1166.1976233521598,-2.349583931976988,82292.36802801215,10.5,10500082292.368029,47.655,-122.3035,60.0,4.7
2026-01-20T23:04:43+00:00,SAT-53509,211.84420610173308,47.7407620711941,1163.8543049773348,-2.3077803423976295,80828.22949193443,10.5,10500080828.229492,47.655,-122.3035,60.0,4.716666666666667
2026-01-20T23:04:44+00:00,SAT-53509,211.39677617847119,47.54037807092613,1161.5526787158503,-2.265725131809544,79355.27812377526,10.5,10500079355.278124,47.655,-122.3035,60.0,4.733333333333333
2026-01-20T23:04:45+00:00,SAT-53509,210.9513896296605,47.33723414375795,1159.2929955177256,-2.2234209557222613,77873.60693071119,10.5,10500077873.60693,47.655,-122.3035,60.0,4.75
2026-01-20T23:04:46+00:00,SAT-53509,210.50808962724335,47.131348075815986,1157.075503684552,-2.180870585030511,76383.31296119653,10.5,10500076383.312962,47.655,-122.3035,60.0,4.766666666666667
2026-01-20T23:04:47+00:00,SAT-53509,210.06691791203968,46.92273858681604,1154.9004487544146,-2.1380768880949024,74884.49667735294,10.5,10500074884.496677,47.655,-122.3035,60.0,4.783333333333333
2026-01-20T23:04:48+00:00,SAT-53509,209.62791478972133,46.71142532261773,1152.7680734046883,-2.095042872251281,73377.26340880278,10.5,10500073377.263409,47.655,-122.3035,60.0,4.8
2026-01-20T23:04:49+00:00,SAT-53509,209.1911191220228,46.49742884415491,1150.6786173134294,-2.0517716524787257,71861.72225528974,10.5,10500071861.722256,47.655,-122.3035,60.0,4.816666666666666
2026-01-20T23:04:50+00:00,SAT-53509,208.7565683250305,46.28077061779889,1148.632317052024,-2.0082664585842536,70337.98633831764,10.5,10500070337.986338,47.655,-122.3035,60.0,4.833333333333333
2026-01-20T23:04:51+00:00,SAT-53509,208.3242983687649,46.061473004915605,1146.6294059706627,-1.9645306393803843,68806.17294746633,10.5,10500068806.172947,47.655,-122.3035,60.0,4.85
2026-01-20T23:04:52+00:00,SAT-53509,207.89434377755597,45.839559250181225,1144.670114079654,-1.9205676731877557,67266.40390823786,10.5,10500067266.403908,47.655,-122.3035,60.0,4.866666666666666
2026-01-20T23:04:53+00:00,SAT-53509,207.46673763024114,45.61505346820701,1142.7546679202615,-1.8763811307604938,65718.804283546,10.5,10500065718.804283,47.655,-122.3035,60.0,4.883333333333334
2026-01-20T23:04:54+00:00,SAT-53509,207.04151156955305,45.38798063330278,1140.8832904725164,-1.8319747268766153,64163.50418063039,10.5,10500064163.50418,47.655,-122.3035,60.0,4.9
2026-01-20T23:04:55+00:00,SAT-53509,206.61869580267313,45.15836656323452,1139.0562010115782,-1.787352264732815,62600.63680352679,10.5,10500062600.636803,47.655,-122.3035,60.0,4.916666666666667
2026-01-20T23:04:56+00:00,SAT-53509,206.19831911472784,44.92623790819385,1137.273615019551,-1.7425176897043348,61030.34033596508,10.5,10500061030.340336,47.655,-122.3035,60.0,4.933333333333334
2026-01-20T23:04:57+00:00,SAT-53509,205.78040887266135,44.69162213334816,1135.535744043686,-1.6974750368102833,59452.75610138257,10.5,10500059452.756102,47.655,-122.3035,60.0,4.95
2026-01-20T23:04:58+00:00,SAT-53509,205.36499104147666,44.454547506553595,1133.8427956069738,-1.6522284722498053,57868.03001769629,10.5,10500057868.030018,47.655,-122.3035,60.0,4.966666666666667
2026-01-20T23:04:59+00:00,SAT-53509,204.95209019288498,44.21504308067541,1132.1949730773167,-1.6067822667544651,56276.31166399084,10.5,10500056276.311665,47.655,-122.3035,60.0,4.983333333333333
2026-01-20T23:05:00+00:00,SAT-53509,204.54172952090224,43.973138678391145,1130.5924755632736,-1.5611408050587972,54677.754612217,10.5,10500054677.754612,47.655,-122.3035,60.0,5.0
2026-01-20T23:05:01+00:00,SAT-53509,204.13393085634505,43.72886487513885,1129.0354978003616,-1.5153085773634836,53072.516128196185,10.5,10500053072.516129,47.655,-122.3035,60.0,5.016666666666667
2026-01-20T23:05:02+00:00,SAT-53509,203.7287146842646,43.48225298254663,1127.524230045871,-1.4692901822976387,51460.757275372176,10.5,10500051460.757275,47.655,-122.3035,60.0,5.033333333333333
2026-01-20T23:05:03+00:00,SAT-53509,203.32610016149815,43.233335030801484,1126.0588579707262,-1.4230903424467043,49842.64345866364,10.5,10500049842.64346,47.655,-122.3035,60.0,5.05
2026-01-20T23:05:04+00:00,SAT-53509,202.92610513137967,42.9821437481765,1124.6395625358593,-1.3767138523395839,48218.34260275364,10.5,10500048218.342604,47.655,-122.3035,60.0,5.066666666666666
2026-01-20T23:05:05+00:00,SAT-53509,202.52874615106262,42.72871254701463,1123.2665199204596,-1.3301656386677334,46588.02726121683,10.5,10500046588.027262,47.655,-122.3035,60.0,5.083333333333333
2026-01-20T23:05:06+00:00,SAT-53509,202.13403850551748,42.47307550081378,1121.9399013901614,-1.2834507208192263,44951.87323425553,10.5,10500044951.873234,47.655,-122.3035,60.0,5.1
2026-01-20T23:05:07+00:00,SAT-53509,201.7419962307159,42.21526732575386,1120.6598732045977,-1.23657420925931,43310.05951197997,10.5,10500043310.059511,47.655,-122.3035,60.0,5.116666666666666
2026-01-20T23:05:08+00:00,SAT-53509,201.3526321382214,41.955323362383915,1119.4265965265631,-1.1895413181394676,41662.76871603091,10.5,10500041662.768717,47.655,-122.3035,60.0,5.133333333333334
2026-01-20T23:05:09+00:00,SAT-53509,200.9659578362477,41.69327955418179,1118.2402273186053,-1.1423573588816511,40010.18687487241,10.5,10500040010.186874,47.655,-122.3035,60.0,5.15
2026-01-20T23:05:10+00:00,SAT-53509,200.5819837527297,41.42917242662492,1117.100916246014,-1.0950277258194199,38352.502920883715,10.5,10500038352.50292,47.655,-122.3035,60.0,5.166666666666667
2026-01-20T23:05:11+00:00,SAT-53509,200.20071916184708,41.163039067742034,1116.0088085941302,-1.047557913324567,36689.909290206204,10.5,10500036689.90929,47.655,-122.3035,60.0,5.183333333333334
2026-01-20T23:05:12+00:00,SAT-53509,199.82217220598048,40.89491710502996,1114.9640441685744,-0.9999534872513937,35022.600922601036,10.5,10500035022.600924,47.655,-122.3035,60.0,5.2
2026-01-20T23:05:13+00:00,SAT-53509,199.44634992507466,40.62484468668565,1113.9667572239557,-0.9522201163211853,33350.7763606663,10.5,10500033350.776361,47.655,-122.3035,60.0,5.216666666666667
2026-01-20T23:05:14+00:00,SAT-53509,199.07325827697952,40.35286045620027,1113.017076361278,-0.9043635341664541,31674.636420465813,10.5,10500031674.636421,47.655,-122.3035,60.0,5.233333333333333
