satellites_20260120_184412/SAT-66342.csv

timestamp,satellite,azimuth_deg,elevation_deg,distance_km,relative_velocity_kms,doppler_shift_hz,tx_freq_ghz,rx_freq_hz,ue_lat,ue_lon,ue_alt_m,time_minutes
2026-01-20T23:00:54+00:00,SAT-66342,210.62790767424957,40.2512662649564,485473.2233723194,-122.99956767256904,4307965.147548758,10.5,10504307965.147549,47.655,-122.3035,60.0,0.9
2026-01-20T23:00:55+00:00,SAT-66342,208.1196247275089,40.75514150939372,485350.55180349393,-121.58819196680936,4258532.800219738,10.5,10504258532.80022,47.655,-122.3035,60.0,0.9166666666666666
2026-01-20T23:00:56+00:00,SAT-66342,205.57465483147294,41.20357844788326,485229.28784670576,-120.03305913772192,4204065.470339752,10.5,10504204065.470339,47.655,-122.3035,60.0,0.9333333333333333
2026-01-20T23:00:57+00:00,SAT-66342,202.99632578846519,41.59490066646096,485109.57487572567,-118.33598121272286,4144626.622773779,10.5,10504144626.622774,47.655,-122.3035,60.0,0.95
2026-01-20T23:00:58+00:00,SAT-66342,200.38843234589504,41.927591931832225,484991.55445712956,-116.4989328853328,4080285.4196418594,10.5,10504080285.419641,47.655,-122.3035,60.0,0.9666666666666667
2026-01-20T23:00:59+00:00,SAT-66342,197.75520371810478,42.20032091567919,484875.3661880652,-114.52405000674827,4011116.6674875347,10.5,10504011116.667488,47.655,-122.3035,60.0,0.9833333333333333
2026-01-20T23:01:00+00:00,SAT-66342,195.10125705879753,42.41196409788274,484761.14753552515,-112.41362752316843,3937200.7450343147,10.5,10503937200.745035,47.655,-122.3035,60.0,1.0
2026-01-20T23:01:01+00:00,SAT-66342,192.43153751802382,42.56162596492904,484649.03367767535,-110.17011577335329,3858623.473510496,10.5,10503858623.47351,47.655,-122.3035,60.0,1.0166666666666666
2026-01-20T23:01:02+00:00,SAT-66342,189.75124636387383,42.648655672152145,484539.1573488774,-107.79611902495077,3775476.0653851507,10.5,10503775476.065386,47.655,-122.3035,60.0,1.0333333333333334
2026-01-20T23:01:03+00:00,SAT-66342,187.06575934497027,42.67265945478767,484431.6486861699,-105.29439222247555,3687855.0104685863,10.5,10503687855.01047,47.655,-122.3035,60.0,1.05
2026-01-20T23:01:04+00:00,SAT-66342,184.38053823824364,42.6335082289107,484326.63507899333,-102.6678378422989,3595861.9657607875,10.5,10503595861.965761,47.655,-122.3035,60.0,1.0666666666666667
2026-01-20T23:01:05+00:00,SAT-66342,181.70103897652737,42.531340036221735,484224.24102205195,-99.91950304375548,3499603.655671126,10.5,10503499603.655672,47.655,-122.3035,60.0,1.0833333333333333
2026-01-20T23:01:06+00:00,SAT-66342,179.03261999687865,42.366557221521475,484124.5879710163,-97.05257580888522,3399191.7368157897,10.5,10503399191.736816,47.655,-122.3035,60.0,1.1
2026-01-20T23:01:07+00:00,SAT-66342,176.38045446697646,42.13981847827356,484027.7942020763,-94.07038247520072,3294742.7116048653,10.5,10503294742.711605,47.655,-122.3035,60.0,1.1166666666666667
2026-01-20T23:01:08+00:00,SAT-66342,173.7494496994993,41.85202612841299,483933.9746739543,-90.97638305564232,3186377.7643273612,10.5,10503186377.764328,47.655,-122.3035,60.0,1.1333333333333333
2026-01-20T23:01:09+00:00,SAT-66342,171.14417664223862,41.50430921280593,483843.2408945868,-87.77416840399614,3074222.6618721657,10.5,10503074222.661873,47.655,-122.3035,60.0,1.15
2026-01-20T23:01:10+00:00,SAT-66342,168.56881152816896,41.09800311966269,483755.7007906319,-84.46745519111349,2958407.5777739934,10.5,10502958407.577774,47.655,-122.3035,60.0,1.1666666666666667
2026-01-20T23:01:11+00:00,SAT-66342,166.0270910868073,40.634626593463956,483671.458581988,-81.0600831996529,2839066.99746381,10.5,10502839066.997463,47.655,-122.3035,60.0,1.1833333333333333
2026-01-20T23:01:12+00:00,SAT-66342,163.5222817740123,40.11585699588915,483590.6146590102,-77.55601008627762,2716339.534818835,10.5,10502716339.534819,47.655,-122.3035,60.0,1.2
2026-01-20T23:03:56+00:00,SAT-66342,211.7061111490487,40.01255443888247,485740.08709279663,-123.4269629991208,4322934.33976504,10.5,10504322934.339766,47.655,-122.3035,60.0,3.933333333333333
2026-01-20T23:03:57+00:00,SAT-66342,209.21457774536756,40.539832955847345,485616.9892683655,-122.12837356021053,4277452.244586522,10.5,10504277452.244587,47.655,-122.3035,60.0,3.95
2026-01-20T23:03:58+00:00,SAT-66342,206.68507393713983,41.01243620473545,485495.18657046807,-120.68537959195048,4226912.491959621,10.5,10504226912.49196,47.655,-122.3035,60.0,3.966666666666667
2026-01-20T23:03:59+00:00,SAT-66342,204.1207190841106,41.428626612247655,485374.82301855506,-119.09966316789658,4171373.99521543,10.5,10504171373.995216,47.655,-122.3035,60.0,3.9833333333333334
2026-01-20T23:04:00+00:00,SAT-66342,201.52510913828274,41.78681575716795,485256.0409544889,-117.37307076271473,4110901.4257073295,10.5,10504110901.425707,47.655,-122.3035,60.0,4.0
2026-01-20T23:04:01+00:00,SAT-66342,198.90229020334002,42.085589609464556,485138.9808785816,-115.50761077675203,4045565.1261109984,10.5,10504045565.12611,47.655,-122.3035,60.0,4.016666666666667
2026-01-20T23:04:02+00:00,SAT-66342,196.2567180430849,42.32373232602109,485023.78128810023,-113.50545060856074,3975441.0078918254,10.5,10503975441.007893,47.655,-122.3035,60.0,4.033333333333333
2026-01-20T23:04:03+00:00,SAT-66342,193.5932038315254,42.500247718379185,484910.57851869334,-111.36891586783267,3900610.5237385356,10.5,10503900610.523739,47.655,-122.3035,60.0,4.05
2026-01-20T23:04:04+00:00,SAT-66342,190.91684718250545,42.61437753821297,484799.50658660114,-109.10048655352143,3821160.5337048704,10.5,10503821160.533705,47.655,-122.3035,60.0,4.066666666666666
2026-01-20T23:04:05+00:00,SAT-66342,188.23295842468949,42.665615800260994,484690.6970346784,-106.70279494725925,3737183.2314281305,10.5,10503737183.231428,47.655,-122.3035,60.0,4.083333333333333
2026-01-20T23:04:06+00:00,SAT-66342,185.5469727127561,42.6537185146485,484584.2787805177,-104.17862232035314,3648776.0287942532,10.5,10503648776.028793,47.655,-122.3035,60.0,4.1
2026-01-20T23:04:07+00:00,SAT-66342,182.8643592128521,42.578708385802905,484480.3779678568,-101.53089662092145,3556041.4749315516,10.5,10503556041.474932,47.655,-122.3035,60.0,4.116666666666666
2026-01-20T23:04:08+00:00,SAT-66342,180.19052890789985,42.44087426270326,484379.1178202936,-98.7626889716823,3459087.1335484497,10.5,10503459087.133549,47.655,-122.3035,60.0,4.133333333333334
2026-01-20T23:04:09+00:00,SAT-66342,177.53074472390347,42.240765368456906,484280.61849849246,-95.87720988151264,3358025.450246259,10.5,10503358025.450247,47.655,-122.3035,60.0,4.15
2026-01-20T23:04:10+00:00,SAT-66342,174.89003748601655,41.97918058117622,484184.9969611707,-92.87780631432943,3252973.6498589935,10.5,10503252973.649858,47.655,-122.3035,60.0,4.166666666666667
2026-01-20T23:04:11+00:00,SAT-66342,172.2731307594543,41.657153254076256,484092.36682900647,-89.76795827866661,3144053.617005934,10.5,10503144053.617006,47.655,-122.3035,60.0,4.183333333333334
2026-01-20T23:04:12+00:00,SAT-66342,169.68437703661047,41.27593224284461,484002.8382519499,-86.55127424436228,3031391.7355646216,10.5,10503031391.735565,47.655,-122.3035,60.0,4.2
2026-01-20T23:04:13+00:00,SAT-66342,167.1277069940671,40.83695994230459,483916.51778110355,-83.23148812466007,2915118.782971287,10.5,10502915118.78297,47.655,-122.3035,60.0,4.216666666666667
2026-01-20T23:04:14+00:00,SAT-66342,164.60659264873237,40.341848194853675,483833.5082436139,-79.81245409591307,2795369.7487849654,10.5,10502795369.748785,47.655,-122.3035,60.0,4.233333333333333
2026-01-20T23:06:59+00:00,SAT-66342,210.23330564780656,40.328801178738885,485880.28577328724,-122.5268971137561,4291410.225184647,10.5,10504291410.225185,47.655,-122.3035,60.0,6.983333333333333
2026-01-20T23:07:00+00:00,SAT-66342,207.71880216338488,40.823730059647325,485758.0856145658,-121.1924836462064,4244673.420987686,10.5,10504244673.420988,47.655,-122.3035,60.0,7.0
2026-01-20T23:07:01+00:00,SAT-66342,205.16813288146608,41.2629278896031,485637.216310876,-119.7147408024896,4192916.6157546923,10.5,10504192916.615755,47.655,-122.3035,60.0,7.016666666666667
2026-01-20T23:07:02+00:00,SAT-66342,202.5847032513956,41.644742998252674,485517.8208093823,-118.0953898027772,4136200.0938968277,10.5,10504136200.093897,47.655,-122.3035,60.0,7.033333333333333
2026-01-20T23:07:03+00:00,SAT-66342,199.97238118071763,41.96768802098032,485400.04034061905,-116.33631520826127,4074589.860718722,10.5,10504074589.860718,47.655,-122.3035,60.0,7.05
2026-01-20T23:07:04+00:00,SAT-66342,197.3354622222586,42.230464382975576,485284.0142555847,-114.43956188250411,4008157.535992093,10.5,10504008157.535992,47.655,-122.3035,60.0,7.066666666666666
2026-01-20T23:07:05+00:00,SAT-66342,194.67862079943396,42.431984810893105,485169.87986586714,-112.4073329147792,3936980.2812223574,10.5,10503936980.281223,47.655,-122.3035,60.0,7.083333333333333
2026-01-20T23:07:06+00:00,SAT-66342,192.00684820735145,42.57139300009789,485057.7722858401,-110.24198725425542,3861140.7167877518,10.5,10503861140.716787,47.655,-122.3035,60.0,7.1
2026-01-20T23:07:07+00:00,SAT-66342,189.32537897020057,42.64807962192603,484947.8242772186,-107.94603775966891,3780726.853630599,10.5,10503780726.85363,47.655,-122.3035,60.0,7.116666666666666
2026-01-20T23:07:08+00:00,SAT-66342,186.6396078913846,42.66169397504592,484840.1660955596,-105.52214747216148,3695831.9627163387,10.5,10503695831.962717,47.655,-122.3035,60.0,7.133333333333334
2026-01-20T23:07:09+00:00,SAT-66342,183.95500083714225,42.612150755992,484734.9253404807,-102.97312763229635,3606554.50558103,10.5,10503606554.50558,47.655,-122.3035,60.0,7.15
2026-01-20T23:07:10+00:00,SAT-66342,181.27700266518985,42.49963164054198,484632.2268078554,-100.3019339003994,3512998.001951716,10.5,10503512998.001951,47.655,-122.3035,60.0,7.166666666666667
2026-01-20T23:07:11+00:00,SAT-66342,178.61094600523595,42.32458160475145,484532.19234577875,-97.51166397493559,3415270.9463318908,10.5,10503415270.946331,47.655,-122.3035,60.0,7.183333333333334
2026-01-20T23:07:12+00:00,SAT-66342,175.9619644566093,42.08770015889089,484434.94071290776,-94.60555351081291,3313486.66504324,10.5,10503313486.665043,47.655,-122.3035,60.0,7.2
2026-01-20T23:07:13+00:00,SAT-66342,173.33491352235407,41.78992790041405,484340.587440873,-91.58697301151712,3207763.2073750487,10.5,10503207763.207375,47.655,-122.3035,60.0,7.216666666666667
2026-01-20T23:07:14+00:00,SAT-66342,170.73430197797362,41.4324289868744,484249.24469978944,-88.45942401959367,3098223.2121587717,10.5,10503098223.212158,47.655,-122.3035,60.0,7.233333333333333
2026-01-20T23:07:15+00:00,SAT-66342,168.1642357016071,41.0165702820517,484161.02116756723,-85.22653564156312,2984993.7860558606,10.5,10502984993.786057,47.655,-122.3035,60.0,7.25
2026-01-20T23:07:16+00:00,SAT-66342,165.62837516081203,40.54389802028448,484076.02190268744,-81.8920600896382,2868206.3474098514,10.5,10502868206.34741,47.655,-122.3035,60.0,7.266666666666667
2026-01-20T23:07:17+00:00,SAT-66342,163.12990697711743,40.016112876044765,483994.3482214247,-78.45986889120152,2747996.4934862237,10.5,10502747996.493486,47.655,-122.3035,60.0,7.283333333333333
2026-01-20T23:10:01+00:00,SAT-66342,211.17694744894462,40.12398676083596,486140.3162272679,-122.79317997924025,4300736.577509306,10.5,10504300736.577509,47.655,-122.3035,60.0,10.016666666666667
2026-01-20T23:10:02+00:00,SAT-66342,208.67684471894404,40.63945152239917,486017.8504957686,-121.56363383127122,4257672.670432382,10.5,10504257672.670433,47.655,-122.3035,60.0,10.033333333333333
2026-01-20T23:10:03+00:00,SAT-66342,206.1394234412434,41.09984038056131,485896.6110316275,-120.19030981471994,4209573.054217926,10.5,10504209573.054218,47.655,-122.3035,60.0,10.05
2026-01-20T23:10:04+00:00,SAT-66342,203.56790858700808,41.503446546748776,485776.7412293057,-118.67480884625128,4156493.7997394134,10.5,10504156493.79974,47.655,-122.3035,60.0,10.066666666666666
2026-01-20T23:10:05+00:00,SAT-66342,200.96599696668338,41.84871798773314,485658.38288661634,-117.01889553554759,4098496.711092211,10.5,10504098496.711092,47.655,-122.3035,60.0,10.083333333333334
2026-01-20T23:10:06+00:00,SAT-66342,198.33782771717807,42.13428241715845,485541.6760414689,-115.22449503535442,4035649.215268856,10.5,10504035649.21527,47.655,-122.3035,60.0,10.1
2026-01-20T23:10:07+00:00,SAT-66342,195.68793875781358,42.358970648488636,485426.75881175365,-113.2936922526584,3968024.3345311685,10.5,10503968024.334532,47.655,-122.3035,60.0,10.116666666666667
2026-01-20T23:10:08+00:00,SAT-66342,193.02120961695755,42.52183743230846,485313.76723601366,-111.22872886526643,3895700.581918233,10.5,10503895700.581919,47.655,-122.3035,60.0,10.133333333333333
2026-01-20T23:10:09+00:00,SAT-66342,190.34279194499797,42.62217892718724,485202.835117092,-109.03200100133118,3818761.87997357,10.5,10503818761.879974,47.655,-122.3035,60.0,10.15
2026-01-20T23:10:10+00:00,SAT-66342,187.65802976574878,42.65954605960709,485094.0938680934,-106.70605632664196,3737297.458729734,10.5,10503737297.458729,47.655,-122.3035,60.0,10.166666666666666
2026-01-20T23:10:11+00:00,SAT-66342,184.9723722525566,42.633753178872155,484987.67236125027,-104.2535922649284,3651401.79337583,10.5,10503651401.793375,47.655,-122.3035,60.0,10.183333333333334
2026-01-20T23:10:12+00:00,SAT-66342,182.2912823084407,42.544881612759,484883.6967785647,-101.6774521408548,3561174.469168852,10.5,10503561174.46917,47.655,-122.3035,60.0,10.2
2026-01-20T23:10:13+00:00,SAT-66342,179.62014461551615,42.39327796072527,484782.2904662962,-98.98062262555294,3466720.0919654416,10.5,10503466720.091965,47.655,-122.3035,60.0,10.216666666666667
2026-01-20T23:10:14+00:00,SAT-66342,176.96417677731165,42.17954720782667,484683.5737919977,-96.16623004894686,3368148.1590639013,10.5,10503368148.159063,47.655,-122.3035,60.0,10.233333333333333
2026-01-20T23:10:15+00:00,SAT-66342,174.32834700883612,41.90454098090018,484587.6640052289,-93.2375378445054,3265572.9697086196,10.5,10503265572.96971,47.655,-122.3035,60.0,10.25
2026-01-20T23:10:16+00:00,SAT-66342,171.71730129767107,41.56934147682254,484494.6751008186,-90.19794210930395,3159113.4695846536,10.5,10503159113.469585,47.655,-122.3035,60.0,10.266666666666667
2026-01-20T23:10:17+00:00,SAT-66342,169.1353023780419,41.175241768751775,484404.7176865549,-87.05096843188761,3048893.139716076,10.5,10503048893.139715,47.655,-122.3035,60.0,10.283333333333333
2026-01-20T23:10:18+00:00,SAT-66342,166.58618199631505,40.723723305458435,484317.89885403885,-83.80026823230808,2935039.8682785905,10.5,10502935039.868279,47.655,-122.3035,60.0,10.3
2026-01-20T23:10:19+00:00,SAT-66342,164.07330717449986,40.21643147937984,484234.3220531885,-80.44961428647218,2817685.793843279,10.5,10502817685.793844,47.655,-122.3035,60.0,10.316666666666666
2026-01-20T23:13:04+00:00,SAT-66342,209.56021872491382,40.46142206574478,486274.35724024306,-121.80831141942255,4266242.314554613,10.5,10504266242.314554,47.655,-122.3035,60.0,13.066666666666666
2026-01-20T23:13:05+00:00,SAT-66342,207.0354784808552,40.94123067486699,486152.8737509874,-120.5356978828658,4221670.005354474,10.5,10504221670.005354,47.655,-122.3035,60.0,13.083333333333334
2026-01-20T23:13:06+00:00,SAT-66342,204.47547004703912,41.36483174992661,486032.65948163223,-119.12049021742169,4172103.4465881316,10.5,10504172103.446589,47.655,-122.3035,60.0,13.1
2026-01-20T23:13:07+00:00,SAT-66342,201.8837280087755,41.73061654488216,485913.8566460554,-117.5643372704248,4117600.387863862,10.5,10504117600.387863,47.655,-122.3035,60.0,13.116666666666667
2026-01-20T23:13:08+00:00,SAT-66342,199.26424108513484,42.0371474773895,485796.60581368435,-115.86904929187203,4058224.231793904,10.5,10504058224.231794,47.655,-122.3035,60.0,13.133333333333333
2026-01-20T23:13:09+00:00,SAT-66342,196.6214134690021,42.283182149565285,485681.04574852396,-114.03659635593216,3994043.9787090565,10.5,10503994043.978708,47.655,-122.3035,60.0,13.15
2026-01-20T23:13:10+00:00,SAT-66342,193.96001231133613,42.467695157889345,485567.3132497583,-112.0691059283219,3925134.1414578883,10.5,10503925134.141459,47.655,-122.3035,60.0,13.166666666666666
2026-01-20T23:13:11+00:00,SAT-66342,191.28510235005507,42.58989682536125,485455.5429947791,-109.96886126452694,3851574.6893056687,10.5,10503851574.689306,47.655,-122.3035,60.0,13.183333333333334
2026-01-20T23:13:12+00:00,SAT-66342,188.60196945772702,42.649248069711554,485345.8673838113,-107.73829835046543,3773450.9407834634,10.5,10503773450.940783,47.655,-122.3035,60.0,13.2
2026-01-20T23:13:13+00:00,SAT-66342,185.9160356830125,42.645470752271194,485238.41638758976,-105.38000351598565,3690853.480102723,10.5,10503690853.480103,47.655,-122.3035,60.0,13.216666666666667
2026-01-20T23:13:14+00:00,SAT-66342,183.23276891382204,42.5785530408871,485133.31739741645,-102.89671015480724,3603878.042273752,10.5,10503603878.042274,47.655,-122.3035,60.0,13.233333333333333
2026-01-20T23:13:15+00:00,SAT-66342,180.55759072015317,42.44874954135813,485030.6950784888,-100.29129686266441,3512625.4478956116,10.5,10503512625.447895,47.655,-122.3035,60.0,13.25
2026-01-20T23:13:16+00:00,SAT-66342,177.89578601146454,42.25657619307741,484930.67122508434,-97.56678357483554,3417201.467876064,10.5,10503417201.467876,47.655,-122.3035,60.0,13.266666666666667
2026-01-20T23:13:17+00:00,SAT-66342,175.2524180933473,42.00280016905432,484833.36461959913,-94.72632784555175,3317716.693120724,10.5,10503317716.693121,47.655,-122.3035,60.0,13.283333333333333
2026-01-20T23:13:18+00:00,SAT-66342,172.63225226467048,41.68842524546435,484738.89089529443,-91.77322297443044,3214286.4689128357,10.5,10503214286.468912,47.655,-122.3035,60.0,13.3
2026-01-20T23:13:19+00:00,SAT-66342,170.03969044301053,41.314673282824494,484647.3624009146,-88.71089303428073,3107030.7207659893,10.5,10503107030.720766,47.655,-122.3035,60.0,13.316666666666666
2026-01-20T23:13:20+00:00,SAT-66342,167.47871869356928,40.88296261003306,484558.8880702618,-85.54288962552265,2996073.840750149,10.5,10502996073.84075,47.655,-122.3035,60.0,13.333333333333334
2026-01-20T23:13:21+00:00,SAT-66342,164.9528685950422,40.39488416993323,484473.5732950086,-82.27288822728295,2881544.559691595,10.5,10502881544.559692,47.655,-122.3035,60.0,13.35
