satellites_20260120_184412/SAT-56474.csv

timestamp,satellite,azimuth_deg,elevation_deg,distance_km,relative_velocity_kms,doppler_shift_hz,tx_freq_ghz,rx_freq_hz,ue_lat,ue_lon,ue_alt_m,time_minutes
2026-01-20T23:05:51+00:00,SAT-56474,264.6163645752168,40.03318178279654,2839.4817442798712,-2.709635525130593,94902.89783698035,10.5,10500094902.897837,47.655,-122.3035,60.0,5.85
2026-01-20T23:05:52+00:00,SAT-56474,264.7783610521173,40.089580725051675,2836.7793344494744,-2.6968551660587305,94455.27560141846,10.5,10500094455.275602,47.655,-122.3035,60.0,5.866666666666666
2026-01-20T23:05:53+00:00,SAT-56474,264.9409826007963,40.1457121354437,2834.0896708971914,-2.684035350545723,94006.27143438709,10.5,10500094006.271435,47.655,-122.3035,60.0,5.883333333333334
2026-01-20T23:05:54+00:00,SAT-56474,265.1042292343717,40.201573063781176,2831.412792974247,-2.6711761049671585,93555.8862596709,10.5,10500093555.88626,47.655,-122.3035,60.0,5.9
2026-01-20T23:05:55+00:00,SAT-56474,265.26810091777264,40.257160549001775,2828.74874000556,-2.6582774742029103,93104.12164915288,10.5,10500093104.121649,47.655,-122.3035,60.0,5.916666666666667
2026-01-20T23:05:56+00:00,SAT-56474,265.4325975680761,40.31247161975849,2826.097551271288,-2.6453395071828507,92650.97931656417,10.5,10500092650.979317,47.655,-122.3035,60.0,5.933333333333334
2026-01-20T23:05:57+00:00,SAT-56474,265.59771905396195,40.367503294713615,2823.4592660027915,-2.6323622505168327,92196.46089437895,10.5,10500092196.460894,47.655,-122.3035,60.0,5.95
2026-01-20T23:05:58+00:00,SAT-56474,265.7634651947908,40.42225258270537,2820.8339233849424,-2.6193457454784004,91740.56782817132,10.5,10500091740.567827,47.655,-122.3035,60.0,5.966666666666667
2026-01-20T23:05:59+00:00,SAT-56474,265.92983575944896,40.47671648286034,2818.2215625614517,-2.606290049664606,91283.30213523371,10.5,10500091283.302135,47.655,-122.3035,60.0,5.983333333333333
2026-01-20T23:06:00+00:00,SAT-56474,266.0968304666016,40.53089198515609,2815.6222226185864,-2.593195213182364,90824.66557052221,10.5,10500090824.665571,47.655,-122.3035,60.0,6.0
2026-01-20T23:06:01+00:00,SAT-56474,266.264448983404,40.584776070499764,2813.0359425926395,-2.5800612951599935,90364.66020496063,10.5,10500090364.660206,47.655,-122.3035,60.0,6.016666666666667
2026-01-20T23:06:02+00:00,SAT-56474,266.4326909253073,40.638365711152936,2810.462761460933,-2.566888338813963,89903.28755217254,10.5,10500089903.287552,47.655,-122.3035,60.0,6.033333333333333
2026-01-20T23:06:03+00:00,SAT-56474,266.60155585419045,40.69165787064776,2807.902718157689,-2.553676416495455,89440.55014620238,10.5,10500089440.550146,47.655,-122.3035,60.0,6.05
2026-01-20T23:06:04+00:00,SAT-56474,266.7710432794949,40.744649504637785,2805.3558515449713,-2.5404255842799137,88976.44995104946,10.5,10500088976.449951,47.655,-122.3035,60.0,6.066666666666666
2026-01-20T23:06:05+00:00,SAT-56474,266.9411526563475,40.797337560819685,2802.822200428916,-2.5271359076346855,88510.98925965709,10.5,10500088510.98926,47.655,-122.3035,60.0,6.083333333333333
2026-01-20T23:06:06+00:00,SAT-56474,267.1118833853986,40.84971897938741,2800.3018035503683,-2.5138074448332657,88044.17011300962,10.5,10500088044.170113,47.655,-122.3035,60.0,6.1
2026-01-20T23:06:07+00:00,SAT-56474,267.28323481152023,40.90179069315335,2797.7946995920547,-2.500440272092356,87575.99518053833,10.5,10500087575.99518,47.655,-122.3035,60.0,6.116666666666666
2026-01-20T23:06:08+00:00,SAT-56474,267.45520622425425,40.95354962819098,2795.300927160688,-2.4870344499292427,87106.46658181457,10.5,10500087106.466581,47.655,-122.3035,60.0,6.133333333333334
2026-01-20T23:06:09+00:00,SAT-56474,267.6277968559204,41.0049927037924,2792.820524802625,-2.4735900585796284,86635.58712703205,10.5,10500086635.587128,47.655,-122.3035,60.0,6.15
2026-01-20T23:06:10+00:00,SAT-56474,267.80100588221495,41.05611683315938,2790.3535309842014,-2.460107165349599,86163.35917353463,10.5,10500086163.359173,47.655,-122.3035,60.0,6.166666666666667
2026-01-20T23:06:11+00:00,SAT-56474,267.97483242050026,41.10691892342976,2787.899984104626,-2.4465858462210592,85689.78538252995,10.5,10500085689.785383,47.655,-122.3035,60.0,6.183333333333334
2026-01-20T23:06:12+00:00,SAT-56474,268.1492755296312,41.15739587615337,2785.4599224873286,-2.433026185530539,85214.86870784007,10.5,10500085214.868708,47.655,-122.3035,60.0,6.2
2026-01-20T23:06:13+00:00,SAT-56474,268.32433420977964,41.20754458776819,2783.033384371626,-2.419428255276008,84738.61167113844,10.5,10500084738.611671,47.655,-122.3035,60.0,6.216666666666667
2026-01-20T23:06:14+00:00,SAT-56474,268.5000074007603,41.257361949656236,2780.6204079250306,-2.405792146274812,84261.0174532327,10.5,10500084261.017454,47.655,-122.3035,60.0,6.233333333333333
2026-01-20T23:06:15+00:00,SAT-56474,268.6762939826181,41.30684484884593,2778.2210312244792,-2.3921179370702865,83782.08880504261,10.5,10500083782.088804,47.655,-122.3035,60.0,6.25
2026-01-20T23:06:16+00:00,SAT-56474,268.8531927739705,41.35599016808234,2775.835292268575,-2.378405712738927,83301.828706307,10.5,10500083301.828707,47.655,-122.3035,60.0,6.266666666666667
2026-01-20T23:06:17+00:00,SAT-56474,269.03070253168903,41.40479478628829,2773.46322897107,-2.3646555767532633,82820.2407810715,10.5,10500082820.240782,47.655,-122.3035,60.0,6.283333333333333
2026-01-20T23:06:18+00:00,SAT-56474,269.2088219515648,41.45325557927523,2771.104879142521,-2.350867600223913,82337.32751993074,10.5,10500082337.32752,47.655,-122.3035,60.0,6.3
2026-01-20T23:06:19+00:00,SAT-56474,269.3875496650587,41.50136941942131,2768.7602805225642,-2.3370418933141157,81853.09278126743,10.5,10500081853.092781,47.655,-122.3035,60.0,6.316666666666666
2026-01-20T23:06:20+00:00,SAT-56474,269.5668842415522,41.54913317681421,2766.429470740966,-2.3231785437842816,81367.53963882224,10.5,10500081367.539639,47.655,-122.3035,60.0,6.333333333333333
2026-01-20T23:06:21+00:00,SAT-56474,269.74682418586883,41.59654371914599,2764.112487339965,-2.3092776502508956,80880.67154656173,10.5,10500080880.671547,47.655,-122.3035,60.0,6.35
2026-01-20T23:06:22+00:00,SAT-56474,269.92736793837435,41.64359791229175,2761.809367763448,-2.2953393191524585,80392.49223241238,10.5,10500080392.492233,47.655,-122.3035,60.0,6.366666666666666
2026-01-20T23:06:23+00:00,SAT-56474,270.1085138748579,41.69029262083187,2759.5201493491463,-2.2813636438194638,79903.00496520287,10.5,10500079903.004965,47.655,-122.3035,60.0,6.383333333333334
2026-01-20T23:06:24+00:00,SAT-56474,270.290260304769,41.736624708154835,2757.2448693417105,-2.2673507449246313,79412.21397140228,10.5,10500079412.213972,47.655,-122.3035,60.0,6.4
2026-01-20T23:06:25+00:00,SAT-56474,270.4726054726901,41.78259103738689,2754.9835648654393,-2.2533007127354137,78920.12241255863,10.5,10500078920.122412,47.655,-122.3035,60.0,6.416666666666667
2026-01-20T23:06:26+00:00,SAT-56474,270.6555475551686,41.828188471156615,2752.7362729546044,-2.239213664833537,78426.73440688138,10.5,10500078426.734407,47.655,-122.3035,60.0,6.433333333333334
2026-01-20T23:06:27+00:00,SAT-56474,270.83908466221436,41.873413872534584,2750.5030305262108,-2.225089719434986,77932.05409479431,10.5,10500077932.054094,47.655,-122.3035,60.0,6.45
2026-01-20T23:06:28+00:00,SAT-56474,271.02321483669715,41.91826410543667,2748.2838743793604,-2.2109289794491804,77436.08508062066,10.5,10500077436.085081,47.655,-122.3035,60.0,6.466666666666667
2026-01-20T23:06:29+00:00,SAT-56474,271.2079360523623,41.96273603471454,2746.078841210523,-2.1967315679095205,76938.83167351049,10.5,10500076938.831673,47.655,-122.3035,60.0,6.483333333333333
2026-01-20T23:06:30+00:00,SAT-56474,271.39324621483763,42.00682652696328,2743.887967593462,-2.182497603994048,76440.29804758298,10.5,10500076440.298048,47.655,-122.3035,60.0,6.5
2026-01-20T23:06:31+00:00,SAT-56474,271.5791431606525,42.0505324508531,2741.7112899830786,-2.168227216915608,75940.48872841854,10.5,10500075940.488728,47.655,-122.3035,60.0,6.516666666666667
2026-01-20T23:06:32+00:00,SAT-56474,271.7656246574604,42.0938506777425,2739.5488447054076,-2.1539205157976244,75439.40753798101,10.5,10500075439.407537,47.655,-122.3035,60.0,6.533333333333333
2026-01-20T23:06:33+00:00,SAT-56474,271.95268840162197,42.13677808169841,2737.400667977652,-2.1395776347450632,74937.05917319363,10.5,10500074937.059174,47.655,-122.3035,60.0,6.55
2026-01-20T23:06:34+00:00,SAT-56474,272.14033201975815,42.17931154041897,2735.2667958832662,-2.125198704353126,74433.44820805274,10.5,10500074433.448208,47.655,-122.3035,60.0,6.566666666666666
2026-01-20T23:06:35+00:00,SAT-56474,272.3285530678176,42.22144793559331,2733.1472643754587,-2.1107838578089346,73928.57930733472,10.5,10500073928.579308,47.655,-122.3035,60.0,6.583333333333333
2026-01-20T23:06:36+00:00,SAT-56474,272.51734903072014,42.263184153387314,2731.0421092746033,-2.096333217801823,73422.45676813903,10.5,10500073422.456768,47.655,-122.3035,60.0,6.6
2026-01-20T23:06:37+00:00,SAT-56474,272.7067173207767,42.30451708467764,2728.951366278716,-2.0818469331639498,72915.08580319746,10.5,10500072915.085804,47.655,-122.3035,60.0,6.616666666666666
2026-01-20T23:06:38+00:00,SAT-56474,272.8966552794946,42.34544362601301,2726.8750709373735,-2.0673251333729414,72406.47094736414,10.5,10500072406.470947,47.655,-122.3035,60.0,6.633333333333334
2026-01-20T23:06:39+00:00,SAT-56474,273.0871601752249,42.38596067968214,2724.813258671023,-2.0527679682601176,71896.6174483657,10.5,10500071896.617449,47.655,-122.3035,60.0,6.65
2026-01-20T23:06:40+00:00,SAT-56474,273.278229204503,42.426065154569194,2722.7659647506784,-2.0381755688257295,71385.529894385,10.5,10500071385.529894,47.655,-122.3035,60.0,6.666666666666667
2026-01-20T23:06:41+00:00,SAT-56474,273.4698594897074,42.46575396624504,2720.7332243167025,-2.0235480930722547,70873.21381933722,10.5,10500070873.21382,47.655,-122.3035,60.0,6.683333333333334
2026-01-20T23:06:42+00:00,SAT-56474,273.6620480811099,42.50502403795829,2718.7150723518785,-2.0088856840162923,70359.67423226862,10.5,10500070359.674232,47.655,-122.3035,60.0,6.7
2026-01-20T23:06:43+00:00,SAT-56474,273.85479195491627,42.543872300811955,2716.711543696353,-1.9941884871652287,69844.91622946333,10.5,10500069844.91623,47.655,-122.3035,60.0,6.716666666666667
2026-01-20T23:06:44+00:00,SAT-56474,274.0480880129987,42.58229569428615,2714.722673045154,-1.9794566657602697,69328.9455283189,10.5,10500069328.945528,47.655,-122.3035,60.0,6.733333333333333
2026-01-20T23:06:45+00:00,SAT-56474,274.24193308413817,42.62029116705818,2712.748494930502,-1.9646903686315413,68811.76734149591,10.5,10500068811.767342,47.655,-122.3035,60.0,6.75
2026-01-20T23:06:46+00:00,SAT-56474,274.4363239221523,42.65785567720514,2710.7890437361866,-1.9498897552746708,68293.38725520587,10.5,10500068293.387255,47.655,-122.3035,60.0,6.766666666666667
2026-01-20T23:06:47+00:00,SAT-56474,274.6312572064807,42.69498619289594,2708.8443536869263,-1.935054986217986,67773.81089182988,10.5,10500067773.810892,47.655,-122.3035,60.0,6.783333333333333
2026-01-20T23:06:48+00:00,SAT-56474,274.82672954185915,42.73167969289964,2706.914458847338,-1.9201862242412295,67253.04395260307,10.5,10500067253.043953,47.655,-122.3035,60.0,6.8
2026-01-20T23:06:49+00:00,SAT-56474,275.0227374581268,42.767933167122436,2704.999393119695,-1.9052836330252185,66731.09217032001,10.5,10500066731.09217,47.655,-122.3035,60.0,6.816666666666666
2026-01-20T23:06:50+00:00,SAT-56474,275.2192774099159,42.8037436171219,2703.099190243024,-1.8903473851491872,66207.96158943554,10.5,10500066207.96159,47.655,-122.3035,60.0,6.833333333333333
2026-01-20T23:06:51+00:00,SAT-56474,275.4163457771869,42.839108056774265,2701.2138837842353,-1.8753776459593898,65683.65800107484,10.5,10500065683.658,47.655,-122.3035,60.0,6.85
2026-01-20T23:06:52+00:00,SAT-56474,275.61393886411827,42.87402351264306,2699.3435071453323,-1.860374589679661,65158.1875072936,10.5,10500065158.187508,47.655,-122.3035,60.0,6.866666666666666
2026-01-20T23:06:53+00:00,SAT-56474,275.8120528996716,42.908487024652764,2697.4880935545584,-1.8453383898314757,64631.55618554786,10.5,10500064631.556185,47.655,-122.3035,60.0,6.883333333333334
2026-01-20T23:06:54+00:00,SAT-56474,276.01068403720393,42.942495646586025,2695.6476760671,-1.8302692333339992,64103.77058253744,10.5,10500064103.770582,47.655,-122.3035,60.0,6.9
2026-01-20T23:06:55+00:00,SAT-56474,276.2098283556256,42.97604644684318,2693.8222875517213,-1.8151672798805556,63574.836291398075,10.5,10500063574.836292,47.655,-122.3035,60.0,6.916666666666667
2026-01-20T23:06:56+00:00,SAT-56474,276.40948185608113,43.0091365084584,2692.0119607179204,-1.8000327306092825,63044.760356838146,10.5,10500063044.760357,47.655,-122.3035,60.0,6.933333333333334
2026-01-20T23:06:57+00:00,SAT-56474,276.60964046628555,43.041762930379384,2690.2167280745925,-1.7848657656698572,62513.54908846139,10.5,10500062513.549088,47.655,-122.3035,60.0,6.95
2026-01-20T23:06:58+00:00,SAT-56474,276.81030003795945,43.07392282760158,2688.4366219509648,-1.769666570796785,61981.20899147584,10.5,10500061981.208992,47.655,-122.3035,60.0,6.966666666666667
2026-01-20T23:06:59+00:00,SAT-56474,277.0114563471959,43.10561333179346,2686.671674491023,-1.7544353312783536,61447.7465554611,10.5,10500061447.746555,47.655,-122.3035,60.0,6.983333333333333
2026-01-20T23:07:00+00:00,SAT-56474,277.21310509420204,43.13683159181645,2684.9219176539614,-1.739172248358919,60913.16882884575,10.5,10500060913.168829,47.655,-122.3035,60.0,7.0
2026-01-20T23:07:01+00:00,SAT-56474,277.4152419049616,43.167574774536284,2683.187383198265,-1.7238775120852294,60377.482467870854,10.5,10500060377.482468,47.655,-122.3035,60.0,7.016666666666667
2026-01-20T23:07:02+00:00,SAT-56474,277.61786232977977,43.19784006515109,2681.468102692879,-1.7085513166211241,59840.69427297536,10.5,10500059840.694273,47.655,-122.3035,60.0,7.033333333333333
2026-01-20T23:07:03+00:00,SAT-56474,277.8209618435847,43.2276246677965,2679.764107513102,-1.6931938644154392,59302.81133477384,10.5,10500059302.811335,47.655,-122.3035,60.0,7.05
2026-01-20T23:07:04+00:00,SAT-56474,278.0245358468181,43.2569258062234,2678.075428832325,-1.6778053616651314,58763.84087515597,10.5,10500058763.840876,47.655,-122.3035,60.0,7.066666666666666
2026-01-20T23:07:05+00:00,SAT-56474,278.228579665806,43.28574072439424,2676.402097618291,-1.6623860055000097,58223.7897984415,10.5,10500058223.789799,47.655,-122.3035,60.0,7.083333333333333
2026-01-20T23:07:06+00:00,SAT-56474,278.43308855154675,43.3140666868595,2674.744144642139,-1.6469360013943428,57682.66530120848,10.5,10500057682.6653,47.655,-122.3035,60.0,7.1
2026-01-20T23:07:07+00:00,SAT-56474,278.6380576806789,43.34190097943995,2673.1016004700814,-1.631455571065103,57140.47514892314,10.5,10500057140.47515,47.655,-122.3035,60.0,7.116666666666666
2026-01-20T23:07:08+00:00,SAT-56474,278.84348215752243,43.36924091003443,2671.4744954472058,-1.6159449121101697,56597.226262299046,10.5,10500056597.226263,47.655,-122.3035,60.0,7.133333333333334
2026-01-20T23:07:09+00:00,SAT-56474,279.0493570109958,43.396083808747555,2669.8628597215284,-1.6004042454384455,56052.926378500415,10.5,10500056052.926378,47.655,-122.3035,60.0,7.15
2026-01-20T23:07:10+00:00,SAT-56474,279.2556771976045,43.4224270288193,2668.266723220744,-1.584833786037565,55507.58302730361,10.5,10500055507.583027,47.655,-122.3035,60.0,7.166666666666667
2026-01-20T23:07:11+00:00,SAT-56474,279.4624376007297,43.44826794706003,2666.6861156581363,-1.5692337526127909,54961.203868692064,10.5,10500054961.203869,47.655,-122.3035,60.0,7.183333333333334
2026-01-20T23:07:12+00:00,SAT-56474,279.6696330311712,43.473603964447406,2665.1210665288636,-1.5536043675961606,54413.796693176606,10.5,10500054413.796694,47.655,-122.3035,60.0,7.2
2026-01-20T23:07:13+00:00,SAT-56474,279.8772582277447,43.49843250672202,2663.5716051062477,-1.5379458505599592,53865.36919110744,10.5,10500053865.36919,47.655,-122.3035,60.0,7.216666666666667
2026-01-20T23:07:14+00:00,SAT-56474,280.0853078569758,43.52275102487599,2662.0377604446226,-1.522258431241376,53315.92940885273,10.5,10500053315.929409,47.655,-122.3035,60.0,7.233333333333333
2026-01-20T23:07:15+00:00,SAT-56474,280.293776514642,43.54655699584868,2660.519561369198,-1.50654233527779,52765.48524918794,10.5,10500052765.485249,47.655,-122.3035,60.0,7.25
2026-01-20T23:07:16+00:00,SAT-56474,280.50265872534993,43.56984792299395,2659.0170364801475,-1.4907977982951333,52214.0449647299,10.5,10500052214.044964,47.655,-122.3035,60.0,7.266666666666667
2026-01-20T23:07:17+00:00,SAT-56474,280.71194894415356,43.59262133676535,2657.5302141426478,-1.4750250455201437,51661.61644387168,10.5,10500051661.616444,47.655,-122.3035,60.0,7.283333333333333
2026-01-20T23:07:18+00:00,SAT-56474,280.9216415552375,43.614874795085996,2656.059122497249,-1.4592243184827416,51108.20814601276,10.5,10500051108.208145,47.655,-122.3035,60.0,7.3
2026-01-20T23:07:19+00:00,SAT-56474,281.1317308745223,43.63660588412555,2654.6037894436154,-1.4433958485006793,50553.828172879286,10.5,10500050553.828173,47.655,-122.3035,60.0,7.316666666666666
2026-01-20T23:07:20+00:00,SAT-56474,281.342211148402,43.657812218670955,2653.164242650711,-1.4275398839709423,49998.48522438444,10.5,10500049998.485224,47.655,-122.3035,60.0,7.333333333333333
2026-01-20T23:07:21+00:00,SAT-56474,281.55307655658294,43.678491442903834,2651.740509539764,-1.41165665844745,49442.187480574394,10.5,10500049442.18748,47.655,-122.3035,60.0,7.35
2026-01-20T23:07:22+00:00,SAT-56474,281.76432121013397,43.6986412307007,2650.3326172990724,-1.3957464200491918,48884.9436316257,10.5,10500048884.943632,47.655,-122.3035,60.0,7.366666666666666
2026-01-20T23:07:23+00:00,SAT-56474,281.9759391540375,43.7182592863666,2648.9405928694764,-1.379809418853328,48326.762436298326,10.5,10500048326.762436,47.655,-122.3035,60.0,7.383333333333334
2026-01-20T23:07:24+00:00,SAT-56474,282.18792436784236,43.737343345172285,2647.564462942407,-1.3638458979510304,47767.6524086734,10.5,10500047767.652409,47.655,-122.3035,60.0,7.4
2026-01-20T23:07:25+00:00,SAT-56474,282.4002707649728,43.75589117376971,2646.20425396685,-1.3478561108169078,47207.62242650391,10.5,10500047207.622427,47.655,-122.3035,60.0,7.416666666666667
2026-01-20T23:07:26+00:00,SAT-56474,282.6129721947141,43.773900570845065,2644.859992138996,-1.3318403075499745,46646.68124931526,10.5,10500046646.68125,47.655,-122.3035,60.0,7.433333333333334
2026-01-20T23:07:27+00:00,SAT-56474,282.82602244212876,43.791369367578454,2643.5317034055993,-1.3157987559911963,46084.83825803103,10.5,10500046084.838259,47.655,-122.3035,60.0,7.45
2026-01-20T23:07:28+00:00,SAT-56474,283.03941523141407,43.8082954283764,2642.21941344629,-1.2997316961707368,45522.10185952288,10.5,10500045522.10186,47.655,-122.3035,60.0,7.466666666666667
2026-01-20T23:07:29+00:00,SAT-56474,283.2531442217638,43.824676651005106,2640.9231477013095,-1.283639399219268,44958.481549933844,10.5,10500044958.48155,47.655,-122.3035,60.0,7.483333333333333
2026-01-20T23:07:30+00:00,SAT-56474,283.4672030130235,43.84051096748881,2639.6429313404883,-1.2675221282924787,44393.986546089254,10.5,10500044393.986546,47.655,-122.3035,60.0,7.5
2026-01-20T23:07:31+00:00,SAT-56474,283.6815851449475,43.855796344487636,2638.378789271205,-1.2513801423242743,43828.625916949786,10.5,10500043828.625917,47.655,-122.3035,60.0,7.516666666666667
2026-01-20T23:07:32+00:00,SAT-56474,283.89628409695354,43.87053078373062,2637.130746142593,-1.235213707927254,43262.40900041644,10.5,10500043262.409,47.655,-122.3035,60.0,7.533333333333333
2026-01-20T23:07:33+00:00,SAT-56474,284.1112932900405,43.88471232259024,2635.898826337887,-1.2190230999004201,42695.34542111267,10.5,10500042695.34542,47.655,-122.3035,60.0,7.55
2026-01-20T23:07:34+00:00,SAT-56474,284.3266060888281,43.898339034645424,2634.6830539662533,-1.2028085807342013,42127.444372563616,10.5,10500042127.444372,47.655,-122.3035,60.0,7.566666666666666
2026-01-20T23:07:35+00:00,SAT-56474,284.54221579997204,43.91140903000917,2633.4834528750675,-1.18657043334946,41558.71576385464,10.5,10500041558.715763,47.655,-122.3035,60.0,7.583333333333333
2026-01-20T23:07:36+00:00,SAT-56474,284.7581156765266,43.92392045601532,2632.3000466295402,-1.1703089177067063,40989.16869990244,10.5,10500040989.1687,47.655,-122.3035,60.0,7.6
2026-01-20T23:07:37+00:00,SAT-56474,284.9742989143027,43.93587149742766,2631.1328585356137,-1.1540243265989725,40418.81343555751,10.5,10500040418.813437,47.655,-122.3035,60.0,7.616666666666666
2026-01-20T23:07:38+00:00,SAT-56474,285.1907586587603,43.94726037723475,2629.9819116072194,-1.137716931081714,39847.65946432847,10.5,10500039847.659464,47.655,-122.3035,60.0,7.633333333333334
2026-01-20T23:07:39+00:00,SAT-56474,285.4074880015983,43.958085356862284,2628.847228587954,-1.1213870103683308,39275.716565449664,10.5,10500039275.716566,47.655,-122.3035,60.0,7.65
2026-01-20T23:07:40+00:00,SAT-56474,285.62447998296614,43.968344736697816,2627.7288319429467,-1.1050348540566766,38702.99488186292,10.5,10500038702.994883,47.655,-122.3035,60.0,7.666666666666667
2026-01-20T23:07:41+00:00,SAT-56474,285.8417275943367,43.978036856613414,2626.6267438485006,-1.088660741524815,38129.50419856979,10.5,10500038129.504198,47.655,-122.3035,60.0,7.683333333333334
2026-01-20T23:07:42+00:00,SAT-56474,286.0592237771712,43.987160096292996,2625.5409862022866,-1.0722649607503947,37555.25460176568,10.5,10500037555.254602,47.655,-122.3035,60.0,7.7
2026-01-20T23:07:43+00:00,SAT-56474,286.27696142547654,43.99571287572557,2624.4715806147647,-1.0558478033204426,36980.25630406168,10.5,10500036980.256304,47.655,-122.3035,60.0,7.716666666666667
2026-01-20T23:07:44+00:00,SAT-56474,286.4949333873333,44.003693655638614,2623.4185484055865,-1.0394095573996331,36404.51939820363,10.5,10500036404.519398,47.655,-122.3035,60.0,7.733333333333333
2026-01-20T23:07:45+00:00,SAT-56474,286.71313246503996,44.0111009378693,2622.381910607007,-1.022950514102856,35828.05408026638,10.5,10500035828.054081,47.655,-122.3035,60.0,7.75
2026-01-20T23:07:46+00:00,SAT-56474,286.93155141651243,44.01793326578248,2621.3616879609413,-1.006470976505954,35250.87096524796,10.5,10500035250.870966,47.655,-122.3035,60.0,7.766666666666667
2026-01-20T23:07:47+00:00,SAT-56474,287.1501829588569,44.02418922472945,2620.3579009070395,-0.9899712317713921,34672.980110792574,10.5,10500034672.98011,47.655,-122.3035,60.0,7.783333333333333
2026-01-20T23:07:48+00:00,SAT-56474,287.36901976564025,44.02986744231931,2619.3705695985527,-0.9734515800354696,34094.39202894301,10.5,10500034094.392029,47.655,-122.3035,60.0,7.8
2026-01-20T23:07:49+00:00,SAT-56474,287.58805447071603,44.03496658887141,2618.399713889398,-0.9569123239318779,33515.11731921127,10.5,10500033515.11732,47.655,-122.3035,60.0,7.816666666666666
2026-01-20T23:07:50+00:00,SAT-56474,287.8072796696873,44.039485377783535,2617.445353331663,-0.9403537676448859,32935.16663541717,10.5,10500032935.166636,47.655,-122.3035,60.0,7.833333333333333
2026-01-20T23:07:51+00:00,SAT-56474,288.02668792131595,44.0434225658792,2616.507507174065,-0.9237762086035073,32354.550394782866,10.5,10500032354.550394,47.655,-122.3035,60.0,7.85
2026-01-20T23:07:52+00:00,SAT-56474,288.24627174673736,44.046776953723494,2615.586194368684,-0.9071799547325083,31773.279382136217,10.5,10500031773.279383,47.655,-122.3035,60.0,7.866666666666666
2026-01-20T23:07:53+00:00,SAT-56474,288.4660236329765,44.04954738599872,2614.6814335604977,-0.8905653169068728,31191.364485634138,10.5,10500031191.364485,47.655,-122.3035,60.0,7.883333333333334
2026-01-20T23:07:54+00:00,SAT-56474,288.6859360347066,44.05173275182689,2613.7932430844357,-0.873932600194664,30608.816390050655,10.5,10500030608.816391,47.655,-122.3035,60.0,7.9
2026-01-20T23:07:55+00:00,SAT-56474,288.90600137377794,44.0533319850636,2612.9216409711753,-0.8572821131508422,30025.645902285654,10.5,10500030025.645903,47.655,-122.3035,60.0,7.916666666666667
2026-01-20T23:07:56+00:00,SAT-56474,289.12621204100543,44.05434406461651,2612.0666449436594,-0.8406141743214591,29441.86417916931,10.5,10500029441.86418,47.655,-122.3035,60.0,7.933333333333334
2026-01-20T23:07:57+00:00,SAT-56474,289.3465603999346,44.05476801474431,2611.228272407136,-0.8239290925836861,28857.482038886727,10.5,10500028857.482038,47.655,-122.3035,60.0,7.95
2026-01-20T23:07:58+00:00,SAT-56474,289.5670387852242,44.054602905326725,2610.4065404587996,-0.8072271847866294,28272.510578833866,10.5,10500028272.510578,47.655,-122.3035,60.0,7.966666666666667
2026-01-20T23:07:59+00:00,SAT-56474,289.7876395058527,44.053847852143974,2609.601465879839,-0.7905087666531803,27686.960856961894,10.5,10500027686.960857,47.655,-122.3035,60.0,7.983333333333333
2026-01-20T23:08:00+00:00,SAT-56474,290.00835484582365,44.052502017136824,2608.8130651365636,-0.7737741611956264,27100.844186527454,10.5,10500027100.844187,47.655,-122.3035,60.0,8.0
2026-01-20T23:08:01+00:00,SAT-56474,290.22917706742123,44.05056460863994,2608.041354373131,-0.7570236827204504,26514.171575873097,10.5,10500026514.171576,47.655,-122.3035,60.0,8.016666666666667
2026-01-20T23:08:02+00:00,SAT-56474,290.4500984096118,44.048034881644696,2607.286349420231,-0.7402576554022386,25926.95437896408,10.5,10500025926.954378,47.655,-122.3035,60.0,8.033333333333333
2026-01-20T23:08:03+00:00,SAT-56474,290.67111109209264,44.04491213800289,2606.548065785243,-0.723476402212621,25339.203907633062,10.5,10500025339.203907,47.655,-122.3035,60.0,8.05
2026-01-20T23:08:04+00:00,SAT-56474,290.8922073160461,44.04119572664412,2605.826518653437,-0.706680249894218,24750.931605788723,10.5,10500024750.931606,47.655,-122.3035,60.0,8.066666666666666
2026-01-20T23:08:05+00:00,SAT-56474,291.1133792664436,44.03688504375906,2605.121722884209,-0.6898695191692787,24162.14870648089,10.5,10500024162.148706,47.655,-122.3035,60.0,8.083333333333334
2026-01-20T23:08:06+00:00,SAT-56474,291.33461911108463,44.03197953303989,2604.4336930170907,-0.6730445423073139,23572.86684719332,10.5,10500023572.866848,47.655,-122.3035,60.0,8.1
2026-01-20T23:08:07+00:00,SAT-56474,291.55591900565594,44.026478685780695,2603.7624432602292,-0.6562056435896357,22983.09738562928,10.5,10500022983.097385,47.655,-122.3035,60.0,8.116666666666667
2026-01-20T23:08:08+00:00,SAT-56474,291.77727109196945,44.02038204111903,2603.107987498356,-0.6393531566609975,22392.85200743934,10.5,10500022392.852007,47.655,-122.3035,60.0,8.133333333333333
2026-01-20T23:08:09+00:00,SAT-56474,291.99866750246645,44.01368918610984,2602.4703392834463,-0.6224874101479905,21802.142222516817,10.5,10500021802.142223,47.655,-122.3035,60.0,8.15
2026-01-20T23:08:10+00:00,SAT-56474,292.22010035944714,44.00639975592848,2601.849511839725,-0.6056087384673537,21210.979743550502,10.5,10500021210.979744,47.655,-122.3035,60.0,8.166666666666666
2026-01-20T23:08:11+00:00,SAT-56474,292.44156177842683,43.99851343393962,2601.2455180578936,-0.588717473939928,20619.376209821945,10.5,10500020619.37621,47.655,-122.3035,60.0,8.183333333333334
2026-01-20T23:08:12+00:00,SAT-56474,292.6630438683112,43.99002995185872,2600.658370497217,-0.5718139518825097,20027.343365543747,10.5,10500020027.343365,47.655,-122.3035,60.0,8.2
2026-01-20T23:08:13+00:00,SAT-56474,292.8845387338172,43.98094908982019,2600.08808138254,-0.5548985084941647,19434.892985829312,10.5,10500019434.892986,47.655,-122.3035,60.0,8.216666666666667
2026-01-20T23:08:14+00:00,SAT-56474,293.1060384768145,43.971270676474774,2599.534662603402,-0.5379714808912952,18842.03687792106,10.5,10500018842.036879,47.655,-122.3035,60.0,8.233333333333333
2026-01-20T23:08:15+00:00,SAT-56474,293.3275351979619,43.960994589058416,2598.9981257131262,-0.5210332067574771,18248.786868926203,10.5,10500018248.78687,47.655,-122.3035,60.0,8.25
2026-01-20T23:08:16+00:00,SAT-56474,293.54902099786847,43.95012075347679,2598.4784819282536,-0.5040840281937325,17655.15494066963,10.5,10500017655.154942,47.655,-122.3035,60.0,8.266666666666667
2026-01-20T23:08:17+00:00,SAT-56474,293.7704879804719,43.93864914425896,2597.975742124135,-0.48712428215078435,17061.15289459095,10.5,10500017061.152895,47.655,-122.3035,60.0,8.283333333333333
2026-01-20T23:08:18+00:00,SAT-56474,293.991928251486,43.92657978475353,2597.48991684007,-0.47015431209574904,16466.792760361455,10.5,10500016466.79276,47.655,-122.3035,60.0,8.3
2026-01-20T23:08:19+00:00,SAT-56474,294.21333392273704,43.91391274700874,2597.0210162728067,-0.45317445978507576,15872.086507737617,10.5,10500015872.086508,47.655,-122.3035,60.0,8.316666666666666
2026-01-20T23:08:20+00:00,SAT-56474,294.43469711236577,43.90064815185352,2596.5690502782472,-0.4361850700407952,15277.046213845546,10.5,10500015277.046213,47.655,-122.3035,60.0,8.333333333333334
2026-01-20T23:08:21+00:00,SAT-56474,294.6560099475846,43.88678616882223,2596.1340283683935,-0.4191864851936446,14681.683868555721,10.5,10500014681.683868,47.655,-122.3035,60.0,8.35
2026-01-20T23:08:22+00:00,SAT-56474,294.87726456431744,43.87232701625601,2595.715959713827,-0.40217905145817673,14086.011597766264,10.5,10500014086.011599,47.655,-122.3035,60.0,8.366666666666667
2026-01-20T23:08:23+00:00,SAT-56474,295.0984531105285,43.85727096116344,2595.3148531398397,-0.38516311534879405,13490.041537877307,10.5,10500013490.041538,47.655,-122.3035,60.0,8.383333333333333
2026-01-20T23:08:24+00:00,SAT-56474,295.3195677473693,43.84161831920062,2594.9307171261316,-0.36813902393131753,12893.785844601982,10.5,10500012893.785845,47.655,-122.3035,60.0,8.4
2026-01-20T23:08:25+00:00,SAT-56474,295.54060065077283,43.82536945460748,2594.563559806264,-0.3511071233572806,12297.256641631213,10.5,10500012297.256641,47.655,-122.3035,60.0,8.416666666666666
2026-01-20T23:08:26+00:00,SAT-56474,295.76154401163,43.80852478024286,2594.2133889685692,-0.3340677639440944,11700.466198562577,10.5,10500011700.466198,47.655,-122.3035,60.0,8.433333333333334
2026-01-20T23:08:27+00:00,SAT-56474,295.9823900398698,43.791084757311616,2593.8802120519954,-0.31702129393105916,11103.426712209422,10.5,10500011103.426712,47.655,-122.3035,60.0,8.45
2026-01-20T23:08:28+00:00,SAT-56474,296.2031309638388,43.773049895431164,2593.5640361481815,-0.2999680631664991,10506.150435739917,10.5,10500010506.150436,47.655,-122.3035,60.0,8.466666666666667
2026-01-20T23:08:29+00:00,SAT-56474,296.42375903264366,43.754420752461606,2593.26486799985,-0.28290842289481805,9908.649671218845,10.5,10500009908.649672,47.655,-122.3035,60.0,8.483333333333333
2026-01-20T23:08:30+00:00,SAT-56474,296.64426651820526,43.73519793433583,2592.9827139994163,-0.2658427238298383,9310.936702127785,10.5,10500009310.936703,47.655,-122.3035,60.0,8.5
2026-01-20T23:08:31+00:00,SAT-56474,296.86464571582655,43.71538209500458,2592.717580189517,-0.24877131763067117,8713.023845056327,10.5,10500008713.023846,47.655,-122.3035,60.0,8.516666666666667
2026-01-20T23:08:32+00:00,SAT-56474,297.08488894586054,43.69497393627759,2592.469472262066,-0.23169455640061185,8114.923432151266,10.5,10500008114.923431,47.655,-122.3035,60.0,8.533333333333333
2026-01-20T23:08:33+00:00,SAT-56474,297.30498855521864,43.673974207662184,2592.238395557816,-0.21461279380878068,7516.6478504012175,10.5,10500007516.64785,47.655,-122.3035,60.0,8.55
2026-01-20T23:08:34+00:00,SAT-56474,297.5249369197629,43.65238370610398,2592.024355064791,-0.1975263828056753,6918.2094616255845,10.5,10500006918.209461,47.655,-122.3035,60.0,8.566666666666666
2026-01-20T23:08:35+00:00,SAT-56474,297.7447264448376,43.63020327588488,2591.8273554190064,-0.1804356769923146,6319.620650427781,10.5,10500006319.620651,47.655,-122.3035,60.0,8.583333333333334
2026-01-20T23:08:36+00:00,SAT-56474,297.9643495664853,43.6074338084528,2591.6474009038193,-0.16334103077677045,5720.89382967763,10.5,10500005720.89383,47.655,-122.3035,60.0,8.6
2026-01-20T23:08:37+00:00,SAT-56474,298.18379875366315,43.58407624213329,2591.4844954491246,-0.14624279851883398,5122.041410553953,10.5,10500005122.04141,47.655,-122.3035,60.0,8.616666666666667
2026-01-20T23:08:38+00:00,SAT-56474,298.40306650867035,43.56013156201111,2591.338642631402,-0.12914133527455712,4523.075828621579,10.5,10500004523.075829,47.655,-122.3035,60.0,8.633333333333333
2026-01-20T23:08:39+00:00,SAT-56474,298.6221453693337,43.53560079961593,2591.209845673021,-0.11203699669867503,3924.0095404137483,10.5,10500003924.00954,47.655,-122.3035,60.0,8.65
2026-01-20T23:08:40+00:00,SAT-56474,298.84102791149917,43.51048503254525,2591.098107441647,-0.09493013755501335,3324.854971260285,10.5,10500003324.85497,47.655,-122.3035,60.0,8.666666666666666
2026-01-20T23:08:41+00:00,SAT-56474,299.0597067467887,43.484785384617695,2591.0034304511255,-0.07782111427486692,2725.624604892838,10.5,10500002725.624605,47.655,-122.3035,60.0,8.683333333333334
2026-01-20T23:08:42+00:00,SAT-56474,299.27817452791186,43.45850302515542,2590.9258168598217,-0.060710282409293874,2126.3308942134418,10.5,10500002126.330894,47.655,-122.3035,60.0,8.7
2026-01-20T23:08:43+00:00,SAT-56474,299.49642394718023,43.431639169027704,2590.865268471499,-0.043597998390097245,1526.986322971544,10.5,10500001526.986322,47.655,-122.3035,60.0,8.716666666666667
2026-01-20T23:08:44+00:00,SAT-56474,299.7144477400294,43.40419507609602,2590.821786734438,-0.02648461835685369,927.6033646815883,10.5,10500000927.603365,47.655,-122.3035,60.0,8.733333333333333
2026-01-20T23:08:45+00:00,SAT-56474,299.9322386844359,43.376172051139946,2590.79537274173,-0.009370498881126649,328.19450798802217,10.5,10500000328.194508,47.655,-122.3035,60.0,8.75
2026-01-20T23:08:46+00:00,SAT-56474,300.1497896027728,43.347571443475424,2590.7860272308462,0.007744003974248406,-271.2277762825116,10.5,10499999728.772224,47.655,-122.3035,60.0,8.766666666666667
2026-01-20T23:08:47+00:00,SAT-56474,300.3670933644943,43.318394646439245,2590.7937505841433,0.024858533206737657,-870.6509843911597,10.5,10499999129.349016,47.655,-122.3035,60.0,8.783333333333333
2026-01-20T23:08:48+00:00,SAT-56474,300.58414288436353,43.28864309745183,2590.818542827928,0.0419727326854042,-1470.0626431260791,10.5,10499998529.937357,47.655,-122.3035,60.0,8.8
2026-01-20T23:08:49+00:00,SAT-56474,300.8009311263177,43.258318277320114,2590.8604036333263,0.05908624578125572,-2069.4502618314204,10.5,10499997930.549738,47.655,-122.3035,60.0,8.816666666666666
2026-01-20T23:08:50+00:00,SAT-56474,301.0174511034684,43.22742171004072,2590.919332315785,0.07619871632777994,-2668.8013660493402,10.5,10499997331.198633,47.655,-122.3035,60.0,8.833333333333334
2026-01-20T23:08:51+00:00,SAT-56474,301.2336958796562,43.19595496237884,2590.995327835536,0.09330978778543125,-3268.1034682567906,10.5,10499996731.896532,47.655,-122.3035,60.0,8.85
2026-01-20T23:08:52+00:00,SAT-56474,301.4496585699962,43.16391964358035,2591.088388797221,0.11041910368276549,-3867.344083315924,10.5,10499996132.655916,47.655,-122.3035,60.0,8.866666666666667
2026-01-20T23:08:53+00:00,SAT-56474,301.6653323420006,43.1313174049918,2591.1985134499605,0.1275263093149104,-4466.510787961715,10.5,10499995533.489212,47.655,-122.3035,60.0,8.883333333333333
2026-01-20T23:08:54+00:00,SAT-56474,301.88071041869387,43.098149939357,2591.3256996891173,0.14463104785924202,-5065.591084756513,10.5,10499994934.408915,47.655,-122.3035,60.0,8.9
2026-01-20T23:08:55+00:00,SAT-56474,302.0957860763357,43.06441898091868,2591.4699450541825,0.16173296366407458,-5664.572517273878,10.5,10499994335.427483,47.655,-122.3035,60.0,8.916666666666666
2026-01-20T23:08:56+00:00,SAT-56474,302.31055264727803,43.03012630473953,2591.631246729943,0.17883170278534088,-6263.442688895394,10.5,10499993736.557312,47.655,-122.3035,60.0,8.933333333333334
2026-01-20T23:08:57+00:00,SAT-56474,302.5250035219435,42.99527372612138,2591.809601548188,0.19592690891168602,-6862.189120090216,10.5,10499993137.81088,47.655,-122.3035,60.0,8.95
2026-01-20T23:08:58+00:00,SAT-56474,302.7391321473521,42.959863100570864,2592.0050059853425,0.2130182283902526,-7460.799424439331,10.5,10499992539.200575,47.655,-122.3035,60.0,8.966666666666667
2026-01-20T23:08:59+00:00,SAT-56474,302.9529320301452,42.92389632303113,2592.2174561651236,0.23010530674740842,-8059.2611867767155,10.5,10499991940.738813,47.655,-122.3035,60.0,8.983333333333333
2026-01-20T23:09:00+00:00,SAT-56474,303.16639673656533,42.887375327593105,2592.4469478577194,0.24718779051477996,-8657.562027144757,10.5,10499991342.437973,47.655,-122.3035,60.0,9.0
2026-01-20T23:09:01+00:00,SAT-56474,303.37951989357674,42.85030208700681,2592.6934764807934,0.26426532674796815,-9255.689583937652,10.5,10499990744.310415,47.655,-122.3035,60.0,9.016666666666667
2026-01-20T23:09:02+00:00,SAT-56474,303.59229519006647,42.81267861216644,2592.957037100003,0.28133756049459785,-9853.631425221769,10.5,10499990146.368574,47.655,-122.3035,60.0,9.033333333333333
2026-01-20T23:09:03+00:00,SAT-56474,303.80471637588676,42.774506951966046,2593.2376244270026,0.2984041435849947,-10451.375356622362,10.5,10499989548.624643,47.655,-122.3035,60.0,9.05
2026-01-20T23:09:04+00:00,SAT-56474,304.01677726671693,42.73578919210389,2593.535232826205,0.3154647198734835,-11048.908904411386,10.5,10499988951.091095,47.655,-122.3035,60.0,9.066666666666666
2026-01-20T23:09:05+00:00,SAT-56474,304.22847173952914,42.6965274555617,2593.849856306825,0.33251894189579895,-11646.219898920503,10.5,10499988353.780102,47.655,-122.3035,60.0,9.083333333333334
2026-01-20T23:09:06+00:00,SAT-56474,304.4397937383075,42.65672390121953,2594.181488531543,0.34956645687677934,-12243.295984471308,10.5,10499987756.704016,47.655,-122.3035,60.0,9.1
2026-01-20T23:09:07+00:00,SAT-56474,304.65073727115066,42.61638072402954,2594.5301228112016,0.36660691643888854,-12840.124959408853,10.5,10499987159.87504,47.655,-122.3035,60.0,9.116666666666667
2026-01-20T23:09:08+00:00,SAT-56474,304.861296413329,42.57550015408313,2594.8957521091966,0.383639969419546,-13436.694524534147,10.5,10499986563.305475,47.655,-122.3035,60.0,9.133333333333333
2026-01-20T23:09:09+00:00,SAT-56474,305.07146530599675,42.53408445648326,2595.2783690386973,0.40066527201773483,-14032.992638481304,10.5,10499985967.007362,47.655,-122.3035,60.0,9.15
2026-01-20T23:09:10+00:00,SAT-56474,305.2812381601143,42.49213593019289,2595.6779658699897,0.4176824704362631,-14629.006909776102,10.5,10499985370.99309,47.655,-122.3035,60.0,9.166666666666666
2026-01-20T23:09:11+00:00,SAT-56474,305.4906092519969,42.44965690852516,2596.094534520505,0.4346912216781173,-15224.725325212255,10.5,10499984775.274675,47.655,-122.3035,60.0,9.183333333333334
2026-01-20T23:09:12+00:00,SAT-56474,305.69957292863864,42.40664975768737,2596.528066565592,0.4516911808755272,-15820.135806061657,10.5,10499984179.864195,47.655,-122.3035,60.0,9.2
2026-01-20T23:09:13+00:00,SAT-56474,305.90812360685686,42.36311687653114,2596.978553236652,0.46868199846883735,-16415.22610926654,10.5,10499983584.773891,47.655,-122.3035,60.0,9.216666666666667
2026-01-20T23:09:14+00:00,SAT-56474,306.11625577164403,42.31906069647963,2597.445985416458,0.48566333566858594,-17009.98436898687,10.5,10499982990.01563,47.655,-122.3035,60.0,9.233333333333333
2026-01-20T23:09:15+00:00,SAT-56474,306.3239639807,42.27448368016023,2597.930353649898,0.5026348430106627,-17604.398345511276,10.5,10499982395.601654,47.655,-122.3035,60.0,9.25
2026-01-20T23:09:16+00:00,SAT-56474,306.53124286039133,42.22938832181984,2598.4316481333276,0.5195961849881976,-18198.456287969977,10.5,10499981801.543713,47.655,-122.3035,60.0,9.266666666666667
2026-01-20T23:09:17+00:00,SAT-56474,306.7380871111046,42.18377714573569,2598.949858728489,0.5365470154562635,-18792.14607290343,10.5,10499981207.853928,47.655,-122.3035,60.0,9.283333333333333
2026-01-20T23:09:18+00:00,SAT-56474,306.94449150337,42.13765270660081,2599.4849749519044,0.5534869943055518,-19385.45578824499,10.5,10499980614.544212,47.655,-122.3035,60.0,9.3
2026-01-20T23:09:19+00:00,SAT-56474,307.15045088023817,42.09101758855237,2600.0369859808916,0.570415785779148,-19978.373674367263,10.5,10499980021.626326,47.655,-122.3035,60.0,9.316666666666666
2026-01-20T23:09:20+00:00,SAT-56474,307.3559601586041,42.04387440440017,2600.6058806579085,0.587333048241051,-20570.887765732372,10.5,10499979429.112234,47.655,-122.3035,60.0,9.333333333333334
2026-01-20T23:09:21+00:00,SAT-56474,307.5610143273693,41.99622579556659,2601.1916474846876,0.604238445265021,-21162.98627927031,10.5,10499978837.013721,47.655,-122.3035,60.0,9.35
2026-01-20T23:09:22+00:00,SAT-56474,307.7656084490792,41.948074431235476,2601.7942746274316,0.6211316425969491,-21754.657507988293,10.5,10499978245.342491,47.655,-122.3035,60.0,9.366666666666667
2026-01-20T23:09:23+00:00,SAT-56474,307.96973766055817,41.8994230077089,2602.413749918982,0.6380123026345746,-22345.889627627104,10.5,10499977654.110373,47.655,-122.3035,60.0,9.383333333333333
2026-01-20T23:09:24+00:00,SAT-56474,308.17339717178675,41.85027424817324,2603.050060855476,0.6548800967030255,-22936.671126602418,10.5,10499977063.328873,47.655,-122.3035,60.0,9.4
2026-01-20T23:09:25+00:00,SAT-56474,308.3765822684583,41.80063090158392,2603.703194605255,0.6717346862649168,-23526.99014790301,10.5,10499976473.009851,47.655,-122.3035,60.0,9.416666666666666
2026-01-20T23:09:26+00:00,SAT-56474,308.5792883090287,41.75049574286536,2604.3731379990227,0.688575744748898,-24116.83525361879,10.5,10499975883.164747,47.655,-122.3035,60.0,9.433333333333334
2026-01-20T23:09:27+00:00,SAT-56474,308.7815107279248,41.699871571608895,2605.0598775417857,0.7054029426633877,-24706.194903560816,10.5,10499975293.805096,47.655,-122.3035,60.0,9.45
2026-01-20T23:09:28+00:00,SAT-56474,308.98324503450533,41.64876121179722,2605.763399409935,0.7222159466085946,-25295.057420658137,10.5,10499974704.94258,47.655,-122.3035,60.0,9.466666666666667
2026-01-20T23:09:29+00:00,SAT-56474,309.1844868119537,41.5971675115531,2606.4836894473533,0.7390144373793054,-25883.411624993936,10.5,10499974116.588375,47.655,-122.3035,60.0,9.483333333333333
2026-01-20T23:09:30+00:00,SAT-56474,309.3852317206136,41.545093341751574,2607.220733179566,0.7557980806909183,-26471.245808507436,10.5,10499973528.754192,47.655,-122.3035,60.0,9.5
2026-01-20T23:09:31+00:00,SAT-56474,309.585475494026,41.49254159648716,2607.9745157987086,0.7725665595967487,-27058.548870385064,10.5,10499972941.45113,47.655,-122.3035,60.0,9.516666666666667
2026-01-20T23:09:32+00:00,SAT-56474,309.78521394289174,41.439515191495836,2608.745022180813,0.7893195491634383,-27645.309430086138,10.5,10499972354.69057,47.655,-122.3035,60.0,9.533333333333333
2026-01-20T23:09:33+00:00,SAT-56474,309.9844429528348,41.386017064172535,2609.532236877845,0.8060567251264462,-28231.516130494798,10.5,10499971768.48387,47.655,-122.3035,60.0,9.55
2026-01-20T23:09:34+00:00,SAT-56474,310.1831584842916,41.33205017304316,2610.3361441183715,0.8227777689666558,-28817.157815724255,10.5,10499971182.842184,47.655,-122.3035,60.0,9.566666666666666
2026-01-20T23:09:35+00:00,SAT-56474,310.3813565735401,41.277617496916854,2611.1567278132875,0.8394823671739647,-29402.22350532457,10.5,10499970597.776495,47.655,-122.3035,60.0,9.583333333333334
2026-01-20T23:09:36+00:00,SAT-56474,310.57903333340266,41.22272203411185,2611.9939715608157,0.8561701950640425,-29986.701827477078,10.5,10499970013.298172,47.655,-122.3035,60.0,9.6
2026-01-20T23:09:37+00:00,SAT-56474,310.77618495042697,41.167366802642526,2612.8478586353594,0.8728409438806739,-30570.58196823309,10.5,10499969429.418032,47.655,-122.3035,60.0,9.616666666666667
2026-01-20T23:09:38+00:00,SAT-56474,310.9728076879594,41.11155483878735,2613.71837200339,0.8894942960708688,-31153.852805543636,10.5,10499968846.147194,47.655,-122.3035,60.0,9.633333333333333
2026-01-20T23:09:39+00:00,SAT-56474,311.16889788381195,41.05528919713619,2614.605494314671,0.9061299437632229,-31736.503556449843,10.5,10499968263.496443,47.655,-122.3035,60.0,9.65
2026-01-20T23:09:40+00:00,SAT-56474,311.36445195188617,40.99857294953862,2615.5092079119177,0.9227475698489291,-32318.523114459924,10.5,10499967681.476885,47.655,-122.3035,60.0,9.666666666666666
2026-01-20T23:09:41+00:00,SAT-56474,311.55946637982805,40.941409185167416,2616.42949482158,0.9393468734766235,-32899.90094248651,10.5,10499967100.099058,47.655,-122.3035,60.0,9.683333333333334
2026-01-20T23:09:42+00:00,SAT-56474,311.75393773179184,40.88380100911048,2617.366336770061,0.9559275451374174,-33480.62620021909,10.5,10499966519.3738,47.655,-122.3035,60.0,9.7
2026-01-20T23:09:43+00:00,SAT-56474,311.94786264621985,40.82575154239671,2618.3197151750783,0.9724892762046924,-34060.688078248015,10.5,10499965939.311922,47.655,-122.3035,60.0,9.716666666666667
2026-01-20T23:09:44+00:00,SAT-56474,312.14123783552,40.767263921480705,2619.2896111465466,0.9890317656639451,-34640.076033772086,10.5,10499965359.923965,47.655,-122.3035,60.0,9.733333333333333
2026-01-20T23:09:45+00:00,SAT-56474,312.33406008702065,40.70834129733427,2620.2760054941687,1.0055547130287132,-35218.77954248431,10.5,10499964781.220457,47.655,-122.3035,60.0,9.75
2026-01-20T23:09:46+00:00,SAT-56474,312.526326262442,40.64898683497473,2621.2788787279624,1.0220578201843955,-35796.78816315036,10.5,10499964203.211838,47.655,-122.3035,60.0,9.766666666666667
2026-01-20T23:09:47+00:00,SAT-56474,312.7180332977855,40.58920371286036,2622.2982110606263,1.0385407806561757,-36374.091161725766,10.5,10499963625.908838,47.655,-122.3035,60.0,9.783333333333333
2026-01-20T23:09:48+00:00,SAT-56474,312.9091782012748,40.52899512289837,2623.3339823992005,1.0550033065512772,-36950.67845498772,10.5,10499963049.321545,47.655,-122.3035,60.0,9.8
2026-01-20T23:09:49+00:00,SAT-56474,313.09975805605825,40.46836426896611,2624.386172363601,1.0714451010576655,-37526.53964732325,10.5,10499962473.460352,47.655,-122.3035,60.0,9.816666666666666
2026-01-20T23:09:50+00:00,SAT-56474,313.2897700179373,40.407314366969054,2625.4547602777225,1.0878658732886421,-38101.66455064971,10.5,10499961898.33545,47.655,-122.3035,60.0,9.833333333333334
2026-01-20T23:09:51+00:00,SAT-56474,313.4792113158555,40.34584864404677,2626.539725175349,1.104265327136057,-38676.042794007175,10.5,10499961323.957207,47.655,-122.3035,60.0,9.85
2026-01-20T23:09:52+00:00,SAT-56474,313.6680792502931,40.28397033843507,2627.641045794946,1.1206431806411077,-39249.66450200569,10.5,10499960750.335499,47.655,-122.3035,60.0,9.866666666666667
2026-01-20T23:09:53+00:00,SAT-56474,313.85637119501814,40.221682698251,2628.758700593772,1.1369991432891113,-39822.51949959218,10.5,10499960177.480501,47.655,-122.3035,60.0,9.883333333333333
2026-01-20T23:09:54+00:00,SAT-56474,314.0440845949586,40.158988981526704,2629.892667739346,1.1533329301735902,-40394.59780813665,10.5,10499959605.402191,47.655,-122.3035,60.0,9.9
2026-01-20T23:09:55+00:00,SAT-56474,314.23121696645325,40.09589245547103,2631.042925115039,1.1696442619083507,-40965.889642352784,10.5,10499959034.110357,47.655,-122.3035,60.0,9.916666666666666
2026-01-20T23:09:56+00:00,SAT-56474,314.41776589737646,40.0323963957676,2632.209450325582,1.185932854445806,-41536.38505369259,10.5,10499958463.614946,47.655,-122.3035,60.0,9.933333333333334
