satellites_20260120_184412/SAT-60102.csv

timestamp,satellite,azimuth_deg,elevation_deg,distance_km,relative_velocity_kms,doppler_shift_hz,tx_freq_ghz,rx_freq_hz,ue_lat,ue_lon,ue_alt_m,time_minutes
2026-01-20T23:01:40+00:00,SAT-60102,208.14628650434355,40.212446415893204,1087.7635679038438,-4.744238288681551,166163.29297769154,10.5,10500166163.292978,47.655,-122.3035,60.0,1.6666666666666667
2026-01-20T23:01:41+00:00,SAT-60102,208.23907714849094,40.49865130521712,1083.0319809172654,-4.719583160136752,165299.76608496232,10.5,10500165299.766085,47.655,-122.3035,60.0,1.6833333333333333
2026-01-20T23:01:42+00:00,SAT-60102,208.33385107561853,40.787014044674784,1078.3249833122225,-4.694598472208656,164424.69662859527,10.5,10500164424.696629,47.655,-122.3035,60.0,1.7
2026-01-20T23:01:43+00:00,SAT-60102,208.43065992108546,41.07754711993517,1073.6429037692728,-4.669280238824417,163537.9449994582,10.5,10500163537.945,47.655,-122.3035,60.0,1.7166666666666666
2026-01-20T23:01:44+00:00,SAT-60102,208.52955709556815,41.37026267326606,1068.9860749444185,-4.643624452324303,162639.3708323549,10.5,10500162639.370832,47.655,-122.3035,60.0,1.7333333333333334
2026-01-20T23:01:45+00:00,SAT-60102,208.6305978600843,41.665172479091474,1064.3548334906338,-4.617627095081627,161728.8334130043,10.5,10500161728.833412,47.655,-122.3035,60.0,1.75
2026-01-20T23:01:46+00:00,SAT-60102,208.73383940497013,41.96228791905978,1059.7495200678059,-4.591284179546151,160806.1930805297,10.5,10500160806.19308,47.655,-122.3035,60.0,1.7666666666666666
2026-01-20T23:01:47+00:00,SAT-60102,208.83934093370448,42.26161995851831,1055.1704793127385,-4.564591677432676,159871.3087473438,10.5,10500159871.308748,47.655,-122.3035,60.0,1.7833333333333334
2026-01-20T23:01:48+00:00,SAT-60102,208.947163749326,42.5631791172333,1050.618059879779,-4.53754558414883,158924.04015568236,10.5,10500158924.040155,47.655,-122.3035,60.0,1.8
2026-01-20T23:01:49+00:00,SAT-60102,209.05737134668178,42.866975442921095,1046.0926144171879,-4.510141875349008,157964.2463559393,10.5,10500157964.246355,47.655,-122.3035,60.0,1.8166666666666667
2026-01-20T23:01:50+00:00,SAT-60102,209.17002950832872,43.173018480602714,1041.5944995868397,-4.482376567320665,156991.78782165018,10.5,10500156991.78782,47.655,-122.3035,60.0,1.8333333333333333
2026-01-20T23:01:51+00:00,SAT-60102,209.28520640682146,43.48131724456321,1037.1240760236985,-4.454245659101512,156006.52442219172,10.5,10500156006.524422,47.655,-122.3035,60.0,1.85
2026-01-20T23:01:52+00:00,SAT-60102,209.40297271081346,43.791880184989,1032.6817083530213,-4.425745177390019,155008.3169957371,10.5,10500155008.316996,47.655,-122.3035,60.0,1.8666666666666667
2026-01-20T23:01:53+00:00,SAT-60102,209.5234016978173,44.10471515612892,1028.267765162771,-4.396871132862763,153997.02581930536,10.5,10500153997.02582,47.655,-122.3035,60.0,1.8833333333333333
2026-01-20T23:01:54+00:00,SAT-60102,209.64656937163335,44.4198293797846,1023.882619019596,-4.367619609234622,152972.5137280256,10.5,10500152972.513727,47.655,-122.3035,60.0,1.9
2026-01-20T23:01:55+00:00,SAT-60102,209.7725545884128,44.73722941342151,1019.526646395986,-4.3379866562419185,151934.6423669542,10.5,10500151934.642366,47.655,-122.3035,60.0,1.9166666666666667
2026-01-20T23:01:56+00:00,SAT-60102,209.90143918636917,45.05692110899552,1015.2002277041606,-4.3079683870022,150883.2756010263,10.5,10500150883.2756,47.655,-122.3035,60.0,1.9333333333333333
2026-01-20T23:01:57+00:00,SAT-60102,210.03330812516663,45.37890957688463,1010.9037472328572,-4.277560941482144,149818.2782355469,10.5,10500149818.278236,47.655,-122.3035,60.0,1.95
2026-01-20T23:01:58+00:00,SAT-60102,210.1682496317229,45.7031991453825,1006.6375931205522,-4.246760470861402,148739.515468547,10.5,10500148739.515469,47.655,-122.3035,60.0,1.9666666666666666
2026-01-20T23:01:59+00:00,SAT-60102,210.30635535336324,46.02979331702761,1002.4021573442798,-4.215563198058917,147646.85501067084,10.5,10500147646.855011,47.655,-122.3035,60.0,1.9833333333333334
2026-01-20T23:02:00+00:00,SAT-60102,210.4477205211893,46.358694727404966,998.1978356480824,-4.183965348384039,146540.164656285,10.5,10500146540.164656,47.655,-122.3035,60.0,2.0
2026-01-20T23:02:01+00:00,SAT-60102,210.5924441200769,46.689905096558654,994.0250275406274,-4.1519632307114245,145419.3151265665,10.5,10500145419.315126,47.655,-122.3035,60.0,2.0166666666666666
2026-01-20T23:02:02+00:00,SAT-60102,210.74062907075233,47.0234251843727,989.8841362118645,-4.119553183432122,144284.17817648128,10.5,10500144284.178177,47.655,-122.3035,60.0,2.033333333333333
2026-01-20T23:02:03+00:00,SAT-60102,210.89238242006314,47.35925473947724,985.7755685035883,-4.086731619580938,143134.62817533535,10.5,10500143134.628176,47.655,-122.3035,60.0,2.05
2026-01-20T23:02:04+00:00,SAT-60102,211.04781554345342,47.69739244923743,981.6997348349928,-4.053494992011189,141970.54088704754,10.5,10500141970.540888,47.655,-122.3035,60.0,2.066666666666667
2026-01-20T23:02:05+00:00,SAT-60102,211.20704435744767,48.037835884408054,977.6570491629603,-4.019839834325074,140791.79490370397,10.5,10500140791.794903,47.655,-122.3035,60.0,2.0833333333333335
2026-01-20T23:02:06+00:00,SAT-60102,211.37018954567228,48.380581444395055,973.6479289015268,-3.9857627513768215,139598.2713129382,10.5,10500139598.271313,47.655,-122.3035,60.0,2.1
2026-01-20T23:02:07+00:00,SAT-60102,211.5373767973153,48.725624298992365,969.6727948508203,-3.951260405070867,138389.85320052347,10.5,10500138389.8532,47.655,-122.3035,60.0,2.1166666666666667
2026-01-20T23:02:08+00:00,SAT-60102,211.7087370585479,49.07295832589701,965.732071140163,-3.9163295836668994,137166.42807772852,10.5,10500137166.428078,47.655,-122.3035,60.0,2.1333333333333333
2026-01-20T23:02:09+00:00,SAT-60102,211.88440680134389,49.42257605113703,961.8261851020525,-3.8809671231896425,135927.88512875547,10.5,10500135927.885128,47.655,-122.3035,60.0,2.15
2026-01-20T23:02:10+00:00,SAT-60102,212.06452830439596,49.774468579475005,957.9555672245247,-3.8451699669931014,134674.117296932,10.5,10500134674.117296,47.655,-122.3035,60.0,2.1666666666666665
2026-01-20T23:02:11+00:00,SAT-60102,212.24924995290593,50.12862552653449,954.1206510441103,-3.8089351525171136,133405.02082086966,10.5,10500133405.02082,47.655,-122.3035,60.0,2.183333333333333
2026-01-20T23:02:12+00:00,SAT-60102,212.43872655526576,50.48503494617357,950.3218730519999,-3.772259836129142,132120.4961045284,10.5,10500132120.496105,47.655,-122.3035,60.0,2.2
2026-01-20T23:02:13+00:00,SAT-60102,212.6331196795187,50.843683256381986,946.5596725754338,-3.73514128681878,130820.44749637159,10.5,10500130820.447496,47.655,-122.3035,60.0,2.216666666666667
2026-01-20T23:02:14+00:00,SAT-60102,212.83259800938822,51.204555160667816,942.8344916653798,-3.697576872669837,129504.78281556132,10.5,10500129504.782816,47.655,-122.3035,60.0,2.2333333333333334
2026-01-20T23:02:15+00:00,SAT-60102,213.037337720615,51.56763356392061,939.1467749977037,-3.6595641132102794,128173.41518547454,10.5,10500128173.415186,47.655,-122.3035,60.0,2.25
2026-01-20T23:02:16+00:00,SAT-60102,213.24752288250926,51.93289948883459,935.4969697221287,-3.6211006373805463,126826.26156157583,10.5,10500126826.261562,47.655,-122.3035,60.0,2.2666666666666666
2026-01-20T23:02:17+00:00,SAT-60102,213.46334588120175,52.30033198363146,931.8855253531144,-3.5821842229066054,125463.24411042842,10.5,10500125463.24411,47.655,-122.3035,60.0,2.283333333333333
2026-01-20T23:02:18+00:00,SAT-60102,213.68500787049493,52.66990802863301,928.3128936214689,-3.542812804450277,124084.29049515286,10.5,10500124084.290495,47.655,-122.3035,60.0,2.3
2026-01-20T23:02:19+00:00,SAT-60102,213.91271925049523,53.041602438537666,924.7795283178306,-3.5029844335997566,122689.33247412597,10.5,10500122689.332474,47.655,-122.3035,60.0,2.316666666666667
2026-01-20T23:02:20+00:00,SAT-60102,214.1467001725611,53.415387754945286,921.2858851760537,-3.46269737546555,121278.30928417911,10.5,10500121278.309284,47.655,-122.3035,60.0,2.3333333333333335
2026-01-20T23:02:21+00:00,SAT-60102,214.38718108121827,53.791234143070824,917.8324216602562,-3.42195001068147,119851.16420825849,10.5,10500119851.164207,47.655,-122.3035,60.0,2.35
2026-01-20T23:02:22+00:00,SAT-60102,214.63440328251525,54.16910927195111,914.4195968496031,-3.3807409208645898,118407.84756859425,10.5,10500118407.847569,47.655,-122.3035,60.0,2.3666666666666667
2026-01-20T23:02:23+00:00,SAT-60102,214.88861955280524,54.548978196980954,911.0478712378607,-3.3390688602264635,116948.31573240535,10.5,10500116948.315733,47.655,-122.3035,60.0,2.3833333333333333
2026-01-20T23:02:24+00:00,SAT-60102,215.1500947827718,54.93080323239823,907.7177065612617,-3.2969327821520054,115472.53204280429,10.5,10500115472.532043,47.655,-122.3035,60.0,2.4
2026-01-20T23:02:25+00:00,SAT-60102,215.41910666287345,55.314543819203735,904.429565599862,-3.2543318191323056,113980.46611595948,10.5,10500113980.466116,47.655,-122.3035,60.0,2.4166666666666665
2026-01-20T23:02:26+00:00,SAT-60102,215.69594640905757,55.70015638273627,901.1839119989141,-3.2112653149923696,112472.09496984704,10.5,10500112472.09497,47.655,-122.3035,60.0,2.433333333333333
2026-01-20T23:02:27+00:00,SAT-60102,215.98091953541504,56.08759418532038,897.981210058095,-3.1677328324582574,110947.40328928387,10.5,10500110947.40329,47.655,-122.3035,60.0,2.45
2026-01-20T23:02:28+00:00,SAT-60102,216.27434667477962,56.47680717071711,894.82192451319,-3.1237341348681587,109406.38278537235,10.5,10500109406.382786,47.655,-122.3035,60.0,2.466666666666667
2026-01-20T23:02:29+00:00,SAT-60102,216.57656444760602,56.8677417965747,891.7065203360148,-3.079269225006737,107849.03355564314,10.5,10500107849.033556,47.655,-122.3035,60.0,2.4833333333333334
2026-01-20T23:02:30+00:00,SAT-60102,216.88792638712016,57.26034086101817,888.6354624956082,-3.03433831824368,106275.36314325371,10.5,10500106275.363144,47.655,-122.3035,60.0,2.5
2026-01-20T23:02:31+00:00,SAT-60102,217.2088039177336,57.65454331470583,885.6092157462131,-2.988941904311628,104685.3887007127,10.5,10500104685.3887,47.655,-122.3035,60.0,2.5166666666666666
2026-01-20T23:02:32+00:00,SAT-60102,217.53958739849853,58.05028406860887,882.6282443536463,-2.943080687218837,103079.13488536724,10.5,10500103079.134886,47.655,-122.3035,60.0,2.533333333333333
2026-01-20T23:02:33+00:00,SAT-60102,217.8806872223906,58.44749378126692,879.6930118815934,-2.8967556303972706,101456.6354406799,10.5,10500101456.63544,47.655,-122.3035,60.0,2.55
2026-01-20T23:02:34+00:00,SAT-60102,218.23253498500233,58.84609863779309,876.8039809328772,-2.8499679720167763,99817.93373259627,10.5,10500099817.933733,47.655,-122.3035,60.0,2.566666666666667
2026-01-20T23:02:35+00:00,SAT-60102,218.5955847232449,59.24602011616109,873.9616128754524,-2.8027191980855304,98163.08180740848,10.5,10500098163.081808,47.655,-122.3035,60.0,2.5833333333333335
2026-01-20T23:02:36+00:00,SAT-60102,218.97031422163118,59.64717473376032,871.1663675952285,-2.755011086519294,96492.14193524705,10.5,10500096492.141935,47.655,-122.3035,60.0,2.6
2026-01-20T23:02:37+00:00,SAT-60102,219.35722639762045,60.04947378282459,868.4187032049398,-2.70684567925781,94805.18563347915,10.5,10500094805.185633,47.655,-122.3035,60.0,2.6166666666666667
2026-01-20T23:02:38+00:00,SAT-60102,219.75685075929667,60.45282304337185,865.7190757808268,-2.658225308240041,93102.29457647138,10.5,10500093102.294577,47.655,-122.3035,60.0,2.6333333333333333
2026-01-20T23:02:39+00:00,SAT-60102,220.16974494441928,60.85712247990168,863.0679390734086,-2.609152614032712,91383.56124804007,10.5,10500091383.561249,47.655,-122.3035,60.0,2.65
2026-01-20T23:02:40+00:00,SAT-60102,220.59649634195256,61.26226591951139,860.4657441996801,-2.559630508260928,89649.08762561246,10.5,10500089649.087626,47.655,-122.3035,60.0,2.6666666666666665
2026-01-20T23:02:41+00:00,SAT-60102,221.03772378808262,61.66814070139006,857.9129393727744,-2.509662211835698,87898.9865191166,10.5,10500087898.986519,47.655,-122.3035,60.0,2.683333333333333
2026-01-20T23:02:42+00:00,SAT-60102,221.49407934761496,62.07462730712985,855.4099695935037,-2.459251278338783,86133.38239001739,10.5,10500086133.38239,47.655,-122.3035,60.0,2.7
2026-01-20T23:02:43+00:00,SAT-60102,221.96625017879504,62.48159896851984,852.9572763185737,-2.4084015371776784,84352.40936036363,10.5,10500084352.40936,47.655,-122.3035,60.0,2.716666666666667
2026-01-20T23:02:44+00:00,SAT-60102,222.45496046341816,62.88892123774613,850.5552971854953,-2.3571171649962053,82556.21371388921,10.5,10500082556.213715,47.655,-122.3035,60.0,2.7333333333333334
2026-01-20T23:02:45+00:00,SAT-60102,222.96097342069672,63.29645153863184,848.2044656662723,-2.3054026317582434,80744.95200763708,10.5,10500080744.952007,47.655,-122.3035,60.0,2.75
2026-01-20T23:02:46+00:00,SAT-60102,223.48509337421757,63.70403867650604,845.9052107748655,-2.253262756739061,78918.79303301265,10.5,10500078918.793034,47.655,-122.3035,60.0,2.7666666666666666
2026-01-20T23:02:47+00:00,SAT-60102,224.02816788359397,64.11152232280382,843.6579567188111,-2.2007026778487893,77077.91674136209,10.5,10500077077.91674,47.655,-122.3035,60.0,2.783333333333333
2026-01-20T23:02:48+00:00,SAT-60102,224.59108990949758,64.51873245770508,841.4631225814366,-2.1477278595884797,75222.51452262697,10.5,10500075222.514523,47.655,-122.3035,60.0,2.8
2026-01-20T23:02:49+00:00,SAT-60102,225.17480000125607,64.92548877496017,839.3211219961404,-2.094344089564217,73352.78908325399,10.5,10500073352.789083,47.655,-122.3035,60.0,2.816666666666667
2026-01-20T23:02:50+00:00,SAT-60102,225.78028848066742,65.33160004472938,837.2323628241483,-2.0405575191074803,71468.95586889161,10.5,10500071468.95587,47.655,-122.3035,60.0,2.8333333333333335
2026-01-20T23:02:51+00:00,SAT-60102,226.4085976048625,65.73686344087538,835.1972467917583,-1.9863746033730552,69571.24096636573,10.5,10500069571.240967,47.655,-122.3035,60.0,2.85
2026-01-20T23:02:52+00:00,SAT-60102,227.06082364245722,66.14106381178013,833.2161691873276,-1.9318021484370298,67659.88275325063,10.5,10500067659.882753,47.655,-122.3035,60.0,2.8666666666666667
2026-01-20T23:02:53+00:00,SAT-60102,227.73811884553686,66.54397291325857,831.2895185112865,-1.876847295800794,65735.13135513348,10.5,10500065735.131355,47.655,-122.3035,60.0,2.8833333333333333
2026-01-20T23:02:54+00:00,SAT-60102,228.44169324269245,66.94534859068062,829.4176761416078,-1.8215175255921883,63797.24875773218,10.5,10500063797.248758,47.655,-122.3035,60.0,2.9
2026-01-20T23:02:55+00:00,SAT-60102,229.1728161876616,67.34493391315611,827.6010159960839,-1.7658206392719273,61846.508201201104,10.5,10500061846.508202,47.655,-122.3035,60.0,2.9166666666666665
2026-01-20T23:02:56+00:00,SAT-60102,229.9328175697269,67.74245625554097,825.83990421185,-1.7097647811994001,59883.19493545666,10.5,10500059883.194935,47.655,-122.3035,60.0,2.933333333333333
2026-01-20T23:02:57+00:00,SAT-60102,230.7230885973372,68.13762633762713,824.1346988034005,-1.6533584270081574,57907.60581303767,10.5,10500057907.605814,47.655,-122.3035,60.0,2.95
2026-01-20T23:02:58+00:00,SAT-60102,231.54508201994983,68.53013721611839,822.4857493321975,-1.5966103741039799,55920.0489563076,10.5,10500055920.048956,47.655,-122.3035,60.0,2.966666666666667
2026-01-20T23:02:59+00:00,SAT-60102,232.40031164085917,68.91966323355284,820.893396585758,-1.539529754433395,53920.84420466191,10.5,10500053920.844204,47.655,-122.3035,60.0,2.9833333333333334
2026-01-20T23:03:00+00:00,SAT-60102,233.2903509602528,69.30585893569652,819.3579722440031,-1.4821259944979586,51910.321714059144,10.5,10500051910.321714,47.655,-122.3035,60.0,3.0
2026-01-20T23:03:01+00:00,SAT-60102,234.2168307187442,69.68835795330077,817.8797985854904,-1.4244088697885326,49888.823863539605,10.5,10500049888.823864,47.655,-122.3035,60.0,3.0166666666666666
2026-01-20T23:03:02+00:00,SAT-60102,235.18143516238032,70.06677188347265,816.4591881393546,-1.3663884400407547,47856.70298759792,10.5,10500047856.702988,47.655,-122.3035,60.0,3.033333333333333
2026-01-20T23:03:03+00:00,SAT-60102,236.1858966953469,70.44068915693089,815.0964434018206,-1.3080750781211052,45814.322387895445,10.5,10500045814.322388,47.655,-122.3035,60.0,3.05
2026-01-20T23:03:04+00:00,SAT-60102,237.23198867370047,70.80967393480779,813.7918565239079,-1.249479447286996,43762.05553681226,10.5,10500043762.055536,47.655,-122.3035,60.0,3.066666666666667
2026-01-20T23:03:05+00:00,SAT-60102,238.32151597385428,71.17326504779444,812.5457090218136,-1.1906125060149853,41700.28624655176,10.5,10500041700.286247,47.655,-122.3035,60.0,3.0833333333333335
2026-01-20T23:03:06+00:00,SAT-60102,239.45630298835522,71.53097501722453,811.3582714824814,-1.131485489817054,39629.408032269675,10.5,10500039629.408031,47.655,-122.3035,60.0,3.1
2026-01-20T23:03:07+00:00,SAT-60102,240.63817863753675,71.8822891912435,810.2298032873038,-1.0721099036137547,37549.82384494951,10.5,10500037549.823845,47.655,-122.3035,60.0,3.1166666666666667
2026-01-20T23:03:08+00:00,SAT-60102,241.86895799280643,72.22666504661751,809.160552343433,-1.0124975159598142,35461.94586915875,10.5,10500035461.94587,47.655,-122.3035,60.0,3.1333333333333333
2026-01-20T23:03:09+00:00,SAT-60102,243.15042009955886,72.5635317134818,808.1507548208492,-0.9526603515578069,33366.195260846,10.5,10500033366.195261,47.655,-122.3035,60.0,3.15
2026-01-20T23:03:10+00:00,SAT-60102,244.48428160378583,72.89228978916876,807.2006348968955,-0.8926106733030013,31263.001518475536,10.5,10500031263.001518,47.655,-122.3035,60.0,3.1666666666666665
2026-01-20T23:03:11+00:00,SAT-60102,245.8721658181467,73.2123115137687,806.3104045187213,-0.8323609673782919,29152.80196098884,10.5,10500029152.801962,47.655,-122.3035,60.0,3.183333333333333
2026-01-20T23:03:12+00:00,SAT-60102,247.3155669586623,73.52294139382978,805.4802631805893,-0.7719239494610872,27036.04194519602,10.5,10500027036.041945,47.655,-122.3035,60.0,3.2
2026-01-20T23:03:13+00:00,SAT-60102,248.81580944977935,73.82349737621476,804.7103976949934,-0.7113125358429584,24913.173854263747,10.5,10500024913.173855,47.655,-122.3035,60.0,3.216666666666667
2026-01-20T23:03:14+00:00,SAT-60102,250.3740022947185,74.11327266090186,804.0009819925795,-0.650539836352553,22784.65684984579,10.5,10500022784.656849,47.655,-122.3035,60.0,3.2333333333333334
2026-01-20T23:03:15+00:00,SAT-60102,251.99098884050863,74.39153826439468,803.3521769291239,-0.5896191374293344,20650.956279253733,10.5,10500020650.95628,47.655,-122.3035,60.0,3.25
2026-01-20T23:03:16+00:00,SAT-60102,253.66729253811766,74.65754643288038,802.7641301093943,-0.5285638942064084,18512.5433981641,10.5,10500018512.543398,47.655,-122.3035,60.0,3.2666666666666666
2026-01-20T23:03:17+00:00,SAT-60102,255.40305972521043,74.910535003645,802.2369757189058,-0.4673877150536532,16369.894829253371,10.5,10500016369.894829,47.655,-122.3035,60.0,3.283333333333333
2026-01-20T23:03:18+00:00,SAT-60102,257.1980008770188,75.14973279085243,801.7708343710923,-0.4061043414656849,14223.49185778947,10.5,10500014223.491858,47.655,-122.3035,60.0,3.3
2026-01-20T23:03:19+00:00,SAT-60102,259.05133225264706,75.37436604586276,801.3658129745371,-0.3447276359122289,12073.820006100364,10.5,10500012073.820005,47.655,-122.3035,60.0,3.316666666666667
2026-01-20T23:03:20+00:00,SAT-60102,260.9617204051379,75.5836660111626,801.0220046123206,-0.2832715722015101,9921.368696059246,10.5,10500009921.368696,47.655,-122.3035,60.0,3.3333333333333335
2026-01-20T23:03:21+00:00,SAT-60102,262.9272324955836,75.77687753701966,800.7394884309783,-0.2217502109547109,7766.630390096286,10.5,10500007766.63039,47.655,-122.3035,60.0,3.35
2026-01-20T23:03:22+00:00,SAT-60102,264.9452956253925,75.95326866019636,800.5183295539194,-0.16017768767246265,5610.100173236706,10.5,10500005610.100174,47.655,-122.3035,60.0,3.3666666666666667
2026-01-20T23:03:23+00:00,SAT-60102,267.0126687148279,76.11214098943162,800.3585790067476,-0.09856819787653248,3452.275232699787,10.5,10500003452.275232,47.655,-122.3035,60.0,3.3833333333333333
2026-01-20T23:03:24+00:00,SAT-60102,269.12543037663755,76.25284066204782,800.2602736573987,-0.03693597982437967,1293.6542524895226,10.5,10500001293.654253,47.655,-122.3035,60.0,3.4
2026-01-20T23:03:25+00:00,SAT-60102,271.27898588708916,76.37476956239242,800.2234361735206,0.024704703221488704,-865.2632076075489,10.5,10499999134.736792,47.655,-122.3035,60.0,3.4166666666666665
2026-01-20T23:03:26+00:00,SAT-60102,273.4680956426978,76.4773964265849,800.2480749975333,0.08633957732442571,-3023.9772139513593,10.5,10499996976.022785,47.655,-122.3035,60.0,3.433333333333333
2026-01-20T23:03:27+00:00,SAT-60102,275.68692660040597,76.56026741616816,800.334184335985,0.1479543755849765,-5181.988079374076,10.5,10499994818.01192,47.655,-122.3035,60.0,3.45
2026-01-20T23:03:28+00:00,SAT-60102,277.92912668527975,76.6230157061945,800.4817441665684,0.20953485404027966,-7338.796920044388,10.5,10499992661.20308,47.655,-122.3035,60.0,3.466666666666667
2026-01-20T23:03:29+00:00,SAT-60102,280.18792080457763,76.66536964838427,800.6907202609979,0.27106680871026645,-9493.906252497512,10.5,10499990506.093748,47.655,-122.3035,60.0,3.4833333333333334
2026-01-20T23:03:30+00:00,SAT-60102,282.4562254083353,76.68715910260264,800.9610642248849,0.33253608945274815,-11646.820478898959,10.5,10499988353.179522,47.655,-122.3035,60.0,3.5
2026-01-20T23:03:31+00:00,SAT-60102,284.726777098447,76.68831960616704,801.2927135514325,0.3939286198339195,-13797.04658299361,10.5,10499986202.953417,47.655,-122.3035,60.0,3.5166666666666666
2026-01-20T23:03:32+00:00,SAT-60102,286.9922696777129,76.6688941540363,801.6855916949469,0.4552304121886893,-15944.094657582207,10.5,10499984055.905342,47.655,-122.3035,60.0,3.533333333333333
2026-01-20T23:03:33+00:00,SAT-60102,289.24549320317396,76.62903248689643,802.1396081593697,0.5164275792187641,-18087.4783107353,10.5,10499981912.521688,47.655,-122.3035,60.0,3.55
2026-01-20T23:03:34+00:00,SAT-60102,291.4794684844808,76.5689879218061,802.6546585983772,0.5775063531630781,-20226.71533722279,10.5,10499979773.284662,47.655,-122.3035,60.0,3.566666666666667
2026-01-20T23:03:35+00:00,SAT-60102,293.68757090784584,76.48911189072983,803.2306249345985,0.6384531020793766,-22361.32828876387,10.5,10499977638.671711,47.655,-122.3035,60.0,3.5833333333333335
2026-01-20T23:03:36+00:00,SAT-60102,295.8636383031043,76.38984646921489,803.8673754950723,0.699254340477571,-24490.84484645206,10.5,10499975509.155153,47.655,-122.3035,60.0,3.6
2026-01-20T23:03:37+00:00,SAT-60102,298.00205889141733,76.27171526928076,804.5647651573087,0.7598967485341304,-26614.79849372451,10.5,10499973385.201506,47.655,-122.3035,60.0,3.6166666666666667
2026-01-20T23:03:38+00:00,SAT-60102,300.0978369308031,76.1353131261293,805.3226355145133,0.8203671799872757,-28732.728792885093,10.5,10499971267.271208,47.655,-122.3035,60.0,3.6333333333333333
2026-01-20T23:03:39+00:00,SAT-60102,302.1466351881199,75.98129503390187,806.1408150486873,0.8806526811606622,-30844.18205139421,10.5,10499969155.81795,47.655,-122.3035,60.0,3.65
2026-01-20T23:03:40+00:00,SAT-60102,304.1447948985764,75.81036477165092,807.0191193226982,0.9407405021138487,-32948.71171240543,10.5,10499967051.288288,47.655,-122.3035,60.0,3.6666666666666665
2026-01-20T23:03:41+00:00,SAT-60102,306.0893350305566,75.62326362547897,807.9573511834732,1.0006181055220393,-35045.87866577155,10.5,10499964954.121334,47.655,-122.3035,60.0,3.683333333333333
2026-01-20T23:03:42+00:00,SAT-60102,307.9779335887292,75.42075955347562,808.9553009740471,1.0602731857838767,-37135.2519172804,10.5,10499962864.748083,47.655,-122.3035,60.0,3.7
2026-01-20T23:03:43+00:00,SAT-60102,309.8088942556548,75.20363706657226,810.0127467646688,1.1196936769425563,-39216.40886608576,10.5,10499960783.591133,47.655,-122.3035,60.0,3.716666666666667
2026-01-20T23:03:44+00:00,SAT-60102,311.58110183978624,74.97268802767904,811.1294545918063,1.1788677595695343,-41288.935545803855,10.5,10499958711.064455,47.655,-122.3035,60.0,3.7333333333333334
2026-01-20T23:03:45+00:00,SAT-60102,313.29396996285504,74.72870349675723,812.305178704017,1.2377838739234825,-43352.42708539574,10.5,10499956647.572914,47.655,-122.3035,60.0,3.75
2026-01-20T23:03:46+00:00,SAT-60102,314.94738415329925,74.47246668230044,813.5396618209433,1.2964307351303035,-45406.48824083555,10.5,10499954593.511759,47.655,-122.3035,60.0,3.7666666666666666
2026-01-20T23:03:47+00:00,SAT-60102,316.54164308746454,74.20474700528885,814.8326354074466,1.3547973308181311,-47450.73331227824,10.5,10499952549.266687,47.655,-122.3035,60.0,3.783333333333333
2026-01-20T23:03:48+00:00,SAT-60102,318.077400212895,73.9262952420682,816.1838199453825,1.4128729470600419,-49484.78705268309,10.5,10499950515.212948,47.655,-122.3035,60.0,3.8
2026-01-20T23:03:49+00:00,SAT-60102,319.55560754520764,73.63783967109842,817.5929252312503,1.4706471448835043,-51508.28384507523,10.5,10499948491.716154,47.655,-122.3035,60.0,3.816666666666667
2026-01-20T23:03:50+00:00,SAT-60102,320.97746285809427,73.34008314335641,819.0596506504141,1.5281098070145263,-53520.86933972343,10.5,10499946479.130661,47.655,-122.3035,60.0,3.8333333333333335
2026-01-20T23:03:51+00:00,SAT-60102,322.34436119372174,73.0337009594728,820.5836854979433,1.5852511162175815,-55522.1996955127,10.5,10499944477.800304,47.655,-122.3035,60.0,3.85
2026-01-20T23:03:52+00:00,SAT-60102,323.65785110410985,72.71933946086548,822.164709277851,1.6420615620342254,-57511.94181595911,10.5,10499942488.058184,47.655,-122.3035,60.0,3.8666666666666667
2026-01-20T23:03:53+00:00,SAT-60102,324.91959585291727,72.39761522320968,823.8023920090532,1.6985319631504787,-59489.77413261019,10.5,10499940510.225868,47.655,-122.3035,60.0,3.8833333333333333
2026-01-20T23:03:54+00:00,SAT-60102,326.1313395559868,72.0691147489274,825.4963945536352,1.7546534607004003,-61455.3863705077,10.5,10499938544.61363,47.655,-122.3035,60.0,3.9
2026-01-20T23:03:55+00:00,SAT-60102,327.29487804128144,71.73439457215427,827.2463689384405,1.8104175167114402,-63408.479493737366,10.5,10499936591.520506,47.655,-122.3035,60.0,3.9166666666666665
2026-01-20T23:03:56+00:00,SAT-60102,328.41203413059213,71.39398169215661,829.0519586751074,1.865815921155736,-65348.765952395064,10.5,10499934651.234047,47.655,-122.3035,60.0,3.933333333333333
2026-01-20T23:03:57+00:00,SAT-60102,329.4846369765505,71.04837426072343,830.91279908714,1.920840810407893,-67275.97032905636,10.5,10499932724.02967,47.655,-122.3035,60.0,3.95
2026-01-20T23:03:58+00:00,SAT-60102,330.51450505244134,70.69804245882435,832.8285176553868,1.975484637636861,-69189.82830177483,10.5,10499930810.171698,47.655,-122.3035,60.0,3.966666666666667
2026-01-20T23:03:59+00:00,SAT-60102,331.5034323518694,70.34342951835406,834.79873433399,2.0297402058896465,-71090.08780281353,10.5,10499928909.912197,47.655,-122.3035,60.0,3.9833333333333334
2026-01-20T23:04:00+00:00,SAT-60102,332.45317742848226,69.98495283305186,836.8230618993306,2.083600642585665,-72976.50812532942,10.5,10499927023.491875,47.655,-122.3035,60.0,4.0
2026-01-20T23:04:01+00:00,SAT-60102,333.36545485870863,69.62300513308215,838.901106273536,2.1370594175866247,-74848.86055625709,10.5,10499925151.139444,47.655,-122.3035,60.0,4.016666666666667
2026-01-20T23:04:02+00:00,SAT-60102,334.2419287952626,69.25795568605385,841.032466866009,2.1901103327827194,-76706.92801157311,10.5,10499923293.07199,47.655,-122.3035,60.0,4.033333333333333
2026-01-20T23:04:03+00:00,SAT-60102,335.08420827509144,68.89015150633792,843.2167369045709,2.242747533573064,-78550.50543838955,10.5,10499921449.494562,47.655,-122.3035,60.0,4.05
2026-01-20T23:04:04+00:00,SAT-60102,335.8938440039675,68.51991855081269,845.4535037780545,2.2949654775906048,-80379.39871956801,10.5,10499919620.60128,47.655,-122.3035,60.0,4.066666666666666
2026-01-20T23:04:05+00:00,SAT-60102,336.6723263487352,68.14756289436774,847.7423493477049,2.3467589753473845,-82193.42609728873,10.5,10499917806.573902,47.655,-122.3035,60.0,4.083333333333333
2026-01-20T23:04:06+00:00,SAT-60102,337.42108434370505,67.7733718630092,850.082850299118,2.398123164727113,-83992.41727967247,10.5,10499916007.58272,47.655,-122.3035,60.0,4.1
2026-01-20T23:04:07+00:00,SAT-60102,338.141485496065,67.39761512838919,852.4745784687392,2.44905347770999,-85776.21227534316,10.5,10499914223.787725,47.655,-122.3035,60.0,4.116666666666666
2026-01-20T23:04:08+00:00,SAT-60102,338.8348362292813,67.02054575959575,854.9171011371753,2.4995457042563096,-87544.66363090179,10.5,10499912455.336369,47.655,-122.3035,60.0,4.133333333333334
2026-01-20T23:04:09+00:00,SAT-60102,339.50238285592775,66.64240121400502,857.4099813862204,2.549595937874217,-89297.63452447919,10.5,10499910702.365475,47.655,-122.3035,60.0,4.15
2026-01-20T23:04:10+00:00,SAT-60102,340.1453129276087,66.26340428438064,859.9527784015935,2.5992005857417944,-91034.99912025419,10.5,10499908965.00088,47.655,-122.3035,60.0,4.166666666666667
2026-01-20T23:04:11+00:00,SAT-60102,340.76475688634446,65.88376399153697,862.5450477857732,2.648356356643451,-92756.64214593495,10.5,10499907243.357855,47.655,-122.3035,60.0,4.183333333333334
2026-01-20T23:04:12+00:00,SAT-60102,341.3617899311022,65.50367642646297,865.186341858799,2.6970602789842766,-94462.4595236979,10.5,10499905537.540476,47.655,-122.3035,60.0,4.2
2026-01-20T23:04:13+00:00,SAT-60102,341.9374340408016,65.12332553874532,867.8762099770394,2.745309663730278,-96152.35707219799,10.5,10499903847.642927,47.655,-122.3035,60.0,4.216666666666667
2026-01-20T23:04:14+00:00,SAT-60102,342.4926600873942,64.7428838808627,870.6141988149997,2.793102123979922,-97826.25119204693,10.5,10499902173.748808,47.655,-122.3035,60.0,4.233333333333333
2026-01-20T23:04:15+00:00,SAT-60102,343.028390009011,64.36251330211479,873.399852666649,2.840435554895807,-99484.06816293548,10.5,10499900515.931837,47.655,-122.3035,60.0,4.25
2026-01-20T23:04:16+00:00,SAT-60102,343.5454989994218,63.98236560005247,876.2327137267317,2.8873081429308827,-101125.74446677465,10.5,10499898874.255533,47.655,-122.3035,60.0,4.266666666666667
2026-01-20T23:04:17+00:00,SAT-60102,344.0448176924466,63.60258312763773,879.1123223812815,2.9337183313402795,-102751.22557977404,10.5,10499897248.77442,47.655,-122.3035,60.0,4.283333333333333
2026-01-20T23:04:18+00:00,SAT-60102,344.52713431177176,63.22329936434789,882.0382174637382,2.9796648521809805,-104360.46709320585,10.5,10499895639.532907,47.655,-122.3035,60.0,4.3
2026-01-20T23:04:19+00:00,SAT-60102,344.9931967816632,62.84463944475571,885.00993654298,3.0251466808411496,-105953.43312082945,10.5,10499894046.56688,47.655,-122.3035,60.0,4.316666666666666
2026-01-20T23:04:20+00:00,SAT-60102,345.4437147726393,62.46672065710512,888.0270161660056,3.070163052652559,-107530.09688072898,10.5,10499892469.90312,47.655,-122.3035,60.0,4.333333333333333
2026-01-20T23:04:21+00:00,SAT-60102,345.8793616838609,62.08965290599937,891.0889921171845,3.1147134716296896,-109090.44100139351,10.5,10499890909.558998,47.655,-122.3035,60.0,4.35
2026-01-20T23:04:22+00:00,SAT-60102,346.3007765536334,61.71353914266793,894.1953996862231,3.1587976406220317,-110634.45507535529,10.5,10499889365.544924,47.655,-122.3035,60.0,4.366666666666666
2026-01-20T23:04:23+00:00,SAT-60102,346.70856588337307,61.338475774366415,897.34577386647,3.202415529904956,-112162.13806153202,10.5,10499887837.861938,47.655,-122.3035,60.0,4.383333333333334
2026-01-20T23:04:24+00:00,SAT-60102,347.1033053921475,60.96455303797224,900.5396496216287,3.245567328751066,-113673.49658905092,10.5,10499886326.50341,47.655,-122.3035,60.0,4.4
2026-01-20T23:04:25+00:00,SAT-60102,347.4855416841959,60.59185535402318,903.7765621041698,3.2882534451138317,-115168.54494616817,10.5,10499884831.455053,47.655,-122.3035,60.0,4.416666666666667
2026-01-20T23:04:26+00:00,SAT-60102,347.8557938366104,60.22046165697957,907.0560468734299,3.330474476758043,-116647.30406913522,10.5,10499883352.69593,47.655,-122.3035,60.0,4.433333333333334
2026-01-20T23:04:27+00:00,SAT-60102,348.2145549049473,59.85044570660696,910.3776400849166,3.3722312703076978,-118109.80361030572,10.5,10499881890.19639,47.655,-122.3035,60.0,4.45
2026-01-20T23:04:28+00:00,SAT-60102,348.5622933580996,59.481876372203054,913.7408787385034,3.413524833370618,-119556.07886036776,10.5,10499880443.921139,47.655,-122.3035,60.0,4.466666666666667
2026-01-20T23:04:29+00:00,SAT-60102,348.8994544281957,59.114817907589256,917.1453008389851,3.4543563715307464,-120986.17204397063,10.5,10499879013.827955,47.655,-122.3035,60.0,4.483333333333333
2026-01-20T23:04:30+00:00,SAT-60102,349.22646139224616,58.749330204105995,920.590445593525,3.494727278596678,-122400.13197818711,10.5,10499877599.868021,47.655,-122.3035,60.0,4.5
2026-01-20T23:04:31+00:00,SAT-60102,349.54371678283246,58.38546902819519,924.0758535993789,3.534639117390576,-123798.01339966014,10.5,10499876201.9866,47.655,-122.3035,60.0,4.516666666666667
2026-01-20T23:04:32+00:00,SAT-60102,349.8516035300175,58.02328624565047,927.6010670124564,3.574093625564617,-125179.87716831914,10.5,10499874820.122831,47.655,-122.3035,60.0,4.533333333333333
2026-01-20T23:04:33+00:00,SAT-60102,350.1504860399806,57.66283003094851,931.1656297216862,3.613092707344328,-126545.789978197,10.5,10499873454.210022,47.655,-122.3035,60.0,4.55
2026-01-20T23:04:34+00:00,SAT-60102,350.44071121194975,57.30414506415778,934.7690875151443,3.6516383966911636,-127895.82306722745,10.5,10499872104.176933,47.655,-122.3035,60.0,4.566666666666666
2026-01-20T23:04:35+00:00,SAT-60102,350.7226093944429,56.94727271909502,938.4109882094442,3.689732892604848,-129230.05345368263,10.5,10499870769.946547,47.655,-122.3035,60.0,4.583333333333333
2026-01-20T23:04:36+00:00,SAT-60102,350.9964952897042,56.59225123634805,942.0908818143355,3.7273785437419815,-130548.56339745146,10.5,10499869451.436602,47.655,-122.3035,60.0,4.6
2026-01-20T23:04:37+00:00,SAT-60102,351.26266880487987,56.23911588716197,945.8083206819608,3.7645777937602998,-131851.43848576455,10.5,10499868148.561514,47.655,-122.3035,60.0,4.616666666666666
2026-01-20T23:04:38+00:00,SAT-60102,351.5214158502917,55.88789913241484,949.5628596016044,3.8013332677906275,-133138.7706618076,10.5,10499866861.229338,47.655,-122.3035,60.0,4.633333333333334
2026-01-20T23:04:39+00:00,SAT-60102,351.7730090977531,55.53863076403281,953.354055980681,3.8376476686719814,-134410.65459043605,10.5,10499865589.34541,47.655,-122.3035,60.0,4.65
2026-01-20T23:04:40+00:00,SAT-60102,352.0177086878563,55.191338047406155,957.1814699222365,3.8735238232897924,-135667.18928113536,10.5,10499864332.810719,47.655,-122.3035,60.0,4.666666666666667
2026-01-20T23:04:41+00:00,SAT-60102,352.2557628996694,54.84604585118132,961.0446643486641,3.908964668417657,-136908.47759213942,10.5,10499863091.522408,47.655,-122.3035,60.0,4.683333333333334
2026-01-20T23:04:42+00:00,SAT-60102,352.4874087807474,54.50277677070668,964.9432051112994,3.9439732523991644,-138134.62628933523,10.5,10499861865.37371,47.655,-122.3035,60.0,4.7
2026-01-20T23:04:43+00:00,SAT-60102,352.7128727408756,54.16155124417859,968.8766611016921,3.97855269182928,-139345.74452906166,10.5,10499860654.25547,47.655,-122.3035,60.0,4.716666666666667
2026-01-20T23:04:44+00:00,SAT-60102,352.93237110908586,53.82238766580333,972.8446043196765,4.012706233822953,-140541.94603901947,10.5,10499859458.05396,47.655,-122.3035,60.0,4.733333333333333
2026-01-20T23:04:45+00:00,SAT-60102,353.14611066217583,53.485302487263425,976.8466100035427,4.046437160593677,-141723.345776209,10.5,10499858276.654224,47.655,-122.3035,60.0,4.75
2026-01-20T23:04:46+00:00,SAT-60102,353.35428911768565,53.15031032138932,980.8822566650414,4.079748874529105,-142890.06290663788,10.5,10499857109.937094,47.655,-122.3035,60.0,4.766666666666667
2026-01-20T23:04:47+00:00,SAT-60102,353.5570956032591,52.817424033042336,984.9511262092384,4.112644818417432,-144042.2180113118,10.5,10499855957.781988,47.655,-122.3035,60.0,4.783333333333333
2026-01-20T23:04:48+00:00,SAT-60102,353.75471109510346,52.486654831413446,989.0528039748067,4.145128531733639,-145179.93505761644,10.5,10499854820.064943,47.655,-122.3035,60.0,4.8
2026-01-20T23:04:49+00:00,SAT-60102,353.9473088343969,52.15801235276404,993.1868788304557,4.177203586798437,-146303.33916333408,10.5,10499853696.660837,47.655,-122.3035,60.0,4.816666666666666
2026-01-20T23:04:50+00:00,SAT-60102,354.1350547170529,51.831504743654335,997.3529432076893,4.208873635302744,-147412.55822612726,10.5,10499852587.441774,47.655,-122.3035,60.0,4.833333333333333
2026-01-20T23:04:51+00:00,SAT-60102,354.3181076637605,51.507138736068114,1001.5505931799647,4.240142388543656,-148507.7222313191,10.5,10499851492.27777,47.655,-122.3035,60.0,4.85
2026-01-20T23:04:52+00:00,SAT-60102,354.496619968267,51.18491972003482,1005.7794285221388,4.27101355497363,-149588.96106460126,10.5,10499850411.038935,47.655,-122.3035,60.0,4.866666666666666
2026-01-20T23:04:53+00:00,SAT-60102,354.6707376236751,50.864851817041085,1010.0390527076325,4.301490966774787,-150656.4089452019,10.5,10499849343.591055,47.655,-122.3035,60.0,4.883333333333334
2026-01-20T23:04:54+00:00,SAT-60102,354.84060063584894,50.54693794018226,1014.3290730318294,4.331578403338808,-151710.1982434044,10.5,10499848289.801756,47.655,-122.3035,60.0,4.9
2026-01-20T23:04:55+00:00,SAT-60102,355.0063433123342,50.231179864071734,1018.6491005594258,4.361279778508311,-152750.4660385328,10.5,10499847249.533962,47.655,-122.3035,60.0,4.916666666666667
2026-01-20T23:04:56+00:00,SAT-60102,355.16809454281116,49.91757827757808,1022.9987502585248,4.3905989482276135,-153777.3473820677,10.5,10499846222.652618,47.655,-122.3035,60.0,4.933333333333334
2026-01-20T23:04:57+00:00,SAT-60102,355.3259780567719,49.60613284754077,1027.3776409428904,4.419539839979317,-154790.9798310631,10.5,10499845209.020168,47.655,-122.3035,60.0,4.95
2026-01-20T23:04:58+00:00,SAT-60102,355.48011267214736,49.296842270056864,1031.7853953432966,4.448106404268123,-155791.5017489042,10.5,10499844208.498251,47.655,-122.3035,60.0,4.966666666666667
2026-01-20T23:04:59+00:00,SAT-60102,355.6306125286094,48.98970432253829,1036.2216401304865,4.476302608086656,-156779.0520764531,10.5,10499843220.947924,47.655,-122.3035,60.0,4.983333333333333
2026-01-20T23:05:00+00:00,SAT-60102,355.7775873081239,48.68471591356139,1040.6860059316184,4.504132399831141,-157753.76910324735,10.5,10499842246.230896,47.655,-122.3035,60.0,5.0
2026-01-20T23:05:01+00:00,SAT-60102,355.92114244259324,48.38187313250945,1045.1781273117165,4.531599817526555,-158715.7942580024,10.5,10499841284.205742,47.655,-122.3035,60.0,5.016666666666667
2026-01-20T23:05:02+00:00,SAT-60102,356.06137931396097,48.081171289535924,1049.697642863063,4.558708828221549,-159665.26648354265,10.5,10499840334.733517,47.655,-122.3035,60.0,5.033333333333333
2026-01-20T23:05:03+00:00,SAT-60102,356.198395438584,47.78260496407329,1054.2441951344094,4.585463471796485,-160602.327273567,10.5,10499839397.672726,47.655,-122.3035,60.0,5.05
2026-01-20T23:05:04+00:00,SAT-60102,356.3322846464543,47.4861680415568,1058.8174307036143,4.611867713282129,-161527.115500225,10.5,10499838472.8845,47.655,-122.3035,60.0,5.066666666666666
2026-01-20T23:05:05+00:00,SAT-60102,356.4631372465901,47.19185375776755,1063.4170001029945,4.637925597587801,-162439.77283335096,10.5,10499837560.227167,47.655,-122.3035,60.0,5.083333333333333
2026-01-20T23:05:06+00:00,SAT-60102,356.59104018841754,46.899654731180576,1068.0425578989887,4.66364115624203,-163340.4404741273,10.5,10499836659.559526,47.655,-122.3035,60.0,5.1
2026-01-20T23:05:07+00:00,SAT-60102,356.71607721202616,46.60956299958219,1072.6937626788142,4.689018349818243,-164229.25713858867,10.5,10499835770.74286,47.655,-122.3035,60.0,5.116666666666666
2026-01-20T23:05:08+00:00,SAT-60102,356.8383289892764,46.321570058361075,1077.3702769796996,4.714061206890685,-165106.363924446,10.5,10499834893.636076,47.655,-122.3035,60.0,5.133333333333334
2026-01-20T23:05:09+00:00,SAT-60102,356.95787326143903,46.03566688845344,1082.071767356705,4.738773728562169,-165971.90096724438,10.5,10499834028.099033,47.655,-122.3035,60.0,5.15
2026-01-20T23:05:10+00:00,SAT-60102,357.07478496728197,45.75184398869809,1086.7979043553244,4.76315987207283,-166826.0068662725,10.5,10499833173.993134,47.655,-122.3035,60.0,5.166666666666667
2026-01-20T23:05:11+00:00,SAT-60102,357.1891363643646,45.47009140752219,1091.5483624677383,4.787223622576529,-167668.82119847575,10.5,10499832331.1788,47.655,-122.3035,60.0,5.183333333333334
2026-01-20T23:05:12+00:00,SAT-60102,357.30099714604654,45.19039876888191,1096.3228201606548,4.8109689295621605,-168500.48229166152,10.5,10499831499.517708,47.655,-122.3035,60.0,5.2
2026-01-20T23:05:13+00:00,SAT-60102,357.41043455109883,44.91275530061289,1101.120959839738,4.8343997268434755,-169321.12792462745,10.5,10499830678.872076,47.655,-122.3035,60.0,5.216666666666667
2026-01-20T23:05:14+00:00,SAT-60102,357.5175134684182,44.637149860248186,1105.9424678339767,4.857519953130922,-170130.89604767403,10.5,10499829869.103952,47.655,-122.3035,60.0,5.233333333333333
2026-01-20T23:05:15+00:00,SAT-60102,357.62229653702764,44.36357095841097,1110.7870344005657,4.880333466162705,-170929.92177511152,10.5,10499829070.078224,47.655,-122.3035,60.0,5.25
2026-01-20T23:05:16+00:00,SAT-60102,357.72484423933554,44.0920067858401,1115.6543536441523,4.902844184437625,-171718.3423493431,10.5,10499828281.65765,47.655,-122.3035,60.0,5.266666666666667
2026-01-20T23:05:17+00:00,SAT-60102,357.8252149929263,43.822445231292974,1120.5441235774313,4.925055937386808,-172496.29189324527,10.5,10499827503.708107,47.655,-122.3035,60.0,5.283333333333333
2026-01-20T23:05:18+00:00,SAT-60102,357.92346523473424,43.55487390673759,1125.4560460323185,4.946972579628624,-173263.90541185846,10.5,10499826736.094587,47.655,-122.3035,60.0,5.3
2026-01-20T23:05:19+00:00,SAT-60102,358.01964950357666,43.289280165157635,1130.3898266850679,4.968597878136786,-174021.3148405363,10.5,10499825978.68516,47.655,-122.3035,60.0,5.316666666666666
2026-01-20T23:05:20+00:00,SAT-60102,358.11382051648405,43.025651123476365,1135.3451749688631,4.989935638811085,-174768.6534779884,10.5,10499825231.346521,47.655,-122.3035,60.0,5.333333333333333
2026-01-20T23:05:21+00:00,SAT-60102,358.20602924391744,42.76397367770662,1140.3218041126374,5.010989603557926,-175506.05238160535,10.5,10499824493.947618,47.655,-122.3035,60.0,5.35
2026-01-20T23:05:22+00:00,SAT-60102,358.2963249794462,42.504234522726705,1145.3194310772524,5.031763487813216,-176233.6416816689,10.5,10499823766.358318,47.655,-122.3035,60.0,5.366666666666666
2026-01-20T23:05:23+00:00,SAT-60102,358.3847554068976,42.246420169126694,1150.3377765290982,5.0522609956315385,-176951.55110983862,10.5,10499823048.44889,47.655,-122.3035,60.0,5.383333333333334
2026-01-20T23:05:24+00:00,SAT-60102,358.4713666646649,41.99051695848958,1155.3765648287413,5.072485769340494,-177659.90823583424,10.5,10499822340.091764,47.655,-122.3035,60.0,5.4
2026-01-20T23:05:25+00:00,SAT-60102,358.55620340613496,41.736511080418346,1160.4355239693637,5.092441463196499,-178358.84104717284,10.5,10499821641.158953,47.655,-122.3035,60.0,5.416666666666667
2026-01-20T23:05:26+00:00,SAT-60102,358.63930885865307,41.484388585095296,1165.5143855886583,5.112131634164657,-179048.47412381833,10.5,10499820951.525877,47.655,-122.3035,60.0,5.433333333333334
2026-01-20T23:05:27+00:00,SAT-60102,358.72072487792633,41.234135400544616,1170.6128848717985,5.131559871160581,-179728.93316477662,10.5,10499820271.066835,47.655,-122.3035,60.0,5.45
2026-01-20T23:05:28+00:00,SAT-60102,358.8004920021348,40.985737342794266,1175.7307605833028,5.1507297077092655,-180400.34192903974,10.5,10499819599.658072,47.655,-122.3035,60.0,5.466666666666667
2026-01-20T23:05:29+00:00,SAT-60102,358.8786495021471,40.7391801297211,1180.8677550117914,5.169644626028379,-181062.82237860028,10.5,10499818937.177622,47.655,-122.3035,60.0,5.483333333333333
2026-01-20T23:05:30+00:00,SAT-60102,358.9552354295889,40.494449393998934,1186.0236139188169,5.188308090558571,-181716.49585282424,10.5,10499818283.504147,47.655,-122.3035,60.0,5.5
2026-01-20T23:05:31+00:00,SAT-60102,359.0302866632825,40.25153069382918,1191.198086521134,5.206723526663469,-182361.48232243527,10.5,10499817638.517677,47.655,-122.3035,60.0,5.516666666666667
2026-01-20T23:05:32+00:00,SAT-60102,359.1038389533245,40.010409524121854,1196.3909254517264,5.224894324074655,-182997.90051017186,10.5,10499817002.09949,47.655,-122.3035,60.0,5.533333333333333
