satellites_20260120_184412/SAT-45565.csv

timestamp,satellite,azimuth_deg,elevation_deg,distance_km,relative_velocity_kms,doppler_shift_hz,tx_freq_ghz,rx_freq_hz,ue_lat,ue_lon,ue_alt_m,time_minutes
2026-01-20T23:04:48+00:00,SAT-45565,201.56738499392085,40.04284038404002,911.1772504994926,-4.477269201272711,156812.90625851392,10.5,10500156812.906258,47.655,-122.3035,60.0,4.8
2026-01-20T23:04:49+00:00,SAT-45565,201.67360087556,40.40147470769845,906.7119206827566,-4.4440767817563955,155650.3673232572,10.5,10500155650.367323,47.655,-122.3035,60.0,4.816666666666666
2026-01-20T23:04:50+00:00,SAT-45565,201.7824710493363,40.76323690832727,902.2796947724182,-4.4103878947981086,154470.43999812743,10.5,10500154470.439999,47.655,-122.3035,60.0,4.833333333333333
2026-01-20T23:04:51+00:00,SAT-45565,201.8940781057448,41.12814258146844,897.8810679120063,-4.376196607260618,153272.91647956165,10.5,10500153272.91648,47.655,-122.3035,60.0,4.85
2026-01-20T23:04:52+00:00,SAT-45565,202.00850804215582,41.49620639564248,893.516541162365,-4.341497011079717,152057.58984216015,10.5,10500152057.589842,47.655,-122.3035,60.0,4.866666666666666
2026-01-20T23:04:53+00:00,SAT-45565,202.12585043643975,41.86744203094848,889.1866214766482,-4.306283258229865,150824.25526333146,10.5,10500150824.255264,47.655,-122.3035,60.0,4.883333333333334
2026-01-20T23:04:54+00:00,SAT-45565,202.24619863173416,42.24186211734445,884.8918216404403,-4.27054954481132,149572.70946595617,10.5,10500149572.709465,47.655,-122.3035,60.0,4.9
2026-01-20T23:04:55+00:00,SAT-45565,202.3696499319314,42.619478168376745,880.6326602277485,-4.234290153845808,148302.7522172722,10.5,10500148302.752216,47.655,-122.3035,60.0,4.916666666666667
2026-01-20T23:04:56+00:00,SAT-45565,202.49630581013753,43.00030051513333,876.4096615143128,-4.197499451442122,147014.18619457824,10.5,10500147014.186195,47.655,-122.3035,60.0,4.933333333333334
2026-01-20T23:04:57+00:00,SAT-45565,202.62627212978649,43.38433823649954,872.2233553947412,-4.160171843245759,145706.81545991547,10.5,10500145706.81546,47.655,-122.3035,60.0,4.95
2026-01-20T23:04:58+00:00,SAT-45565,202.75965937799995,43.77159908174303,868.0742773430775,-4.1223018902416175,144380.4495159681,10.5,10500144380.449516,47.655,-122.3035,60.0,4.966666666666667
2026-01-20T23:04:59+00:00,SAT-45565,202.8965829169871,44.16208939971483,863.9629682578766,-4.083884212146259,143034.8999224514,10.5,10500143034.899923,47.655,-122.3035,60.0,4.983333333333333
2026-01-20T23:05:00+00:00,SAT-45565,203.03716324814266,44.55581405537323,859.8899744036294,-4.044913574805684,141669.98335715197,10.5,10500141669.983356,47.655,-122.3035,60.0,5.0
2026-01-20T23:05:01+00:00,SAT-45565,203.18152629565208,44.95277635020904,855.8558472650232,-4.005384848182848,140285.52014447242,10.5,10500140285.520145,47.655,-122.3035,60.0,5.016666666666667
2026-01-20T23:05:02+00:00,SAT-45565,203.32980370674582,45.35297793447105,851.8611434431022,-3.9652930313914174,138881.33513221965,10.5,10500138881.335133,47.655,-122.3035,60.0,5.033333333333333
2026-01-20T23:05:03+00:00,SAT-45565,203.4821331720268,45.756418717179294,847.906424526461,-3.9246333182784863,137457.25998858883,10.5,10500137457.259989,47.655,-122.3035,60.0,5.05
2026-01-20T23:05:04+00:00,SAT-45565,203.6386587690502,46.16309677804942,843.9922568970313,-3.8834009925656217,136013.1295295595,10.5,10500136013.12953,47.655,-122.3035,60.0,5.066666666666666
2026-01-20T23:05:05+00:00,SAT-45565,203.79953132433025,46.57300826407907,840.1192116404459,-3.841591562841305,134548.78644690156,10.5,10500134548.786448,47.655,-122.3035,60.0,5.083333333333333
2026-01-20T23:05:06+00:00,SAT-45565,203.9649088044257,46.98614729454553,836.2878643217721,-3.7992006856901632,133064.07861583598,10.5,10500133064.078615,47.655,-122.3035,60.0,5.1
2026-01-20T23:05:07+00:00,SAT-45565,204.13495672997195,47.402505852945275,832.4987948379104,-3.756224236084441,131558.86156044202,10.5,10500131558.86156,47.655,-122.3035,60.0,5.116666666666666
2026-01-20T23:05:08+00:00,SAT-45565,204.30984862038665,47.82207368062223,828.7525871997889,-3.7126582852670484,130032.9976790277,10.5,10500130032.997679,47.655,-122.3035,60.0,5.133333333333334
2026-01-20T23:05:09+00:00,SAT-45565,204.4897664677457,48.244838162341175,825.049829336616,-3.6684991161377867,128486.35678302073,10.5,10500128486.356783,47.655,-122.3035,60.0,5.15
2026-01-20T23:05:10+00:00,SAT-45565,204.67490124355092,48.67078420722359,821.3911128847878,-3.6237432664175917,126918.8176087629,10.5,10500126918.817608,47.655,-122.3035,60.0,5.166666666666667
2026-01-20T23:05:11+00:00,SAT-45565,204.86545344250382,49.099894128180026,817.7770329337474,-3.5783874962591846,125330.26668309794,10.5,10500125330.266684,47.655,-122.3035,60.0,5.183333333333334
2026-01-20T23:05:12+00:00,SAT-45565,205.06163366232428,49.53214751084563,814.2081878041449,-3.532428853485209,123720.60060828713,10.5,10500123720.600609,47.655,-122.3035,60.0,5.2
2026-01-20T23:05:13+00:00,SAT-45565,205.2636632275387,49.967521082975175,810.6851787609356,-3.4858646279526377,122089.72446365777,10.5,10500122089.724464,47.655,-122.3035,60.0,5.216666666666667
2026-01-20T23:05:14+00:00,SAT-45565,205.47177485470817,50.40598857085729,807.208609771991,-3.4386924212929726,120437.55424819997,10.5,10500120437.554249,47.655,-122.3035,60.0,5.233333333333333
2026-01-20T23:05:15+00:00,SAT-45565,205.68621336890487,50.84752055615899,803.7790871971547,-3.390910150205769,118764.01699591982,10.5,10500118764.016996,47.655,-122.3035,60.0,5.25
2026-01-20T23:05:16+00:00,SAT-45565,205.90723647182716,51.29208432493726,800.3972194740161,-3.342516004339664,117069.04930065476,10.5,10500117069.049301,47.655,-122.3035,60.0,5.266666666666667
2026-01-20T23:05:17+00:00,SAT-45565,206.13511556267318,51.739643702283324,797.063616845688,-3.293508546337725,115352.60082008505,10.5,10500115352.60082,47.655,-122.3035,60.0,5.283333333333333
2026-01-20T23:05:18+00:00,SAT-45565,206.37013662512072,52.190158890171844,793.7788909888072,-3.243886669736271,113614.63280117222,10.5,10500113614.632801,47.655,-122.3035,60.0,5.3
2026-01-20T23:05:19+00:00,SAT-45565,206.61260117673442,52.64358628997709,790.5436546835235,-3.1936496243381263,111855.11896883785,10.5,10500111855.118969,47.655,-122.3035,60.0,5.316666666666666
2026-01-20T23:05:20+00:00,SAT-45565,206.86282729005188,53.09987831735252,787.3585214581836,-3.1427970368883966,110074.04625011669,10.5,10500110074.04625,47.655,-122.3035,60.0,5.333333333333333
2026-01-20T23:05:21+00:00,SAT-45565,207.12115069121907,53.558983208461285,784.2241052133937,-3.091328943921731,108271.41592460667,10.5,10500108271.415924,47.655,-122.3035,60.0,5.35
2026-01-20T23:05:22+00:00,SAT-45565,207.3879259434341,54.02084481847979,781.1410198133224,-3.0392457524006997,106447.24224585845,10.5,10500106447.242247,47.655,-122.3035,60.0,5.366666666666666
2026-01-20T23:05:23+00:00,SAT-45565,207.66352771637992,54.485402401245466,778.1098787162614,-2.9865483101058827,104601.55490673406,10.5,10500104601.554907,47.655,-122.3035,60.0,5.383333333333334
2026-01-20T23:05:24+00:00,SAT-45565,207.94835215758147,54.95259038460954,775.1312945349824,-2.9332378884102717,102734.3984360936,10.5,10500102734.398436,47.655,-122.3035,60.0,5.4
2026-01-20T23:05:25+00:00,SAT-45565,208.24281836688482,55.422338128039016,772.2058786142746,-2.879316214756544,100845.83333628664,10.5,10500100845.833336,47.655,-122.3035,60.0,5.416666666666667
2026-01-20T23:05:26+00:00,SAT-45565,208.54736998681574,55.894569668458665,769.3342405760908,-2.824785458470743,98935.9355862875,10.5,10500098935.935587,47.655,-122.3035,60.0,5.433333333333334
2026-01-20T23:05:27+00:00,SAT-45565,208.86247691362286,56.36920344577029,766.5169878788427,-2.769648285429701,97004.7985563795,10.5,10500097004.798557,47.655,-122.3035,60.0,5.45
2026-01-20T23:05:28+00:00,SAT-45565,209.18863714603643,56.84615201756421,763.7547253221741,-2.713907805638678,95052.53117210213,10.5,10500095052.531172,47.655,-122.3035,60.0,5.466666666666667
2026-01-20T23:05:29+00:00,SAT-45565,209.5263787709127,57.32532174378204,761.048054604017,-2.657567685402706,93079.2618429661,10.5,10500093079.261843,47.655,-122.3035,60.0,5.483333333333333
2026-01-20T23:05:30+00:00,SAT-45565,209.8762621157559,57.80661246708311,758.3975737657754,-2.600632038339241,91085.13464525527,10.5,10500091085.134645,47.655,-122.3035,60.0,5.5
2026-01-20T23:05:31+00:00,SAT-45565,210.2388820545769,58.28991714925113,755.8038767462051,-2.543105550378375,89070.31370006292,10.5,10500089070.3137,47.655,-122.3035,60.0,5.516666666666667
2026-01-20T23:05:32+00:00,SAT-45565,210.6148705080494,58.775121501669645,753.2675528106278,-2.484993381644652,87034.97973677791,10.5,10500087034.979736,47.655,-122.3035,60.0,5.533333333333333
2026-01-20T23:05:33+00:00,SAT-45565,211.0048991229943,59.26210356779729,750.7891860780009,-2.426301292540933,84979.33450907494,10.5,10500084979.334509,47.655,-122.3035,60.0,5.55
2026-01-20T23:05:34+00:00,SAT-45565,211.4096821760172,59.75073329574654,748.3693549222401,-2.3670355434411876,82903.59728173171,10.5,10500082903.597282,47.655,-122.3035,60.0,5.566666666666666
2026-01-20T23:05:35+00:00,SAT-45565,211.82997968347487,60.24087205559225,746.0086314735813,-2.3072029690666755,80808.00743559764,10.5,10500080808.007435,47.655,-122.3035,60.0,5.583333333333333
2026-01-20T23:05:36+00:00,SAT-45565,212.2666007577716,60.732372130525185,743.7075810457654,-2.2468109773590994,78692.8244281267,10.5,10500078692.824429,47.655,-122.3035,60.0,5.6
2026-01-20T23:05:37+00:00,SAT-45565,212.7204072148869,61.225076164327994,741.466761564346,-2.185867523730758,76558.32689150891,10.5,10500076558.32689,47.655,-122.3035,60.0,5.616666666666666
2026-01-20T23:05:38+00:00,SAT-45565,213.19231744159853,61.71881655479464,739.2867230206786,-2.1243811455365873,74404.81384002717,10.5,10500074404.81384,47.655,-122.3035,60.0,5.633333333333334
2026-01-20T23:05:39+00:00,SAT-45565,213.68331054723336,62.213414800952975,737.16800689153,-2.062360963343056,72232.60471449916,10.5,10500072232.604715,47.655,-122.3035,60.0,5.65
2026-01-20T23:05:40+00:00,SAT-45565,214.19443080680492,62.70868079212034,735.1111455574226,-1.999816676730654,70042.03923526277,10.5,10500070042.039236,47.655,-122.3035,60.0,5.666666666666667
2026-01-20T23:05:41+00:00,SAT-45565,214.72679240414314,63.20441203168329,733.1166617251632,-1.936758559049316,67833.47721848899,10.5,10500067833.477219,47.655,-122.3035,60.0,5.683333333333334
2026-01-20T23:05:42+00:00,SAT-45565,215.28158448040756,63.70039278843791,731.1850678556046,-1.8731974700126168,65607.29901728375,10.5,10500065607.299017,47.655,-122.3035,60.0,5.7
2026-01-20T23:05:43+00:00,SAT-45565,215.86007649488107,64.19639317317034,729.3168655788454,-1.8091448586376964,63363.90562465655,10.5,10500063363.905624,47.655,-122.3035,60.0,5.716666666666667
2026-01-20T23:05:44+00:00,SAT-45565,216.46362389153666,64.69216813074686,727.5125451064974,-1.7446127290535023,61103.71747598058,10.5,10500061103.717476,47.655,-122.3035,60.0,5.733333333333333
2026-01-20T23:05:45+00:00,SAT-45565,217.0936740462086,65.18745632995466,725.7725846780548,-1.679613683170033,58827.17594345001,10.5,10500058827.175943,47.655,-122.3035,60.0,5.75
2026-01-20T23:05:46+00:00,SAT-45565,217.7517724926277,65.68197896246419,724.0974499647065,-1.6141608924762083,56534.74234832214,10.5,10500056534.742348,47.655,-122.3035,60.0,5.766666666666667
2026-01-20T23:05:47+00:00,SAT-45565,218.43956936702173,66.17543842421398,722.4875935012769,-1.548268061470532,54226.89668010456,10.5,10500054226.89668,47.655,-122.3035,60.0,5.783333333333333
2026-01-20T23:05:48+00:00,SAT-45565,219.15882600228338,66.66751686560332,720.9434541546369,-1.4819494804710986,51904.13944618493,10.5,10500051904.139446,47.655,-122.3035,60.0,5.8
2026-01-20T23:05:49+00:00,SAT-45565,219.91142162303393,67.15787462802332,719.465456539447,-1.415219974743303,49566.98989006815,10.5,10500049566.98989,47.655,-122.3035,60.0,5.816666666666666
2026-01-20T23:05:50+00:00,SAT-45565,220.6993599834649,67.6461485277153,718.0540104846364,-1.348094890411988,47215.985497960304,10.5,10500047215.985498,47.655,-122.3035,60.0,5.833333333333333
2026-01-20T23:05:51+00:00,SAT-45565,221.5247757995124,68.13194998822588,716.7095105139322,-1.2805901176269914,44851.68281012396,10.5,10500044851.68281,47.655,-122.3035,60.0,5.85
2026-01-20T23:05:52+00:00,SAT-45565,222.38994078803188,68.61486302764546,715.4323353032856,-1.2127220263217515,42474.65517087289,10.5,10500042474.65517,47.655,-122.3035,60.0,5.866666666666666
2026-01-20T23:05:53+00:00,SAT-45565,223.29726899073398,69.09444206604448,714.2228472023673,-1.1445075002355745,40085.493920175715,10.5,10500040085.49392,47.655,-122.3035,60.0,5.883333333333334
2026-01-20T23:05:54+00:00,SAT-45565,224.24932108881626,69.57020958520242,713.0813917221325,-1.0759638789420183,37684.806363244774,10.5,10500037684.806364,47.655,-122.3035,60.0,5.9
2026-01-20T23:05:55+00:00,SAT-45565,225.24880720531337,70.0416536105779,712.0082970802009,-1.0071089686123544,35273.21614751803,10.5,10500035273.216148,47.655,-122.3035,60.0,5.916666666666667
2026-01-20T23:05:56+00:00,SAT-45565,226.2985876823473,70.50822504981012,711.0038737355048,-0.9379610048796945,32851.3619620037,10.5,10500032851.361961,47.655,-122.3035,60.0,5.933333333333334
2026-01-20T23:05:57+00:00,SAT-45565,227.40167110615397,70.9693348871652,710.0684139599715,-0.8685386397271739,30419.897078048994,10.5,10500030419.897078,47.655,-122.3035,60.0,5.95
2026-01-20T23:05:58+00:00,SAT-45565,228.5612087498531,71.42435127213794,709.2021914232836,-0.7988609091792792,27979.488217753737,10.5,10500027979.488218,47.655,-122.3035,60.0,5.966666666666667
2026-01-20T23:05:59+00:00,SAT-45565,229.78048439011178,71.87259653767069,708.4054608098621,-0.7289472260307464,25530.815299305617,10.5,10500025530.8153,47.655,-122.3035,60.0,5.983333333333333
2026-01-20T23:06:00+00:00,SAT-45565,231.0628983088998,72.31334422266065,707.6784574431008,-0.6588173374145303,23074.569950831014,10.5,10500023074.56995,47.655,-122.3035,60.0,6.0
2026-01-20T23:06:01+00:00,SAT-45565,232.41194401432114,72.74581616852699,707.0213969519193,-0.588491310937062,20611.45502479302,10.5,10500020611.455025,47.655,-122.3035,60.0,6.016666666666667
2026-01-20T23:06:02+00:00,SAT-45565,233.83117609179033,73.16917982022105,706.4344749511448,-0.5179894946427271,18142.183195778176,10.5,10500018142.183195,47.655,-122.3035,60.0,6.033333333333333
2026-01-20T23:06:03+00:00,SAT-45565,235.32416733455295,73.58254586819456,705.9178667618211,-0.44733250400547364,15667.476504887503,10.5,10500015667.476505,47.655,-122.3035,60.0,6.05
2026-01-20T23:06:04+00:00,SAT-45565,236.89445327201543,73.9849664408276,705.471727144493,-0.3765411808908275,13188.06492241272,10.5,10500013188.064922,47.655,-122.3035,60.0,6.066666666666666
2026-01-20T23:06:05+00:00,SAT-45565,238.545462074002,74.3754340694928,705.0961900734178,-0.30563656869594147,10704.685477135605,10.5,10500010704.685476,47.655,-122.3035,60.0,6.083333333333333
2026-01-20T23:06:06+00:00,SAT-45565,240.28042801502156,74.75288172563627,704.7913685355717,-0.23463987999060734,8218.081122979342,10.5,10500008218.081123,47.655,-122.3035,60.0,6.1
2026-01-20T23:06:07+00:00,SAT-45565,242.10228698599047,75.11618426689684,704.5573543619279,-0.1635724661811095,5728.9996765083715,10.5,10500005728.999676,47.655,-122.3035,60.0,6.116666666666666
2026-01-20T23:06:08+00:00,SAT-45565,244.0135532095964,75.46416168051857,704.3942180889899,-0.0924557848703188,3238.1926737408035,10.5,10500003238.192675,47.655,-122.3035,60.0,6.133333333333334
2026-01-20T23:06:09+00:00,SAT-45565,246.01617736086826,75.79558454587259,704.3020088528791,-0.021311368388978555,746.4142679809337,10.5,10500000746.414268,47.655,-122.3035,60.0,6.15
2026-01-20T23:06:10+00:00,SAT-45565,248.11138782127233,76.10918215232519,704.280754314806,0.04983920917302021,-1745.579924884942,10.5,10499998254.420074,47.655,-122.3035,60.0,6.166666666666667
2026-01-20T23:06:11+00:00,SAT-45565,250.29951881436799,76.40365368533642,704.330460619421,0.12097436387991779,-4237.033944126562,10.5,10499995762.966057,47.655,-122.3035,60.0,6.183333333333334
2026-01-20T23:06:12+00:00,SAT-45565,252.5798317135238,76.67768282850294,704.4511123849974,0.19207253541445177,-6727.192656233346,10.5,10499993272.807344,47.655,-122.3035,60.0,6.2
2026-01-20T23:06:13+00:00,SAT-45565,254.95033865610964,76.92995599382601,704.6426727269841,0.26311221845064453,-9215.302853722116,10.5,10499990784.697145,47.655,-122.3035,60.0,6.216666666666667
2026-01-20T23:06:14+00:00,SAT-45565,257.40764051842257,77.15918418806363,704.9050833128522,0.33407199699205303,-11700.614457807864,10.5,10499988299.385542,47.655,-122.3035,60.0,6.233333333333333
2026-01-20T23:06:15+00:00,SAT-45565,259.94679394760476,77.36412825207809,705.2382644511856,0.4049305721567787,-14182.38149155232,10.5,10499985817.61851,47.655,-122.3035,60.0,6.25
2026-01-20T23:06:16+00:00,SAT-45565,262.5612236390976,77.54362685308597,705.6421152084833,0.47566680130200417,-16659.86345017073,10.5,10499983340.136549,47.655,-122.3035,60.0,6.266666666666667
2026-01-20T23:06:17+00:00,SAT-45565,265.2426962540461,77.69662624406348,706.1165135649818,0.5462597202645798,-19132.32607999127,10.5,10499980867.67392,47.655,-122.3035,60.0,6.283333333333333
2026-01-20T23:06:18+00:00,SAT-45565,267.9813699547769,77.82221040629811,706.661316592659,0.6166885781625153,-21599.0425973505,10.5,10499978400.957403,47.655,-122.3035,60.0,6.3
2026-01-20T23:06:19+00:00,SAT-45565,270.76592911358705,77.91962989860741,707.2763606679464,0.6869328720301577,-24059.294901663787,10.5,10499975940.7051,47.655,-122.3035,60.0,6.316666666666666
2026-01-20T23:06:20+00:00,SAT-45565,273.5838065348787,77.98832754089486,707.9614617189845,0.7569723609680453,-26512.374071013073,10.5,10499973487.625929,47.655,-122.3035,60.0,6.333333333333333
2026-01-20T23:06:21+00:00,SAT-45565,276.42148669343163,78.02795906761615,708.7164154869901,0.826787114806603,-28957.582066555296,10.5,10499971042.417933,47.655,-122.3035,60.0,6.35
2026-01-20T23:06:22+00:00,SAT-45565,279.2648744961193,78.03840712258139,709.5409978361571,0.8963575216937361,-31394.231998272047,10.5,10499968605.768002,47.655,-122.3035,60.0,6.366666666666666
2026-01-20T23:06:23+00:00,SAT-45565,282.09970559489653,78.01978740445654,710.4349650711264,0.9656643270614366,-33821.64948974495,10.5,10499966178.35051,47.655,-122.3035,60.0,6.383333333333334
2026-01-20T23:06:24+00:00,SAT-45565,284.91196914661145,77.97244640059878,711.3980542933157,1.0346886464900986,-36239.17312871839,10.5,10499963760.826872,47.655,-122.3035,60.0,6.4
2026-01-20T23:06:25+00:00,SAT-45565,287.6883120104749,77.89695084935713,712.4299837700817,1.1034120062752517,-38646.15588791812,10.5,10499961353.844112,47.655,-122.3035,60.0,6.416666666666667
2026-01-20T23:06:26+00:00,SAT-45565,290.416396048454,77.79406975982998,713.5304533443402,1.1718163455831796,-41041.96520055013,10.5,10499958958.0348,47.655,-122.3035,60.0,6.433333333333334
2026-01-20T23:06:27+00:00,SAT-45565,293.0851860863728,77.66475039025045,714.6991448463351,1.2398840549630474,-43425.984309158295,10.5,10499956574.015692,47.655,-122.3035,60.0,6.45
2026-01-20T23:06:28+00:00,SAT-45565,295.6851548071945,77.51008995692493,715.9357225438183,1.3075979801603321,-45797.61239918679,10.5,10499954202.3876,47.655,-122.3035,60.0,6.466666666666667
2026-01-20T23:06:29+00:00,SAT-45565,298.20839991741997,77.33130499861147,717.2398335960315,1.374941457088694,-48156.265823842994,10.5,10499951843.734177,47.655,-122.3035,60.0,6.483333333333333
2026-01-20T23:06:30+00:00,SAT-45565,300.6486776185003,77.12970024440182,718.6111085425681,1.4418983059052763,-50501.37789658939,10.5,10499949498.622103,47.655,-122.3035,60.0,6.5
2026-01-20T23:06:31+00:00,SAT-45565,303.0013628779277,76.90663859854779,720.0491617863242,1.5084528775663077,-52832.4005217177,10.5,10499947167.599478,47.655,-122.3035,60.0,6.516666666666667
2026-01-20T23:06:32+00:00,SAT-45565,305.2633513535994,76.66351348931892,721.5535921228836,1.5745900251271658,-55148.80318915575,10.5,10499944851.196812,47.655,-122.3035,60.0,6.533333333333333
2026-01-20T23:06:33+00:00,SAT-45565,307.43291927809173,76.40172445144309,723.1239832412772,1.6402951670524597,-57450.07519185431,10.5,10499942549.924809,47.655,-122.3035,60.0,6.55
2026-01-20T23:06:34+00:00,SAT-45565,309.50955750515004,76.12265640176867,724.7599042878842,1.7055542462565643,-59735.7241912134,10.5,10499940264.275808,47.655,-122.3035,60.0,6.566666666666666
2026-01-20T23:06:35+00:00,SAT-45565,311.4937937444007,75.82766276790755,726.4609103894841,1.7703537806639933,-62005.27798792033,10.5,10499937994.722012,47.655,-122.3035,60.0,6.583333333333333
2026-01-20T23:06:36+00:00,SAT-45565,313.38701462309973,75.51805233859518,728.226543226733,1.8346808408788544,-64258.28373983969,10.5,10499935741.71626,47.655,-122.3035,60.0,6.6
2026-01-20T23:06:37+00:00,SAT-45565,315.19129602404234,75.19507955171035,730.0563315853694,1.8985230792180516,-66494.30897887879,10.5,10499933505.691021,47.655,-122.3035,60.0,6.616666666666666
2026-01-20T23:06:38+00:00,SAT-45565,316.9092475029879,74.85993780567905,731.9497919363763,1.9618687199172506,-68712.94126795922,10.5,10499931287.058733,47.655,-122.3035,60.0,6.633333333333334
2026-01-20T23:06:39+00:00,SAT-45565,318.54387405009334,74.51375534664908,733.9064290063737,2.0247065633380514,-70913.7883483698,10.5,10499929086.21165,47.655,-122.3035,60.0,6.65
2026-01-20T23:06:40+00:00,SAT-45565,320.0984565950124,74.15759326976598,735.9257363522096,2.08702599584435,-73096.47848567848,10.5,10499926903.521515,47.655,-122.3035,60.0,6.666666666666667
2026-01-20T23:06:41+00:00,SAT-45565,321.57645121626456,73.79244520024474,738.0071969453984,2.1488169823294734,-75260.6602080012,10.5,10499924739.339792,47.655,-122.3035,60.0,6.683333333333334
2026-01-20T23:06:42+00:00,SAT-45565,322.98140603447473,73.41923826804299,740.1502837491082,2.210070078088324,-77406.00272181431,10.5,10499922593.997278,47.655,-122.3035,60.0,6.7
2026-01-20T23:06:43+00:00,SAT-45565,324.31689421223075,73.03883503625946,742.3544603069884,2.270776399402885,-79532.19488173479,10.5,10499920467.805119,47.655,-122.3035,60.0,6.716666666666667
2026-01-20T23:06:44+00:00,SAT-45565,325.5864611466474,72.65203610893565,744.6191813026594,2.33092765861282,-81638.94641884089,10.5,10499918361.053581,47.655,-122.3035,60.0,6.733333333333333
2026-01-20T23:06:45+00:00,SAT-45565,326.79358392447944,72.259583177743,746.9438931541827,2.3905161212943953,-83725.9864408969,10.5,10499916274.01356,47.655,-122.3035,60.0,6.75
2026-01-20T23:06:46+00:00,SAT-45565,327.94164107539564,71.86216233928018,749.3280345658202,2.449534640435086,-85793.06462929233,10.5,10499914206.935371,47.655,-122.3035,60.0,6.766666666666667
2026-01-20T23:06:47+00:00,SAT-45565,329.03389089232144,71.46040752927048,751.7710371138809,2.5079766119754003,-87839.94968192863,10.5,10499912160.050318,47.655,-122.3035,60.0,6.783333333333333
2026-01-20T23:06:48+00:00,SAT-45565,330.07345668990644,71.05490398106792,754.2723257882243,2.5658359856672455,-89866.4296935251,10.5,10499910133.570307,47.655,-122.3035,60.0,6.8
2026-01-20T23:06:49+00:00,SAT-45565,331.06331764724996,70.64619162175646,756.8313195445965,2.6231072686008505,-91872.31227914656,10.5,10499908127.687721,47.655,-122.3035,60.0,6.816666666666666
2026-01-20T23:06:50+00:00,SAT-45565,332.00630404882725,70.23476835275504,759.4474318604811,2.6797854883066097,-93857.4232818739,10.5,10499906142.576717,47.655,-122.3035,60.0,6.833333333333333
2026-01-20T23:06:51+00:00,SAT-45565,332.9050959194779,69.8210931849277,762.1200712541521,2.7358662018890656,-95821.60709271475,10.5,10499904178.392908,47.655,-122.3035,60.0,6.85
2026-01-20T23:06:52+00:00,SAT-45565,333.76222425637445,69.40558919807046,764.8486418128361,2.7913455021334195,-97764.72686447937,10.5,10499902235.273136,47.655,-122.3035,60.0,6.866666666666666
2026-01-20T23:06:53+00:00,SAT-45565,334.58007418843823,68.98864631348368,767.632543726964,2.8462199372491224,-99686.66170086169,10.5,10499900313.338299,47.655,-122.3035,60.0,6.883333333333334
2026-01-20T23:06:54+00:00,SAT-45565,335.3608895025188,68.57062388822749,770.4711737443804,2.900486602994487,-101587.30988303285,10.5,10499898412.690117,47.655,-122.3035,60.0,6.9
2026-01-20T23:06:55+00:00,SAT-45565,336.1067781628168,68.15185310622009,773.3639257164335,2.9541430375276714,-103466.58518687802,10.5,10499896533.414814,47.655,-122.3035,60.0,6.916666666666667
2026-01-20T23:06:56+00:00,SAT-45565,336.8197184285388,67.73263920119537,776.3101910391945,3.007187257299065,-105324.41814009938,10.5,10499894675.58186,47.655,-122.3035,60.0,6.933333333333334
2026-01-20T23:06:57+00:00,SAT-45565,337.5015653519355,67.31326349802507,779.309359130474,3.0596177455279125,-107160.75561861893,10.5,10499892839.24438,47.655,-122.3035,60.0,6.95
2026-01-20T23:06:58+00:00,SAT-45565,338.15405744163553,66.8939852891989,782.3608178953473,3.111433387232134,-108975.55857104786,10.5,10499891024.44143,47.655,-122.3035,60.0,6.966666666666667
2026-01-20T23:06:59+00:00,SAT-45565,338.7788233299358,66.47504356409287,785.46395412688,3.162633547610046,-110768.804763946,10.5,10499889231.195236,47.655,-122.3035,60.0,6.983333333333333
2026-01-20T23:07:00+00:00,SAT-45565,339.37738836388905,66.0566585819374,788.61815398503,3.213217955342934,-112540.48469458429,10.5,10499887459.515305,47.655,-122.3035,60.0,7.0
2026-01-20T23:07:01+00:00,SAT-45565,339.95118099725323,65.63903332616202,791.8228033591586,3.2631867708039914,-114290.60397991036,10.5,10499885709.39602,47.655,-122.3035,60.0,7.016666666666667
2026-01-20T23:07:02+00:00,SAT-45565,340.5015389659404,65.22235482535064,795.0772882985736,3.312540514211168,-116019.1808401573,10.5,10499883980.81916,47.655,-122.3035,60.0,7.033333333333333
2026-01-20T23:07:03+00:00,SAT-45565,341.0297151812411,64.80679536976622,798.3809953714136,3.361280096684855,-117726.24718661528,10.5,10499882273.752813,47.655,-122.3035,60.0,7.05
2026-01-20T23:07:04+00:00,SAT-45565,341.53688333728513,64.39251361942145,801.7333120545073,3.409406764933502,-119411.84668428775,10.5,10499880588.153316,47.655,-122.3035,60.0,7.066666666666666
2026-01-20T23:07:05+00:00,SAT-45565,342.0241432057465,63.97965562375772,805.1336270680677,3.4569221195724014,-121076.03539349283,10.5,10499878923.964607,47.655,-122.3035,60.0,7.083333333333333
2026-01-20T23:07:06+00:00,SAT-45565,342.49252562663725,63.568355751882436,808.5813307286545,3.5038280667463693,-122718.88007548501,10.5,10499877281.119925,47.655,-122.3035,60.0,7.1
2026-01-20T23:07:07+00:00,SAT-45565,342.94299718756463,63.15873754926848,812.0758152538897,3.5501268645726527,-124340.45981908208,10.5,10499875659.54018,47.655,-122.3035,60.0,7.116666666666666
2026-01-20T23:07:08+00:00,SAT-45565,343.376464611747,62.75091451660502,815.6164751134901,3.5958210275223004,-125940.86269169638,10.5,10499874059.137308,47.655,-122.3035,60.0,7.133333333333334
2026-01-20T23:07:09+00:00,SAT-45565,343.7937788459617,62.344990834081436,819.202707284939,3.6409133516450147,-127520.18662281576,10.5,10499872479.813377,47.655,-122.3035,60.0,7.15
2026-01-20T23:07:10+00:00,SAT-45565,344.19573887757014,61.94106202246393,822.833911534313,3.6854069443674753,-129078.54044766694,10.5,10499870921.459553,47.655,-122.3035,60.0,7.166666666666667
2026-01-20T23:07:11+00:00,SAT-45565,344.5830952931414,61.53921554633515,826.5094907268289,3.7293051254547738,-130616.04043846602,10.5,10499869383.959562,47.655,-122.3035,60.0,7.183333333333334
2026-01-20T23:07:12+00:00,SAT-45565,344.95655357857606,61.13953137872739,830.2288510386156,3.772611477369275,-132132.81206819884,10.5,10499867867.187931,47.655,-122.3035,60.0,7.2
2026-01-20T23:07:13+00:00,SAT-45565,345.31677719283664,60.74208251467483,833.9914022187119,3.8153297948107485,-133628.98824330283,10.5,10499866371.011757,47.655,-122.3035,60.0,7.216666666666667
2026-01-20T23:07:14+00:00,SAT-45565,345.6643904184253,60.34693544893475,837.7965578007365,3.857464105614236,-135104.71003559895,10.5,10499864895.289965,47.655,-122.3035,60.0,7.233333333333333
2026-01-20T23:07:15+00:00,SAT-45565,345.9999810103979,59.95415061376323,841.6437353354024,3.8990186306897554,-136560.12527921042,10.5,10499863439.874722,47.655,-122.3035,60.0,7.25
2026-01-20T23:07:16+00:00,SAT-45565,346.324102651676,59.563782786478356,845.5323565830771,3.939997776794148,-137995.38831740242,10.5,10499862004.611683,47.655,-122.3035,60.0,7.266666666666667
2026-01-20T23:07:17+00:00,SAT-45565,346.6372772313563,59.17588146621959,849.461847699133,3.9804061205827566,-139410.65944400424,10.5,10499860589.340555,47.655,-122.3035,60.0,7.283333333333333
2026-01-20T23:07:18+00:00,SAT-45565,346.9399969577309,58.7904912234793,853.4316394033943,4.020248434086359,-140806.10579571943,10.5,10499859193.894205,47.655,-122.3035,60.0,7.3
2026-01-20T23:07:19+00:00,SAT-45565,347.23272632115993,58.407652020817565,857.4411671749897,4.059529612817384,-142181.8988341012,10.5,10499857818.101166,47.655,-122.3035,60.0,7.316666666666666
2026-01-20T23:07:20+00:00,SAT-45565,347.5159039102183,58.027399516469714,861.4898713755063,4.098254697743294,-143538.21511515338,10.5,10499856461.784885,47.655,-122.3035,60.0,7.333333333333333
2026-01-20T23:07:21+00:00,SAT-45565,347.7899440993566,57.64976534351189,865.5771973940556,4.1364288740423465,-144875.23624575182,10.5,10499855124.763754,47.655,-122.3035,60.0,7.35
2026-01-20T23:07:22+00:00,SAT-45565,348.05523861554656,57.27477736885401,869.7025957911005,4.17405744882539,-146193.14810336754,10.5,10499853806.851896,47.655,-122.3035,60.0,7.366666666666666
2026-01-20T23:07:23+00:00,SAT-45565,348.31215799164727,56.902459935615745,873.8655224200623,4.211145824684048,-147492.1399096121,10.5,10499852507.86009,47.655,-122.3035,60.0,7.383333333333334
2026-01-20T23:07:24+00:00,SAT-45565,348.561052914819,56.53283409063407,878.0654385225472,4.247699509088971,-148772.40455940418,10.5,10499851227.59544,47.655,-122.3035,60.0,7.4
2026-01-20T23:07:25+00:00,SAT-45565,348.80225548030427,56.16591779514,882.3018108329453,4.283724099195713,-150034.1380888074,10.5,10499849965.861912,47.655,-122.3035,60.0,7.416666666666667
2026-01-20T23:07:26+00:00,SAT-45565,349.0360803559636,55.801726122145936,886.5741116678765,4.319225300404672,-151277.54032507737,10.5,10499848722.459675,47.655,-122.3035,60.0,7.433333333333334
2026-01-20T23:07:27+00:00,SAT-45565,349.26282586635256,55.440271438715435,890.8818190341467,4.354208843145432,-152502.81197209784,10.5,10499847497.188028,47.655,-122.3035,60.0,7.45
2026-01-20T23:07:28+00:00,SAT-45565,349.4827749967663,55.08156358278573,895.2244166537104,4.388680566772794,-153710.1575487744,10.5,10499846289.842451,47.655,-122.3035,60.0,7.466666666666667
2026-01-20T23:07:29+00:00,SAT-45565,349.6961963323869,54.725610021215765,899.6013940723052,4.422646333044269,-154899.78235865035,10.5,10499845100.217642,47.655,-122.3035,60.0,7.483333333333333
2026-01-20T23:07:30+00:00,SAT-45565,349.9033449283464,54.372416004336685,904.0122466817946,4.456112086342977,-156071.8945991672,10.5,10499843928.1054,47.655,-122.3035,60.0,7.5
2026-01-20T23:07:31+00:00,SAT-45565,350.1044631234032,54.02198470553129,908.4564758025741,4.489083774309977,-157226.70258187337,10.5,10499842773.297419,47.655,-122.3035,60.0,7.516666666666667
2026-01-20T23:07:32+00:00,SAT-45565,350.299781294614,53.67431735793558,912.9335886868192,4.521567397663662,-158364.41647730992,10.5,10499841635.583523,47.655,-122.3035,60.0,7.533333333333333
2026-01-20T23:07:33+00:00,SAT-45565,350.4895185635845,53.32941337843955,917.4430985714225,4.553568998570538,-159485.24790770636,10.5,10499840514.752092,47.655,-122.3035,60.0,7.55
2026-01-20T23:07:34+00:00,SAT-45565,350.6738834547961,52.987270484684075,921.9845247193301,4.585094625746667,-160589.40872468514,10.5,10499839410.591276,47.655,-122.3035,60.0,7.566666666666666
2026-01-20T23:07:35+00:00,SAT-45565,350.8530745088005,52.64788480722608,926.5573924260748,4.616150326425891,-161677.11072795518,10.5,10499838322.889273,47.655,-122.3035,60.0,7.583333333333333
2026-01-20T23:07:36+00:00,SAT-45565,351.0272808547005,52.31125099521326,931.1612330182969,4.6467421754693845,-162748.56668485145,10.5,10499837251.433315,47.655,-122.3035,60.0,7.6
2026-01-20T23:07:37+00:00,SAT-45565,351.196682746372,51.97736231334577,935.7955838812984,4.676876251004523,-163803.98947710515,10.5,10499836196.010523,47.655,-122.3035,60.0,7.616666666666666
2026-01-20T23:07:38+00:00,SAT-45565,351.36145206285045,51.6462107345811,940.4599884623003,4.706558641380126,-164843.59234444558,10.5,10499835156.407656,47.655,-122.3035,60.0,7.633333333333334
2026-01-20T23:07:39+00:00,SAT-45565,351.5217527767298,51.31778702664842,945.1539962806366,4.735795375441752,-165867.5864425462,10.5,10499834132.413557,47.655,-122.3035,60.0,7.65
2026-01-20T23:07:40+00:00,SAT-45565,351.6777413901725,50.99208083807906,949.8771628684106,4.76459253806759,-166876.18488958015,10.5,10499833123.815111,47.655,-122.3035,60.0,7.666666666666667
2026-01-20T23:07:41+00:00,SAT-45565,351.82956734727327,50.669080771099885,954.6290498263766,4.792956149540329,-167869.59854131305,10.5,10499832130.401459,47.655,-122.3035,60.0,7.683333333333334
2026-01-20T23:07:42+00:00,SAT-45565,351.9773734163155,50.34877445827972,959.4092247595182,4.820892226336221,-168848.03812019288,10.5,10499831151.96188,47.655,-122.3035,60.0,7.7
2026-01-20T23:07:43+00:00,SAT-45565,352.12129605025063,50.03114863047838,964.2172612732509,4.848406771435492,-169811.71387597974,10.5,10499830188.286123,47.655,-122.3035,60.0,7.716666666666667
2026-01-20T23:07:44+00:00,SAT-45565,352.2614657244143,49.716189181399116,969.0527389599625,4.87550573244477,-170760.83411901604,10.5,10499829239.16588,47.655,-122.3035,60.0,7.733333333333333
2026-01-20T23:07:45+00:00,SAT-45565,352.398007252286,49.40388123096462,973.9152433437876,4.90219506120898,-171695.60730808743,10.5,10499828304.392693,47.655,-122.3035,60.0,7.75
2026-01-20T23:07:46+00:00,SAT-45565,352.53104008368956,49.09420918114948,978.8043658848331,4.9284806300685515,-172616.23911739563,10.5,10499827383.760883,47.655,-122.3035,60.0,7.766666666666667
2026-01-20T23:07:47+00:00,SAT-45565,352.66067858257975,48.78715677374857,983.7197038998883,4.954368313718744,-173522.93530361864,10.5,10499826477.064697,47.655,-122.3035,60.0,7.783333333333333
2026-01-20T23:07:48+00:00,SAT-45565,352.78703229041855,48.482707139668676,988.6608605647704,4.979863931215681,-174415.89967471646,10.5,10499825584.100325,47.655,-122.3035,60.0,7.8
2026-01-20T23:07:49+00:00,SAT-45565,352.91020617227474,48.180842848865495,993.6274448588362,5.004973244048036,-175295.3340223935,10.5,10499824704.665977,47.655,-122.3035,60.0,7.816666666666666
2026-01-20T23:07:50+00:00,SAT-45565,353.0303008483291,47.88154595745624,998.6190715075667,5.029701998661429,-176161.43961148284,10.5,10499823838.560389,47.655,-122.3035,60.0,7.833333333333333
2026-01-20T23:07:51+00:00,SAT-45565,353.1474128129135,47.58479804953803,1003.6353609675651,5.0540558590269455,-177014.41481821044,10.5,10499822985.585182,47.655,-122.3035,60.0,7.85
2026-01-20T23:07:52+00:00,SAT-45565,353.26163463908733,47.29058028051695,1008.6759393443012,5.0780404689803795,-177854.45731357922,10.5,10499822145.542686,47.655,-122.3035,60.0,7.866666666666666
2026-01-20T23:07:53+00:00,SAT-45565,353.37305517295397,46.99887341428548,1013.7404383720311,5.101661416205979,-178681.76280192737,10.5,10499821318.237198,47.655,-122.3035,60.0,7.883333333333334
2026-01-20T23:07:54+00:00,SAT-45565,353.48175971592866,46.70965786030301,1018.8284953577937,5.124924183533737,-179496.52331515372,10.5,10499820503.476685,47.655,-122.3035,60.0,7.9
2026-01-20T23:07:55+00:00,SAT-45565,353.5878301956549,46.42291371120675,1023.9397530768381,5.147834296829827,-180298.9323924659,10.5,10499819701.067608,47.655,-122.3035,60.0,7.916666666666667
2026-01-20T23:07:56+00:00,SAT-45565,353.6913453304416,46.13862077004588,1029.073859815543,5.170397135598082,-181089.17844684355,10.5,10499818910.821552,47.655,-122.3035,60.0,7.933333333333334
2026-01-20T23:07:57+00:00,SAT-45565,353.79238078045813,45.85675858629746,1034.2304692254463,5.192618068503787,-181867.44951165438,10.5,10499818132.550488,47.655,-122.3035,60.0,7.95
2026-01-20T23:07:58+00:00,SAT-45565,353.8910092933912,45.57730648242321,1039.4092403124341,5.214502374635953,-182633.930482926,10.5,10499817366.069517,47.655,-122.3035,60.0,7.966666666666667
2026-01-20T23:07:59+00:00,SAT-45565,353.9873008404718,45.300243583081475,1044.6098373474042,5.236055312345046,-183388.80553033453,10.5,10499816611.19447,47.655,-122.3035,60.0,7.983333333333333
2026-01-20T23:08:00+00:00,SAT-45565,354.08132274638785,45.02554883899413,1049.831929845583,5.2572820619495975,-184132.25609054774,10.5,10499815867.74391,47.655,-122.3035,60.0,8.0
2026-01-20T23:08:01+00:00,SAT-45565,354.17313981105946,44.753201052398914,1055.0751924887008,5.27818770603735,-184864.46017728763,10.5,10499815135.539824,47.655,-122.3035,60.0,8.016666666666667
2026-01-20T23:08:02+00:00,SAT-45565,354.26281442450096,44.483178901987756,1060.3393050275222,5.2987773090288375,-185585.59516798385,10.5,10499814414.404833,47.655,-122.3035,60.0,8.033333333333333
2026-01-20T23:08:03+00:00,SAT-45565,354.3504066770188,44.21546096233562,1065.6239522637268,5.319055881761339,-186295.83656335366,10.5,10499813704.163437,47.655,-122.3035,60.0,8.05
2026-01-20T23:08:04+00:00,SAT-45565,354.4359744628526,43.950025723965155,1070.92882399647,5.339028317424971,-186995.35574361312,10.5,10499813004.644257,47.655,-122.3035,60.0,8.066666666666666
2026-01-20T23:08:05+00:00,SAT-45565,354.519573577317,43.68685161536493,1076.2536149050486,5.358699503233945,-187684.32387967687,10.5,10499812315.67612,47.655,-122.3035,60.0,8.083333333333334
2026-01-20T23:08:06+00:00,SAT-45565,354.6012578107257,43.425917018237406,1081.5980245429405,5.378074200348982,-188362.90772753296,10.5,10499811637.092272,47.655,-122.3035,60.0,8.1
2026-01-20T23:08:07+00:00,SAT-45565,354.6810790354975,43.167200287609035,1086.9617572120887,5.397157180639245,-189031.27441822458,10.5,10499810968.725582,47.655,-122.3035,60.0,8.116666666666667
2026-01-20T23:08:08+00:00,SAT-45565,354.7590872909145,42.91067976422134,1092.3445219735795,5.415953098332965,-189689.58696251168,10.5,10499810310.413038,47.655,-122.3035,60.0,8.133333333333333
2026-01-20T23:08:09+00:00,SAT-45565,354.83533086158013,42.6563337921986,1097.7460325303168,5.434466537586682,-190338.00591694727,10.5,10499809661.994083,47.655,-122.3035,60.0,8.15
2026-01-20T23:08:10+00:00,SAT-45565,354.90985635261416,42.404140733409605,1103.1660071571366,5.452702055139372,-190976.6908778052,10.5,10499809023.309122,47.655,-122.3035,60.0,8.166666666666666
2026-01-20T23:08:11+00:00,SAT-45565,354.9827087617102,42.15407897899093,1108.6041686734625,5.47066412341876,-191605.79848842288,10.5,10499808394.201511,47.655,-122.3035,60.0,8.183333333333334
2026-01-20T23:08:12+00:00,SAT-45565,355.0539315467119,41.906126962732756,1114.0602443592188,5.488357142827289,-192225.48286950745,10.5,10499807774.51713,47.655,-122.3035,60.0,8.2
2026-01-20T23:08:13+00:00,SAT-45565,355.123566690072,41.6602631730643,1119.5339658829985,5.505785447563008,-192835.8958230083,10.5,10499807164.104177,47.655,-122.3035,60.0,8.216666666666667
2026-01-20T23:08:14+00:00,SAT-45565,355.1916547601779,41.41646616402092,1125.0250692360346,5.522953355691547,-193437.1885858491,10.5,10499806562.811415,47.655,-122.3035,60.0,8.233333333333333
2026-01-20T23:08:15+00:00,SAT-45565,355.25823497034094,41.174714563326724,1130.533294716111,5.539865059611289,-194029.50799355513,10.5,10499805970.492006,47.655,-122.3035,60.0,8.25
2026-01-20T23:08:16+00:00,SAT-45565,355.3233452334874,40.934987084674084,1136.05838680223,5.556524698979472,-194612.99903443354,10.5,10499805387.000965,47.655,-122.3035,60.0,8.266666666666667
2026-01-20T23:08:17+00:00,SAT-45565,355.3870222151803,40.69726253608787,1141.6000941020122,5.572936376516049,-195187.80540309162,10.5,10499804812.194597,47.655,-122.3035,60.0,8.283333333333333
2026-01-20T23:08:18+00:00,SAT-45565,355.44930138425116,40.46151982706702,1147.1581693148576,5.58910412405893,-195754.0683115476,10.5,10499804245.931688,47.655,-122.3035,60.0,8.3
2026-01-20T23:08:19+00:00,SAT-45565,355.51021706063415,40.22773797665674,1152.7323691612523,5.605031910582413,-196311.9267700702,10.5,10499803688.07323,47.655,-122.3035,60.0,8.316666666666666
