satellites_20260120_184412/SAT-56497.csv

timestamp,satellite,azimuth_deg,elevation_deg,distance_km,relative_velocity_kms,doppler_shift_hz,tx_freq_ghz,rx_freq_hz,ue_lat,ue_lon,ue_alt_m,time_minutes
2026-01-20T23:02:52+00:00,SAT-56497,265.3331172069893,40.04632971159858,2838.7452037461026,-4.5778268005016125,160334.858741733,10.5,10500160334.858742,47.655,-122.3035,60.0,2.8666666666666667
2026-01-20T23:02:53+00:00,SAT-56497,265.4563456706402,40.112263870655056,2834.1795844837357,-4.5696590407372835,160048.78924519668,10.5,10500160048.789246,47.655,-122.3035,60.0,2.8833333333333333
2026-01-20T23:02:54+00:00,SAT-56497,265.58025979577087,40.178130817079634,2829.6221112004405,-4.561446433916893,159761.1490150542,10.5,10500159761.149015,47.655,-122.3035,60.0,2.9
2026-01-20T23:02:55+00:00,SAT-56497,265.7048632105867,40.24392848219937,2825.072828623681,-4.553188747556322,159471.92990872837,10.5,10500159471.929909,47.655,-122.3035,60.0,2.9166666666666665
2026-01-20T23:02:56+00:00,SAT-56497,265.83015954720577,40.30965477067621,2820.5317817127843,-4.5448858227261075,159181.12635983698,10.5,10500159181.12636,47.655,-122.3035,60.0,2.933333333333333
2026-01-20T23:02:57+00:00,SAT-56497,265.95615244334107,40.37530756135217,2815.9990155855853,-4.536537418654079,158888.72993552033,10.5,10500158888.729935,47.655,-122.3035,60.0,2.95
2026-01-20T23:02:58+00:00,SAT-56497,266.08284553950966,40.440884705844695,2811.474575600048,-4.528143344886405,158594.73396527956,10.5,10500158594.733965,47.655,-122.3035,60.0,2.966666666666667
2026-01-20T23:02:59+00:00,SAT-56497,266.2102424800275,40.50638402905559,2806.958507304081,-4.519703418028423,158299.13202585786,10.5,10500158299.132027,47.655,-122.3035,60.0,2.9833333333333334
2026-01-20T23:03:00+00:00,SAT-56497,266.33834691274853,40.57180332905504,2802.450856428501,-4.511217412411245,158001.91621337613,10.5,10500158001.916214,47.655,-122.3035,60.0,3.0
2026-01-20T23:03:01+00:00,SAT-56497,266.46716248736766,40.63714037624934,2797.9516689291895,-4.502685128755804,157703.07954823846,10.5,10500157703.079548,47.655,-122.3035,60.0,3.0166666666666666
2026-01-20T23:03:02+00:00,SAT-56497,266.5966928556707,40.70239291354505,2793.460990960777,-4.4941063792860705,157402.61545373415,10.5,10500157402.615454,47.655,-122.3035,60.0,3.033333333333333
2026-01-20T23:03:03+00:00,SAT-56497,266.7269416714066,40.76755865629923,2788.9788688651693,-4.485480937573371,157100.51599937314,10.5,10500157100.515999,47.655,-122.3035,60.0,3.05
2026-01-20T23:03:04+00:00,SAT-56497,266.85791258858063,40.832635291539894,2784.505349210096,-4.47680861155383,156796.7744582661,10.5,10500156796.774458,47.655,-122.3035,60.0,3.066666666666667
2026-01-20T23:03:05+00:00,SAT-56497,266.9896092619719,40.897620478249095,2780.0404787548396,-4.468089204932643,156491.3839553387,10.5,10500156491.383955,47.655,-122.3035,60.0,3.0833333333333335
2026-01-20T23:03:06+00:00,SAT-56497,267.1220353464513,40.962511847085835,2775.584304454453,-4.45932249493676,156184.3366881364,10.5,10500156184.336689,47.655,-122.3035,60.0,3.1
2026-01-20T23:03:07+00:00,SAT-56497,267.25519449561125,41.02730699978656,2771.1368734861694,-4.450508307714868,155875.62656765073,10.5,10500155875.626568,47.655,-122.3035,60.0,3.1166666666666667
2026-01-20T23:03:08+00:00,SAT-56497,267.38909036269723,41.092003509663336,2766.6982332006087,-4.441646404965769,155565.2452475658,10.5,10500155565.245247,47.655,-122.3035,60.0,3.1333333333333333
2026-01-20T23:03:09+00:00,SAT-56497,267.523726598017,41.156598920451735,2762.268431186056,-4.432736601280217,155253.18623406554,10.5,10500155253.186234,47.655,-122.3035,60.0,3.15
2026-01-20T23:03:10+00:00,SAT-56497,267.6591068499653,41.2210907468708,2757.8475152157125,-4.423778684745815,154939.44210508146,10.5,10500154939.442104,47.655,-122.3035,60.0,3.1666666666666665
2026-01-20T23:03:11+00:00,SAT-56497,267.7952347635925,41.28547647402621,2753.435533274126,-4.41477246204288,154624.0060897404,10.5,10500154624.00609,47.655,-122.3035,60.0,3.183333333333333
2026-01-20T23:03:12+00:00,SAT-56497,267.9321139805351,41.349753557473214,2749.0325335386487,-4.405717717420431,154306.87063153044,10.5,10500154306.870632,47.655,-122.3035,60.0,3.2
2026-01-20T23:03:13+00:00,SAT-56497,268.0697481376635,41.413919422680856,2744.6385644018083,-4.396614246221414,153988.0285624959,10.5,10500153988.028563,47.655,-122.3035,60.0,3.216666666666667
2026-01-20T23:03:14+00:00,SAT-56497,268.20814086674636,41.47797146498982,2740.2536744602435,-4.38746185144867,153667.4729829629,10.5,10500153667.472982,47.655,-122.3035,60.0,3.2333333333333334
2026-01-20T23:03:15+00:00,SAT-56497,268.34729579402654,41.54190704951934,2735.877912507065,-4.378260328225595,153345.19671728616,10.5,10500153345.196718,47.655,-122.3035,60.0,3.25
2026-01-20T23:03:16+00:00,SAT-56497,268.4872165392537,41.60572351085047,2731.511327539715,-4.369009464592018,153021.19234172392,10.5,10500153021.19234,47.655,-122.3035,60.0,3.2666666666666666
2026-01-20T23:03:17+00:00,SAT-56497,268.62790671473823,41.66941815272237,2727.1539687670283,-4.359709055970172,152695.4526910974,10.5,10500152695.452692,47.655,-122.3035,60.0,3.283333333333333
2026-01-20T23:03:18+00:00,SAT-56497,268.76936992483604,41.73298824794278,2722.8058856018743,-4.350358908971252,152367.97099211265,10.5,10500152367.970993,47.655,-122.3035,60.0,3.3
2026-01-20T23:03:19+00:00,SAT-56497,268.9116097655975,41.79643103835557,2718.4671276499935,-4.340958811599515,152038.73981978197,10.5,10500152038.73982,47.655,-122.3035,60.0,3.316666666666667
2026-01-20T23:03:20+00:00,SAT-56497,269.05462982334404,41.85974373437534,2714.137744728558,-4.331508544948444,151707.75150707315,10.5,10500151707.751507,47.655,-122.3035,60.0,3.3333333333333335
2026-01-20T23:03:21+00:00,SAT-56497,269.1984336736534,41.922923514695924,2709.817786873063,-4.322007934044071,151374.9999256577,10.5,10500151374.999926,47.655,-122.3035,60.0,3.35
2026-01-20T23:03:22+00:00,SAT-56497,269.34302488204247,41.98596752674482,2705.50730429351,-4.312456763772722,151040.47754134488,10.5,10500151040.477541,47.655,-122.3035,60.0,3.3666666666666667
2026-01-20T23:03:23+00:00,SAT-56497,269.488407001789,42.0488728859109,2701.2063474144406,-4.302854811823316,150704.1765678602,10.5,10500150704.176567,47.655,-122.3035,60.0,3.3833333333333333
2026-01-20T23:03:24+00:00,SAT-56497,269.6345835727979,42.11163667525569,2696.914966882115,-4.293201896436643,150366.09063922733,10.5,10500150366.09064,47.655,-122.3035,60.0,3.4
2026-01-20T23:03:25+00:00,SAT-56497,269.78155812217494,42.17425594592954,2692.633213524069,-4.283497817507777,150026.21274692527,10.5,10500150026.212748,47.655,-122.3035,60.0,3.4166666666666665
2026-01-20T23:03:26+00:00,SAT-56497,269.9293341627066,42.236727716725284,2688.361138367408,-4.273742339078917,149684.53462671378,10.5,10500149684.534626,47.655,-122.3035,60.0,3.433333333333333
2026-01-20T23:03:27+00:00,SAT-56497,270.07791519066956,42.29904897338137,2684.0987926745665,-4.2639352942359565,149341.0504325547,10.5,10500149341.050432,47.655,-122.3035,60.0,3.45
2026-01-20T23:03:28+00:00,SAT-56497,270.2273046873781,42.361216669424195,2679.846227874449,-4.254076458489073,148995.752301865,10.5,10500148995.752302,47.655,-122.3035,60.0,3.466666666666667
2026-01-20T23:03:29+00:00,SAT-56497,270.37750611619066,42.423227725159116,2675.6034956198487,-4.244165640030028,148648.63351670874,10.5,10500148648.633516,47.655,-122.3035,60.0,3.4833333333333334
2026-01-20T23:03:30+00:00,SAT-56497,270.52852292271274,42.48507902798741,2671.370647754859,-4.234202640238404,148299.68712055875,10.5,10500148299.68712,47.655,-122.3035,60.0,3.5
2026-01-20T23:03:31+00:00,SAT-56497,270.6803585336016,42.54676743215031,2667.1477363216613,-4.224187235578311,147948.9052842426,10.5,10500147948.905285,47.655,-122.3035,60.0,3.5166666666666666
2026-01-20T23:03:32+00:00,SAT-56497,270.8330163546092,42.608289758209125,2662.934813585378,-4.214119246264972,147596.28171093686,10.5,10500147596.281712,47.655,-122.3035,60.0,3.533333333333333
2026-01-20T23:03:33+00:00,SAT-56497,270.98649977121806,42.66964279353948,2658.7319319904364,-4.2039984743671175,147241.8094682513,10.5,10500147241.809467,47.655,-122.3035,60.0,3.55
2026-01-20T23:03:34+00:00,SAT-56497,271.1408121469167,42.73082329191852,2654.5391441786674,-4.193824680266241,146885.48016373222,10.5,10500146885.480164,47.655,-122.3035,60.0,3.566666666666667
2026-01-20T23:03:35+00:00,SAT-56497,271.29595682055594,42.79182797277818,2650.356503030882,-4.183597720363829,146527.28876795227,10.5,10500146527.288769,47.655,-122.3035,60.0,3.5833333333333335
2026-01-20T23:03:36+00:00,SAT-56497,271.45193710892687,42.852653522473325,2646.1840615711058,-4.17331735242557,146167.2267968412,10.5,10500146167.226797,47.655,-122.3035,60.0,3.6
2026-01-20T23:03:37+00:00,SAT-56497,271.60875630190196,42.91329659271182,2642.0218730649535,-4.1629834016589315,145805.28812842508,10.5,10500145805.288128,47.655,-122.3035,60.0,3.6166666666666667
2026-01-20T23:03:38+00:00,SAT-56497,271.76641766388263,42.973753801413764,2637.8699909523657,-4.152595651840795,145441.4651896558,10.5,10500145441.465189,47.655,-122.3035,60.0,3.6333333333333333
2026-01-20T23:03:39+00:00,SAT-56497,271.9249244310814,43.034021731990876,2633.7284688889295,-4.142153904626709,145075.75103367158,10.5,10500145075.751034,47.655,-122.3035,60.0,3.65
2026-01-20T23:03:40+00:00,SAT-56497,272.08427981101215,43.09409693349209,2629.597360728049,-4.131657976497497,144708.13923285462,10.5,10500144708.139233,47.655,-122.3035,60.0,3.6666666666666665
2026-01-20T23:03:41+00:00,SAT-56497,272.2444869819385,43.15397592071494,2625.476720506155,-4.121107666748533,144338.62275767993,10.5,10500144338.622757,47.655,-122.3035,60.0,3.683333333333333
2026-01-20T23:03:42+00:00,SAT-56497,272.4055490909652,43.21365517385259,2621.366602459851,-4.110502772036006,143967.19448618704,10.5,10500143967.194487,47.655,-122.3035,60.0,3.7
2026-01-20T23:03:43+00:00,SAT-56497,272.5674692527094,43.273131138362174,2617.2670610285404,-4.099843093101683,143593.84743950987,10.5,10500143593.847439,47.655,-122.3035,60.0,3.716666666666667
2026-01-20T23:03:44+00:00,SAT-56497,272.73025054820073,43.33240022493547,2613.1781508503536,-4.089128455715629,143218.57551537908,10.5,10500143218.575516,47.655,-122.3035,60.0,3.7333333333333334
2026-01-20T23:03:45+00:00,SAT-56497,272.89389602466673,43.39145880978314,2609.099926737187,-4.0783586481885585,142841.37129954036,10.5,10500142841.3713,47.655,-122.3035,60.0,3.75
2026-01-20T23:03:46+00:00,SAT-56497,273.05840869267814,43.45030323401465,2605.03244371206,-4.067533470055213,142462.2277708525,10.5,10500142462.227772,47.655,-122.3035,60.0,3.7666666666666666
2026-01-20T23:03:47+00:00,SAT-56497,273.22379152530186,43.50892980373583,2600.9757569979247,-4.056652749184609,142081.13890056033,10.5,10500142081.1389,47.655,-122.3035,60.0,3.783333333333333
2026-01-20T23:03:48+00:00,SAT-56497,273.39004745794966,43.567334790399805,2596.929921989405,-4.045716276366554,141698.09736123786,10.5,10500141698.09736,47.655,-122.3035,60.0,3.8
2026-01-20T23:03:49+00:00,SAT-56497,273.5571793854711,43.62551443021718,2592.8949942897752,-4.034723874149508,141313.09693778164,10.5,10500141313.096937,47.655,-122.3035,60.0,3.816666666666667
2026-01-20T23:03:50+00:00,SAT-56497,273.7251901621181,43.68346492457287,2588.87102967929,-4.023675345534784,140926.1307304643,10.5,10500140926.13073,47.655,-122.3035,60.0,3.8333333333333335
2026-01-20T23:03:51+00:00,SAT-56497,273.89408259932236,43.74118243970749,2584.858084134677,-4.012570490870787,140537.19174664246,10.5,10500140537.191746,47.655,-122.3035,60.0,3.85
2026-01-20T23:03:52+00:00,SAT-56497,274.0638594641291,43.79866310665143,2580.856213831782,-4.00140914558884,140146.27422242498,10.5,10500140146.274223,47.655,-122.3035,60.0,3.8666666666666667
2026-01-20T23:03:53+00:00,SAT-56497,274.2345234793176,43.85590302171191,2576.865475110581,-3.990191091749569,139753.370524653,10.5,10500139753.370525,47.655,-122.3035,60.0,3.8833333333333333
2026-01-20T23:03:54+00:00,SAT-56497,274.4060773195573,43.91289824569437,2572.8859245284098,-3.97891617677371,139358.47530935536,10.5,10500139358.47531,47.655,-122.3035,60.0,3.9
2026-01-20T23:03:55+00:00,SAT-56497,274.57852361285813,43.96964480484205,2568.9176187947737,-3.967584188265042,138961.58113751793,10.5,10500138961.581137,47.655,-122.3035,60.0,3.9166666666666665
2026-01-20T23:03:56+00:00,SAT-56497,274.7518649363592,44.02613868998428,2564.960614831011,-3.956194958787511,138562.68214482188,10.5,10500138562.682144,47.655,-122.3035,60.0,3.933333333333333
2026-01-20T23:03:57+00:00,SAT-56497,274.9261038168522,44.082375857200326,2561.014969725447,-3.944748291798813,138161.7714475243,10.5,10500138161.771448,47.655,-122.3035,60.0,3.95
2026-01-20T23:03:58+00:00,SAT-56497,275.10124272788516,44.13835222742996,2557.080740762426,-3.9332440185842135,137758.8431365216,10.5,10500137758.843136,47.655,-122.3035,60.0,3.966666666666667
2026-01-20T23:03:59+00:00,SAT-56497,275.27728408948803,44.194063686909224,2553.1579853945577,-3.9216819516502586,137353.8906449999,10.5,10500137353.890644,47.655,-122.3035,60.0,3.9833333333333334
2026-01-20T23:04:00+00:00,SAT-56497,275.4542302657054,44.24950608695019,2549.2467612614455,-3.9100619048467213,136946.90745319077,10.5,10500136946.907454,47.655,-122.3035,60.0,4.0
2026-01-20T23:04:01+00:00,SAT-56497,275.63208356304597,44.304675244020316,2545.347126188345,-3.8983837096926504,136537.88766017865,10.5,10500136537.887661,47.655,-122.3035,60.0,4.016666666666667
2026-01-20T23:04:02+00:00,SAT-56497,275.8108462296747,44.35956694006261,2541.459138168545,-3.886647179356801,136126.8247223431,10.5,10500136126.824722,47.655,-122.3035,60.0,4.033333333333333
2026-01-20T23:04:03+00:00,SAT-56497,275.99052045290455,44.41417692231664,2537.582855381667,-3.874852161001734,135713.71328667048,10.5,10500135713.713287,47.655,-122.3035,60.0,4.05
2026-01-20T23:04:04+00:00,SAT-56497,276.1711083591392,44.46850090389071,2533.7183361597604,-3.8629984476178487,135298.54610280893,10.5,10500135298.546103,47.655,-122.3035,60.0,4.066666666666666
2026-01-20T23:04:05+00:00,SAT-56497,276.35261200959155,44.52253456310135,2529.8656390413366,-3.8510858891380133,134881.3179147727,10.5,10500134881.317915,47.655,-122.3035,60.0,4.083333333333333
2026-01-20T23:04:06+00:00,SAT-56497,276.53503340129475,44.57627354439254,2526.0248227145694,-3.839114314038564,134462.0227150775,10.5,10500134462.022715,47.655,-122.3035,60.0,4.1
2026-01-20T23:04:07+00:00,SAT-56497,276.7183744643751,44.629713458160126,2522.1959460387015,-3.8270835329034503,134040.6538695721,10.5,10500134040.65387,47.655,-122.3035,60.0,4.116666666666666
2026-01-20T23:04:08+00:00,SAT-56497,276.902637059374,44.68284988064244,2518.379068061886,-3.814993403160765,133617.20638478515,10.5,10500133617.206385,47.655,-122.3035,60.0,4.133333333333334
2026-01-20T23:04:09+00:00,SAT-56497,277.08782297783733,44.735678354729586,2514.574247974467,-3.802843728928379,133191.67340009596,10.5,10500133191.6734,47.655,-122.3035,60.0,4.15
2026-01-20T23:04:10+00:00,SAT-56497,277.27393393783404,44.78819438938441,2510.781545162149,-3.7906343770725366,132764.0502525972,10.5,10500132764.050253,47.655,-122.3035,60.0,4.166666666666667
2026-01-20T23:04:11+00:00,SAT-56497,277.46097158535156,44.84039346069625,2507.0010191434158,-3.778365161470448,132334.3304234815,10.5,10500132334.330423,47.655,-122.3035,60.0,4.183333333333334
2026-01-20T23:04:12+00:00,SAT-56497,277.6489374897531,44.892271011336234,2503.2327296223757,-3.7660359266612473,131902.50846785176,10.5,10500131902.508469,47.655,-122.3035,60.0,4.2
2026-01-20T23:04:13+00:00,SAT-56497,277.8378331435322,44.94382245119113,2499.4767364581858,-3.7536465092207676,131468.57866190237,10.5,10500131468.578661,47.655,-122.3035,60.0,4.216666666666667
2026-01-20T23:04:14+00:00,SAT-56497,278.02765996001716,44.99504315747279,2495.7330996729893,-3.7411967602833087,131032.53579172677,10.5,10500131032.535791,47.655,-122.3035,60.0,4.233333333333333
2026-01-20T23:04:15+00:00,SAT-56497,278.21841927229974,45.045928475154035,2492.0018794374,-3.7286865168165417,130594.37414724319,10.5,10500130594.374147,47.655,-122.3035,60.0,4.25
2026-01-20T23:04:16+00:00,SAT-56497,278.4101123305728,45.09647371702195,2488.2831360846285,-3.716115611656821,130154.08787367365,10.5,10500130154.087873,47.655,-122.3035,60.0,4.266666666666667
2026-01-20T23:04:17+00:00,SAT-56497,278.60274030003075,45.146674163890665,2484.576930114603,-3.703483920065161,129711.67260213126,10.5,10500129711.672602,47.655,-122.3035,60.0,4.283333333333333
2026-01-20T23:04:18+00:00,SAT-56497,278.7963042612019,45.19652506545416,2480.8833221516575,-3.6907912724125422,129267.12239149024,10.5,10500129267.12239,47.655,-122.3035,60.0,4.3
2026-01-20T23:04:19+00:00,SAT-56497,278.99080520564394,45.24602163997327,2477.202372989305,-3.6780375135628476,128820.43180822747,10.5,10500128820.431808,47.655,-122.3035,60.0,4.316666666666666
2026-01-20T23:04:20+00:00,SAT-56497,279.1862440347326,45.29515907478351,2473.534143575778,-3.6652225183913534,128371.59646994591,10.5,10500128371.59647,47.655,-122.3035,60.0,4.333333333333333
2026-01-20T23:04:21+00:00,SAT-56497,279.3826215594044,45.34393252702544,2469.878694984103,-3.652346117370176,127920.61043906196,10.5,10500127920.61044,47.655,-122.3035,60.0,4.35
2026-01-20T23:04:22+00:00,SAT-56497,279.5799384957009,45.392337123390995,2466.2360884563786,-3.639408189415954,127467.46947472413,10.5,10500127467.469475,47.655,-122.3035,60.0,4.366666666666666
2026-01-20T23:04:23+00:00,SAT-56497,279.77819546552433,45.44036796113106,2462.606385355468,-3.6264085756322526,127012.16801170711,10.5,10500127012.168013,47.655,-122.3035,60.0,4.383333333333334
2026-01-20T23:04:24+00:00,SAT-56497,279.97739299249747,45.48802010792671,2458.989647202704,-3.6133471621595485,126554.70206216881,10.5,10500126554.702063,47.655,-122.3035,60.0,4.4
2026-01-20T23:04:25+00:00,SAT-56497,280.17753150256823,45.53528860287923,2455.3859356329767,-3.6002237824882735,126095.06579423981,10.5,10500126095.065794,47.655,-122.3035,60.0,4.416666666666667
2026-01-20T23:04:26+00:00,SAT-56497,280.3786113189427,45.582168456223954,2451.795312447242,-3.587038330282082,125633.25548357144,10.5,10500125633.255484,47.655,-122.3035,60.0,4.433333333333334
2026-01-20T23:04:27+00:00,SAT-56497,280.5806326635845,45.6286546505503,2448.2178395525075,-3.573790649987607,125169.26568202685,10.5,10500125169.265682,47.655,-122.3035,60.0,4.45
2026-01-20T23:04:28+00:00,SAT-56497,280.7835956523086,45.67474214060109,2444.6535790109197,-3.5604806307793977,124703.09250802993,10.5,10500124703.092508,47.655,-122.3035,60.0,4.466666666666667
2026-01-20T23:04:29+00:00,SAT-56497,280.9875002953992,45.72042585431883,2441.1025929951556,-3.5471081460426293,124234.73152699394,10.5,10500124234.731527,47.655,-122.3035,60.0,4.483333333333333
2026-01-20T23:04:30+00:00,SAT-56497,281.19234649465517,45.765700693118944,2437.564943804169,-3.533673050996163,123764.17766807099,10.5,10500123764.177668,47.655,-122.3035,60.0,4.5
2026-01-20T23:04:31+00:00,SAT-56497,281.39813404025864,45.81056153215748,2434.040693881309,-3.520175259745268,123291.42792286427,10.5,10500123291.427923,47.655,-122.3035,60.0,4.516666666666667
2026-01-20T23:04:32+00:00,SAT-56497,281.6048626122846,45.855003221600434,2430.52990575559,-3.5066146090899024,122816.47657541797,10.5,10500122816.476576,47.655,-122.3035,60.0,4.533333333333333
2026-01-20T23:04:33+00:00,SAT-56497,281.8125317739942,45.89902058617691,2427.0326421187906,-3.4929910270514104,122339.3211047351,10.5,10500122339.321104,47.655,-122.3035,60.0,4.55
2026-01-20T23:04:34+00:00,SAT-56497,282.0211409753547,45.94260842688904,2423.548965734478,-3.479304367712273,121859.9564001669,10.5,10500121859.9564,47.655,-122.3035,60.0,4.566666666666666
2026-01-20T23:04:35+00:00,SAT-56497,282.2306895464738,45.985761520652844,2420.0789395117463,-3.465554532131757,121378.37899639038,10.5,10500121378.378996,47.655,-122.3035,60.0,4.583333333333333
2026-01-20T23:04:36+00:00,SAT-56497,282.44117669845593,46.02847462148299,2416.622626458367,-3.451741415158683,120894.58521056648,10.5,10500120894.58521,47.655,-122.3035,60.0,4.6
2026-01-20T23:04:37+00:00,SAT-56497,282.65260152100325,46.07074246102557,2413.180089686982,-3.437864914459952,120408.57145855717,10.5,10500120408.571459,47.655,-122.3035,60.0,4.616666666666666
2026-01-20T23:04:38+00:00,SAT-56497,282.864962980564,46.112559749223294,2409.7513924122936,-3.4239249105439504,119920.33355526067,10.5,10500119920.333555,47.655,-122.3035,60.0,4.633333333333334
2026-01-20T23:04:39+00:00,SAT-56497,283.0782599172259,46.15392117476011,2406.336597968178,-3.409921321330643,119429.86862588701,10.5,10500119429.868626,47.655,-122.3035,60.0,4.65
2026-01-20T23:04:40+00:00,SAT-56497,283.2924910450677,46.19482140618892,2402.935769770371,-3.395854047599267,118937.17319530535,10.5,10500118937.173195,47.655,-122.3035,60.0,4.666666666666667
2026-01-20T23:04:41+00:00,SAT-56497,283.5076549491103,46.23525509241284,2399.548971333565,-3.3817229931646593,118442.24389470438,10.5,10500118442.243895,47.655,-122.3035,60.0,4.683333333333334
2026-01-20T23:04:42+00:00,SAT-56497,283.723750083466,46.275216863434494,2396.1762662683823,-3.3675280593996573,117945.07726974372,10.5,10500117945.07727,47.655,-122.3035,60.0,4.7
2026-01-20T23:04:43+00:00,SAT-56497,283.94077476919966,46.31470133106129,2392.817718283808,-3.3532691761780646,117445.67086430734,10.5,10500117445.670864,47.655,-122.3035,60.0,4.716666666666667
2026-01-20T23:04:44+00:00,SAT-56497,284.1587271942503,46.353703089993935,2389.473391158766,-3.338946248395192,116944.02134742668,10.5,10500116944.021347,47.655,-122.3035,60.0,4.733333333333333
2026-01-20T23:04:45+00:00,SAT-56497,284.37760540982526,46.39221671830424,2386.1433487670333,-3.3245592009971436,116440.12609039687,10.5,10500116440.126091,47.655,-122.3035,60.0,4.75
2026-01-20T23:04:46+00:00,SAT-56497,284.59740732976474,46.430236778463296,2382.827655057239,-3.310107945594847,115933.98199745867,10.5,10500115933.981997,47.655,-122.3035,60.0,4.766666666666667
2026-01-20T23:04:47+00:00,SAT-56497,284.81813072773923,46.46775781800279,2379.5263740661658,-3.2955924164327923,115425.58676557605,10.5,10500115425.586765,47.655,-122.3035,60.0,4.783333333333333
2026-01-20T23:04:48+00:00,SAT-56497,285.0397732368383,46.50477437060978,2376.239569896177,-3.2810125628003055,114914.93861864667,10.5,10500114914.938618,47.655,-122.3035,60.0,4.8
2026-01-20T23:04:49+00:00,SAT-56497,285.26233234884296,46.54128095714543,2372.9673067002104,-3.2663682756049632,114402.03373579237,10.5,10500114402.033735,47.655,-122.3035,60.0,4.816666666666666
2026-01-20T23:04:50+00:00,SAT-56497,285.48580540813253,46.577272085869744,2369.709648740007,-3.251659521783513,113886.8709589982,10.5,10500113886.870958,47.655,-122.3035,60.0,4.833333333333333
2026-01-20T23:04:51+00:00,SAT-56497,285.71018961527847,46.61274225418877,2366.466660310282,-3.236886235747143,113369.44799106654,10.5,10500113369.44799,47.655,-122.3035,60.0,4.85
2026-01-20T23:04:52+00:00,SAT-56497,285.93548202288633,46.647685949206405,2363.2384057711633,-3.222048355660754,112849.76266627068,10.5,10500112849.762667,47.655,-122.3035,60.0,4.866666666666666
2026-01-20T23:04:53+00:00,SAT-56497,286.1616795340642,46.6820976487058,2360.0249495444514,-3.207145828819925,112327.81313867879,10.5,10500112327.813139,47.655,-122.3035,60.0,4.883333333333334
2026-01-20T23:04:54+00:00,SAT-56497,286.3887789013206,46.715971822209625,2356.8263561045082,-3.192178616889636,111803.5980656364,10.5,10500111803.598066,47.655,-122.3035,60.0,4.9
2026-01-20T23:04:55+00:00,SAT-56497,286.6167767258651,46.749302932108236,2353.64268996393,-3.1771466559144974,111277.11520715515,10.5,10500111277.115208,47.655,-122.3035,60.0,4.916666666666667
2026-01-20T23:04:56+00:00,SAT-56497,286.8456694540081,46.78208543439281,2350.474015699098,-3.1620499257405448,110748.36385735802,10.5,10500110748.363857,47.655,-122.3035,60.0,4.933333333333334
2026-01-20T23:04:57+00:00,SAT-56497,287.07545337873427,46.81431378013113,2347.3203979064924,-3.146888370261333,110217.34205115993,10.5,10500110217.34205,47.655,-122.3035,60.0,4.95
2026-01-20T23:04:58+00:00,SAT-56497,287.30612463537483,46.845982416137744,2344.1819012385517,-3.1316619586035266,109684.0487072461,10.5,10500109684.048708,47.655,-122.3035,60.0,4.966666666666667
2026-01-20T23:04:59+00:00,SAT-56497,287.53767920186124,46.87708578629641,2341.0585903785045,-3.116370684548549,109148.48360781567,10.5,10500109148.483608,47.655,-122.3035,60.0,4.983333333333333
2026-01-20T23:05:00+00:00,SAT-56497,287.7701128991145,46.907618332880666,2337.9505300157816,-3.101014493761608,108610.64484983437,10.5,10500108610.64485,47.655,-122.3035,60.0,5.0
2026-01-20T23:05:01+00:00,SAT-56497,288.00342138574973,46.93757449717985,2334.8577848940035,-3.085593367487362,108070.53177641082,10.5,10500108070.531776,47.655,-122.3035,60.0,5.016666666666667
2026-01-20T23:05:02+00:00,SAT-56497,288.2376001593355,46.966948720976866,2331.7804197754963,-3.0701073140158917,107528.14467789867,10.5,10500107528.144678,47.655,-122.3035,60.0,5.033333333333333
2026-01-20T23:05:03+00:00,SAT-56497,288.47264455710155,46.99573544793914,2328.7184994143176,-3.0545562867937575,106983.48192379961,10.5,10500106983.481924,47.655,-122.3035,60.0,5.05
2026-01-20T23:05:04+00:00,SAT-56497,288.70854975018216,47.02392912426175,2325.672088610955,-3.038940294879469,106436.54383138093,10.5,10500106436.54383,47.655,-122.3035,60.0,5.066666666666666
2026-01-20T23:05:05+00:00,SAT-56497,288.94531074664735,47.05152420037109,2322.6412521568623,-3.023259333555222,105887.33023540516,10.5,10500105887.330235,47.655,-122.3035,60.0,5.083333333333333
2026-01-20T23:05:06+00:00,SAT-56497,289.1829223891561,47.07851513199045,2319.6260548481964,-3.0075134000034454,105335.84103718905,10.5,10500105335.841038,47.655,-122.3035,60.0,5.1
2026-01-20T23:05:07+00:00,SAT-56497,289.4213793537865,47.10489638137485,2316.6265614839263,-2.991702503266895,104782.07655344816,10.5,10500104782.076553,47.655,-122.3035,60.0,5.116666666666666
2026-01-20T23:05:08+00:00,SAT-56497,289.6606761498556,47.13066241865052,2313.6428368540014,-2.9758266419571133,104226.03673555286,10.5,10500104226.036736,47.655,-122.3035,60.0,5.133333333333334
2026-01-20T23:05:09+00:00,SAT-56497,289.9008071178246,47.15580772298011,2310.6749457497563,-2.9598858268061776,103667.72195938588,10.5,10500103667.72196,47.655,-122.3035,60.0,5.15
2026-01-20T23:05:10+00:00,SAT-56497,290.141766429224,47.180326783942164,2307.7229529518213,-2.943880097568054,103107.13361729925,10.5,10500103107.133617,47.655,-122.3035,60.0,5.166666666666667
2026-01-20T23:05:11+00:00,SAT-56497,290.3835480880731,47.20421410305498,2304.7869232011803,-2.927809449475642,102544.27154232893,10.5,10500102544.271542,47.655,-122.3035,60.0,5.183333333333334
2026-01-20T23:05:12+00:00,SAT-56497,290.6261459260868,47.22746419471922,2301.86692124357,-2.9116739266195473,101979.13727871448,10.5,10500101979.13728,47.655,-122.3035,60.0,5.2
2026-01-20T23:05:13+00:00,SAT-56497,290.86955360590196,47.250071587937455,2298.9630117807546,-2.895473560448917,101411.73192793806,10.5,10500101411.731928,47.655,-122.3035,60.0,5.216666666666667
2026-01-20T23:05:14+00:00,SAT-56497,291.11376461919247,47.272030827544185,2296.0752594831333,-2.87920837302303,100842.05626260891,10.5,10500100842.056263,47.655,-122.3035,60.0,5.233333333333333
2026-01-20T23:05:15+00:00,SAT-56497,291.3587722849178,47.293336475498606,2293.2037289991054,-2.862878424682312,100270.11239610397,10.5,10500100270.112396,47.655,-122.3035,60.0,5.25
2026-01-20T23:05:16+00:00,SAT-56497,291.6045697520481,47.313983112535446,2290.3484849168885,-2.8464837447891598,99695.90135681858,10.5,10500099695.901358,47.655,-122.3035,60.0,5.266666666666667
2026-01-20T23:05:17+00:00,SAT-56497,291.85114999606805,47.3339653393254,2287.5095917954195,-2.8300243892035324,99119.42510120482,10.5,10500099119.4251,47.655,-122.3035,60.0,5.283333333333333
2026-01-20T23:05:18+00:00,SAT-56497,292.09850582074876,47.353277778066676,2284.68711413792,-2.8135004301952966,98540.68616045911,10.5,10500098540.686161,47.655,-122.3035,60.0,5.3
2026-01-20T23:05:19+00:00,SAT-56497,292.3466298591121,47.371915074002096,2281.8811163755386,-2.7969118983219308,97959.68560483358,10.5,10500097959.685604,47.655,-122.3035,60.0,5.316666666666666
2026-01-20T23:05:20+00:00,SAT-56497,292.5955145691245,47.38987189657324,2279.0916629089456,-2.7802588830489166,97376.42656778786,10.5,10500097376.426567,47.655,-122.3035,60.0,5.333333333333333
2026-01-20T23:05:21+00:00,SAT-56497,292.8451522386645,47.40714294124722,2276.318818049585,-2.763541448425412,96790.91129259439,10.5,10500096790.911293,47.655,-122.3035,60.0,5.35
2026-01-20T23:05:22+00:00,SAT-56497,293.0955349829263,47.42372293079788,2273.5626460450217,-2.746759673061074,96203.14253249585,10.5,10500096203.142532,47.655,-122.3035,60.0,5.366666666666666
2026-01-20T23:05:23+00:00,SAT-56497,293.3466547454324,47.43960661686374,2270.8232110644226,-2.7299136361378116,95613.12306077767,10.5,10500095613.12306,47.655,-122.3035,60.0,5.383333333333334
2026-01-20T23:05:24+00:00,SAT-56497,293.5985032979684,47.45478878142254,2268.1005771979812,-2.7130034199689312,95020.85576040001,10.5,10500095020.85576,47.655,-122.3035,60.0,5.4
2026-01-20T23:05:25+00:00,SAT-56497,293.8510722406951,47.46926423830091,2265.3948084537983,-2.696029123388694,94426.34409295676,10.5,10500094426.344093,47.655,-122.3035,60.0,5.416666666666667
2026-01-20T23:05:26+00:00,SAT-56497,294.10435300375445,47.48302783475509,2262.7059687414057,-2.6789908415350787,93829.59139058237,10.5,10500093829.59139,47.655,-122.3035,60.0,5.433333333333334
2026-01-20T23:05:27+00:00,SAT-56497,294.3583368469415,47.49607445295415,2260.034121875448,-2.661888675021369,93230.60117717962,10.5,10500093230.601177,47.655,-122.3035,60.0,5.45
2026-01-20T23:05:28+00:00,SAT-56497,294.6130148603524,47.50839901152178,2257.379331570227,-2.6447227365140424,92629.37739880515,10.5,10500092629.3774,47.655,-122.3035,60.0,5.466666666666667
2026-01-20T23:05:29+00:00,SAT-56497,294.8683779657776,47.5199964671125,2254.7416614276767,-2.6274931374905974,92025.92395987251,10.5,10500092025.92396,47.655,-122.3035,60.0,5.483333333333333
2026-01-20T23:05:30+00:00,SAT-56497,295.12441691688775,47.530861815930855,2252.1211749385525,-2.610200003670882,91420.24526362256,10.5,10500091420.245264,47.655,-122.3035,60.0,5.5
2026-01-20T23:05:31+00:00,SAT-56497,295.38112230101376,47.5409900953229,2249.517935468225,-2.592843440501606,90812.3450032451,10.5,10500090812.345003,47.655,-122.3035,60.0,5.516666666666667
2026-01-20T23:05:32+00:00,SAT-56497,295.63848453749495,47.55037638524506,2246.932006276898,-2.5754235977835944,90202.22842539867,10.5,10500090202.228426,47.655,-122.3035,60.0,5.533333333333333
2026-01-20T23:05:33+00:00,SAT-56497,295.8964938827962,47.55901580996702,2244.363450475375,-2.557940611408714,89589.90028959134,10.5,10500089589.90029,47.655,-122.3035,60.0,5.55
2026-01-20T23:05:34+00:00,SAT-56497,296.1551404297031,47.56690353956098,2241.81233103893,-2.540394602224766,88975.36482842421,10.5,10500088975.364828,47.655,-122.3035,60.0,5.566666666666666
2026-01-20T23:05:35+00:00,SAT-56497,296.4144141063146,47.574034791425106,2239.278710822311,-2.5227857449038344,88358.62815965258,10.5,10500088358.62816,47.655,-122.3035,60.0,5.583333333333333
2026-01-20T23:05:36+00:00,SAT-56497,296.6743046826676,47.58040483197388,2236.7626525060605,-2.5051141760541236,87739.69506787357,10.5,10500087739.695068,47.655,-122.3035,60.0,5.6
2026-01-20T23:05:37+00:00,SAT-56497,296.9348017674108,47.58600897810011,2234.264218634476,-2.487380056896918,87118.5711997386,10.5,10500087118.5712,47.655,-122.3035,60.0,5.616666666666666
2026-01-20T23:05:38+00:00,SAT-56497,297.1958948114444,47.59084259878972,2231.7834715910644,-2.4695835625251115,86495.26268774137,10.5,10500086495.262688,47.655,-122.3035,60.0,5.633333333333334
2026-01-20T23:05:39+00:00,SAT-56497,297.4575731104736,47.594901116694565,2229.3204735847057,-2.4517248434106325,85869.77480204536,10.5,10500085869.774801,47.655,-122.3035,60.0,5.65
2026-01-20T23:05:40+00:00,SAT-56497,297.71982580336817,47.59818000965744,2226.8752866742107,-2.4338040947256268,85242.11437840469,10.5,10500085242.114378,47.655,-122.3035,60.0,5.666666666666667
2026-01-20T23:05:41+00:00,SAT-56497,297.9826418782957,47.600674812324414,2224.4479727237376,-2.415821494870989,84612.2876651733,10.5,10500084612.287664,47.655,-122.3035,60.0,5.683333333333334
2026-01-20T23:05:42+00:00,SAT-56497,298.2460101722286,47.602381117661345,2222.0385934195197,-2.397777228737832,83980.30113802008,10.5,10500083980.301138,47.655,-122.3035,60.0,5.7
2026-01-20T23:05:43+00:00,SAT-56497,298.5099193728985,47.603294578519154,2219.647210263392,-2.3796714909595895,83346.16161383115,10.5,10500083346.161613,47.655,-122.3035,60.0,5.716666666666667
2026-01-20T23:05:44+00:00,SAT-56497,298.77435802145743,47.60341090917262,2217.2738845630747,-2.3615044902422992,82709.87640237481,10.5,10500082709.876402,47.655,-122.3035,60.0,5.733333333333333
2026-01-20T23:05:45+00:00,SAT-56497,299.0393145155536,47.60272588685664,2214.91867741814,-2.3432764216498563,82071.45233561377,10.5,10500082071.452335,47.655,-122.3035,60.0,5.75
2026-01-20T23:05:46+00:00,SAT-56497,299.3047771094132,47.601235353296815,2212.5816497336145,-2.3249875041342642,81430.89708217335,10.5,10500081430.897081,47.655,-122.3035,60.0,5.766666666666667
2026-01-20T23:05:47+00:00,SAT-56497,299.5707339182509,47.598935216225605,2210.2628621961576,-2.3066379625072995,80788.21851591291,10.5,10500080788.218515,47.655,-122.3035,60.0,5.783333333333333
2026-01-20T23:05:48+00:00,SAT-56497,299.83717292082014,47.595821450875135,2207.9623752682173,-2.2882280088544076,80143.4240649619,10.5,10500080143.424065,47.655,-122.3035,60.0,5.8
2026-01-20T23:05:49+00:00,SAT-56497,300.10408195965715,47.59189010150992,2205.68024920072,-2.2697578877939604,79496.52229689043,10.5,10500079496.522297,47.655,-122.3035,60.0,5.816666666666666
2026-01-20T23:05:50+00:00,SAT-56497,300.37144874702733,47.58713728285608,2203.4165440006263,-2.251227827898053,78847.52121726009,10.5,10500078847.521217,47.655,-122.3035,60.0,5.833333333333333
2026-01-20T23:05:51+00:00,SAT-56497,300.6392608648674,47.58155918162492,2201.171319446936,-2.2326380803723476,78196.42962435583,10.5,10500078196.429625,47.655,-122.3035,60.0,5.85
2026-01-20T23:05:52+00:00,SAT-56497,300.9075057697834,47.57515205791509,2198.9446350681114,-2.213988893758419,77543.25622315488,10.5,10500077543.256224,47.655,-122.3035,60.0,5.866666666666666
2026-01-20T23:05:53+00:00,SAT-56497,301.1761707947646,47.56791224668523,2196.7365501447366,-2.1952805120452075,76888.00955918204,10.5,10500076888.00956,47.655,-122.3035,60.0,5.883333333333334
2026-01-20T23:05:54+00:00,SAT-56497,301.4452431508372,47.55983615922329,2194.547123714057,-2.1765132180122917,76230.69953657429,10.5,10500076230.699537,47.655,-122.3035,60.0,5.9
2026-01-20T23:05:55+00:00,SAT-56497,301.7147099343631,47.55092028441671,2192.3764145312925,-2.1576872735544668,75571.33532799514,10.5,10500075571.335327,47.655,-122.3035,60.0,5.916666666666667
2026-01-20T23:05:56+00:00,SAT-56497,301.9845581267307,47.54116119024435,2190.2244810904676,-2.138802947407926,74909.9263457229,10.5,10500074909.926346,47.655,-122.3035,60.0,5.933333333333334
2026-01-20T23:05:57+00:00,SAT-56497,302.2547745975879,47.53055552516068,2188.091381617586,-2.1198605267397106,74246.482647562,10.5,10500074246.482647,47.655,-122.3035,60.0,5.95
2026-01-20T23:05:58+00:00,SAT-56497,302.52534610987414,47.51910001937158,2185.977174052251,-2.1008603053422648,73581.01452336663,10.5,10500073581.014523,47.655,-122.3035,60.0,5.966666666666667
2026-01-20T23:05:59+00:00,SAT-56497,302.7962593231675,47.506791486160566,2183.8819160410562,-2.081802567564804,72913.53193224908,10.5,10500072913.531933,47.655,-122.3035,60.0,5.983333333333333
2026-01-20T23:06:00+00:00,SAT-56497,303.067500795133,47.49362682328267,2181.805664947005,-2.0626876216235592,72244.04566924552,10.5,10500072244.04567,47.655,-122.3035,60.0,6.0
2026-01-20T23:06:01+00:00,SAT-56497,303.33905698738397,47.47960301413862,2179.748477825706,-2.043515773435575,71572.56644886489,10.5,10500071572.566448,47.655,-122.3035,60.0,6.016666666666667
2026-01-20T23:06:02+00:00,SAT-56497,303.61091426797606,47.46471712908231,2177.710411427666,-2.02428733401585,70899.10516416801,10.5,10500070899.105164,47.655,-122.3035,60.0,6.033333333333333
2026-01-20T23:06:03+00:00,SAT-56497,303.8830589148288,47.44896632667441,2175.691522193207,-2.0050026367916183,70223.67349318705,10.5,10500070223.673492,47.655,-122.3035,60.0,6.05
2026-01-20T23:06:04+00:00,SAT-56497,304.15547712191545,47.43234785472557,2173.691866230114,-1.9856619880006123,69546.28216166275,10.5,10500069546.282162,47.655,-122.3035,60.0,6.066666666666666
2026-01-20T23:06:05+00:00,SAT-56497,304.42815499803385,47.414859051806665,2171.711499340748,-1.9662657372004542,68866.94341258168,10.5,10500068866.943413,47.655,-122.3035,60.0,6.083333333333333
2026-01-20T23:06:06+00:00,SAT-56497,304.7010785762335,47.39649734803081,2169.750476978847,-1.9468142213431376,68185.66904742796,10.5,10500068185.669048,47.655,-122.3035,60.0,6.1
2026-01-20T23:06:07+00:00,SAT-56497,304.9742338148315,47.37726026636824,2167.808854262094,-1.9273077851157605,67502.47113860177,10.5,10500067502.471138,47.655,-122.3035,60.0,6.116666666666666
2026-01-20T23:06:08+00:00,SAT-56497,305.2476066017249,47.35714542371126,2165.886685964405,-1.9077467786964817,66817.36195082353,10.5,10500066817.36195,47.655,-122.3035,60.0,6.133333333333334
2026-01-20T23:06:09+00:00,SAT-56497,305.52118275813314,47.33615053197092,2163.9840265104517,-1.8881315631718891,66130.35413087289,10.5,10500066130.354132,47.655,-122.3035,60.0,6.15
2026-01-20T23:06:10+00:00,SAT-56497,305.7949480434605,47.31427339904324,2162.1009299647817,-1.8684625120202392,65441.460759538226,10.5,10500065441.46076,47.655,-122.3035,60.0,6.166666666666667
2026-01-20T23:06:11+00:00,SAT-56497,306.0688881603737,47.291511929720485,2160.23745001946,-1.8487399901156274,64750.694616253786,10.5,10500064750.694616,47.655,-122.3035,60.0,6.183333333333334
2026-01-20T23:06:12+00:00,SAT-56497,306.3429887566192,47.26786412685476,2158.3936400026514,-1.8289643750930407,64058.06892739418,10.5,10500064058.068928,47.655,-122.3035,60.0,6.2
2026-01-20T23:06:13+00:00,SAT-56497,306.6172354301867,47.243328092219876,2156.569552865892,-1.8091360567710155,63363.59734605353,10.5,10500063363.597345,47.655,-122.3035,60.0,6.216666666666667
2026-01-20T23:06:14+00:00,SAT-56497,306.89161373455596,47.217902027312604,2154.765241171939,-1.7892554242576004,62667.29350044158,10.5,10500062667.2935,47.655,-122.3035,60.0,6.233333333333333
2026-01-20T23:06:15+00:00,SAT-56497,307.16610918177514,47.19158423432926,2152.9807570954795,-1.7693228829907057,61969.17159070896,10.5,10500061969.17159,47.655,-122.3035,60.0,6.25
2026-01-20T23:06:16+00:00,SAT-56497,307.4407072484937,47.16437311682012,2151.2161524068433,-1.7493388221980644,61269.24524925732,10.5,10500061269.245249,47.655,-122.3035,60.0,6.266666666666667
2026-01-20T23:06:17+00:00,SAT-56497,307.7153933764745,47.1362671808731,2149.4714784881717,-1.7293036715182495,60567.52952384687,10.5,10500060567.529524,47.655,-122.3035,60.0,6.283333333333333
2026-01-20T23:06:18+00:00,SAT-56497,307.99015298273235,47.10726503527311,2147.7467862931103,-1.70921783747168,59864.03865254222,10.5,10500059864.038652,47.655,-122.3035,60.0,6.3
2026-01-20T23:06:19+00:00,SAT-56497,308.2649714588922,47.07736539274344,2146.042126369872,-1.6890817468229475,59158.78758244462,10.5,10500059158.787582,47.655,-122.3035,60.0,6.316666666666666
2026-01-20T23:06:20+00:00,SAT-56497,308.53983417804085,47.046567070365704,2144.3575488410406,-1.6688958303477668,58451.79140114175,10.5,10500058451.7914,47.655,-122.3035,60.0,6.333333333333333
2026-01-20T23:06:21+00:00,SAT-56497,308.8147264986361,47.01486899028242,2142.693103399574,-1.6486605233805847,57743.06535588743,10.5,10500057743.065355,47.655,-122.3035,60.0,6.35
2026-01-20T23:06:22+00:00,SAT-56497,309.08963376876966,46.982270180311595,2141.048839304255,-1.6283762732757534,57032.62511492337,10.5,10500057032.625114,47.655,-122.3035,60.0,6.366666666666666
2026-01-20T23:06:23+00:00,SAT-56497,309.36454133152705,46.94876977440383,2139.424805367709,-1.6080435254091263,56320.486277195894,10.5,10500056320.486277,47.655,-122.3035,60.0,6.383333333333334
2026-01-20T23:06:24+00:00,SAT-56497,309.63943452807143,46.91436701332479,2137.821049958367,-1.5876627373510348,55606.66486875352,10.5,10500055606.66487,47.655,-122.3035,60.0,6.4
2026-01-20T23:06:25+00:00,SAT-56497,309.91429870298794,46.87906124503896,2136.237620988316,-1.5672343697008015,54891.17702173287,10.5,10500054891.177021,47.655,-122.3035,60.0,6.416666666666667
2026-01-20T23:06:26+00:00,SAT-56497,310.18911920834006,46.84285192519233,2134.6745659102676,-1.546758897325002,54174.039367970094,10.5,10500054174.039368,47.655,-122.3035,60.0,6.433333333333334
2026-01-20T23:06:27+00:00,SAT-56497,310.46388140948466,46.8057386173335,2133.1319317033353,-1.526236782387004,53455.26809438129,10.5,10500053455.268095,47.655,-122.3035,60.0,6.45
2026-01-20T23:06:28+00:00,SAT-56497,310.73857068600057,46.767720993749265,2131.609764885701,-1.5056685170707176,52734.88043932892,10.5,10500052734.88044,47.655,-122.3035,60.0,6.466666666666667
2026-01-20T23:06:29+00:00,SAT-56497,311.01317244059123,46.72879883517478,2130.108111484676,-1.4850545854803756,52012.893358190966,10.5,10500052012.893358,47.655,-122.3035,60.0,6.483333333333333
2026-01-20T23:06:30+00:00,SAT-56497,311.287672100934,46.688972031407026,2128.627017044757,-1.464395479866464,51289.324091661685,10.5,10500051289.324091,47.655,-122.3035,60.0,6.5
2026-01-20T23:06:31+00:00,SAT-56497,311.5620551242638,46.648240581529585,2127.1665266195037,-1.443691697120787,50564.19004299389,10.5,10500050564.190042,47.655,-122.3035,60.0,6.516666666666667
2026-01-20T23:06:32+00:00,SAT-56497,311.83630700154094,46.60660459413537,2125.726684766908,-1.422943745010289,49837.50899633384,10.5,10500049837.508997,47.655,-122.3035,60.0,6.533333333333333
2026-01-20T23:06:33+00:00,SAT-56497,312.11041326272493,46.56406428733878,2124.3075355385513,-1.4021521368592977,49109.298930470846,10.5,10500049109.298931,47.655,-122.3035,60.0,6.55
2026-01-20T23:06:34+00:00,SAT-56497,312.3843594811284,46.52061998886773,2122.9091224740573,-1.381317387892121,48379.577890739565,10.5,10500048379.57789,47.655,-122.3035,60.0,6.566666666666666
2026-01-20T23:06:35+00:00,SAT-56497,312.65813127670253,46.476272136292195,2121.5314885991993,-1.3604400179334706,47648.36408360026,10.5,10500047648.364084,47.655,-122.3035,60.0,6.583333333333333
2026-01-20T23:06:36+00:00,SAT-56497,312.9317143201076,46.431021277082706,2120.1746764213135,-1.3395205617382855,46915.67623843292,10.5,10500046915.676239,47.655,-122.3035,60.0,6.6
2026-01-20T23:06:37+00:00,SAT-56497,313.2050943387676,46.3848680682907,2118.8387279144067,-1.3185595549702025,46181.533116443934,10.5,10500046181.533117,47.655,-122.3035,60.0,6.616666666666666
2026-01-20T23:06:38+00:00,SAT-56497,313.4782571201316,46.337813276623194,2117.52368451825,-1.2975575283821832,45445.953306847114,10.5,10500045445.953306,47.655,-122.3035,60.0,6.633333333333334
2026-01-20T23:06:39+00:00,SAT-56497,313.7511885131629,46.28985777881842,2116.2295871432766,-1.276515041492683,44708.95640634552,10.5,10500044708.956406,47.655,-122.3035,60.0,6.65
2026-01-20T23:06:40+00:00,SAT-56497,314.02387443789837,46.241002560530006,2114.9564761418947,-1.2554326375451812,43970.56144162373,10.5,10500043970.561441,47.655,-122.3035,60.0,6.666666666666667
2026-01-20T23:06:41+00:00,SAT-56497,314.2963008842323,46.19124871707362,2113.704391324716,-1.2343108812394343,43230.78819085589,10.5,10500043230.78819,47.655,-122.3035,60.0,6.683333333333334
2026-01-20T23:06:42+00:00,SAT-56497,314.5684539196946,46.14059745251451,2112.4733719391597,-1.2131503272154958,42489.656079882785,10.5,10500042489.65608,47.655,-122.3035,60.0,6.7
2026-01-20T23:06:43+00:00,SAT-56497,314.8403196895911,46.08905008009729,2111.263456679484,-1.1919515502335858,41747.18523923858,10.5,10500041747.18524,47.655,-122.3035,60.0,6.716666666666667
2026-01-20T23:06:44+00:00,SAT-56497,315.11188442440897,46.03660802128036,2110.0746836667176,-1.1707151248150616,41003.395791091396,10.5,10500041003.395792,47.655,-122.3035,60.0,6.733333333333333
2026-01-20T23:06:45+00:00,SAT-56497,315.38313444216647,45.983272805652604,2108.907090448902,-1.1494416311730873,40258.30805696058,10.5,10500040258.308058,47.655,-122.3035,60.0,6.75
2026-01-20T23:06:46+00:00,SAT-56497,315.6540561524378,45.92904607047965,2107.760713995412,-1.1281316496583005,39511.942363180315,10.5,10500039511.942364,47.655,-122.3035,60.0,6.766666666666667
2026-01-20T23:06:47+00:00,SAT-56497,315.9246360583222,45.873929560633535,2106.6355906968197,-1.1067857764030882,38764.31958882843,10.5,10500038764.31959,47.655,-122.3035,60.0,6.783333333333333
2026-01-20T23:06:48+00:00,SAT-56497,316.1948607631429,45.81792512748161,2105.5317563491535,-1.0854046053524575,38015.46053637148,10.5,10500038015.460537,47.655,-122.3035,60.0,6.8
2026-01-20T23:06:49+00:00,SAT-56497,316.46471697183676,45.7610347288187,2104.449246156082,-1.063988732438811,37265.38607788297,10.5,10500037265.386078,47.655,-122.3035,60.0,6.816666666666666
2026-01-20T23:06:50+00:00,SAT-56497,316.73419149349695,45.70326042852739,2103.3880947269295,-1.0425387700855195,36514.11766301991,10.5,10500036514.117662,47.655,-122.3035,60.0,6.833333333333333
2026-01-20T23:06:51+00:00,SAT-56497,317.00327124800845,45.64460439529193,2102.3483360602313,-1.0210553272778466,35761.676621022234,10.5,10500035761.67662,47.655,-122.3035,60.0,6.85
2026-01-20T23:06:52+00:00,SAT-56497,317.2719432670476,45.58506890246648,2101.330003547159,-0.9995390183518491,35008.08446853729,10.5,10500035008.084469,47.655,-122.3035,60.0,6.866666666666666
2026-01-20T23:06:53+00:00,SAT-56497,317.54019469727876,45.52465632742942,2100.3331299661895,-0.9779904647009764,34253.362969392154,10.5,10500034253.362968,47.655,-122.3035,60.0,6.883333333333334
2026-01-20T23:06:54+00:00,SAT-56497,317.8080128042261,45.46336915072948,2099.3577474760614,-0.9564102923574543,33497.5340498835,10.5,10500033497.53405,47.655,-122.3035,60.0,6.9
2026-01-20T23:06:55+00:00,SAT-56497,318.0753849753305,45.401209955346665,2098.4038876111504,-0.9347991279641341,32740.619657694686,10.5,10500032740.619658,47.655,-122.3035,60.0,6.916666666666667
2026-01-20T23:06:56+00:00,SAT-56497,318.34229872154503,45.3381814262579,2097.4715812808604,-0.9131576138277099,31982.642289123076,10.5,10500031982.642288,47.655,-122.3035,60.0,6.933333333333334
2026-01-20T23:06:57+00:00,SAT-56497,318.60874168392724,45.27428634875182,2096.5608587540028,-0.8914863796517865,31223.623999052565,10.5,10500031223.623999,47.655,-122.3035,60.0,6.95
2026-01-20T23:06:58+00:00,SAT-56497,318.8747016306915,45.209527608974945,2095.6717496713636,-0.8697860759754552,30463.587572113902,10.5,10500030463.587572,47.655,-122.3035,60.0,6.966666666666667
2026-01-20T23:06:59+00:00,SAT-56497,319.14016646544883,45.14390819173034,2094.804283024924,-0.848057349412826,29702.555655468397,10.5,10500029702.555655,47.655,-122.3035,60.0,6.983333333333333
2026-01-20T23:07:00+00:00,SAT-56497,319.40512422710134,45.077431180236815,2093.9584871617762,-0.8263008514955429,28940.551068510205,10.5,10500028940.55107,47.655,-122.3035,60.0,7.0
2026-01-20T23:07:01+00:00,SAT-56497,319.66956309260723,45.0100997551373,2093.134389779218,-0.8045172373013543,28177.596754833037,10.5,10500028177.596754,47.655,-122.3035,60.0,7.016666666666667
2026-01-20T23:07:02+00:00,SAT-56497,319.9334713789816,44.941917193668154,2092.3320179212164,-0.782707171468892,27413.715992893212,10.5,10500027413.715992,47.655,-122.3035,60.0,7.033333333333333
2026-01-20T23:07:03+00:00,SAT-56497,320.1968375479469,44.87288686805577,2091.5513979688712,-0.7608713148353046,26648.931928003,10.5,10500026648.931929,47.655,-122.3035,60.0,7.05
2026-01-20T23:07:04+00:00,SAT-56497,320.459650205013,44.80301224533162,2090.7925556442087,-0.739010338132271,25883.268052022995,10.5,10500025883.268051,47.655,-122.3035,60.0,7.066666666666666
2026-01-20T23:07:05+00:00,SAT-56497,320.721898104167,44.732296885610936,2090.0555160003114,-0.7171249128677759,25116.747884003296,10.5,10500025116.747885,47.655,-122.3035,60.0,7.083333333333333
2026-01-20T23:07:06+00:00,SAT-56497,320.98357014858993,44.66074444137579,2089.340303420545,-0.6952157161836744,24349.395140315974,10.5,10500024349.39514,47.655,-122.3035,60.0,7.1
2026-01-20T23:07:07+00:00,SAT-56497,321.2446553935763,44.588358656112774,2088.6469416129376,-0.673283428310781,23581.23364552153,10.5,10500023581.233646,47.655,-122.3035,60.0,7.116666666666666
2026-01-20T23:07:08+00:00,SAT-56497,321.50514304817466,44.51514336323605,2087.9754536071023,-0.6513287303723445,22812.287255437284,10.5,10500022812.287256,47.655,-122.3035,60.0,7.133333333333334
2026-01-20T23:07:09+00:00,SAT-56497,321.7650224756767,44.44110248530561,2087.3258617533443,-0.6293523107571232,22042.58008034943,10.5,10500022042.58008,47.655,-122.3035,60.0,7.15
2026-01-20T23:07:10+00:00,SAT-56497,322.0242831971055,44.36624003233661,2086.6981877154158,-0.6073548610792923,21272.136343511916,10.5,10500021272.136343,47.655,-122.3035,60.0,7.166666666666667
2026-01-20T23:07:11+00:00,SAT-56497,322.2829148930771,44.29056010049869,2086.0924524672996,-0.5853370713518808,20500.98021209976,10.5,10500020500.980211,47.655,-122.3035,60.0,7.183333333333334
2026-01-20T23:07:12+00:00,SAT-56497,322.5409074023917,44.21406687174959,2085.5086762948044,-0.5632996398757112,19729.13614356158,10.5,10500019729.136143,47.655,-122.3035,60.0,7.2
2026-01-20T23:07:13+00:00,SAT-56497,322.7982507263999,44.1367646117184,2084.946878787302,-0.5412432691675433,18956.628743005953,10.5,10500018956.628742,47.655,-122.3035,60.0,7.216666666666667
2026-01-20T23:07:14+00:00,SAT-56497,323.0549350314333,44.05865766806347,2084.407078833519,-0.5191686563196531,18183.482425553073,10.5,10500018183.482426,47.655,-122.3035,60.0,7.233333333333333
2026-01-20T23:07:15+00:00,SAT-56497,323.31095064425944,43.979750470958095,2083.8892946269493,-0.4970765119172975,17409.722078904415,10.5,10500017409.722078,47.655,-122.3035,60.0,7.25
2026-01-20T23:07:16+00:00,SAT-56497,323.56628806057176,43.90004752950332,2083.393543652397,-0.47496754081199805,16635.372389941775,10.5,10500016635.37239,47.655,-122.3035,60.0,7.266666666666667
2026-01-20T23:07:17+00:00,SAT-56497,323.8209379402951,43.81955343217307,2082.9198426916937,-0.4528424544827159,15860.458277667934,10.5,10500015860.458277,47.655,-122.3035,60.0,7.283333333333333
2026-01-20T23:07:18+00:00,SAT-56497,324.0748911109647,43.738272844712704,2082.46820781709,-0.43070196740157235,15085.004765918793,10.5,10500015085.004766,47.655,-122.3035,60.0,7.3
2026-01-20T23:07:19+00:00,SAT-56497,324.3281385695121,43.65621050846318,2082.038654388268,-0.40854679453671194,14309.036895903084,10.5,10500014309.036896,47.655,-122.3035,60.0,7.316666666666666
2026-01-20T23:07:20+00:00,SAT-56497,324.5806714812617,43.57337123954161,2081.63119705185,-0.3863776531191271,13532.579788084044,10.5,10500013532.579788,47.655,-122.3035,60.0,7.333333333333333
2026-01-20T23:07:21+00:00,SAT-56497,324.8324811806607,43.4897599274347,2081.245849739139,-0.3641952649057616,12755.658721442875,10.5,10500012755.658722,47.655,-122.3035,60.0,7.35
2026-01-20T23:07:22+00:00,SAT-56497,325.08355917360495,43.405381533013504,2080.8826256616067,-0.342000351662453,11978.298975272275,10.5,10500011978.298975,47.655,-122.3035,60.0,7.366666666666666
2026-01-20T23:07:23+00:00,SAT-56497,325.333897137121,43.320241087355,2080.5415373108817,-0.319793636741447,11200.525884427665,10.5,10500011200.525885,47.655,-122.3035,60.0,7.383333333333334
2026-01-20T23:07:24+00:00,SAT-56497,325.58348691758925,43.234343691071544,2080.2225964571717,-0.29757584744868476,10422.364922239607,10.5,10500010422.364922,47.655,-122.3035,60.0,7.4
2026-01-20T23:07:25+00:00,SAT-56497,325.8323205354821,43.14769451133409,2079.925814145316,-0.27534771103598243,9643.84156014297,10.5,10500009643.84156,47.655,-122.3035,60.0,7.416666666666667
2026-01-20T23:07:26+00:00,SAT-56497,326.0803901814632,43.06029878184822,2079.651200694843,-0.2531099568073472,8864.981341449042,10.5,10500008864.981342,47.655,-122.3035,60.0,7.433333333333334
2026-01-20T23:07:27+00:00,SAT-56497,326.3276882187909,42.97216180059896,2079.3987656979207,-0.2308633166632811,8085.809900409341,10.5,10500008085.8099,47.655,-122.3035,60.0,7.45
2026-01-20T23:07:28+00:00,SAT-56497,326.57420718399976,42.883288928150016,2079.1685180167683,-0.20860852190128362,7306.352850155683,10.5,10500007306.35285,47.655,-122.3035,60.0,7.466666666666667
2026-01-20T23:07:29+00:00,SAT-56497,326.81993978461674,42.79368558696165,2078.9604657842588,-0.1863463068905343,6526.635911403115,10.5,10500006526.635912,47.655,-122.3035,60.0,7.483333333333333
2026-01-20T23:07:30+00:00,SAT-56497,327.0648789007764,42.70335725930026,2078.774616400853,-0.16407740606119922,5746.684807002689,10.5,10500005746.684807,47.655,-122.3035,60.0,7.5
2026-01-20T23:07:31+00:00,SAT-56497,327.30901758490796,42.61230948577479,2078.6109765345414,-0.1418025555975649,4966.525321242177,10.5,10500004966.525322,47.655,-122.3035,60.0,7.516666666666667
2026-01-20T23:07:32+00:00,SAT-56497,327.55234906064203,42.52054786415371,2078.4695521190924,-0.11952249190118189,4186.183246018851,10.5,10500004186.183247,47.655,-122.3035,60.0,7.533333333333333
2026-01-20T23:07:33+00:00,SAT-56497,327.7948667236288,42.428078047425586,2078.350348353836,-0.097237952933073,3405.6844278493036,10.5,10500003405.684427,47.655,-122.3035,60.0,7.55
2026-01-20T23:07:34+00:00,SAT-56497,328.0365641411251,42.33490574228845,2078.253369702111,-0.0749496766913611,2625.054714549529,10.5,10500002625.054714,47.655,-122.3035,60.0,7.566666666666666
2026-01-20T23:07:35+00:00,SAT-56497,328.2774350507681,42.24103670792095,2078.178619891224,-0.052658402352984905,1844.3199952226335,10.5,10500001844.319996,47.655,-122.3035,60.0,7.583333333333333
2026-01-20T23:07:36+00:00,SAT-56497,328.517473360057,42.14647675446235,2078.126101911277,-0.030364869247094858,1063.506164302826,10.5,10500001063.506165,47.655,-122.3035,60.0,7.6
2026-01-20T23:07:37+00:00,SAT-56497,328.7566731466372,42.05123174114927,2078.095818015015,-0.008069816773483979,282.6391186985157,10.5,10500000282.639118,47.655,-122.3035,60.0,7.616666666666666
2026-01-20T23:07:38+00:00,SAT-56497,328.9950286576506,41.95530757476897,2078.087769717753,0.014226015427158543,-498.2552362446847,10.5,10499999501.744764,47.655,-122.3035,60.0,7.633333333333334
2026-01-20T23:07:39+00:00,SAT-56497,329.2325343082276,41.858710208443725,2078.1019577971388,0.0365218863513522,-1279.1509474504462,10.5,10499998720.849052,47.655,-122.3035,60.0,7.65
2026-01-20T23:07:40+00:00,SAT-56497,329.4691846805062,41.76144564020382,2078.1383822917933,0.05881705733215689,-2060.0221436779684,10.5,10499997939.977856,47.655,-122.3035,60.0,7.666666666666667
2026-01-20T23:07:41+00:00,SAT-56497,329.7049745246835,41.66351991066941,2078.1970425036393,0.08111078750991829,-2840.842876888324,10.5,10499997159.157124,47.655,-122.3035,60.0,7.683333333333334
2026-01-20T23:07:42+00:00,SAT-56497,329.939898756052,41.564939102376435,2078.2779369957157,0.10340233827614158,-3621.5872778877133,10.5,10499996378.412722,47.655,-122.3035,60.0,7.7
2026-01-20T23:07:43+00:00,SAT-56497,330.1739524553323,41.46570933771254,2078.3810635944233,0.12569096863014145,-4402.229393697708,10.5,10499995597.770607,47.655,-122.3035,60.0,7.716666666666667
2026-01-20T23:07:44+00:00,SAT-56497,330.4071308662175,41.365836778017744,2078.506419387137,0.14797594280538803,-5182.743454662139,10.5,10499994817.256546,47.655,-122.3035,60.0,7.733333333333333
2026-01-20T23:07:45+00:00,SAT-56497,330.6394293973967,41.265327620731725,2078.654000727428,0.17025652030230068,-5963.103525353387,10.5,10499994036.896475,47.655,-122.3035,60.0,7.75
2026-01-20T23:07:46+00:00,SAT-56497,330.87084361759247,41.1641880995373,2078.823803230343,0.1925319640472083,-6743.283790333669,10.5,10499993256.71621,47.655,-122.3035,60.0,7.766666666666667
2026-01-20T23:07:47+00:00,SAT-56497,331.1013692564524,41.06242448197016,2079.0158217758194,0.21480153818337192,-7523.258476787316,10.5,10499992476.741524,47.655,-122.3035,60.0,7.783333333333333
2026-01-20T23:07:48+00:00,SAT-56497,331.33100220392566,40.960043067653174,2079.230050509901,0.23706450806158294,-8303.001854191478,10.5,10499991696.998146,47.655,-122.3035,60.0,7.8
2026-01-20T23:07:49+00:00,SAT-56497,331.55973850824273,40.85705018711217,2079.4664828459413,0.2593201368358525,-9082.488115082771,10.5,10499990917.511885,47.655,-122.3035,60.0,7.816666666666666
2026-01-20T23:07:50+00:00,SAT-56497,331.7875743736048,40.75345220075999,2079.725111462412,0.28156769270656024,-9861.691628742985,10.5,10499990138.30837,47.655,-122.3035,60.0,7.833333333333333
2026-01-20T23:07:51+00:00,SAT-56497,332.0145061604766,40.64925549666597,2080.005928307938,0.30380644431090054,-10640.586779752997,10.5,10499989359.41322,47.655,-122.3035,60.0,7.85
2026-01-20T23:07:52+00:00,SAT-56497,332.2405303839753,40.54446648917284,2080.3089246017307,0.326035660932015,-11419.147975317504,10.5,10499988580.852024,47.655,-122.3035,60.0,7.866666666666666
2026-01-20T23:07:53+00:00,SAT-56497,332.4656437118887,40.43909161768618,2080.6340908342336,0.3482546113059469,-12197.349603479493,10.5,10499987802.650396,47.655,-122.3035,60.0,7.883333333333334
2026-01-20T23:07:54+00:00,SAT-56497,332.68984296243275,40.33313734558568,2080.981416766576,0.37046256989053167,-12975.166252683322,10.5,10499987024.833748,47.655,-122.3035,60.0,7.9
2026-01-20T23:07:55+00:00,SAT-56497,332.91312510454406,40.226610157937834,2081.35089143628,0.3926588128972168,-13752.572572792264,10.5,10499986247.427427,47.655,-122.3035,60.0,7.916666666666667
2026-01-20T23:07:56+00:00,SAT-56497,333.1354872563189,40.11951656005194,2081.7425031590096,0.4148426146133302,-14529.543146278775,10.5,10499985470.456854,47.655,-122.3035,60.0,7.933333333333334
2026-01-20T23:07:57+00:00,SAT-56497,333.3569266817387,40.01186307686831,2082.156239526651,0.43701325227387405,-15306.05265885534,10.5,10499984693.947342,47.655,-122.3035,60.0,7.95
