satellites_20260120_184412/SAT-57944.csv

timestamp,satellite,azimuth_deg,elevation_deg,distance_km,relative_velocity_kms,doppler_shift_hz,tx_freq_ghz,rx_freq_hz,ue_lat,ue_lon,ue_alt_m,time_minutes
2026-01-20T23:06:11+00:00,SAT-57944,213.70845612043016,40.17388191453858,1215.1357943686419,-5.406163315478858,189346.70735622046,10.5,10500189346.707355,47.655,-122.3035,60.0,6.183333333333334
2026-01-20T23:06:12+00:00,SAT-57944,213.76764673468102,40.4035900084654,1209.744047488671,-5.389772158070643,188772.61968925767,10.5,10500188772.61969,47.655,-122.3035,60.0,6.2
2026-01-20T23:06:13+00:00,SAT-57944,213.82809423886388,40.63505920901068,1204.3686480563554,-5.373154300529711,188190.5920247065,10.5,10500188190.592024,47.655,-122.3035,60.0,6.216666666666667
2026-01-20T23:06:14+00:00,SAT-57944,213.88982847873766,40.868305922432725,1199.0098221672936,-5.356306436076368,187600.50854515447,10.5,10500187600.508545,47.655,-122.3035,60.0,6.233333333333333
2026-01-20T23:06:15+00:00,SAT-57944,213.95288024241555,41.10334659175783,1193.6677992150467,-5.339225151230178,187002.2496960776,10.5,10500187002.249697,47.655,-122.3035,60.0,6.25
2026-01-20T23:06:16+00:00,SAT-57944,214.01728129660734,41.34019768671589,1188.342811997553,-5.321907044476991,186395.6963420621,10.5,10500186395.696342,47.655,-122.3035,60.0,6.266666666666667
2026-01-20T23:06:17+00:00,SAT-57944,214.0830644260064,41.578875698391926,1183.0350967051947,-5.304348625532681,185780.72623859387,10.5,10500185780.726238,47.655,-122.3035,60.0,6.283333333333333
2026-01-20T23:06:18+00:00,SAT-57944,214.15026347328944,41.81939712899972,1177.74489300933,-5.286546415661897,185157.21754564592,10.5,10500185157.217546,47.655,-122.3035,60.0,6.3
2026-01-20T23:06:19+00:00,SAT-57944,214.21891338229966,42.06177848564576,1172.4724440507769,-5.268496835196594,184525.04488810137,10.5,10500184525.044888,47.655,-122.3035,60.0,6.316666666666666
2026-01-20T23:06:20+00:00,SAT-57944,214.28905024181935,42.30603626851863,1167.217996540474,-5.2501962970108575,183884.0826296371,10.5,10500183884.08263,47.655,-122.3035,60.0,6.333333333333333
2026-01-20T23:06:21+00:00,SAT-57944,214.3607113326945,42.55218696276509,1161.9818007669219,-5.231641155055007,183234.20307017054,10.5,10500183234.20307,47.655,-122.3035,60.0,6.35
2026-01-20T23:06:22+00:00,SAT-57944,214.43393517655278,42.800247027462724,1156.764110654947,-5.2128277511997405,182575.2780865397,10.5,10500182575.278086,47.655,-122.3035,60.0,6.366666666666666
2026-01-20T23:06:23+00:00,SAT-57944,214.50876158757242,43.050232886207034,1151.5651837777505,-5.193752351082793,181907.17688558172,10.5,10500181907.176886,47.655,-122.3035,60.0,6.383333333333334
2026-01-20T23:06:24+00:00,SAT-57944,214.58523172586752,43.302160914052656,1146.385281432937,-5.174411186392564,181229.76748508436,10.5,10500181229.767485,47.655,-122.3035,60.0,6.4
2026-01-20T23:06:25+00:00,SAT-57944,214.6633881541152,43.55604742577575,1141.224668676375,-5.154800458404692,180542.91683765195,10.5,10500180542.916838,47.655,-122.3035,60.0,6.416666666666667
2026-01-20T23:06:26+00:00,SAT-57944,214.7432748971072,43.81190866365292,1136.0836143525262,-5.134916313195543,179846.4899625767,10.5,10500179846.489962,47.655,-122.3035,60.0,6.433333333333334
2026-01-20T23:06:27+00:00,SAT-57944,214.82493750386598,44.069760783306556,1130.962391149499,-5.114754893318501,179140.3517557612,10.5,10500179140.351755,47.655,-122.3035,60.0,6.45
2026-01-20T23:06:28+00:00,SAT-57944,214.9084231138036,44.329619841386055,1125.8612756025627,-5.0943122479718115,178424.363843416,10.5,10500178424.363844,47.655,-122.3035,60.0,6.466666666666667
2026-01-20T23:06:29+00:00,SAT-57944,214.99378052470465,44.591501777946576,1120.7805481872522,-5.073584424450813,177698.3877851041,10.5,10500177698.387785,47.655,-122.3035,60.0,6.483333333333333
2026-01-20T23:06:30+00:00,SAT-57944,215.08106026577747,44.85542240257975,1115.7204933212665,-5.052567421838706,176962.28345179523,10.5,10500176962.283451,47.655,-122.3035,60.0,6.5
2026-01-20T23:06:31+00:00,SAT-57944,215.17031467368906,45.12139737735749,1110.6813994125528,-5.031257202998121,176215.9094458616,10.5,10500176215.909447,47.655,-122.3035,60.0,6.516666666666667
2026-01-20T23:06:32+00:00,SAT-57944,215.26159797277901,45.389442199459396,1105.6635588954293,-5.009649694172672,175459.1230871227,10.5,10500175459.123087,47.655,-122.3035,60.0,6.533333333333333
2026-01-20T23:06:33+00:00,SAT-57944,215.3549663594607,45.65957218281883,1100.6672682671076,-4.987740786995328,174691.7804831866,10.5,10500174691.780483,47.655,-122.3035,60.0,6.55
2026-01-20T23:06:34+00:00,SAT-57944,215.45047809115965,45.931802438862,1095.6928281222113,-4.965526333962057,173913.7363709183,10.5,10500173913.73637,47.655,-122.3035,60.0,6.566666666666666
2026-01-20T23:06:35+00:00,SAT-57944,215.5481935798639,46.206147855933466,1090.7405431918062,-4.943002172511935,173124.8449598266,10.5,10500173124.84496,47.655,-122.3035,60.0,6.583333333333333
2026-01-20T23:06:36+00:00,SAT-57944,215.64817549123256,46.482623078936186,1085.810722358421,-4.920164081790848,172324.95841774612,10.5,10500172324.958418,47.655,-122.3035,60.0,6.6
2026-01-20T23:06:37+00:00,SAT-57944,215.75048884813853,46.761242485402065,1080.9036787141815,-4.8970078243330075,171513.92833070064,10.5,10500171513.928331,47.655,-122.3035,60.0,6.616666666666666
2026-01-20T23:06:38+00:00,SAT-57944,215.85520114073987,47.042020162621576,1076.0197295773803,-4.8735291537698915,170691.6059729023,10.5,10500170691.605972,47.655,-122.3035,60.0,6.633333333333334
2026-01-20T23:06:39+00:00,SAT-57944,215.96238244280732,47.3249698839723,1071.1591965013538,-4.849723734624131,169857.83949759463,10.5,10500169857.839499,47.655,-122.3035,60.0,6.65
2026-01-20T23:06:40+00:00,SAT-57944,216.07210553263832,47.610105079227935,1066.322405363355,-4.825587292325325,169012.47919124074,10.5,10500169012.47919,47.655,-122.3035,60.0,6.666666666666667
2026-01-20T23:06:41+00:00,SAT-57944,216.1844460242006,47.89743881212966,1061.5096863038093,-4.801115441560457,168155.37146162897,10.5,10500168155.371462,47.655,-122.3035,60.0,6.683333333333334
2026-01-20T23:06:42+00:00,SAT-57944,216.29948250159555,48.186983746420516,1056.7213738367598,-4.77630386178747,167286.36498510058,10.5,10500167286.364985,47.655,-122.3035,60.0,6.7
2026-01-20T23:06:43+00:00,SAT-57944,216.41729666539095,48.47875212066509,1051.9578067852703,-4.751148129967687,166405.30484813167,10.5,10500166405.304848,47.655,-122.3035,60.0,6.716666666666667
2026-01-20T23:06:44+00:00,SAT-57944,216.53797348314626,48.772755711380924,1047.2193283836493,-4.725643845998898,165512.0369405305,10.5,10500165512.03694,47.655,-122.3035,60.0,6.733333333333333
2026-01-20T23:06:45+00:00,SAT-57944,216.66160135173726,49.069005801910535,1042.506286254573,-4.699786618892924,164606.40747131704,10.5,10500164606.40747,47.655,-122.3035,60.0,6.75
2026-01-20T23:06:46+00:00,SAT-57944,216.7882722688618,49.36751314873877,1037.819032399997,-4.673571978850804,163688.25988922457,10.5,10500163688.25989,47.655,-122.3035,60.0,6.766666666666667
2026-01-20T23:06:47+00:00,SAT-57944,216.91808201205262,49.668287940264,1033.1579232797567,-4.646995498803552,162757.43913957063,10.5,10500162757.43914,47.655,-122.3035,60.0,6.783333333333333
2026-01-20T23:06:48+00:00,SAT-57944,217.0511303316579,49.97133976113511,1028.52331976895,-4.620052734439807,161813.78956377206,10.5,10500161813.789564,47.655,-122.3035,60.0,6.8
2026-01-20T23:06:49+00:00,SAT-57944,217.1875211535939,50.27667755067348,1023.9155871751352,-4.592739209063941,160857.15436901146,10.5,10500160857.15437,47.655,-122.3035,60.0,6.816666666666666
2026-01-20T23:06:50+00:00,SAT-57944,217.32736279370226,50.58430955790813,1019.3350952706288,-4.565050490392759,159887.37831798277,10.5,10500159887.378319,47.655,-122.3035,60.0,6.833333333333333
2026-01-20T23:06:51+00:00,SAT-57944,217.47076818741132,50.894243299258925,1014.7822182482105,-4.536982092653442,158904.3042999472,10.5,10500158904.3043,47.655,-122.3035,60.0,6.85
2026-01-20T23:06:52+00:00,SAT-57944,217.61785513023634,51.20648550710132,1010.2573347744708,-4.508529576622168,157907.77683450852,10.5,10500157907.776834,47.655,-122.3035,60.0,6.866666666666666
2026-01-20T23:06:53+00:00,SAT-57944,217.76874653621164,51.52104208231025,1005.7608279433863,-4.479688498822075,156897.6402923111,10.5,10500156897.640293,47.655,-122.3035,60.0,6.883333333333334
2026-01-20T23:06:54+00:00,SAT-57944,217.9235707106364,51.83791804052398,1001.2930852805611,-4.45045440048981,155873.73850860185,10.5,10500155873.738508,47.655,-122.3035,60.0,6.9
2026-01-20T23:06:55+00:00,SAT-57944,218.08246163925412,52.15711745446569,996.8544987584725,-4.420822883238661,154835.91743327293,10.5,10500154835.917433,47.655,-122.3035,60.0,6.916666666666667
2026-01-20T23:06:56+00:00,SAT-57944,218.24555929832772,52.47864339839237,992.4454647362559,-4.390789536856909,153784.02260205473,10.5,10500153784.022602,47.655,-122.3035,60.0,6.933333333333334
2026-01-20T23:06:57+00:00,SAT-57944,218.41300998159733,52.80249788399089,988.0663839714972,-4.360349989371164,152717.90088994577,10.5,10500152717.90089,47.655,-122.3035,60.0,6.95
2026-01-20T23:06:58+00:00,SAT-57944,218.58496664991554,53.12868179619173,983.7176615820977,-4.329499869637197,151637.39920098515,10.5,10500151637.3992,47.655,-122.3035,60.0,6.966666666666667
2026-01-20T23:06:59+00:00,SAT-57944,218.76158930171334,53.45719482231665,979.3997070454461,-4.298234868223144,150542.36660064015,10.5,10500150542.3666,47.655,-122.3035,60.0,6.983333333333333
2026-01-20T23:07:00+00:00,SAT-57944,218.9430453699023,53.78803538162974,975.1129341368716,-4.266550711806152,149432.65341906835,10.5,10500149432.65342,47.655,-122.3035,60.0,7.0
2026-01-20T23:07:01+00:00,SAT-57944,219.1295101435138,54.121200548657555,970.8577608936304,-4.234443131387687,148308.1101378832,10.5,10500148308.110138,47.655,-122.3035,60.0,7.016666666666667
2026-01-20T23:07:02+00:00,SAT-57944,219.3211672154426,54.45668596926821,966.634609610593,-4.201907958763551,147168.59076894217,10.5,10500147168.590769,47.655,-122.3035,60.0,7.033333333333333
2026-01-20T23:07:03+00:00,SAT-57944,219.51820896409976,54.79448577930765,962.4439067397194,-4.168941022947931,146013.94922667893,10.5,10500146013.949226,47.655,-122.3035,60.0,7.05
2026-01-20T23:07:04+00:00,SAT-57944,219.72083706216736,55.134592509746064,958.2860828928327,-4.135538245897991,144844.0426807832,10.5,10500144844.04268,47.655,-122.3035,60.0,7.066666666666666
2026-01-20T23:07:05+00:00,SAT-57944,219.9292630239119,55.47699699372382,954.1615727489238,-4.101695611342978,143658.73046446443,10.5,10500143658.730465,47.655,-122.3035,60.0,7.083333333333333
2026-01-20T23:07:06+00:00,SAT-57944,220.14370878785442,55.821688265107404,950.0708149925443,-4.067409139873315,142457.87320196631,10.5,10500142457.873201,47.655,-122.3035,60.0,7.1
2026-01-20T23:07:07+00:00,SAT-57944,220.36440733744908,56.16865344837009,946.0142522770441,-4.032674954300212,141241.33509773694,10.5,10500141241.335098,47.655,-122.3035,60.0,7.116666666666666
2026-01-20T23:07:08+00:00,SAT-57944,220.59160336751717,56.51787764693927,941.992331122622,-3.9974892744181987,140008.9837529905,10.5,10500140008.983753,47.655,-122.3035,60.0,7.133333333333334
2026-01-20T23:07:09+00:00,SAT-57944,220.82555399626273,56.869343823793045,938.0055018196022,-3.961848341776028,138760.6875308661,10.5,10500138760.68753,47.655,-122.3035,60.0,7.15
2026-01-20T23:07:10+00:00,SAT-57944,221.06652952166553,57.223032667359035,934.0542184067376,-3.9257485596739405,137496.32045972408,10.5,10500137496.32046,47.655,-122.3035,60.0,7.166666666666667
2026-01-20T23:07:11+00:00,SAT-57944,221.31481423879586,57.57892246103559,930.1389385098895,-3.8891863968772316,136215.75886078805,10.5,10500136215.758862,47.655,-122.3035,60.0,7.183333333333334
2026-01-20T23:07:12+00:00,SAT-57944,221.57070730807823,57.93698893501828,926.2601232767373,-3.8521584360891175,134918.88304586947,10.5,10500134918.883045,47.655,-122.3035,60.0,7.2
2026-01-20T23:07:13+00:00,SAT-57944,221.8345236873075,58.29720511238746,922.4182372631443,-3.8146613772724556,133605.57743370841,10.5,10500133605.577435,47.655,-122.3035,60.0,7.216666666666667
2026-01-20T23:07:14+00:00,SAT-57944,222.10659512934785,58.65954114476513,918.6137483162113,-3.7766920249296354,132275.73010446172,10.5,10500132275.730104,47.655,-122.3035,60.0,7.233333333333333
2026-01-20T23:07:15+00:00,SAT-57944,222.3872712491564,59.02396413509642,914.8471274700148,-3.7382473513120384,130929.23501356531,10.5,10500130929.235014,47.655,-122.3035,60.0,7.25
2026-01-20T23:07:16+00:00,SAT-57944,222.676920670998,59.39043795394236,911.1188487783063,-3.699324410415527,129565.98897949273,10.5,10500129565.98898,47.655,-122.3035,60.0,7.266666666666667
2026-01-20T23:07:17+00:00,SAT-57944,222.9759322502167,59.75892303386102,907.4293892329852,-3.6599204446419256,128185.89541949124,10.5,10500128185.89542,47.655,-122.3035,60.0,7.283333333333333
2026-01-20T23:07:18+00:00,SAT-57944,223.2847163901227,60.129376159433825,903.7792285761957,-3.6200328264935067,126788.86230747613,10.5,10500126788.862307,47.655,-122.3035,60.0,7.3
2026-01-20T23:07:19+00:00,SAT-57944,223.60370644770168,60.501750235687446,900.1688491705728,-3.5796590974961457,125374.80353728423,10.5,10500125374.803537,47.655,-122.3035,60.0,7.316666666666666
2026-01-20T23:07:20+00:00,SAT-57944,223.93336024234696,60.875994043098686,896.59873583067,-3.538796973442118,123943.63910629881,10.5,10500123943.639107,47.655,-122.3035,60.0,7.333333333333333
2026-01-20T23:07:21+00:00,SAT-57944,224.27416167216234,61.25205197445624,893.0693756491571,-3.4974443187955155,122495.29421901907,10.5,10500122495.29422,47.655,-122.3035,60.0,7.35
2026-01-20T23:07:22+00:00,SAT-57944,224.62662244183852,61.629863748574756,889.581257848545,-3.4555992197456593,121029.7018456996,10.5,10500121029.701845,47.655,-122.3035,60.0,7.366666666666666
2026-01-20T23:07:23+00:00,SAT-57944,224.99128391952954,62.00936410964222,886.134873560052,-3.4132599192275217,119546.8004464908,10.5,10500119546.800446,47.655,-122.3035,60.0,7.383333333333334
2026-01-20T23:07:24+00:00,SAT-57944,225.36871911680703,62.390482495479276,882.7307156672757,-3.370424889597657,118046.53651685726,10.5,10500118046.536516,47.655,-122.3035,60.0,7.4
2026-01-20T23:07:25+00:00,SAT-57944,225.7595348138834,62.77314268747982,879.3692785773837,-3.3270928094367687,116528.86377510561,10.5,10500116528.863775,47.655,-122.3035,60.0,7.416666666666667
2026-01-20T23:07:26+00:00,SAT-57944,226.16437382830281,63.157262429528544,876.0510580154387,-3.2832625604546473,114993.74305398235,10.5,10500114993.743053,47.655,-122.3035,60.0,7.433333333333334
2026-01-20T23:07:27+00:00,SAT-57944,226.58391743676594,63.54275301535358,872.776550821812,-3.238933276626131,113441.14402162305,10.5,10500113441.144022,47.655,-122.3035,60.0,7.45
2026-01-20T23:07:28+00:00,SAT-57944,227.01888796440383,63.92951884764792,869.5462547005901,-3.1941042962514956,111871.04350250434,10.5,10500111871.043503,47.655,-122.3035,60.0,7.466666666666667
2026-01-20T23:07:29+00:00,SAT-57944,227.4700515364845,64.3174569545949,866.3606680157953,-3.148775240527866,110283.42822934724,10.5,10500110283.42823,47.655,-122.3035,60.0,7.483333333333333
2026-01-20T23:07:30+00:00,SAT-57944,227.93822101561065,64.70645647546559,863.2202895092422,-3.102945955350049,108678.29280473597,10.5,10500108678.292805,47.655,-122.3035,60.0,7.5
2026-01-20T23:07:31+00:00,SAT-57944,228.4242591110229,65.0963980953555,860.1256180764398,-3.0566165649434724,107055.64157957055,10.5,10500107055.641579,47.655,-122.3035,60.0,7.516666666666667
2026-01-20T23:07:32+00:00,SAT-57944,228.92908167881203,65.48715343860894,857.0771524890027,-3.009787454877195,105415.48805811034,10.5,10500105415.488058,47.655,-122.3035,60.0,7.533333333333333
2026-01-20T23:07:33+00:00,SAT-57944,229.45366120390588,65.87858440813528,854.0753911340053,-2.9624592901893108,103757.8555328025,10.5,10500103757.855534,47.655,-122.3035,60.0,7.55
2026-01-20T23:07:34+00:00,SAT-57944,229.99903046647526,66.27054247036999,851.1208317352565,-2.914633049445929,102082.77827717151,10.5,10500102082.778276,47.655,-122.3035,60.0,7.566666666666666
2026-01-20T23:07:35+00:00,SAT-57944,230.56628639016748,66.66286788340453,848.2139710406091,-2.866309974360844,100390.29978128689,10.5,10500100390.299782,47.655,-122.3035,60.0,7.583333333333333
2026-01-20T23:07:36+00:00,SAT-57944,231.15659404372394,67.05538885182052,845.3553045595132,-2.8174916120709037,98680.47423242545,10.5,10500098680.474232,47.655,-122.3035,60.0,7.6
2026-01-20T23:07:37+00:00,SAT-57944,231.77119079311342,67.4479206149532,842.5453262584078,-2.7681798578441343,96953.36801089042,10.5,10500096953.368011,47.655,-122.3035,60.0,7.616666666666666
2026-01-20T23:07:38+00:00,SAT-57944,232.41139057838586,67.84026446357748,839.784528213518,-2.71837688392427,95209.05719784596,10.5,10500095209.057198,47.655,-122.3035,60.0,7.633333333333334
2026-01-20T23:07:39+00:00,SAT-57944,233.07858824964333,68.23220666320142,837.0734003346174,-2.6680852177429784,93447.63031464012,10.5,10500093447.630314,47.655,-122.3035,60.0,7.65
2026-01-20T23:07:40+00:00,SAT-57944,233.77426394040742,68.62351729898619,834.4124300107885,-2.617307707525964,91669.18711818501,10.5,10500091669.187119,47.655,-122.3035,60.0,7.666666666666667
2026-01-20T23:07:41+00:00,SAT-57944,234.49998738099094,69.01394902083099,831.8021017904825,-2.566047553281158,89873.83968629444,10.5,10500089873.839685,47.655,-122.3035,60.0,7.683333333333334
2026-01-20T23:07:42+00:00,SAT-57944,235.25742207278756,69.40323569254736,829.2428970306769,-2.5143082939305947,88061.71196698766,10.5,10500088061.711967,47.655,-122.3035,60.0,7.7
2026-01-20T23:07:43+00:00,SAT-57944,236.04832919072396,69.79109093398868,826.7352935588633,-2.462093813280977,86232.93998760388,10.5,10500086232.939987,47.655,-122.3035,60.0,7.716666666666667
2026-01-20T23:07:44+00:00,SAT-57944,236.87457106310532,70.1772065549669,824.2797653290845,-2.4094083801201838,84387.6732591516,10.5,10500084387.67326,47.655,-122.3035,60.0,7.733333333333333
2026-01-20T23:07:45+00:00,SAT-57944,237.73811404746132,70.56125088427278,821.8767820379779,-2.3562566039700035,82526.0732265821,10.5,10500082526.073227,47.655,-122.3035,60.0,7.75
2026-01-20T23:07:46+00:00,SAT-57944,238.6410305322824,70.9428669803515,819.5268087849519,-2.3026434741325352,80648.3146363596,10.5,10500080648.314636,47.655,-122.3035,60.0,7.766666666666667
2026-01-20T23:07:47+00:00,SAT-57944,239.58549979412302,71.32167073945564,817.230305693417,-2.248574348881366,78754.58515789061,10.5,10500078754.585157,47.655,-122.3035,60.0,7.783333333333333
2026-01-20T23:07:48+00:00,SAT-57944,240.5738073294837,71.69724890012012,814.9877275427993,-2.194054971569474,76845.0859476908,10.5,10500076845.085947,47.655,-122.3035,60.0,7.8
2026-01-20T23:07:49+00:00,SAT-57944,241.60834223267568,72.06915696024389,812.7995233844874,-2.1390914518439,74920.03099144326,10.5,10500074920.03099,47.655,-122.3035,60.0,7.816666666666666
2026-01-20T23:07:50+00:00,SAT-57944,242.6915920786352,72.43691701944124,810.666136176515,-2.0836902973379456,72979.64821399353,10.5,10500072979.648214,47.655,-122.3035,60.0,7.833333333333333
2026-01-20T23:07:51+00:00,SAT-57944,243.82613471472945,72.80001558240036,808.5880023866367,-2.027858385474515,71024.17849178315,10.5,10500071024.178492,47.655,-122.3035,60.0,7.85
2026-01-20T23:07:52+00:00,SAT-57944,245.0146262107489,73.15790135075507,806.5655516235234,-1.9716029937355477,69053.87671301341,10.5,10500069053.876713,47.655,-122.3035,60.0,7.866666666666666
2026-01-20T23:07:53+00:00,SAT-57944,246.25978417156753,73.50998306458186,804.5992062377712,-1.9149317754815642,67069.01093074337,10.5,10500067069.010931,47.655,-122.3035,60.0,7.883333333333334
2026-01-20T23:07:54+00:00,SAT-57944,247.56436545574414,73.85562745083057,802.6893809470242,-1.8578527695307165,65069.86269838891,10.5,10500065069.862698,47.655,-122.3035,60.0,7.9
2026-01-20T23:07:55+00:00,SAT-57944,248.93113730372602,74.19415737031272,800.8364824515456,-1.8003744127969428,63056.72751236423,10.5,10500063056.727512,47.655,-122.3035,60.0,7.916666666666667
2026-01-20T23:07:56+00:00,SAT-57944,250.36284080749988,74.52485027149106,799.0409090371828,-1.7425055165064247,61029.91397908169,10.5,10500061029.913979,47.655,-122.3035,60.0,7.933333333333334
2026-01-20T23:07:57+00:00,SAT-57944,251.86214560863834,74.8469370764959,797.3030502020538,-1.684255273847316,58989.74408287755,10.5,10500058989.744083,47.655,-122.3035,60.0,7.95
2026-01-20T23:07:58+00:00,SAT-57944,253.43159481815263,75.15960166377599,795.6232862756034,-1.6256332556066697,56936.553033198834,10.5,10500056936.553034,47.655,-122.3035,60.0,7.966666666666667
2026-01-20T23:07:59+00:00,SAT-57944,255.07353928451454,75.46198113143942,794.0019880420116,-1.566649414411156,54870.689413131055,10.5,10500054870.689413,47.655,-122.3035,60.0,7.983333333333333
2026-01-20T23:08:00+00:00,SAT-57944,256.79006065354514,75.75316705545085,792.4395163593722,-1.5073140674530503,52792.51457438942,10.5,10500052792.514574,47.655,-122.3035,60.0,8.0
2026-01-20T23:08:01+00:00,SAT-57944,258.58288310860434,76.03220797348047,790.9362217960991,-1.4476378980404319,50702.402691613184,10.5,10500050702.40269,47.655,-122.3035,60.0,8.016666666666667
2026-01-20T23:08:02+00:00,SAT-57944,260.4532744048021,76.29811334710074,789.4924442657867,-1.38763194922703,48600.74053925604,10.5,10500048600.74054,47.655,-122.3035,60.0,8.033333333333333
2026-01-20T23:08:03+00:00,SAT-57944,262.4019377077746,76.5498592512685,788.1085126684243,-1.3273076109374928,46487.92704065849,10.5,10500046487.92704,47.655,-122.3035,60.0,8.05
2026-01-20T23:08:04+00:00,SAT-57944,264.42889690309744,76.78639602268369,786.7847445444493,-1.2666766235198434,44364.37339246992,10.5,10500044364.373392,47.655,-122.3035,60.0,8.066666666666666
2026-01-20T23:08:05+00:00,SAT-57944,266.53337944105203,77.00665805978335,785.5214457252588,-1.2057510574968597,42230.50235545627,10.5,10500042230.502356,47.655,-122.3035,60.0,8.083333333333334
2026-01-20T23:08:06+00:00,SAT-57944,268.7137022140228,77.20957588573557,784.3189100039153,-1.1445433090995867,40086.74809806476,10.5,10500040086.748098,47.655,-122.3035,60.0,8.1
2026-01-20T23:08:07+00:00,SAT-57944,270.9671674932072,77.3940904836957,783.1774188103067,-1.0830660949354751,37933.556009679494,10.5,10500037933.55601,47.655,-122.3035,60.0,8.116666666666667
2026-01-20T23:08:08+00:00,SAT-57944,273.28997718418236,77.55916976496012,782.0972408916243,-1.0213324228760277,35771.38168098375,10.5,10500035771.381681,47.655,-122.3035,60.0,8.133333333333333
2026-01-20T23:08:09+00:00,SAT-57944,275.6771743781838,77.70382685057024,781.0786320218759,-0.9593556074192678,33600.69144201857,10.5,10500033600.691442,47.655,-122.3035,60.0,8.15
2026-01-20T23:08:10+00:00,SAT-57944,278.12262132969875,77.82713966042024,780.1218346960765,-0.8971492343259008,31421.961123591573,10.5,10500031421.961124,47.655,-122.3035,60.0,8.166666666666666
2026-01-20T23:08:11+00:00,SAT-57944,280.61902178019636,77.92827109003085,779.2270778597089,-0.8347271579074543,29235.67596229612,10.5,10500029235.675962,47.655,-122.3035,60.0,8.183333333333334
2026-01-20T23:08:12+00:00,SAT-57944,283.1579935463241,78.00648889239831,778.394576640889,-0.772103483126904,27042.329973599575,10.5,10500027042.329973,47.655,-122.3035,60.0,8.2
2026-01-20T23:08:13+00:00,SAT-57944,285.7301938536685,78.06118425083741,777.6245321003839,-0.709292551456189,24842.4254565136,10.5,10500024842.425457,47.655,-122.3035,60.0,8.216666666666667
2026-01-20T23:08:14+00:00,SAT-57944,288.32549567849355,78.09188798643909,776.9171309957316,-0.6463089311631152,22636.47265340047,10.5,10500022636.472654,47.655,-122.3035,60.0,8.233333333333333
2026-01-20T23:08:15+00:00,SAT-57944,290.933208667019,78.09828339737979,776.2725455550516,-0.5831673921310987,20424.988868053966,10.5,10500020424.988869,47.655,-122.3035,60.0,8.25
2026-01-20T23:08:16+00:00,SAT-57944,293.54233359088903,78.08021488767862,775.6909332759661,-0.5198828958354202,18208.498114625396,10.5,10500018208.498116,47.655,-122.3035,60.0,8.266666666666667
2026-01-20T23:08:17+00:00,SAT-57944,296.1418357798746,78.03769180323526,775.1724367345196,-0.4564705737307984,15987.53036066499,10.5,10500015987.530361,47.655,-122.3035,60.0,8.283333333333333
2026-01-20T23:08:18+00:00,SAT-57944,298.72092073016415,77.97088722150586,774.7171834156521,-0.3929457141140357,13762.621066996207,10.5,10500013762.621067,47.655,-122.3035,60.0,8.3
2026-01-20T23:08:19+00:00,SAT-57944,301.269294930456,77.88013180154707,774.3252855567756,-0.329323744580399,11534.31057326395,10.5,10500011534.310574,47.655,-122.3035,60.0,8.316666666666666
2026-01-20T23:08:20+00:00,SAT-57944,303.7773965684621,77.76590314654138,773.9968400088476,-0.26562020664414093,9303.143209037898,10.5,10500009303.14321,47.655,-122.3035,60.0,8.333333333333334
2026-01-20T23:08:21+00:00,SAT-57944,306.23658403074677,77.62881142332341,773.7319281227544,-0.20185074468942105,7069.666906826992,10.5,10500007069.666906,47.655,-122.3035,60.0,8.35
2026-01-20T23:08:22+00:00,SAT-57944,308.6392746413996,77.46958217595207,773.5306156467175,-0.13803108335592365,4834.432410028135,10.5,10500004834.43241,47.655,-122.3035,60.0,8.366666666666667
2026-01-20T23:08:23+00:00,SAT-57944,310.9790306356129,77.28903737136037,773.3929526462505,-0.07417700917204932,2597.9926296428644,10.5,10500002597.99263,47.655,-122.3035,60.0,8.383333333333333
2026-01-20T23:08:24+00:00,SAT-57944,313.2505938931505,77.08807570357816,773.3189734424363,-0.010304350976764975,360.9019585677243,10.5,10500000360.901958,47.655,-122.3035,60.0,8.4
2026-01-20T23:08:25+00:00,SAT-57944,315.4498745275739,76.86765308904933,773.3086965697288,0.05357103956948087,-1876.2844109959203,10.5,10499998123.71559,47.655,-122.3035,60.0,8.416666666666666
2026-01-20T23:08:26+00:00,SAT-57944,317.57390092450663,76.62876412806268,773.3621247531928,0.11743330746621936,-4113.011169865064,10.5,10499995886.98883,47.655,-122.3035,60.0,8.433333333333334
2026-01-20T23:08:27+00:00,SAT-57944,319.62074008401385,76.37242512161463,773.4792449051724,0.18126661407549824,-6348.723581941249,10.5,10499993651.276419,47.655,-122.3035,60.0,8.45
2026-01-20T23:08:28+00:00,SAT-57944,321.5893974169085,76.09965903014654,773.6600281416103,0.245055156008472,-8582.868145698836,10.5,10499991417.131855,47.655,-122.3035,60.0,8.466666666666667
2026-01-20T23:08:29+00:00,SAT-57944,323.47970446722474,75.81148258607197,773.9044298172029,0.3087831857339674,-10814.893315984145,10.5,10499989185.106684,47.655,-122.3035,60.0,8.483333333333333
2026-01-20T23:08:30+00:00,SAT-57944,325.2922019481807,75.50889560874158,774.2123895811081,0.372435031196021,-13044.250191104607,10.5,10499986955.74981,47.655,-122.3035,60.0,8.5
2026-01-20T23:08:31+00:00,SAT-57944,327.0280239830047,75.19287245647172,774.5838314522209,0.4359951112312335,-15270.393052809728,10.5,10499984729.606947,47.655,-122.3035,60.0,8.516666666666667
2026-01-20T23:08:32+00:00,SAT-57944,328.68878795829613,74.86435546333354,775.0186639098222,0.49944795929971136,-17492.78019744903,10.5,10499982507.219803,47.655,-122.3035,60.0,8.533333333333333
2026-01-20T23:08:33+00:00,SAT-57944,330.27649303250485,74.52425014607469,775.5167800078972,0.5627782377199209,-19710.874434536872,10.5,10499980289.125565,47.655,-122.3035,60.0,8.55
2026-01-20T23:08:34+00:00,SAT-57944,331.7934290494532,74.1734219532976,776.0780575036498,0.6259707617165039,-21924.14392900869,10.5,10499978075.856071,47.655,-122.3035,60.0,8.566666666666666
2026-01-20T23:08:35+00:00,SAT-57944,333.2420966971539,73.81269430925956,776.7023590100017,0.6890105090552363,-24132.062538677947,10.5,10499975867.937462,47.655,-122.3035,60.0,8.583333333333334
2026-01-20T23:08:36+00:00,SAT-57944,334.62513893938996,73.44284772799882,777.3895321576995,0.7518826406604859,-26334.110536346787,10.5,10499973665.889463,47.655,-122.3035,60.0,8.6
2026-01-20T23:08:37+00:00,SAT-57944,335.94528328910826,73.06461977682599,778.139409777985,0.8145725253458233,-28529.775475976596,10.5,10499971470.224524,47.655,-122.3035,60.0,8.616666666666667
2026-01-20T23:08:38+00:00,SAT-57944,337.205294118702,72.67870569771837,778.9518101099297,0.8770657372236245,-30718.55210196134,10.5,10499969281.447899,47.655,-122.3035,60.0,8.633333333333333
2026-01-20T23:08:39+00:00,SAT-57944,338.4079339673117,72.28575953506142,779.8265370051874,0.9393480912221375,-32899.94359308547,10.5,10499967100.056406,47.655,-122.3035,60.0,8.65
2026-01-20T23:08:40+00:00,SAT-57944,339.5559328293933,71.88639561281443,780.7633801681663,1.0014056471079136,-35073.46170340647,10.5,10499964926.538296,47.655,-122.3035,60.0,8.666666666666666
2026-01-20T23:08:41+00:00,SAT-57944,340.65196428950287,71.48119026226892,781.7621154002154,1.0632247275856748,-37238.62739618882,10.5,10499962761.372604,47.655,-122.3035,60.0,8.683333333333334
2026-01-20T23:08:42+00:00,SAT-57944,341.6986274949589,71.07068370135576,782.8225048618608,1.1247919295853646,-39394.9712392242,10.5,10499960605.02876,47.655,-122.3035,60.0,8.7
2026-01-20T23:08:43+00:00,SAT-57944,342.6984340058196,70.65538199595032,783.9442973463006,1.1860941286445288,-41542.03355832105,10.5,10499958457.966442,47.655,-122.3035,60.0,8.716666666666667
2026-01-20T23:08:44+00:00,SAT-57944,343.65379866777204,70.23575904849793,785.1272285572687,1.247118517763622,-43679.365798181716,10.5,10499956320.634201,47.655,-122.3035,60.0,8.733333333333333
2026-01-20T23:08:45+00:00,SAT-57944,344.56703378558956,69.81225855998153,786.3710214256516,1.307852591627816,-45806.52996978352,10.5,10499954193.47003,47.655,-122.3035,60.0,8.75
2026-01-20T23:08:46+00:00,SAT-57944,345.44034590703853,69.38529595306788,787.6753864103684,1.3682841619463448,-47923.09918762739,10.5,10499952076.900812,47.655,-122.3035,60.0,8.766666666666667
2026-01-20T23:08:47+00:00,SAT-57944,346.27583469848645,68.95526022270533,789.0400218145496,1.4284013820582167,-50028.658531534085,10.5,10499949971.341469,47.655,-122.3035,60.0,8.783333333333333
2026-01-20T23:08:48+00:00,SAT-57944,347.0754934542161,68.52251569690407,790.4646141262556,1.4881927407492133,-52122.80483008929,10.5,10499947877.19517,47.655,-122.3035,60.0,8.8
2026-01-20T23:08:49+00:00,SAT-57944,347.8412108377352,68.08740370826642,791.9488383530296,1.5476470749930875,-54205.147106894256,10.5,10499945794.852894,47.655,-122.3035,60.0,8.816666666666666
2026-01-20T23:08:50+00:00,SAT-57944,348.57477355503926,67.65024416490262,793.492358369156,1.6067535838024556,-56275.3070656827,10.5,10499943724.692934,47.655,-122.3035,60.0,8.833333333333334
2026-01-20T23:08:51+00:00,SAT-57944,349.27786970320585,67.21133701926664,795.094827276735,1.6655018205447707,-58332.9188211936,10.5,10499941667.081179,47.655,-122.3035,60.0,8.85
2026-01-20T23:08:52+00:00,SAT-57944,349.9520925796817,66.77096364133868,796.7558877590917,1.7238817110648033,-60377.62953389719,10.5,10499939622.370466,47.655,-122.3035,60.0,8.866666666666667
2026-01-20T23:08:53+00:00,SAT-57944,350.5989448003131,66.32938809154221,798.4751724522603,1.7818835621851241,-62409.09970771781,10.5,10499937590.900291,47.655,-122.3035,60.0,8.883333333333333
2026-01-20T23:08:54+00:00,SAT-57944,351.2198425912853,65.88685829998192,800.2523043249463,1.839498037305333,-64427.002335415644,10.5,10499935572.997665,47.655,-122.3035,60.0,8.9
2026-01-20T23:08:55+00:00,SAT-57944,351.81612014369193,65.44360716436108,802.0868970341521,1.8967162010654237,-66431.02446288675,10.5,10499933568.975536,47.655,-122.3035,60.0,8.916666666666666
2026-01-20T23:08:56+00:00,SAT-57944,352.3890339776795,64.99985355434197,803.978555325348,1.9535295032790558,-68420.86662643823,10.5,10499931579.133373,47.655,-122.3035,60.0,8.933333333333334
2026-01-20T23:08:57+00:00,SAT-57944,352.93976723485866,64.55580324304478,805.9268754166183,2.009929754942148,-70396.24201250772,10.5,10499929603.757988,47.655,-122.3035,60.0,8.95
2026-01-20T23:08:58+00:00,SAT-57944,353.4694338571056,64.11164977148925,807.9314453588805,2.065909178648662,-72356.87822343732,10.5,10499927643.121777,47.655,-122.3035,60.0,8.966666666666667
2026-01-20T23:08:59+00:00,SAT-57944,353.97908264060715,63.66757523476589,809.9918454463863,2.121460365843983,-74302.51578030632,10.5,10499925697.48422,47.655,-122.3035,60.0,8.983333333333333
2026-01-20T23:09:00+00:00,SAT-57944,354.46970111794457,63.22375101570849,812.107648584588,2.1765763072413638,-76232.90918824356,10.5,10499923767.090813,47.655,-122.3035,60.0,9.0
2026-01-20T23:09:01+00:00,SAT-57944,354.9422192739241,62.78033845484157,814.2784206883433,2.231250372477636,-78147.82622388446,10.5,10499921852.173777,47.655,-122.3035,60.0,9.016666666666667
2026-01-20T23:09:02+00:00,SAT-57944,355.39751307480753,62.337489471863144,816.5037210598277,2.2854763112692797,-80047.04797586148,10.5,10499919952.952024,47.655,-122.3035,60.0,9.033333333333333
2026-01-20T23:09:03+00:00,SAT-57944,355.83640781308986,61.89534713840039,818.7831027676002,2.339248257606764,-81930.36899170767,10.5,10499918069.631008,47.655,-122.3035,60.0,9.05
2026-01-20T23:09:04+00:00,SAT-57944,356.25968126856463,61.45404620536853,821.1161130298534,2.3925607279939443,-83797.59721619285,10.5,10499916202.402784,47.655,-122.3035,60.0,9.066666666666666
2026-01-20T23:09:05+00:00,SAT-57944,356.6680666870032,61.013713590003896,823.502293595906,2.445408609203906,-85648.55356248158,10.5,10499914351.446438,47.655,-122.3035,60.0,9.083333333333334
2026-01-20T23:09:06+00:00,SAT-57944,357.0622555797234,60.57446882771027,825.9411811154854,2.4977871528277986,-87483.07172121017,10.5,10499912516.928278,47.655,-122.3035,60.0,9.1
2026-01-20T23:09:07+00:00,SAT-57944,357.4429003516643,60.13642449055322,828.4323075025723,2.549691987999392,-89300.99860615443,10.5,10499910699.001394,47.655,-122.3035,60.0,9.116666666666667
2026-01-20T23:09:08+00:00,SAT-57944,357.8106167678479,59.69968657200499,830.975200311937,2.6011191017657125,-91102.19366672654,10.5,10499908897.806334,47.655,-122.3035,60.0,9.133333333333333
2026-01-20T23:09:09+00:00,SAT-57944,358.1659862604922,59.26435484651927,833.5693830960981,2.6520648223994074,-92886.52830350316,10.5,10499907113.471697,47.655,-122.3035,60.0,9.15
2026-01-20T23:09:10+00:00,SAT-57944,358.5095580862376,58.830523205257734,836.2143757456377,2.702525845866056,-94653.8867952228,10.5,10499905346.113205,47.655,-122.3035,60.0,9.166666666666666
2026-01-20T23:09:11+00:00,SAT-57944,358.8418513470226,58.398279963283166,838.9096948559148,2.752499206860731,-96404.16528436374,10.5,10499903595.834715,47.655,-122.3035,60.0,9.183333333333334
2026-01-20T23:09:12+00:00,SAT-57944,359.1633568751727,57.96770814934953,841.6548540648905,2.8019822747065377,-98137.27163349335,10.5,10499901862.728367,47.655,-122.3035,60.0,9.2
2026-01-20T23:09:13+00:00,SAT-57944,359.4745389943119,57.53888577588718,844.4493643868645,2.8509727432645424,-99853.12507187121,10.5,10499900146.874928,47.655,-122.3035,60.0,9.216666666666667
2026-01-20T23:09:14+00:00,SAT-57944,359.7758371631172,57.111886091699695,847.2927345361471,2.899468635827297,-101551.65636684101,10.5,10499898448.343634,47.655,-122.3035,60.0,9.233333333333333
2026-01-20T23:09:15+00:00,SAT-57944,0.06766751095347018,56.68677781667752,850.184471255612,2.947468288059552,-103232.80722634222,10.5,10499896767.192774,47.655,-122.3035,60.0,9.25
2026-01-20T23:09:16+00:00,SAT-57944,0.3504242700375404,56.26362536319052,853.1240796282368,2.994970342851387,-104896.53011864483,10.5,10499895103.469881,47.655,-122.3035,60.0,9.266666666666667
2026-01-20T23:09:17+00:00,SAT-57944,0.6244811123211489,55.84248904355617,856.1110633835073,3.0419737395395066,-106542.78789483361,10.5,10499893457.212105,47.655,-122.3035,60.0,9.283333333333333
2026-01-20T23:09:18+00:00,SAT-57944,0.8901923969939689,55.42342526547069,859.1449251930748,3.088477721086985,-108171.55404027321,10.5,10499891828.44596,47.655,-122.3035,60.0,9.3
2026-01-20T23:09:19+00:00,SAT-57944,1.1478943361451361,55.00648671398058,862.2251669735721,3.1344817847100996,-109782.81094535088,10.5,10499890217.189054,47.655,-122.3035,60.0,9.316666666666666
2026-01-20T23:09:20+00:00,SAT-57944,1.3979060795499976,54.59172252854333,865.3512901401897,3.1799857407929446,-111376.5519689155,10.5,10499888623.44803,47.655,-122.3035,60.0,9.333333333333334
2026-01-20T23:09:21+00:00,SAT-57944,1.640530732943306,54.17917846143882,868.5227959190072,3.224989622780573,-112952.77828235432,10.5,10499887047.221718,47.655,-122.3035,60.0,9.35
2026-01-20T23:09:22+00:00,SAT-57944,1.8760563026412034,53.76889703809052,871.7391855694603,3.2694937616971043,-114511.50147953219,10.5,10499885488.49852,47.655,-122.3035,60.0,9.366666666666667
2026-01-20T23:09:23+00:00,SAT-57944,2.1047565841524407,53.36091769841608,874.9999606811263,3.313498712603905,-116052.74100104615,10.5,10499883947.258999,47.655,-122.3035,60.0,9.383333333333333
2026-01-20T23:09:24+00:00,SAT-57944,2.326891987776602,52.95527693897711,878.3046233971633,3.3570052606920053,-117576.52434760735,10.5,10499882423.475653,47.655,-122.3035,60.0,9.4
2026-01-20T23:09:25+00:00,SAT-57944,2.5427103115477676,52.55200844602474,881.6526766438267,3.400014450507528,-119082.88810363949,10.5,10499880917.111897,47.655,-122.3035,60.0,9.416666666666666
2026-01-20T23:09:26+00:00,SAT-57944,2.752447466288566,52.151143217581264,885.0436243891328,3.4425275380501947,-120571.8762595657,10.5,10499879428.123741,47.655,-122.3035,60.0,9.433333333333334
2026-01-20T23:09:27+00:00,SAT-57944,2.956328151224844,51.75270968429757,888.4769718537483,3.484545983772354,-122043.53996660489,10.5,10499877956.460033,47.655,-122.3035,60.0,9.45
2026-01-20T23:09:28+00:00,SAT-57944,3.1545664864276044,51.35673382435625,891.9522257148973,3.5260714548447383,-123497.93761612826,10.5,10499876502.062384,47.655,-122.3035,60.0,9.466666666666667
2026-01-20T23:09:29+00:00,SAT-57944,3.3473666054795586,50.963239271812,895.468894312529,3.5671058156526367,-124935.13450679499,10.5,10499875064.865494,47.655,-122.3035,60.0,9.483333333333333
2026-01-20T23:09:30+00:00,SAT-57944,3.534923210367174,50.5722474202288,899.0264878460066,3.6076511385645618,-126355.20322171647,10.5,10499873644.796778,47.655,-122.3035,60.0,9.5
2026-01-20T23:09:31+00:00,SAT-57944,3.7174220923288104,50.18377751963997,902.624518581535,3.6477096395768864,-127758.22137445935,10.5,10499872241.778625,47.655,-122.3035,60.0,9.516666666666667
2026-01-20T23:09:32+00:00,SAT-57944,3.895040617153196,49.79784677529385,906.2625009954063,3.6872837259428035,-129144.27327721313,10.5,10499870855.726723,47.655,-122.3035,60.0,9.533333333333333
2026-01-20T23:09:33+00:00,SAT-57944,4.067948183088261,49.41447043622019,909.9399519647467,3.7263759715347256,-130513.44907787713,10.5,10499869486.550922,47.655,-122.3035,60.0,9.55
2026-01-20T23:09:34+00:00,SAT-57944,4.236306649479307,49.03366188189613,913.6563909336905,3.7649890982384786,-131865.84410840657,10.5,10499868134.155891,47.655,-122.3035,60.0,9.566666666666666
2026-01-20T23:09:35+00:00,SAT-57944,4.400270738567154,48.655432706371144,917.4113400610005,3.803125971639028,-133201.55873370837,10.5,10499866798.441267,47.655,-122.3035,60.0,9.583333333333334
2026-01-20T23:09:36+00:00,SAT-57944,4.5599884129422845,48.27979279859484,921.2043243633817,3.840789585592581,-134520.69781129085,10.5,10499865479.302189,47.655,-122.3035,60.0,9.6
2026-01-20T23:09:37+00:00,SAT-57944,4.715601229792393,47.90675042021079,925.0348718434127,3.87798310530583,-135823.3722000812,10.5,10499864176.6278,47.655,-122.3035,60.0,9.616666666666667
2026-01-20T23:09:38+00:00,SAT-57944,4.867244675779852,47.53631227549275,928.9025136604378,3.914709783476011,-137109.6958232956,10.5,10499862890.304176,47.655,-122.3035,60.0,9.633333333333333
2026-01-20T23:09:39+00:00,SAT-57944,5.015048478858389,47.16848358575389,932.8067842178245,3.9509729850917688,-138379.78653707015,10.5,10499861620.213463,47.655,-122.3035,60.0,9.65
2026-01-20T23:09:40+00:00,SAT-57944,5.159136902931001,46.80326815775874,936.747221274956,3.9867762113653584,-139633.76696866826,10.5,10499860366.233032,47.655,-122.3035,60.0,9.666666666666666
2026-01-20T23:09:41+00:00,SAT-57944,5.299629026159453,46.44066844672238,940.7233660830912,4.022123042367973,-140871.7625073267,10.5,10499859128.237494,47.655,-122.3035,60.0,9.683333333333334
2026-01-20T23:09:42+00:00,SAT-57944,5.436639001191067,46.08068562145409,944.7347634640128,4.057017191250815,-142093.90320330727,10.5,10499857906.096796,47.655,-122.3035,60.0,9.7
2026-01-20T23:09:43+00:00,SAT-57944,5.570276302326395,45.723319621626715,948.7809619427535,4.091462387452267,-143300.31967731754,10.5,10499856699.680323,47.655,-122.3035,60.0,9.716666666666667
2026-01-20T23:09:44+00:00,SAT-57944,5.70064595484164,45.36856922242641,952.8615137638393,4.125462525890618,-144491.14834587162,10.5,10499855508.851654,47.655,-122.3035,60.0,9.733333333333333
2026-01-20T23:09:45+00:00,SAT-57944,5.827848756129584,45.016432083404816,956.9759750563276,4.159021526212358,-145666.5264915696,10.5,10499854333.473509,47.655,-122.3035,60.0,9.75
2026-01-20T23:09:46+00:00,SAT-57944,5.951981480028291,44.66690480696749,961.12390585847,4.192143383932675,-146826.59405425432,10.5,10499853173.405945,47.655,-122.3035,60.0,9.766666666666667
2026-01-20T23:09:47+00:00,SAT-57944,6.0731370714331305,44.319982989766935,965.3048701933789,4.224832177535029,-147971.4938796686,10.5,10499852028.50612,47.655,-122.3035,60.0,9.783333333333333
2026-01-20T23:09:48+00:00,SAT-57944,6.191404830319345,43.97566127119806,969.5184361517738,4.257092025532177,-149101.37021555044,10.5,10499850898.629784,47.655,-122.3035,60.0,9.8
2026-01-20T23:09:49+00:00,SAT-57944,6.306870584485212,43.633933383057666,973.7641759319046,4.288927119005321,-150216.36985129185,10.5,10499849783.630148,47.655,-122.3035,60.0,9.816666666666666
2026-01-20T23:09:50+00:00,SAT-57944,6.419616853764037,43.294792194360625,978.0416659119259,4.320341680730919,-151316.6406863866,10.5,10499848683.359314,47.655,-122.3035,60.0,9.833333333333334
2026-01-20T23:09:51+00:00,SAT-57944,6.5297230043550805,42.95822975720485,982.3504866815082,4.351339959294983,-152402.3315242885,10.5,10499847597.668476,47.655,-122.3035,60.0,9.85
2026-01-20T23:09:52+00:00,SAT-57944,6.637265394709138,42.624237350989816,986.6902230675784,4.38192629542886,-153473.59439577037,10.5,10499846526.405603,47.655,-122.3035,60.0,9.866666666666667
2026-01-20T23:09:53+00:00,SAT-57944,6.742317515311194,42.29280551955242,991.0604642262194,4.412105012022707,-154530.5807067315,10.5,10499845469.419292,47.655,-122.3035,60.0,9.883333333333333
2026-01-20T23:09:54+00:00,SAT-57944,6.844950118397177,41.963924114841426,995.4608036248768,4.441880486242265,-155573.44376403154,10.5,10499844426.556236,47.655,-122.3035,60.0,9.9
2026-01-20T23:09:55+00:00,SAT-57944,6.9452313426001435,41.637582333202786,999.890839096489,4.471257101027169,-156602.33707675623,10.5,10499843397.662924,47.655,-122.3035,60.0,9.916666666666666
2026-01-20T23:09:56+00:00,SAT-57944,7.043226830010359,41.31376875352782,1004.3501728452468,4.500239277944415,-157617.41550688495,10.5,10499842382.584494,47.655,-122.3035,60.0,9.933333333333334
2026-01-20T23:09:57+00:00,SAT-57944,7.13899983789878,40.99247137127266,1008.8384114851167,4.528831459501944,-158618.83464983772,10.5,10499841381.16535,47.655,-122.3035,60.0,9.95
2026-01-20T23:09:58+00:00,SAT-57944,7.232611344312875,40.6736776321968,1013.3551660607267,4.5570380687962455,-159606.7494211631,10.5,10499840393.250578,47.655,-122.3035,60.0,9.966666666666667
2026-01-20T23:09:59+00:00,SAT-57944,7.324120147491348,40.357374467269146,1017.900052028006,4.584863565376372,-160581.316013133,10.5,10499839418.683987,47.655,-122.3035,60.0,9.983333333333333
2026-01-20T23:10:00+00:00,SAT-57944,7.413582961375525,40.04354832215999,1022.4726892905414,4.612312405626448,-161542.6905071698,10.5,10499838457.309492,47.655,-122.3035,60.0,10.0
