satellites_20260120_184412/SAT-64298.csv

timestamp,satellite,azimuth_deg,elevation_deg,distance_km,relative_velocity_kms,doppler_shift_hz,tx_freq_ghz,rx_freq_hz,ue_lat,ue_lon,ue_alt_m,time_minutes
2026-01-20T23:04:04+00:00,SAT-64298,160.56271811951328,40.11269640605792,726.8392137843357,-1.634125096621904,57233.973226004215,10.5,10500057233.973227,47.655,-122.3035,60.0,4.066666666666666
2026-01-20T23:04:05+00:00,SAT-64298,160.69391894594816,40.673553864023255,725.2094463546381,-1.5686903070468636,54942.17010620083,10.5,10500054942.170107,47.655,-122.3035,60.0,4.083333333333333
2026-01-20T23:04:06+00:00,SAT-64298,160.8283760246744,41.23655292661513,723.6449392217432,-1.502829223822928,52635.43637959279,10.5,10500052635.43638,47.655,-122.3035,60.0,4.1
2026-01-20T23:04:07+00:00,SAT-64298,160.96619652198694,41.8016016748196,722.1461175425172,-1.4365563091058093,50314.278572047995,10.5,10500050314.278572,47.655,-122.3035,60.0,4.116666666666666
2026-01-20T23:04:08+00:00,SAT-64298,161.10749227479226,42.368605413175096,720.7133920502356,-1.3698865457529912,47979.22144661294,10.5,10500047979.221447,47.655,-122.3035,60.0,4.133333333333334
2026-01-20T23:04:09+00:00,SAT-64298,161.25238004115803,42.93746670490339,719.3471585352714,-1.3028354483475253,45630.80838961271,10.5,10500045630.80839,47.655,-122.3035,60.0,4.15
2026-01-20T23:04:10+00:00,SAT-64298,161.40098176877427,43.50808542005782,718.0477973147861,-1.235419024580063,43269.60005808639,10.5,10500043269.600058,47.655,-122.3035,60.0,4.166666666666667
2026-01-20T23:04:11+00:00,SAT-64298,161.55342487850726,44.080358778726556,716.8156727409382,-1.167653769566196,40896.174180756265,10.5,10500040896.174181,47.655,-122.3035,60.0,4.183333333333334
2026-01-20T23:04:12+00:00,SAT-64298,161.70984256709568,44.65418140153892,715.6511327147575,-1.0995566493913158,38511.12498169923,10.5,10500038511.12498,47.655,-122.3035,60.0,4.2
2026-01-20T23:04:13+00:00,SAT-64298,161.87037412935,45.22944536352379,714.5545082164314,-1.031145088735464,36115.062746916636,10.5,10500036115.062746,47.655,-122.3035,60.0,4.216666666666667
2026-01-20T23:04:14+00:00,SAT-64298,162.03516530232127,45.80604025436949,713.5261128479325,-0.9624369415947885,33708.61279887595,10.5,10500033708.612799,47.655,-122.3035,60.0,4.233333333333333
2026-01-20T23:04:15+00:00,SAT-64298,162.2043686309892,46.383853237051234,712.5662424048486,-0.8934504811694993,31292.41514234405,10.5,10500031292.415142,47.655,-122.3035,60.0,4.25
2026-01-20T23:04:16+00:00,SAT-64298,162.37814385982463,46.96276911468439,711.6751744582956,-0.8242043652636264,28867.12325254052,10.5,10500028867.123253,47.655,-122.3035,60.0,4.266666666666667
2026-01-20T23:04:17+00:00,SAT-64298,162.5566583486365,47.54267039257998,710.8531679713393,-0.7547176246575908,26433.40366789582,10.5,10500026433.403667,47.655,-122.3035,60.0,4.283333333333333
2026-01-20T23:04:18+00:00,SAT-64298,162.74008751873936,48.12343734912054,710.1004629270141,-0.6850096405816148,23991.935201074855,10.5,10500023991.935202,47.655,-122.3035,60.0,4.3
2026-01-20T23:04:19+00:00,SAT-64298,162.92861532948785,48.704948109041474,709.4172799788074,-0.6151001032319036,21543.40748603818,10.5,10500021543.407486,47.655,-122.3035,60.0,4.316666666666666
2026-01-20T23:04:20+00:00,SAT-64298,163.1224347855452,49.287078708644685,708.8038201425175,-0.5450090024557386,19088.520651794566,10.5,10500019088.52065,47.655,-122.3035,60.0,4.333333333333333
2026-01-20T23:04:21+00:00,SAT-64298,163.3217484818129,49.8697031712466,708.2602644974015,-0.4747565941286745,16627.9841447882,10.5,10500016627.984144,47.655,-122.3035,60.0,4.35
2026-01-20T23:04:22+00:00,SAT-64298,163.52676918605542,50.45269358006106,707.7867739208573,-0.4043633681079789,14162.515606492603,10.5,10500014162.515606,47.655,-122.3035,60.0,4.366666666666666
2026-01-20T23:04:23+00:00,SAT-64298,163.73772046139828,51.035920146516666,707.3834888550642,-0.33385002519553897,11692.840066554174,10.5,10500011692.840067,47.655,-122.3035,60.0,4.383333333333334
2026-01-20T23:04:24+00:00,SAT-64298,163.95483733486898,51.619251282756316,707.0505290966025,-0.2632374420667584,9219.688714453796,10.5,10500009219.688715,47.655,-122.3035,60.0,4.4
2026-01-20T23:04:25+00:00,SAT-64298,164.1783670118985,52.202553666179,706.7879936210479,-0.19254664770987012,6743.798074311917,10.5,10500006743.798075,47.655,-122.3035,60.0,4.416666666666667
2026-01-20T23:04:26+00:00,SAT-64298,164.40856964596924,52.78569231112821,706.5959604310654,-0.1217987843090231,4265.908634848788,10.5,10500004265.908634,47.655,-122.3035,60.0,4.433333333333334
2026-01-20T23:04:27+00:00,SAT-64298,164.64571915994375,53.36853062512885,706.4744864435145,-0.05101508004728274,1786.7638968304825,10.5,10500001786.763897,47.655,-122.3035,60.0,4.45
2026-01-20T23:04:28+00:00,SAT-64298,164.89010412964367,53.95093046602957,706.4236074036806,0.01978318144677947,-692.8906970407658,10.5,10499999307.109303,47.655,-122.3035,60.0,4.466666666666667
2026-01-20T23:04:29+00:00,SAT-64298,165.1420287328345,54.53275219488384,706.4433378299769,0.09057469374064393,-3172.308905372,10.5,10499996827.691095,47.655,-122.3035,60.0,4.483333333333333
2026-01-20T23:04:30+00:00,SAT-64298,165.40181377053588,55.11385472694261,706.533670991201,0.16133816247023183,-5650.74490945811,10.5,10499994349.25509,47.655,-122.3035,60.0,4.5
2026-01-20T23:04:31+00:00,SAT-64298,165.66979775787604,55.694095558242395,706.6945789185712,0.23205233328220898,-8127.454291939507,10.5,10499991872.545708,47.655,-122.3035,60.0,4.516666666666667
2026-01-20T23:04:32+00:00,SAT-64298,165.94633810571034,56.273330805689206,706.9260124456313,0.3026960252364763,-10601.695206698634,10.5,10499989398.304792,47.655,-122.3035,60.0,4.533333333333333
2026-01-20T23:04:33+00:00,SAT-64298,166.2318123849403,56.851415222134364,707.2279012814672,0.3732481627819597,-13072.729498787381,10.5,10499986927.270502,47.655,-122.3035,60.0,4.55
2026-01-20T23:04:34+00:00,SAT-64298,166.52661968944545,57.42820220637007,707.600154115815,0.44368780651394374,-15539.82378167902,10.5,10499984460.176218,47.655,-122.3035,60.0,4.566666666666666
2026-01-20T23:04:35+00:00,SAT-64298,166.83118210268378,58.00354380105947,708.0426587548449,0.5139941812500369,-18002.25042060727,10.5,10499981997.749578,47.655,-122.3035,60.0,4.583333333333333
2026-01-20T23:04:36+00:00,SAT-64298,167.14594627375897,58.57729067155219,708.5552822849451,0.5841467132369418,-20459.288835704763,10.5,10499979540.711164,47.655,-122.3035,60.0,4.6
2026-01-20T23:04:37+00:00,SAT-64298,167.47138512064532,59.14929208248936,709.1378712736133,0.6541250498644258,-22910.226192469694,10.5,10499977089.773808,47.655,-122.3035,60.0,4.616666666666666
2026-01-20T23:04:38+00:00,SAT-64298,167.8079996554905,59.719395840360825,709.7902519900115,0.7239090973188166,-25354.358720550517,10.5,10499974645.64128,47.655,-122.3035,60.0,4.633333333333334
2026-01-20T23:04:39+00:00,SAT-64298,168.15632095815153,60.28744823362651,710.5122306630707,0.7934790390087634,-27790.992359094023,10.5,10499972209.00764,47.655,-122.3035,60.0,4.65
2026-01-20T23:04:40+00:00,SAT-64298,168.51691229422954,60.85329393860224,711.3035937579755,0.8628153757914667,-30219.444165638084,10.5,10499969780.555834,47.655,-122.3035,60.0,4.666666666666667
2026-01-20T23:04:41+00:00,SAT-64298,168.89037140415792,61.41677591912271,712.1641082927649,0.9318989361013719,-32639.042670861334,10.5,10499967360.957329,47.655,-122.3035,60.0,4.683333333333334
2026-01-20T23:04:42+00:00,SAT-64298,169.27733295797523,61.97773528505874,713.0935221650367,1.0007109092168371,-35049.129043722605,10.5,10499964950.870956,47.655,-122.3035,60.0,4.7
2026-01-20T23:04:43+00:00,SAT-64298,169.678471202545,62.536011134218285,714.0915645118288,1.069232874644257,-37449.05812061723,10.5,10499962550.94188,47.655,-122.3035,60.0,4.716666666666667
2026-01-20T23:04:44+00:00,SAT-64298,170.0945028108412,63.09144036755489,715.1579460988074,1.1374468068137589,-39838.19856984017,10.5,10499960161.80143,47.655,-122.3035,60.0,4.733333333333333
2026-01-20T23:04:45+00:00,SAT-64298,170.52618993708646,63.643857461766295,716.2923597141363,1.20533511483838,-42215.93428412061,10.5,10499957784.065716,47.655,-122.3035,60.0,4.75
2026-01-20T23:04:46+00:00,SAT-64298,170.9743435062211,64.19309421877598,717.4944806020018,1.2728806540956314,-44581.66478625733,10.5,10499955418.335215,47.655,-122.3035,60.0,4.766666666666667
2026-01-20T23:04:47+00:00,SAT-64298,171.43982673945726,64.73897947307866,718.7639669076866,1.3400667358780853,-46934.805567123025,10.5,10499953065.194433,47.655,-122.3035,60.0,4.783333333333333
2026-01-20T23:04:48+00:00,SAT-64298,171.92355892815053,65.28133875322112,720.100460132269,1.406877165330964,-49274.789414399216,10.5,10499950725.210587,47.655,-122.3035,60.0,4.8
2026-01-20T23:04:49+00:00,SAT-64298,172.4265194790471,65.81999391048724,721.503585625159,1.4732962370124572,-51601.06625707976,10.5,10499948398.933743,47.655,-122.3035,60.0,4.816666666666666
2026-01-20T23:04:50+00:00,SAT-64298,172.94975222388388,66.35476268805687,722.9729530722061,1.539308750317559,-53913.10370567885,10.5,10499946086.896294,47.655,-122.3035,60.0,4.833333333333333
2026-01-20T23:04:51+00:00,SAT-64298,173.49437000899826,66.88545824042792,724.5081569991894,1.604900047049484,-56210.38836814095,10.5,10499943789.611631,47.655,-122.3035,60.0,4.85
2026-01-20T23:04:52+00:00,SAT-64298,174.06155957573674,67.41188860498025,726.1087773127801,1.6700559838331166,-58492.424883643085,10.5,10499941507.575117,47.655,-122.3035,60.0,4.866666666666666
2026-01-20T23:04:53+00:00,SAT-64298,174.6525867061744,67.93385609671932,727.7743798139898,1.7347629714987405,-60758.73730197967,10.5,10499939241.262697,47.655,-122.3035,60.0,4.883333333333334
2026-01-20T23:04:54+00:00,SAT-64298,175.26880164958362,68.45115664852557,729.5045167508978,1.7990079698815509,-63008.86890141941,10.5,10499936991.131098,47.655,-122.3035,60.0,4.9
2026-01-20T23:04:55+00:00,SAT-64298,175.91164479469361,68.96357907390113,731.298727366193,1.8627785032886917,-65242.38273042633,10.5,10499934757.61727,47.655,-122.3035,60.0,4.916666666666667
2026-01-20T23:04:56+00:00,SAT-64298,176.58265256459674,69.47090425579374,733.1565384601396,1.9260626520320558,-67458.86131110272,10.5,10499932541.138689,47.655,-122.3035,60.0,4.933333333333334
2026-01-20T23:04:57+00:00,SAT-64298,177.28346347841276,69.97290424820174,735.0774649450996,1.9888490700339103,-69657.90725581248,10.5,10499930342.092745,47.655,-122.3035,60.0,4.95
2026-01-20T23:04:58+00:00,SAT-64298,178.01582432187777,70.46934129421655,737.0610104176133,2.0511269792094144,-71839.14307043325,10.5,10499928160.85693,47.655,-122.3035,60.0,4.966666666666667
2026-01-20T23:04:59+00:00,SAT-64298,178.78159632450962,70.95996674800953,739.1066677248782,2.1128861798655594,-74002.21151857119,10.5,10499925997.78848,47.655,-122.3035,60.0,4.983333333333333
2026-01-20T23:05:00+00:00,SAT-64298,179.5827612228753,71.44451990150134,741.2139195415975,2.1741170363672104,-76146.77511952522,10.5,10499923853.22488,47.655,-122.3035,60.0,5.0
2026-01-20T23:05:01+00:00,SAT-64298,180.4214270326699,71.9227267052536,743.3822389325344,2.2348104813508853,-78272.51629587125,10.5,10499921727.483704,47.655,-122.3035,60.0,5.016666666666667
2026-01-20T23:05:02+00:00,SAT-64298,181.29983331760243,72.39429838681025,745.6110899192682,2.2949580299812062,-80379.13787278354,10.5,10499919620.862127,47.655,-122.3035,60.0,5.033333333333333
2026-01-20T23:05:03+00:00,SAT-64298,182.22035567771036,72.85892996768375,747.8999280611696,2.3545517534474945,-82466.36214977327,10.5,10499917533.63785,47.655,-122.3035,60.0,5.05
2026-01-20T23:05:04+00:00,SAT-64298,183.18550908312062,73.316298672099,750.2482010099412,2.41358427535274,-84533.93077421504,10.5,10499915466.069225,47.655,-122.3035,60.0,5.066666666666666
2026-01-20T23:05:05+00:00,SAT-64298,184.1979496115468,73.76606223915093,752.6553490605596,2.4720487821664143,-86581.60510744853,10.5,10499913418.394892,47.655,-122.3035,60.0,5.083333333333333
2026-01-20T23:05:06+00:00,SAT-64298,185.26047403696444,74.20785715264738,755.1208057126403,2.5299390126092827,-88609.16585298977,10.5,10499911390.834146,47.655,-122.3035,60.0,5.1
2026-01-20T23:05:07+00:00,SAT-64298,186.3760165740057,74.6412968008675,757.643998221216,2.5872492309219326,-90616.41212028185,10.5,10499909383.58788,47.655,-122.3035,60.0,5.116666666666666
2026-01-20T23:05:08+00:00,SAT-64298,187.54764193761574,75.06596959062168,760.2243481208554,2.643974251661199,-92603.1622931708,10.5,10499907396.837708,47.655,-122.3035,60.0,5.133333333333334
2026-01-20T23:05:09+00:00,SAT-64298,188.77853374409648,75.48143706185806,762.8612717745123,2.7001093837874786,-94569.25207160658,10.5,10499905430.747929,47.655,-122.3035,60.0,5.15
2026-01-20T23:05:10+00:00,SAT-64298,190.07197704341232,75.88723203965492,765.5541808666096,2.7556504852767505,-96514.53638438723,10.5,10499903485.463615,47.655,-122.3035,60.0,5.166666666666667
2026-01-20T23:05:11+00:00,SAT-64298,191.43133367875828,76.2828569100735,768.3024829505923,2.810593890043789,-98438.88682970064,10.5,10499901561.11317,47.655,-122.3035,60.0,5.183333333333334
2026-01-20T23:05:12+00:00,SAT-64298,192.86000888331247,76.66778208640939,771.105581923596,2.8649364172411813,-100342.19200081547,10.5,10499899657.807999,47.655,-122.3035,60.0,5.2
2026-01-20T23:05:13+00:00,SAT-64298,194.36140747700625,77.04144479173783,773.9628785103911,2.918675387191389,-102224.35804408924,10.5,10499897775.641956,47.655,-122.3035,60.0,5.216666666666667
2026-01-20T23:05:14+00:00,SAT-64298,195.93887790815677,77.40324829683794,776.8737707632166,2.9718085858274943,-104085.30741353304,10.5,10499895914.692587,47.655,-122.3035,60.0,5.233333333333333
2026-01-20T23:05:15+00:00,SAT-64298,197.59564236544188,77.75256177349021,779.8376545261486,3.024334216014263,-105924.97716586907,10.5,10499894075.022835,47.655,-122.3035,60.0,5.25
2026-01-20T23:05:16+00:00,SAT-64298,199.33471137094762,78.08872096267979,782.8539238509202,3.0762509671280003,-107743.32139751162,10.5,10499892256.678602,47.655,-122.3035,60.0,5.266666666666667
2026-01-20T23:05:17+00:00,SAT-64298,201.15878173015153,78.41102990038212,785.9219714821359,3.127557929210996,-109540.30823789255,10.5,10499890459.691763,47.655,-122.3035,60.0,5.283333333333333
2026-01-20T23:05:18+00:00,SAT-64298,203.07011724027302,78.71876393383494,789.041189256869,3.1782546212680503,-111315.92084052539,10.5,10499888684.079159,47.655,-122.3035,60.0,5.3
2026-01-20T23:05:19+00:00,SAT-64298,205.07041275888648,79.01117430915244,792.2109685324803,3.22834094643324,-113070.15581275571,10.5,10499886929.844187,47.655,-122.3035,60.0,5.316666666666666
2026-01-20T23:05:20+00:00,SAT-64298,207.16064359931556,79.28749458525168,795.4307005697231,3.2778172070772507,-114803.02374488398,10.5,10499885196.976255,47.655,-122.3035,60.0,5.333333333333333
2026-01-20T23:05:21+00:00,SAT-64298,209.34090421797868,79.54694911486776,798.6997769309147,3.3266840634517627,-116514.5477617169,10.5,10499883485.452238,47.655,-122.3035,60.0,5.35
2026-01-20T23:05:22+00:00,SAT-64298,211.61024240805267,79.78876376069628,802.0175898368641,3.3749425526440113,-118204.76418643632,10.5,10499881795.235813,47.655,-122.3035,60.0,5.366666666666666
2026-01-20T23:05:23+00:00,SAT-64298,213.96649786465966,80.0121789213653,805.383532542701,3.4225940357083355,-119873.72068892248,10.5,10499880126.27931,47.655,-122.3035,60.0,5.383333333333334
2026-01-20T23:05:24+00:00,SAT-64298,216.40615646409336,80.21646478341273,808.7969996609808,3.4696402080672835,-121521.4766500446,10.5,10499878478.52335,47.655,-122.3035,60.0,5.4
2026-01-20T23:05:25+00:00,SAT-64298,218.92423383331868,80.40093853292365,812.2573874951598,3.5160831001839754,-123148.10318521003,10.5,10499876851.896814,47.655,-122.3035,60.0,5.416666666666667
2026-01-20T23:05:26+00:00,SAT-64298,221.51420294411514,80.56498302696127,815.7640943737433,3.5619250119496733,-124753.68084633927,10.5,10499875246.319153,47.655,-122.3035,60.0,5.433333333333334
2026-01-20T23:05:27+00:00,SAT-64298,224.16798012474288,80.70806618061121,819.3165209189945,3.607168535070854,-126338.30040595608,10.5,10499873661.699594,47.655,-122.3035,60.0,5.45
2026-01-20T23:05:28+00:00,SAT-64298,226.87598173114637,80.82976010902028,822.9140703379718,3.651816570060522,-127902.063452295,10.5,10499872097.936548,47.655,-122.3035,60.0,5.466666666666667
2026-01-20T23:05:29+00:00,SAT-64298,229.62725918108242,80.92975888512792,826.5561487305122,3.695872229237354,-129445.0789919212,10.5,10499870554.921007,47.655,-122.3035,60.0,5.483333333333333
2026-01-20T23:05:30+00:00,SAT-64298,232.4097134610169,81.00789369509899,830.2421653004716,3.7393388943106807,-130967.46546660006,10.5,10499869032.534533,47.655,-122.3035,60.0,5.5
2026-01-20T23:05:31+00:00,SAT-64298,235.21038254200738,81.06414423416905,833.9715326243975,3.782220189104208,-132469.3497979665,10.5,10499867530.650202,47.655,-122.3035,60.0,5.516666666666667
2026-01-20T23:05:32+00:00,SAT-64298,238.01578680769472,81.09864536826291,837.7436668929973,3.8245199227008286,-133950.86539621587,10.5,10499866049.134604,47.655,-122.3035,60.0,5.533333333333333
2026-01-20T23:05:33+00:00,SAT-64298,240.812310598102,81.11168841678129,841.5579880959042,3.8662421515111323,-135412.1543340056,10.5,10499864587.845667,47.655,-122.3035,60.0,5.55
2026-01-20T23:05:34+00:00,SAT-64298,243.58659347748437,81.10371683556845,845.4139202683447,3.9073911110446415,-136853.36495679533,10.5,10499863146.635044,47.655,-122.3035,60.0,5.566666666666666
2026-01-20T23:05:35+00:00,SAT-64298,246.32590337955037,81.07531653673912,849.3108916697598,3.9479711893276273,-138274.65095182642,10.5,10499861725.349049,47.655,-122.3035,60.0,5.583333333333333
2026-01-20T23:05:36+00:00,SAT-64298,249.01846626967165,81.0272015196545,853.248334935916,3.987986996452739,-139676.17378404416,10.5,10499860323.826216,47.655,-122.3035,60.0,5.6
2026-01-20T23:05:37+00:00,SAT-64298,251.65373247263705,80.96019582815106,857.2256873003782,4.027443258720248,-141058.09898847624,10.5,10499858941.901012,47.655,-122.3035,60.0,5.616666666666666
2026-01-20T23:05:38+00:00,SAT-64298,254.2225671526868,80.87521306344695,861.2423907104086,4.0663448760070455,-142420.59817953786,10.5,10499857579.401821,47.655,-122.3035,60.0,5.633333333333334
2026-01-20T23:05:39+00:00,SAT-64298,256.71736088011636,80.77323474278721,865.2978920000795,4.104696871323543,-143763.84728430095,10.5,10499856236.152716,47.655,-122.3035,60.0,5.65
2026-01-20T23:05:40+00:00,SAT-64298,259.13206358692264,80.65528872128236,869.3916430130795,4.142504396828193,-145088.02675314812,10.5,10499854911.973248,47.655,-122.3035,60.0,5.666666666666667
2026-01-20T23:05:41+00:00,SAT-64298,261.462151257807,80.52242871106239,873.5231007315163,4.179772723455113,-146393.32119648816,10.5,10499853606.678804,47.655,-122.3035,60.0,5.683333333333334
2026-01-20T23:05:42+00:00,SAT-64298,263.7045384475888,80.3757156867832,877.6917273943754,4.216507220955397,-147679.91868571847,10.5,10499852320.081314,47.655,-122.3035,60.0,5.7
2026-01-20T23:05:43+00:00,SAT-64298,265.85745134172475,80.21620169835029,881.8969905960749,4.25271334053964,-148948.01014529265,10.5,10499851051.989855,47.655,-122.3035,60.0,5.716666666666667
2026-01-20T23:05:44+00:00,SAT-64298,267.92027586953776,80.04491635723703,886.1383633677066,4.28839668037933,-150197.79164685647,10.5,10499849802.208353,47.655,-122.3035,60.0,5.733333333333333
2026-01-20T23:05:45+00:00,SAT-64298,269.8933938586907,79.86285604182514,890.4153243236049,4.323562845923536,-151429.4595169473,10.5,10499848570.540483,47.655,-122.3035,60.0,5.75
2026-01-20T23:05:46+00:00,SAT-64298,271.7780177569537,79.67097571205422,894.7273576686059,4.358217521686344,-152643.21285129397,10.5,10499847356.78715,47.655,-122.3035,60.0,5.766666666666667
2026-01-20T23:05:47+00:00,SAT-64298,273.57603205385703,79.47018309288337,899.0739532769011,4.392366514868,-153839.2550426135,10.5,10499846160.744957,47.655,-122.3035,60.0,5.783333333333333
2026-01-20T23:05:48+00:00,SAT-64298,275.28984688156663,79.2613349275148,903.4546068143961,4.426015613572393,-155017.78881478778,10.5,10499844982.211185,47.655,-122.3035,60.0,5.8
2026-01-20T23:05:49+00:00,SAT-64298,276.9222670093141,79.04523498191053,907.8688197196656,4.459170687657931,-156179.01975508762,10.5,10499843820.980246,47.655,-122.3035,60.0,5.816666666666666
2026-01-20T23:05:50+00:00,SAT-64298,278.47637785104814,78.82263346428468,912.3160992854897,4.491837638161412,-157323.15454278313,10.5,10499842676.845457,47.655,-122.3035,60.0,5.833333333333333
2026-01-20T23:05:51+00:00,SAT-64298,279.95544859045833,78.59422756198109,916.7959586899494,4.524022393802876,-158450.40082672858,10.5,10499841549.599173,47.655,-122.3035,60.0,5.85
2026-01-20T23:05:52+00:00,SAT-64298,281.3628516907325,78.36066282225715,921.3079170240354,4.5557309310188625,-159560.96792701186,10.5,10499840439.032072,47.655,-122.3035,60.0,5.866666666666666
2026-01-20T23:05:53+00:00,SAT-64298,282.7019974553148,78.1225351424296,925.8514993392383,4.586969195625415,-160655.06409126162,10.5,10499839344.93591,47.655,-122.3035,60.0,5.883333333333334
2026-01-20T23:05:54+00:00,SAT-64298,283.9762819588253,77.88039318035436,930.4262366170087,4.617743191455296,-161732.89959909735,10.5,10499838267.1004,47.655,-122.3035,60.0,5.9
2026-01-20T23:05:55+00:00,SAT-64298,285.18904663470204,77.63474101946451,935.0316658266202,4.64805891434176,-162794.684449962,10.5,10499837205.31555,47.655,-122.3035,60.0,5.916666666666667
2026-01-20T23:05:56+00:00,SAT-64298,286.34354772613165,77.38604097259837,939.6673299171904,4.677922373529981,-163840.6291130406,10.5,10499836159.370888,47.655,-122.3035,60.0,5.933333333333334
2026-01-20T23:05:57+00:00,SAT-64298,287.44293399202706,77.13471642520025,944.3327778310576,4.707339543653335,-164870.9428452667,10.5,10499835129.057156,47.655,-122.3035,60.0,5.95
2026-01-20T23:05:58+00:00,SAT-64298,288.490231171275,76.88115465094752,949.0275644692612,4.736316410285517,-165885.83528675005,10.5,10499834114.164713,47.655,-122.3035,60.0,5.966666666666667
2026-01-20T23:05:59+00:00,SAT-64298,289.48833192797633,76.6257095439764,953.7512507024526,4.764858974171345,-166885.51660895726,10.5,10499833114.48339,47.655,-122.3035,60.0,5.983333333333333
2026-01-20T23:06:00+00:00,SAT-64298,290.4399901480148,76.36870423495043,958.5034033860262,4.7929731514881215,-167870.1940214429,10.5,10499832129.805979,47.655,-122.3035,60.0,6.0
2026-01-20T23:06:01+00:00,SAT-64298,291.3478186180081,76.11043357413466,963.283595275777,4.8206649088125415,-168840.07649896145,10.5,10499831159.923502,47.655,-122.3035,60.0,6.016666666666667
2026-01-20T23:06:02+00:00,SAT-64298,292.21428935339054,75.85116645580037,968.0914050781661,4.847940139966337,-169795.3704680807,10.5,10499830204.629532,47.655,-122.3035,60.0,6.033333333333333
2026-01-20T23:06:03+00:00,SAT-64298,293.0417358716305,75.59114799215641,972.9264173777591,4.874804726141212,-170736.2819130117,10.5,10499829263.718086,47.655,-122.3035,60.0,6.05
2026-01-20T23:06:04+00:00,SAT-64298,293.83235692727266,75.33060152632642,977.7882226246305,4.901264528992276,-171663.01613371106,10.5,10499828336.983866,47.655,-122.3035,60.0,6.066666666666666
2026-01-20T23:06:05+00:00,SAT-64298,294.58822127147505,75.06973049127373,982.6764171148789,4.92732535491742,-172575.77649479397,10.5,10499827424.223505,47.655,-122.3035,60.0,6.083333333333333
2026-01-20T23:06:06+00:00,SAT-64298,295.31127310041023,74.80872012194503,987.5906029355165,4.952992963839238,-173474.76473311413,10.5,10499826525.235268,47.655,-122.3035,60.0,6.1
2026-01-20T23:06:07+00:00,SAT-64298,296.00333793710024,74.54773902574622,992.5303879181189,4.978273141593942,-174360.1834931297,10.5,10499825639.816507,47.655,-122.3035,60.0,6.116666666666666
2026-01-20T23:06:08+00:00,SAT-64298,296.6661287545365,74.28694061639946,997.4953856646686,5.003171514508648,-175232.22983261576,10.5,10499824767.770168,47.655,-122.3035,60.0,6.133333333333334
2026-01-20T23:06:09+00:00,SAT-64298,297.3012521448472,74.02646443386395,1002.4852153884718,5.027693775786224,-176091.10315161882,10.5,10499823908.896849,47.655,-122.3035,60.0,6.15
2026-01-20T23:06:10+00:00,SAT-64298,297.9102144817939,73.76643733749081,1007.4995019808559,5.051845517089769,-176936.9992938334,10.5,10499823063.000706,47.655,-122.3035,60.0,6.166666666666667
2026-01-20T23:06:11+00:00,SAT-64298,298.4944279308208,73.50697460234207,1012.5378759099002,5.0756322717200755,-177770.11205885906,10.5,10499822229.887941,47.655,-122.3035,60.0,6.183333333333334
2026-01-20T23:06:12+00:00,SAT-64298,299.0552162781752,73.2481809160283,1017.5999731622289,5.09905956831451,-178590.63508296246,10.5,10499821409.364918,47.655,-122.3035,60.0,6.2
2026-01-20T23:06:13+00:00,SAT-64298,299.59382053603423,72.9901512838687,1022.6854352383614,5.122132822930231,-179398.75805937528,10.5,10499820601.241941,47.655,-122.3035,60.0,6.216666666666667
2026-01-20T23:06:14+00:00,SAT-64298,300.11140427700815,72.73297185841338,1027.7939090404304,5.144857443891072,-180194.67041047532,10.5,10499819805.32959,47.655,-122.3035,60.0,6.233333333333333
2026-01-20T23:06:15+00:00,SAT-64298,300.6090587076247,72.476720689586,1032.9250468644711,5.167238766640251,-180978.55900605288,10.5,10499819021.440994,47.655,-122.3035,60.0,6.25
2026-01-20T23:06:16+00:00,SAT-64298,301.08780745351044,72.22146841085622,1038.0785063277335,5.189282060705123,-181750.60840724618,10.5,10499818249.391592,47.655,-122.3035,60.0,6.266666666666667
2026-01-20T23:06:17+00:00,SAT-64298,301.54861106424676,71.9672788638537,1043.2539503029436,5.21099254592098,-182511.0014347669,10.5,10499817488.998566,47.655,-122.3035,60.0,6.283333333333333
2026-01-20T23:06:18+00:00,SAT-64298,301.99237124267256,71.71420966663075,1048.4510468687422,5.2323753916037745,-183259.9191399259,10.5,10499816740.08086,47.655,-122.3035,60.0,6.3
2026-01-20T23:06:19+00:00,SAT-64298,302.4199348043133,71.46231273157123,1053.6694692593016,5.253435707233316,-183997.54047831925,10.5,10499816002.459522,47.655,-122.3035,60.0,6.316666666666666
2026-01-20T23:06:20+00:00,SAT-64298,302.8320973763513,71.21163473805238,1058.908895804649,5.274178492622703,-184724.04056455076,10.5,10499815275.959435,47.655,-122.3035,60.0,6.333333333333333
2026-01-20T23:06:21+00:00,SAT-64298,303.2296068440917,70.96221756603451,1064.1690098212914,5.294608765562802,-185439.59514288185,10.5,10499814560.404858,47.655,-122.3035,60.0,6.35
2026-01-20T23:06:22+00:00,SAT-64298,303.6131665735877,70.71409868585795,1069.449499630146,5.3147314377133235,-186144.37624041195,10.5,10499813855.62376,47.655,-122.3035,60.0,6.366666666666666
2026-01-20T23:06:23+00:00,SAT-64298,303.9834384003193,70.46731151998989,1074.750058450692,5.3345513447396256,-186838.55322259662,10.5,10499813161.446777,47.655,-122.3035,60.0,6.383333333333334
2026-01-20T23:06:24+00:00,SAT-64298,304.3410454122512,70.22188577227926,1080.070384325179,5.354073276856715,-187522.29386302808,10.5,10499812477.706137,47.655,-122.3035,60.0,6.4
2026-01-20T23:06:25+00:00,SAT-64298,304.68657453858555,69.97784772774608,1085.4101800732974,5.373301988445532,-188195.76468023786,10.5,10499811804.23532,47.655,-122.3035,60.0,6.416666666666667
2026-01-20T23:06:26+00:00,SAT-64298,305.0205789562335,69.7352205264268,1090.7691532564406,5.392242111686846,-188859.12791279054,10.5,10499811140.872087,47.655,-122.3035,60.0,6.433333333333334
2026-01-20T23:06:27+00:00,SAT-64298,305.34358031847546,69.49402441810012,1096.1470160558297,5.410898269530882,-189512.5454759581,10.5,10499810487.454525,47.655,-122.3035,60.0,6.45
2026-01-20T23:06:28+00:00,SAT-64298,305.6560708331516,69.2542769907152,1101.5434852633082,5.429274980297867,-190156.17562042738,10.5,10499809843.824379,47.655,-122.3035,60.0,6.466666666666667
2026-01-20T23:06:29+00:00,SAT-64298,305.9585151855607,69.01599338411124,1106.9582821769918,5.447376726169283,-190790.1753311535,10.5,10499809209.824669,47.655,-122.3035,60.0,6.483333333333333
2026-01-20T23:06:30+00:00,SAT-64298,306.2513523292125,68.7791864831655,1112.3911325652248,5.465207930250766,-191414.6995240055,10.5,10499808585.300476,47.655,-122.3035,60.0,6.5
2026-01-20T23:06:31+00:00,SAT-64298,306.53499714684074,68.54386709621792,1117.8417666076618,5.482772915608318,-192029.89961104136,10.5,10499807970.10039,47.655,-122.3035,60.0,6.516666666666667
2026-01-20T23:06:32+00:00,SAT-64298,306.80984199136185,68.31004412079476,1123.3099187954952,5.500075964753403,-192635.92558392757,10.5,10499807364.074415,47.655,-122.3035,60.0,6.533333333333333
2026-01-20T23:06:33+00:00,SAT-64298,307.0762581207774,68.0777246935669,1128.795327891009,5.517121329756521,-193232.92636815924,10.5,10499806767.073631,47.655,-122.3035,60.0,6.55
2026-01-20T23:06:34+00:00,SAT-64298,307.3345970322279,67.84691432790854,1134.2977368972195,5.533913121014283,-193821.04592721266,10.5,10499806178.954073,47.655,-122.3035,60.0,6.566666666666666
2026-01-20T23:06:35+00:00,SAT-64298,307.5851916959672,67.61761704525672,1139.816892916578,5.55045547476666,-194400.4291297079,10.5,10499805599.57087,47.655,-122.3035,60.0,6.583333333333333
2026-01-20T23:06:36+00:00,SAT-64298,307.8283577119359,67.3898354892809,1145.352547176745,5.566752385780486,-194971.21588927734,10.5,10499805028.784111,47.655,-122.3035,60.0,6.6
2026-01-20T23:06:37+00:00,SAT-64298,308.0643943767344,67.16357103802197,1150.9044548894967,5.5828078620189,-195533.54658174375,10.5,10499804466.453419,47.655,-122.3035,60.0,6.616666666666666
2026-01-20T23:06:38+00:00,SAT-64298,308.29358568455643,66.93882390112614,1156.4723752638838,5.598625775011669,-196087.5568044561,10.5,10499803912.443195,47.655,-122.3035,60.0,6.633333333333334
2026-01-20T23:06:39+00:00,SAT-64298,308.51620125166085,66.71559321564031,1162.056071370162,5.614210006039516,-196633.3824962832,10.5,10499803366.617504,47.655,-122.3035,60.0,6.65
2026-01-20T23:06:40+00:00,SAT-64298,308.73249718439274,66.49387712874277,1167.6553101495188,5.629564324156297,-197171.1556654341,10.5,10499802828.844334,47.655,-122.3035,60.0,6.666666666666667
2026-01-20T23:06:41+00:00,SAT-64298,308.9427168823646,66.27367287902531,1173.2698623021438,5.644692466840934,-197701.0072142302,10.5,10499802298.992786,47.655,-122.3035,60.0,6.683333333333334
2026-01-20T23:06:42+00:00,SAT-64298,309.14709179087953,66.05497686857024,1178.89950225574,5.659598088694921,-198223.06514227478,10.5,10499801776.934858,47.655,-122.3035,60.0,6.7
2026-01-20T23:06:43+00:00,SAT-64298,309.34584210062803,65.83778473163126,1184.544008082865,5.674284809130615,-198737.45621669863,10.5,10499801262.543783,47.655,-122.3035,60.0,6.716666666666667
2026-01-20T23:06:44+00:00,SAT-64298,309.53917740244196,65.62209139645223,1190.2031614658379,5.688756199096789,-199244.3055072329,10.5,10499800755.694492,47.655,-122.3035,60.0,6.733333333333333
2026-01-20T23:06:45+00:00,SAT-64298,309.72729729802603,65.40789114303954,1195.8767476484038,5.703015714721905,-199743.73406211575,10.5,10499800256.265938,47.655,-122.3035,60.0,6.75
2026-01-20T23:06:46+00:00,SAT-64298,309.9103919681665,65.19517765920313,1201.5645553212198,5.717066812207096,-200235.86293213058,10.5,10499799764.137068,47.655,-122.3035,60.0,6.766666666666667
2026-01-20T23:06:47+00:00,SAT-64298,310.0886427077684,64.98394408832385,1207.2663766219275,5.730912877541413,-200720.81070893662,10.5,10499799279.189291,47.655,-122.3035,60.0,6.783333333333333
2026-01-20T23:06:48+00:00,SAT-64298,310.26222242385694,64.77418307620684,1212.982007065129,5.7445572311578745,-201198.69368814368,10.5,10499798801.306313,47.655,-122.3035,60.0,6.8
2026-01-20T23:06:49+00:00,SAT-64298,310.4312961014062,64.56588681445646,1218.7112454770038,5.75800314338945,-201669.6264106458,10.5,10499798330.373589,47.655,-122.3035,60.0,6.816666666666666
2026-01-20T23:06:50+00:00,SAT-64298,310.5960212400862,64.35904708018772,1224.4538939453444,5.771253844720867,-202133.7220216831,10.5,10499797866.277979,47.655,-122.3035,60.0,6.833333333333333
2026-01-20T23:06:51+00:00,SAT-64298,310.75654826349796,64.15365527256482,1230.2097577798124,5.78431244882813,-202591.08957536006,10.5,10499797408.910425,47.655,-122.3035,60.0,6.85
2026-01-20T23:06:52+00:00,SAT-64298,310.91302090027835,63.94970244949458,1235.9786453954437,5.797182133142904,-203041.84035877412,10.5,10499796958.159641,47.655,-122.3035,60.0,6.866666666666666
2026-01-20T23:06:53+00:00,SAT-64298,311.06557654697605,63.74717935540515,1241.7603683762316,5.809865896118877,-203486.07939045687,10.5,10499796513.92061,47.655,-122.3035,60.0,6.883333333333334
2026-01-20T23:06:54+00:00,SAT-64298,311.214346600926,63.546076455519966,1247.5547412966275,5.82236678228164,-203923.91330257288,10.5,10499796076.086697,47.655,-122.3035,60.0,6.9
2026-01-20T23:06:55+00:00,SAT-64298,311.3594567795197,63.34638395999976,1253.3615817674897,5.83468773149883,-204355.4450617224,10.5,10499795644.554937,47.655,-122.3035,60.0,6.916666666666667
2026-01-20T23:06:56+00:00,SAT-64298,311.50102741541946,63.148091851549864,1259.1807103317044,5.8468316381386956,-204780.77604092463,10.5,10499795219.223959,47.655,-122.3035,60.0,6.933333333333334
2026-01-20T23:06:57+00:00,SAT-64298,311.6391737356503,62.95118990913237,1265.0119504188083,5.8588013718600935,-205200.0067477714,10.5,10499794799.993252,47.655,-122.3035,60.0,6.95
2026-01-20T23:06:58+00:00,SAT-64298,311.7740061245441,62.755667729326674,1270.8551283203433,5.870599728748934,-205613.2351130188,10.5,10499794386.764887,47.655,-122.3035,60.0,6.966666666666667
2026-01-20T23:06:59+00:00,SAT-64298,311.90563036952346,62.56151474786309,1276.7100731164821,5.8822294866402,-206020.558428198,10.5,10499793979.441572,47.655,-122.3035,60.0,6.983333333333333
2026-01-20T23:07:00+00:00,SAT-64298,312.0341478939535,62.3687202578397,1282.5766166578246,5.893693331468757,-206422.07076610965,10.5,10499793577.929234,47.655,-122.3035,60.0,7.0
2026-01-20T23:07:01+00:00,SAT-64298,312.15965597434393,62.177273429102044,1288.454593473743,5.904993936967883,-206817.8657722029,10.5,10499793182.134228,47.655,-122.3035,60.0,7.016666666666667
2026-01-20T23:07:02+00:00,SAT-64298,312.28224794691465,61.98716332373458,1294.343840760212,5.916133911167435,-207208.03479071535,10.5,10499792791.96521,47.655,-122.3035,60.0,7.033333333333333
2026-01-20T23:07:03+00:00,SAT-64298,312.40201340091755,61.798378912188845,1300.2441983142833,5.927115856767068,-207592.6689791983,10.5,10499792407.33102,47.655,-122.3035,60.0,7.05
2026-01-20T23:07:04+00:00,SAT-64298,312.5190383623232,61.61090908639421,1306.1555085287655,5.937942267037058,-207971.8556625234,10.5,10499792028.144337,47.655,-122.3035,60.0,7.066666666666666
2026-01-20T23:07:05+00:00,SAT-64298,312.63340546459233,61.424742675250044,1312.0776162830905,5.948615656355831,-208345.68290485893,10.5,10499791654.317095,47.655,-122.3035,60.0,7.083333333333333
2026-01-20T23:07:06+00:00,SAT-64298,312.74519411282614,61.23986845499312,1318.0103689643627,5.9591384257484785,-208714.2348002598,10.5,10499791285.7652,47.655,-122.3035,60.0,7.1
2026-01-20T23:07:07+00:00,SAT-64298,312.8544806357001,61.05627516301004,1323.9536163543094,5.96951302927409,-209077.59730025608,10.5,10499790922.4027,47.655,-122.3035,60.0,7.116666666666666
2026-01-20T23:07:08+00:00,SAT-64298,312.96133843259804,60.87395150559491,1329.9072106821718,5.979741768458737,-209435.85101402632,10.5,10499790564.148987,47.655,-122.3035,60.0,7.133333333333334
2026-01-20T23:07:09+00:00,SAT-64298,313.0658381081954,60.69288617142738,1335.8710064725815,5.98982699436519,-209789.0782857336,10.5,10499790210.921715,47.655,-122.3035,60.0,7.15
2026-01-20T23:07:10+00:00,SAT-64298,313.16804760396394,60.51306783804141,1341.8448605949616,5.99977098250858,-210137.35881354325,10.5,10499789862.641186,47.655,-122.3035,60.0,7.166666666666667
2026-01-20T23:07:11+00:00,SAT-64298,313.2680323199454,60.334485181556076,1347.8286321881835,6.009575948177458,-210480.770186231,10.5,10499789519.229815,47.655,-122.3035,60.0,7.183333333333334
2026-01-20T23:07:12+00:00,SAT-64298,313.36585523023086,60.15712688530953,1353.8221826004992,6.019244087840744,-210819.3893334295,10.5,10499789180.610666,47.655,-122.3035,60.0,7.2
2026-01-20T23:07:13+00:00,SAT-64298,313.46157699317826,59.98098164666012,1359.8253753707722,6.0287775850722936,-211153.29273313168,10.5,10499788846.707268,47.655,-122.3035,60.0,7.216666666666667
2026-01-20T23:07:14+00:00,SAT-64298,313.555256055823,59.80603818312677,1365.8380762156178,6.038178544716625,-211482.55410589604,10.5,10499788517.445894,47.655,-122.3035,60.0,7.233333333333333
2026-01-20T23:07:15+00:00,SAT-64298,313.6469487514873,59.63228524001558,1371.8601529508817,6.047449039698242,-211807.24605430715,10.5,10499788192.753946,47.655,-122.3035,60.0,7.25
2026-01-20T23:07:16+00:00,SAT-64298,313.7367093932878,59.459711596152665,1377.8914754598075,6.056591137025971,-212127.44097375756,10.5,10499787872.559027,47.655,-122.3035,60.0,7.266666666666667
2026-01-20T23:07:17+00:00,SAT-64298,313.82459036320915,59.288306068468295,1383.9319156871347,6.0656068267911,-212443.2085656623,10.5,10499787556.791435,47.655,-122.3035,60.0,7.283333333333333
2026-01-20T23:07:18+00:00,SAT-64298,313.9106421952514,59.11805751825695,1389.9813475623878,6.0744980946148734,-212754.61837487645,10.5,10499787245.381624,47.655,-122.3035,60.0,7.3
2026-01-20T23:07:19+00:00,SAT-64298,313.9949136557318,58.94895485494634,1396.0396469954171,6.083266901697808,-213061.73909093798,10.5,10499786938.260908,47.655,-122.3035,60.0,7.316666666666666
2026-01-20T23:07:20+00:00,SAT-64298,314.0774518190354,58.780987040139664,1402.1066918520437,6.091915108482552,-213364.63587441813,10.5,10499786635.364126,47.655,-122.3035,60.0,7.333333333333333
2026-01-20T23:07:21+00:00,SAT-64298,314.15830213837603,58.614143093455674,1408.1823618535702,6.100444623809012,-213663.37558096484,10.5,10499786336.624418,47.655,-122.3035,60.0,7.35
2026-01-20T23:07:22+00:00,SAT-64298,314.2375085153772,58.44841209388854,1414.2665386250492,6.108857288249968,-213958.02267522246,10.5,10499786041.977325,47.655,-122.3035,60.0,7.366666666666666
2026-01-20T23:07:23+00:00,SAT-64298,314.31511336445305,58.28378318415134,1420.359105627197,6.117154873234645,-214248.63920013545,10.5,10499785751.3608,47.655,-122.3035,60.0,7.383333333333334
2026-01-20T23:07:24+00:00,SAT-64298,314.3911576738079,58.120245574776064,1426.4599480874365,6.125339212095214,-214535.28936675168,10.5,10499785464.710632,47.655,-122.3035,60.0,7.4
2026-01-20T23:07:25+00:00,SAT-64298,314.46568106573915,57.95778854434958,1432.5689530616326,6.133411992577434,-214818.0322870666,10.5,10499785181.967712,47.655,-122.3035,60.0,7.416666666666667
2026-01-20T23:07:26+00:00,SAT-64298,314.5387218505574,57.79640144522502,1438.6860092888967,6.141374975995432,-215096.92964975134,10.5,10499784903.07035,47.655,-122.3035,60.0,7.433333333333334
2026-01-20T23:07:27+00:00,SAT-64298,314.6103170814965,57.63607370302494,1444.811007264956,6.149229815202375,-215372.0393447154,10.5,10499784627.960655,47.655,-122.3035,60.0,7.45
2026-01-20T23:07:28+00:00,SAT-64298,314.6805026040208,57.47679482090228,1450.9438391339845,6.1569781651953575,-215643.4193369576,10.5,10499784356.580664,47.655,-122.3035,60.0,7.466666666666667
2026-01-20T23:07:29+00:00,SAT-64298,314.74931310466434,57.318554380589745,1457.0843986907394,6.1646216774802545,-215911.12746919962,10.5,10499784088.87253,47.655,-122.3035,60.0,7.483333333333333
2026-01-20T23:07:30+00:00,SAT-64298,314.8167821572372,57.161342043503915,1463.2325813770797,6.172161933913965,-216175.21914476124,10.5,10499783824.780855,47.655,-122.3035,60.0,7.5
2026-01-20T23:07:31+00:00,SAT-64298,314.88294226614306,57.0051475533764,1469.388284212503,6.179600493157477,-216435.74895454344,10.5,10499783564.251045,47.655,-122.3035,60.0,7.516666666666667
2026-01-20T23:07:32+00:00,SAT-64298,314.9478249081653,56.849960737531276,1475.5514057710122,6.186938907715709,-216692.77127383553,10.5,10499783307.228725,47.655,-122.3035,60.0,7.533333333333333
2026-01-20T23:07:33+00:00,SAT-64298,315.0114605727147,56.695771507568026,1481.721846174974,6.194178707926308,-216946.3397015352,10.5,10499783053.6603,47.655,-122.3035,60.0,7.55
2026-01-20T23:07:34+00:00,SAT-64298,315.0738787998081,56.54256986037126,1487.8995070730127,6.201321356170817,-217196.50545643005,10.5,10499782803.494543,47.655,-122.3035,60.0,7.566666666666666
2026-01-20T23:07:35+00:00,SAT-64298,315.13510821592934,56.39034588011131,1494.0842915722337,6.208368319999889,-217443.31993835157,10.5,10499782556.680061,47.655,-122.3035,60.0,7.583333333333333
2026-01-20T23:07:36+00:00,SAT-64298,315.1951765690652,56.2390897382965,1500.2761042433804,6.215321046766754,-217686.83383973228,10.5,10499782313.16616,47.655,-122.3035,60.0,7.6
2026-01-20T23:07:37+00:00,SAT-64298,315.25411076190653,56.08879169436897,1506.4748511006887,6.222180953588115,-217927.0967939934,10.5,10499782072.903206,47.655,-122.3035,60.0,7.616666666666666
2026-01-20T23:07:38+00:00,SAT-64298,315.3119368834186,55.93944209644964,1512.680439571734,6.228949396324939,-218164.1562891214,10.5,10499781835.84371,47.655,-122.3035,60.0,7.633333333333334
2026-01-20T23:07:39+00:00,SAT-64298,315.36868023869187,55.79103138272948,1518.8927784363354,6.2356277747120465,-218398.06134975047,10.5,10499781601.93865,47.655,-122.3035,60.0,7.65
2026-01-20T23:07:40+00:00,SAT-64298,315.42436537861414,55.64355008023333,1525.1117778703149,6.242217396692654,-218628.85778558467,10.5,10499781371.142214,47.655,-122.3035,60.0,7.666666666666667
2026-01-20T23:07:41+00:00,SAT-64298,315.47901612679544,55.49698880677973,1531.3373493539498,6.248719620486124,-218856.59316721137,10.5,10499781143.406834,47.655,-122.3035,60.0,7.683333333333334
2026-01-20T23:07:42+00:00,SAT-64298,315.53265560681535,55.351338269461465,1537.5694057221144,6.255135697440064,-219081.31132211696,10.5,10499780918.688679,47.655,-122.3035,60.0,7.7
2026-01-20T23:07:43+00:00,SAT-64298,315.58530626668295,55.20658926679334,1543.8078610576947,6.261466898076198,-219303.0567493465,10.5,10499780696.94325,47.655,-122.3035,60.0,7.716666666666667
2026-01-20T23:07:44+00:00,SAT-64298,315.63698990346165,55.062732687806985,1550.0526307107093,6.267714519320552,-219521.8748727354,10.5,10499780478.125128,47.655,-122.3035,60.0,7.733333333333333
2026-01-20T23:07:45+00:00,SAT-64298,315.68772768710795,54.91975951092492,1556.303631324645,6.273879740657186,-219737.8070028048,10.5,10499780262.192997,47.655,-122.3035,60.0,7.75
2026-01-20T23:07:46+00:00,SAT-64298,315.73754018159553,54.77766080616176,1562.5607807193273,6.279963778907293,-219950.8957577798,10.5,10499780049.104242,47.655,-122.3035,60.0,7.766666666666667
2026-01-20T23:07:47+00:00,SAT-64298,315.786447366907,54.63642773363125,1568.8239979281575,6.285967824435155,-220161.18282925294,10.5,10499779838.817171,47.655,-122.3035,60.0,7.783333333333333
2026-01-20T23:07:48+00:00,SAT-64298,315.8344686593378,54.496051543524224,1575.0932031717275,6.291893058571452,-220368.70959242157,10.5,10499779631.290407,47.655,-122.3035,60.0,7.8
2026-01-20T23:07:49+00:00,SAT-64298,315.8816229312778,54.35652357561778,1581.3683178488093,6.297740593862872,-220573.51501337686,10.5,10499779426.484987,47.655,-122.3035,60.0,7.816666666666666
2026-01-20T23:07:50+00:00,SAT-64298,315.92792852938163,54.217835260131096,1587.6492644677553,6.303511582473107,-220775.63944576491,10.5,10499779224.360554,47.655,-122.3035,60.0,7.833333333333333
2026-01-20T23:07:51+00:00,SAT-64298,315.97340329327943,54.079978116050505,1593.9359666860084,6.309207108835148,-220975.1208710162,10.5,10499779024.87913,47.655,-122.3035,60.0,7.85
2026-01-20T23:07:52+00:00,SAT-64298,316.0180645722987,53.94294375187574,1600.2283492425533,6.314828276000359,-221171.99792265543,10.5,10499778828.002077,47.655,-122.3035,60.0,7.866666666666666
2026-01-20T23:07:53+00:00,SAT-64298,316.0619292424594,53.80672386438081,1606.5263379764842,6.320376157646528,-221366.30820542038,10.5,10499778633.691795,47.655,-122.3035,60.0,7.883333333333334
2026-01-20T23:07:54+00:00,SAT-64298,316.1050137222452,53.67131023843412,1612.8298597977105,6.325851771897435,-221558.08737831246,10.5,10499778441.912622,47.655,-122.3035,60.0,7.9
2026-01-20T23:07:55+00:00,SAT-64298,316.14733398758955,53.53669474733988,1619.1388426315496,6.331256182989665,-221747.3727153986,10.5,10499778252.627285,47.655,-122.3035,60.0,7.916666666666667
2026-01-20T23:07:56+00:00,SAT-64298,316.188905587109,53.402869350953324,1625.453215464718,6.336590405714601,-221934.19975896564,10.5,10499778065.800241,47.655,-122.3035,60.0,7.933333333333334
2026-01-20T23:07:57+00:00,SAT-64298,316.22974365593586,53.26982609585449,1631.7729082960172,6.341855410603271,-222118.60250111547,10.5,10499777881.3975,47.655,-122.3035,60.0,7.95
2026-01-20T23:07:58+00:00,SAT-64298,316.26986292902535,53.137557115375685,1638.0978520921922,6.347052194181382,-222300.61584439364,10.5,10499777699.384155,47.655,-122.3035,60.0,7.966666666666667
2026-01-20T23:07:59+00:00,SAT-64298,316.30927775456723,53.006054628107954,1644.4279788138558,6.352181731060206,-222480.27392380952,10.5,10499777519.726076,47.655,-122.3035,60.0,7.983333333333333
2026-01-20T23:08:00+00:00,SAT-64298,316.34800210644744,52.875310937427074,1650.763221393633,6.357244958128654,-222657.60955317586,10.5,10499777342.390448,47.655,-122.3035,60.0,8.0
2026-01-20T23:08:01+00:00,SAT-64298,316.3860495961382,52.745318431330304,1657.1035136985402,6.362242796020232,-222832.65497697223,10.5,10499777167.345022,47.655,-122.3035,60.0,8.016666666666667
2026-01-20T23:08:02+00:00,SAT-64298,316.42343348424754,52.61606958180551,1663.4487905137712,6.3671761713369746,-223005.44264872142,10.5,10499776994.557352,47.655,-122.3035,60.0,8.033333333333333
2026-01-20T23:08:03+00:00,SAT-64298,316.4601666918805,52.48755694372749,1669.7989875486512,6.372045995456941,-223176.00448873825,10.5,10499776823.995512,47.655,-122.3035,60.0,8.05
2026-01-20T23:08:04+00:00,SAT-64298,316.49626181135915,52.35977315419317,1676.1540414214535,6.376853137335308,-223344.37093150866,10.5,10499776655.629068,47.655,-122.3035,60.0,8.066666666666666
2026-01-20T23:08:05+00:00,SAT-64298,316.53173111630974,52.232710932410704,1682.5138896170893,6.381598478022375,-223510.57283514095,10.5,10499776489.427164,47.655,-122.3035,60.0,8.083333333333334
2026-01-20T23:08:06+00:00,SAT-64298,316.5665865718137,52.10636307845622,1688.8784704991701,6.386282852063027,-223674.63942892713,10.5,10499776325.36057,47.655,-122.3035,60.0,8.1
2026-01-20T23:08:07+00:00,SAT-64298,316.6008398437921,51.98072247320634,1695.247723263628,6.390907143974892,-223836.60169241604,10.5,10499776163.398308,47.655,-122.3035,60.0,8.116666666666667
2026-01-20T23:08:08+00:00,SAT-64298,316.6345023086357,51.85578207635213,1701.6215879885522,6.395472127208489,-223996.48671511654,10.5,10499776003.513285,47.655,-122.3035,60.0,8.133333333333333
2026-01-20T23:08:09+00:00,SAT-64298,316.6675850614244,51.73153492761011,1708.0000055234214,6.399978658694514,-224154.32451036642,10.5,10499775845.67549,47.655,-122.3035,60.0,8.15
2026-01-20T23:08:10+00:00,SAT-64298,316.70009892516936,51.607974144060584,1714.3829175723592,6.404427511772437,-224310.14216378517,10.5,10499775689.857836,47.655,-122.3035,60.0,8.166666666666666
2026-01-20T23:08:11+00:00,SAT-64298,316.7320544586078,51.48509292079574,1720.770266610767,6.408819494591992,-224463.96798019484,10.5,10499775536.03202,47.655,-122.3035,60.0,8.183333333333334
2026-01-20T23:08:12+00:00,SAT-64298,316.76346196441847,51.36288452924947,1727.1619959200402,6.413155370521374,-224615.82869597882,10.5,10499775384.171305,47.655,-122.3035,60.0,8.2
2026-01-20T23:08:13+00:00,SAT-64298,316.7943314967614,51.241342317057594,1733.5580495429067,6.417435883901038,-224765.75038108832,10.5,10499775234.249619,47.655,-122.3035,60.0,8.216666666666667
2026-01-20T23:08:14+00:00,SAT-64298,316.8246728685539,51.120459707441476,1739.9583722644509,6.421661816189266,-224913.7604054979,10.5,10499775086.239595,47.655,-122.3035,60.0,8.233333333333333
2026-01-20T23:08:15+00:00,SAT-64298,316.85449565902366,51.00023019748408,1746.3629096491302,6.425833875917597,-225059.8835849792,10.5,10499774940.116415,47.655,-122.3035,60.0,8.25
2026-01-20T23:08:16+00:00,SAT-64298,316.8838092201082,50.88064735855964,1752.7716079680454,6.4299528202272676,-225204.14643782104,10.5,10499774795.853561,47.655,-122.3035,60.0,8.266666666666667
2026-01-20T23:08:17+00:00,SAT-64298,316.912622683589,50.761704834402416,1759.1844142474188,6.434019306382897,-225346.57198421058,10.5,10499774653.428017,47.655,-122.3035,60.0,8.283333333333333
2026-01-20T23:08:18+00:00,SAT-64298,316.9409449668472,50.643396342030016,1765.6012761689847,6.438034084120453,-225487.18648307273,10.5,10499774512.813517,47.655,-122.3035,60.0,8.3
2026-01-20T23:08:19+00:00,SAT-64298,316.96878477980454,50.52571566901128,1772.022142162214,6.441997836955372,-225626.01387400948,10.5,10499774373.986126,47.655,-122.3035,60.0,8.316666666666666
2026-01-20T23:08:20+00:00,SAT-64298,316.99615063049856,50.408656673752745,1778.446961338271,6.44591121526869,-225763.0769361157,10.5,10499774236.923063,47.655,-122.3035,60.0,8.333333333333334
2026-01-20T23:08:21+00:00,SAT-64298,317.0230508307508,50.29221328514174,1784.8756834569656,6.449774907630598,-225898.39978603224,10.5,10499774101.600214,47.655,-122.3035,60.0,8.35
2026-01-20T23:08:22+00:00,SAT-64298,317.0494935020435,50.17637950087747,1791.3082589648425,6.453589570215586,-226032.00540576523,10.5,10499773967.994595,47.655,-122.3035,60.0,8.366666666666667
2026-01-20T23:08:23+00:00,SAT-64298,317.0754865808047,50.06114938711518,1797.7446389628708,6.457355831487709,-226163.91580678435,10.5,10499773836.084192,47.655,-122.3035,60.0,8.383333333333333
2026-01-20T23:08:24+00:00,SAT-64298,317.10103782346755,49.9465170780349,1804.1847751788077,6.461074342877474,-226294.15380494154,10.5,10499773705.846195,47.655,-122.3035,60.0,8.4
2026-01-20T23:08:25+00:00,SAT-64298,317.1261548117551,49.83247677447459,1810.6286199901044,6.46474572879538,-226422.74126973364,10.5,10499773577.25873,47.655,-122.3035,60.0,8.416666666666666
2026-01-20T23:08:26+00:00,SAT-64298,317.15084495740814,49.719022743497916,1817.0761263969562,6.468370598405838,-226549.69953667512,10.5,10499773450.300463,47.655,-122.3035,60.0,8.433333333333334
2026-01-20T23:08:27+00:00,SAT-64298,317.17511550690585,49.60614931773819,1823.5272480070996,6.471949534007747,-226675.04900033656,10.5,10499773324.951,47.655,-122.3035,60.0,8.45
2026-01-20T23:08:28+00:00,SAT-64298,317.19897354587334,49.49385089496288,1829.9819390090165,6.475483180207238,-226798.81223755138,10.5,10499773201.187763,47.655,-122.3035,60.0,8.466666666666667
2026-01-20T23:08:29+00:00,SAT-64298,317.2224260039522,49.382121936054986,1836.4401542340765,6.478972089258022,-226921.00859058043,10.5,10499773078.99141,47.655,-122.3035,60.0,8.483333333333333
2026-01-20T23:08:30+00:00,SAT-64298,317.24547965854197,49.27095696575766,1842.90184906443,6.482416826090838,-227041.65784568805,10.5,10499772958.342154,47.655,-122.3035,60.0,8.5
2026-01-20T23:08:31+00:00,SAT-64298,317.2681411390818,49.16035057154621,1849.3669794456514,6.485817995858467,-227160.78119788427,10.5,10499772839.218801,47.655,-122.3035,60.0,8.516666666666667
2026-01-20T23:08:32+00:00,SAT-64298,317.2904169312813,49.050297402051214,1855.8355019268542,6.489176107080779,-227278.39645768603,10.5,10499772721.603542,47.655,-122.3035,60.0,8.533333333333333
2026-01-20T23:08:33+00:00,SAT-64298,317.3123133805527,48.94079216785246,1862.3073735643159,6.492491763308902,-227394.5247640068,10.5,10499772605.475237,47.655,-122.3035,60.0,8.55
2026-01-20T23:08:34+00:00,SAT-64298,317.33383669624556,48.831829638984644,1868.7825520162562,6.495765471996459,-227509.18389001908,10.5,10499772490.81611,47.655,-122.3035,60.0,8.566666666666666
2026-01-20T23:08:35+00:00,SAT-64298,317.35499295486494,48.723404645723974,1875.260995446994,6.498997764573872,-227622.39244866412,10.5,10499772377.607552,47.655,-122.3035,60.0,8.583333333333334
2026-01-20T23:08:36+00:00,SAT-64298,317.3757881037002,48.61551207733101,1881.7426625508622,6.5021891532585645,-227734.1683799628,10.5,10499772265.83162,47.655,-122.3035,60.0,8.6
2026-01-20T23:08:37+00:00,SAT-64298,317.39622796420514,48.50814688153133,1888.2275125330455,6.505340208150127,-227844.53165121432,10.5,10499772155.46835,47.655,-122.3035,60.0,8.616666666666667
2026-01-20T23:08:38+00:00,SAT-64298,317.41631823557856,48.40130406271907,1894.7155051673071,6.508451358912799,-227953.49731107775,10.5,10499772046.50269,47.655,-122.3035,60.0,8.633333333333333
2026-01-20T23:08:39+00:00,SAT-64298,317.4360644973375,48.29497868348777,1901.2066006559296,6.511523165084603,-228061.08495694157,10.5,10499771938.915043,47.655,-122.3035,60.0,8.65
2026-01-20T23:08:40+00:00,SAT-64298,317.45547221304804,48.189165861646096,1907.7007597592406,6.514556095871309,-228167.3110223765,10.5,10499771832.688978,47.655,-122.3035,60.0,8.666666666666666
2026-01-20T23:08:41+00:00,SAT-64298,317.47454673294453,48.08386077092046,1914.197943705523,6.51755063427126,-228272.1924240277,10.5,10499771727.807575,47.655,-122.3035,60.0,8.683333333333334
2026-01-20T23:08:42+00:00,SAT-64298,317.49329329689624,47.9790586399372,1920.6981142047696,6.520507240091468,-228375.74526628156,10.5,10499771624.254734,47.655,-122.3035,60.0,8.7
2026-01-20T23:08:43+00:00,SAT-64298,317.5117170372176,47.87475475179915,1927.2012334255542,6.523426409054064,-228477.98691142414,10.5,10499771522.013088,47.655,-122.3035,60.0,8.716666666666667
2026-01-20T23:08:44+00:00,SAT-64298,317.52982298151863,47.77094444273979,1933.7072640308504,6.526308591501228,-228578.9331323435,10.5,10499771421.066868,47.655,-122.3035,60.0,8.733333333333333
2026-01-20T23:08:45+00:00,SAT-64298,317.5476160552353,47.66762310208786,1940.2161691327744,6.52915425242711,-228678.60021510167,10.5,10499771321.399784,47.655,-122.3035,60.0,8.75
2026-01-20T23:08:46+00:00,SAT-64298,317.56510108425067,47.56478617127801,1946.727912307195,6.531963805707849,-228777.00265539173,10.5,10499771222.997345,47.655,-122.3035,60.0,8.766666666666667
2026-01-20T23:08:47+00:00,SAT-64298,317.5822827972304,47.4624291439149,1953.2424575427544,6.534737730123059,-228874.15722210103,10.5,10499771125.842777,47.655,-122.3035,60.0,8.783333333333333
2026-01-20T23:08:48+00:00,SAT-64298,317.5991658283133,47.36054756399976,1959.759769305597,6.537476448183022,-228970.07871332686,10.5,10499771029.921288,47.655,-122.3035,60.0,8.8
2026-01-20T23:08:49+00:00,SAT-64298,317.61575471928086,47.2591370260945,1966.2798124832518,6.540180352999541,-229064.7808975074,10.5,10499770935.219103,47.655,-122.3035,60.0,8.816666666666666
2026-01-20T23:08:50+00:00,SAT-64298,317.63205392169965,47.15819317506491,1972.80255235531,6.542849914878174,-229158.28024673264,10.5,10499770841.719753,47.655,-122.3035,60.0,8.833333333333334
2026-01-20T23:08:51+00:00,SAT-64298,317.6480677995121,47.057711704145326,1979.327954670415,6.5454855196672455,-229250.59027504313,10.5,10499770749.409725,47.655,-122.3035,60.0,8.85
2026-01-20T23:08:52+00:00,SAT-64298,317.66380063083216,46.95768835556873,1985.8559855620297,6.5480875803974685,-229341.72544852152,10.5,10499770658.274551,47.655,-122.3035,60.0,8.866666666666667
2026-01-20T23:08:53+00:00,SAT-64298,317.679256610186,46.85811891943937,1992.386611575546,6.550656498055513,-229431.69981141717,10.5,10499770568.300188,47.655,-122.3035,60.0,8.883333333333333
2026-01-20T23:08:54+00:00,SAT-64298,317.6944398504794,46.75899923323765,1998.9197996562737,6.553192673732485,-229520.5274116372,10.5,10499770479.472588,47.655,-122.3035,60.0,8.9
2026-01-20T23:08:55+00:00,SAT-64298,317.70935438503835,46.66032518113199,2005.4555171495429,6.555696468320069,-229608.220889135,10.5,10499770391.77911,47.655,-122.3035,60.0,8.916666666666666
2026-01-20T23:08:56+00:00,SAT-64298,317.72400416932123,46.562092693935256,2011.993731760614,6.558168326521491,-229694.7958192986,10.5,10499770305.20418,47.655,-122.3035,60.0,8.933333333333334
2026-01-20T23:08:57+00:00,SAT-64298,317.7383930831666,46.4642977471571,2018.5344116382648,6.560608558788386,-229780.2630754575,10.5,10499770219.736925,47.655,-122.3035,60.0,8.95
2026-01-20T23:08:58+00:00,SAT-64298,317.75252493206915,46.366936362401844,2025.0775252408964,6.563017564867619,-229864.63665843787,10.5,10499770135.363342,47.655,-122.3035,60.0,8.966666666666667
2026-01-20T23:08:59+00:00,SAT-64298,317.76640344931525,46.27000460535743,2031.623041425591,6.565395721866136,-229947.9297761201,10.5,10499770052.070225,47.655,-122.3035,60.0,8.983333333333333
2026-01-20T23:09:00+00:00,SAT-64298,317.78003229759287,46.173498585514466,2038.1709294255322,6.567743368548497,-230030.15429347195,10.5,10499769969.845707,47.655,-122.3035,60.0,9.0
2026-01-20T23:09:01+00:00,SAT-64298,317.79341507056347,46.07741445610249,2044.7211588117646,6.570060882085174,-230111.32342059896,10.5,10499769888.676579,47.655,-122.3035,60.0,9.016666666666667
2026-01-20T23:09:02+00:00,SAT-64298,317.8065552945712,45.98174841290888,2051.2736995314976,6.572348590335347,-230191.4486405163,10.5,10499769808.55136,47.655,-122.3035,60.0,9.033333333333333
2026-01-20T23:09:03+00:00,SAT-64298,317.8194564300985,45.88649669439111,2057.8285218589253,6.574606865916348,-230270.54300385917,10.5,10499769729.456997,47.655,-122.3035,60.0,9.05
2026-01-20T23:09:04+00:00,SAT-64298,317.8321218734284,45.79165558041615,2064.385596439866,6.576836009472441,-230348.61704046145,10.5,10499769651.38296,47.655,-122.3035,60.0,9.066666666666666
2026-01-20T23:09:05+00:00,SAT-64298,317.8445549579169,45.69722139272165,2070.9448942199797,6.579036400049938,-230425.68402612835,10.5,10499769574.315973,47.655,-122.3035,60.0,9.083333333333334
2026-01-20T23:09:06+00:00,SAT-64298,317.8567589556806,45.60319049318275,2077.506386522963,6.581208328646333,-230501.75415282295,10.5,10499769498.245848,47.655,-122.3035,60.0,9.1
2026-01-20T23:09:07+00:00,SAT-64298,317.86873707876407,45.50955928451084,2084.070044962733,6.583352141934591,-230576.83956249894,10.5,10499769423.160437,47.655,-122.3035,60.0,9.116666666666667
2026-01-20T23:09:08+00:00,SAT-64298,317.88049248064385,45.416324208881335,2090.6358414989554,6.585468148975605,-230650.95107977616,10.5,10499769349.04892,47.655,-122.3035,60.0,9.133333333333333
2026-01-20T23:09:09+00:00,SAT-64298,317.89202825749055,45.323481747905696,2097.2037483995337,6.587556687311665,-230724.1005268134,10.5,10499769275.899473,47.655,-122.3035,60.0,9.15
2026-01-20T23:09:10+00:00,SAT-64298,317.90334744952884,45.231028421671866,2103.773738269013,6.589618034180976,-230796.2976136653,10.5,10499769203.702387,47.655,-122.3035,60.0,9.166666666666666
2026-01-20T23:09:11+00:00,SAT-64298,317.9144530421442,45.138960789053925,2110.345783988436,6.591652523553297,-230867.55403736545,10.5,10499769132.445963,47.655,-122.3035,60.0,9.183333333333334
2026-01-20T23:09:12+00:00,SAT-64298,317.9253479672647,45.04727544636352,2116.919858771926,6.593660434774925,-230937.87958180296,10.5,10499769062.120419,47.655,-122.3035,60.0,9.2
2026-01-20T23:09:13+00:00,SAT-64298,317.936035104423,44.95596902758855,2123.4959361122087,6.59564208754227,-231007.28544409826,10.5,10499768992.714556,47.655,-122.3035,60.0,9.216666666666667
2026-01-20T23:09:14+00:00,SAT-64298,317.9465172820254,44.865038203297395,2130.0739898208503,6.5975977411058615,-231075.78070430158,10.5,10499768924.219296,47.655,-122.3035,60.0,9.233333333333333
2026-01-20T23:09:15+00:00,SAT-64298,317.9567972783228,44.77447968096805,2136.65399396798,6.59952775701654,-231143.37802545278,10.5,10499768856.621975,47.655,-122.3035,60.0,9.25
2026-01-20T23:09:16+00:00,SAT-64298,317.9668778228143,44.6842902030477,2143.2359229843114,6.6014323132566854,-231210.08364124756,10.5,10499768789.916359,47.655,-122.3035,60.0,9.266666666666667
2026-01-20T23:09:17+00:00,SAT-64298,317.97676159678304,44.59446654900197,2149.8197514780663,6.6033117688713645,-231275.910126963,10.5,10499768724.089872,47.655,-122.3035,60.0,9.283333333333333
2026-01-20T23:09:18+00:00,SAT-64298,317.9864512349039,44.5050055322953,2156.405454415554,6.605166388786141,-231340.8667614129,10.5,10499768659.133238,47.655,-122.3035,60.0,9.3
2026-01-20T23:09:19+00:00,SAT-64298,317.99594932595096,44.41590400121458,2162.9930070273035,6.60699641207801,-231404.96191808503,10.5,10499768595.038082,47.655,-122.3035,60.0,9.316666666666666
