satellites_20260120_184412/SAT-54799.csv

timestamp,satellite,azimuth_deg,elevation_deg,distance_km,relative_velocity_kms,doppler_shift_hz,tx_freq_ghz,rx_freq_hz,ue_lat,ue_lon,ue_alt_m,time_minutes
2026-01-20T23:12:58+00:00,SAT-54799,207.68940561065654,40.04967226827188,1264.3795627978516,-5.9587587398808735,208700.93659510664,10.5,10500208700.936596,47.655,-122.3035,60.0,12.966666666666667
2026-01-20T23:12:59+00:00,SAT-54799,207.63982843884108,40.238479488960756,1258.4366940812772,-5.948636385917495,208346.40894179433,10.5,10500208346.408941,47.655,-122.3035,60.0,12.983333333333333
2026-01-20T23:13:00+00:00,SAT-54799,207.58980217726824,40.42882207386212,1252.503920725722,-5.9383627054065915,207986.581192677,10.5,10500207986.581192,47.655,-122.3035,60.0,13.0
2026-01-20T23:13:01+00:00,SAT-54799,207.53931668604423,40.620719059430364,1246.5813936541965,-5.927935123568837,207621.36316809137,10.5,10500207621.363169,47.655,-122.3035,60.0,13.016666666666667
2026-01-20T23:13:02+00:00,SAT-54799,207.48836151686447,40.814189734816374,1240.6692663576239,-5.917350976004408,207250.6615494853,10.5,10500207250.661549,47.655,-122.3035,60.0,13.033333333333333
2026-01-20T23:13:03+00:00,SAT-54799,207.4369259015481,41.009253642798186,1234.7676949842223,-5.906607589037463,206874.3826934211,10.5,10500206874.382694,47.655,-122.3035,60.0,13.05
2026-01-20T23:13:04+00:00,SAT-54799,207.3849987393772,41.20593058331014,1228.8768383487557,-5.895702197063839,206492.42973674243,10.5,10500206492.429737,47.655,-122.3035,60.0,13.066666666666666
2026-01-20T23:13:05+00:00,SAT-54799,207.3325685845053,41.404240614198144,1222.996858024217,-5.88463202272247,206104.70540451666,10.5,10500206104.705404,47.655,-122.3035,60.0,13.083333333333334
2026-01-20T23:13:06+00:00,SAT-54799,207.27962363212407,41.60420405460451,1217.1279183535553,-5.873394200547061,205711.10933599318,10.5,10500205711.109337,47.655,-122.3035,60.0,13.1
2026-01-20T23:13:07+00:00,SAT-54799,207.22615170459073,41.8058414857382,1211.2701865375432,-5.861985826146255,205311.53980710107,10.5,10500205311.539806,47.655,-122.3035,60.0,13.116666666666667
2026-01-20T23:13:08+00:00,SAT-54799,207.17214023646912,42.00917375323579,1205.4238326736,-5.850403950795918,204905.89354104814,10.5,10500204905.893541,47.655,-122.3035,60.0,13.133333333333333
2026-01-20T23:13:09+00:00,SAT-54799,207.11757625892648,42.21422196930309,1199.5890298000058,-5.838645553786406,204494.06473980495,10.5,10500204494.06474,47.655,-122.3035,60.0,13.15
2026-01-20T23:13:10+00:00,SAT-54799,207.06244638353814,42.42100751380707,1193.7659539676965,-5.826707564269137,204075.94584926462,10.5,10500204075.945848,47.655,-122.3035,60.0,13.166666666666666
2026-01-20T23:13:11+00:00,SAT-54799,207.0067367851835,42.629552036061035,1187.9547842902653,-5.814586862171399,203651.42759128282,10.5,10500203651.427591,47.655,-122.3035,60.0,13.183333333333334
2026-01-20T23:13:12+00:00,SAT-54799,206.95043318401653,42.83987745654677,1182.1557029930598,-5.802280229711675,203220.39726553956,10.5,10500203220.397266,47.655,-122.3035,60.0,13.2
2026-01-20T23:13:13+00:00,SAT-54799,206.8935208269996,43.05200596678096,1176.3688955106272,-5.789784449281236,202782.7421777668,10.5,10500202782.742178,47.655,-122.3035,60.0,13.216666666666667
2026-01-20T23:13:14+00:00,SAT-54799,206.8359844676329,43.265960032638645,1170.5945504865442,-5.777096207923995,202338.34629422845,10.5,10500202338.346294,47.655,-122.3035,60.0,13.233333333333333
2026-01-20T23:13:15+00:00,SAT-54799,206.77780834550495,43.48176239408793,1164.8328598685077,-5.764212120329627,201887.09104703722,10.5,10500201887.091047,47.655,-122.3035,60.0,13.25
2026-01-20T23:13:16+00:00,SAT-54799,206.718976164565,43.699436065580606,1159.0840189804992,-5.751128779597872,201428.85711213475,10.5,10500201428.857113,47.655,-122.3035,60.0,13.266666666666667
2026-01-20T23:13:17+00:00,SAT-54799,206.65947106986334,43.91900433826113,1153.3482265443135,-5.737842654844702,200963.52082302675,10.5,10500200963.520823,47.655,-122.3035,60.0,13.283333333333333
2026-01-20T23:13:18+00:00,SAT-54799,206.59927562396302,44.14049077809098,1147.625684803215,-5.724350226086634,200490.95889500217,10.5,10500200490.958895,47.655,-122.3035,60.0,13.3
2026-01-20T23:13:19+00:00,SAT-54799,206.53837178091658,44.36391922901703,1141.9165995110648,-5.710647822898885,200011.04277425914,10.5,10500200011.042774,47.655,-122.3035,60.0,13.316666666666666
2026-01-20T23:13:20+00:00,SAT-54799,206.47674086032896,44.58931380966944,1136.2211800823602,-5.6967317979001075,199523.6447140746,10.5,10500199523.644714,47.655,-122.3035,60.0,13.333333333333334
2026-01-20T23:13:21+00:00,SAT-54799,206.41436351842876,44.81669891668319,1130.5396395692546,-5.6825983670399,199028.63218099688,10.5,10500199028.632181,47.655,-122.3035,60.0,13.35
2026-01-20T23:13:22+00:00,SAT-54799,206.35121971909055,45.04609922149647,1124.87219479786,-5.668243717859261,198525.87164658506,10.5,10500198525.871647,47.655,-122.3035,60.0,13.366666666666667
2026-01-20T23:13:23+00:00,SAT-54799,206.28728870225606,45.277539671223366,1119.2190663965816,-5.653663929114242,198015.22577228924,10.5,10500198015.225773,47.655,-122.3035,60.0,13.383333333333333
2026-01-20T23:13:24+00:00,SAT-54799,206.22254895139537,45.51104548601586,1113.580478904612,-5.63885504884231,197496.55614366473,10.5,10500197496.556143,47.655,-122.3035,60.0,13.4
2026-01-20T23:13:25+00:00,SAT-54799,206.15697815841716,45.74664215936284,1107.9566608025664,-5.623813044327862,196969.72151795277,10.5,10500196969.721518,47.655,-122.3035,60.0,13.416666666666666
2026-01-20T23:13:26+00:00,SAT-54799,206.09055318709846,45.98435545606953,1102.3478445930234,-5.608533806012848,196434.577961047,10.5,10500196434.577961,47.655,-122.3035,60.0,13.433333333333334
2026-01-20T23:13:27+00:00,SAT-54799,206.02325003445787,46.224211410074716,1096.75426687716,-5.593013141749439,195890.97864619765,10.5,10500195890.978645,47.655,-122.3035,60.0,13.45
2026-01-20T23:13:28+00:00,SAT-54799,205.9550437899627,46.466236321666734,1091.176168437122,-5.577246800825225,195338.77469547573,10.5,10500195338.774696,47.655,-122.3035,60.0,13.466666666666667
2026-01-20T23:13:29+00:00,SAT-54799,205.8859085921878,46.71045675539545,1085.613794294432,-5.561230443185562,194777.81410180905,10.5,10500194777.814102,47.655,-122.3035,60.0,13.483333333333333
2026-01-20T23:13:30+00:00,SAT-54799,205.81581758326845,46.956899536257296,1080.0673937990953,-5.544959692370749,194207.94358306658,10.5,10500194207.943583,47.655,-122.3035,60.0,13.5
2026-01-20T23:13:31+00:00,SAT-54799,205.74474286013097,47.205591747852075,1074.537220665904,-5.528430037862238,193629.0051618093,10.5,10500193629.005161,47.655,-122.3035,60.0,13.516666666666667
2026-01-20T23:13:32+00:00,SAT-54799,205.67265542395634,47.45656072572026,1069.0235331081426,-5.511636927212341,193040.83939206228,10.5,10500193040.839392,47.655,-122.3035,60.0,13.533333333333333
2026-01-20T23:13:33+00:00,SAT-54799,205.59952512561213,47.70983405434644,1063.5265938794028,-5.494575743079668,192443.28455499877,10.5,10500192443.284555,47.655,-122.3035,60.0,13.55
2026-01-20T23:13:34+00:00,SAT-54799,205.5253206080091,47.96543956267256,1058.0466703383047,-5.477241744034626,191836.17458569814,10.5,10500191836.174585,47.655,-122.3035,60.0,13.566666666666666
2026-01-20T23:13:35+00:00,SAT-54799,205.4500092457819,48.22340531632614,1052.5840345722545,-5.459630147398471,191219.34197452007,10.5,10500191219.341974,47.655,-122.3035,60.0,13.583333333333334
2026-01-20T23:13:36+00:00,SAT-54799,205.37355708019422,48.48375961311992,1047.1389634385823,-5.441736100831537,190592.61677200408,10.5,10500190592.616772,47.655,-122.3035,60.0,13.6
2026-01-20T23:13:37+00:00,SAT-54799,205.29592875042712,48.746530976703134,1041.7117386340194,-5.423554638873076,189955.825066711,10.5,10500189955.825068,47.655,-122.3035,60.0,13.616666666666667
2026-01-20T23:13:38+00:00,SAT-54799,205.21708742110502,49.0117481474405,1036.3026468075168,-5.405080725996627,189308.79049320373,10.5,10500189308.790493,47.655,-122.3035,60.0,13.633333333333333
2026-01-20T23:13:39+00:00,SAT-54799,205.13699470475223,49.279440074665025,1030.911979630123,-5.386309255133245,188651.33418032507,10.5,10500188651.33418,47.655,-122.3035,60.0,13.65
2026-01-20T23:13:40+00:00,SAT-54799,205.0556105793144,49.549635908161,1025.5400338663367,-5.3672350243730635,187983.2739351874,10.5,10500187983.273935,47.655,-122.3035,60.0,13.666666666666666
2026-01-20T23:13:41+00:00,SAT-54799,204.97289330069333,49.822364987705534,1020.1871114686952,-5.347852792524895,187304.4261891051,10.5,10500187304.42619,47.655,-122.3035,60.0,13.683333333333334
2026-01-20T23:13:42+00:00,SAT-54799,204.88879930886802,50.09765683464977,1014.8535196169504,-5.328157158320901,186614.6017668312,10.5,10500186614.601767,47.655,-122.3035,60.0,13.7
2026-01-20T23:13:43+00:00,SAT-54799,204.80328312954236,50.375541136373634,1009.5395708777183,-5.308142717873245,185913.61140135513,10.5,10500185913.6114,47.655,-122.3035,60.0,13.716666666666667
2026-01-20T23:13:44+00:00,SAT-54799,204.71629726705208,50.656047737962744,1004.2455832070927,-5.2878039487562765,185201.26167397082,10.5,10500185201.261675,47.655,-122.3035,60.0,13.733333333333333
2026-01-20T23:13:45+00:00,SAT-54799,204.62779209176196,50.9392066268965,998.9718800688665,-5.267135242773363,184477.35616190956,10.5,10500184477.356161,47.655,-122.3035,60.0,13.75
2026-01-20T23:13:46+00:00,SAT-54799,204.53771571939114,51.22504791833818,993.7187905200739,-5.246130919872205,183741.6959257132,10.5,10500183741.695927,47.655,-122.3035,60.0,13.766666666666667
2026-01-20T23:13:47+00:00,SAT-54799,204.44601388186814,51.513601840058115,988.4866492826546,-5.224785232975718,182994.0796784322,10.5,10500182994.079678,47.655,-122.3035,60.0,13.783333333333333
2026-01-20T23:13:48+00:00,SAT-54799,204.35262978917876,51.804898716479684,983.2757968103002,-5.203092326994615,182234.30235007266,10.5,10500182234.302351,47.655,-122.3035,60.0,13.8
2026-01-20T23:13:49+00:00,SAT-54799,204.25750398219733,52.098968949152066,978.0865793961775,-5.181046281252707,181462.15657351,10.5,10500181462.156574,47.655,-122.3035,60.0,13.816666666666666
2026-01-20T23:13:50+00:00,SAT-54799,204.16057417447578,52.395842998222726,972.9193492383415,-5.158641104228854,180677.43250032986,10.5,10500180677.4325,47.655,-122.3035,60.0,13.833333333333334
2026-01-20T23:13:51+00:00,SAT-54799,204.06177508272975,52.695551362214374,967.7744645103907,-5.1358707177127165,179879.91724589522,10.5,10500179879.917246,47.655,-122.3035,60.0,13.85
2026-01-20T23:13:52+00:00,SAT-54799,203.96103824541927,52.99812455537186,962.6522894479251,-5.112728956655198,179069.3948841087,10.5,10500179069.394884,47.655,-122.3035,60.0,13.866666666666667
2026-01-20T23:13:53+00:00,SAT-54799,203.85829182798741,53.303593083304676,957.5531944351543,-5.0892095936474995,178245.64730477225,10.5,10500178245.647305,47.655,-122.3035,60.0,13.883333333333333
2026-01-20T23:13:54+00:00,SAT-54799,203.75346041331588,53.61198741837376,952.47755606709,-5.065306317143384,177408.45345083874,10.5,10500177408.453451,47.655,-122.3035,60.0,13.9
2026-01-20T23:13:55+00:00,SAT-54799,203.6464647768182,53.923337971908985,947.425757233459,-5.041012759832456,176557.5903121645,10.5,10500176557.590313,47.655,-122.3035,60.0,13.916666666666666
2026-01-20T23:13:56+00:00,SAT-54799,203.5372216439851,54.23767506622177,942.3981871743194,-5.016322460389761,175692.83158581823,10.5,10500175692.831585,47.655,-122.3035,60.0,13.933333333333334
2026-01-20T23:13:57+00:00,SAT-54799,203.4256434300314,54.5550289021244,937.3952415738239,-4.991228883843837,174813.94838945643,10.5,10500174813.94839,47.655,-122.3035,60.0,13.95
2026-01-20T23:13:58+00:00,SAT-54799,203.31163795898212,54.87542952542432,932.4173226336704,-4.965725461177958,173920.71064832647,10.5,10500173920.710648,47.655,-122.3035,60.0,13.966666666666667
2026-01-20T23:13:59+00:00,SAT-54799,203.19510815973928,55.198906793606675,927.4648391070556,-4.939805532231651,173012.88509543604,10.5,10500173012.885096,47.655,-122.3035,60.0,13.983333333333333
2026-01-20T23:14:00+00:00,SAT-54799,203.0759517392234,55.525490336316686,922.5382063895765,-4.913462364813055,172090.23594094915,10.5,10500172090.23594,47.655,-122.3035,60.0,14.0
2026-01-20T23:14:01+00:00,SAT-54799,202.95406082867797,55.85520951424103,917.6378465910695,-4.886689196448162,171152.52633442066,10.5,10500171152.526335,47.655,-122.3035,60.0,14.016666666666667
2026-01-20T23:14:02+00:00,SAT-54799,202.82932160016514,56.18809337791611,912.764188565812,-4.859479172807829,170199.5162082503,10.5,10500170199.516209,47.655,-122.3035,60.0,14.033333333333333
2026-01-20T23:14:03+00:00,SAT-54799,202.7016138526738,56.524170619217514,907.9176680041317,-4.831825419798375,169230.9648026,10.5,10500169230.964802,47.655,-122.3035,60.0,14.05
2026-01-20T23:14:04+00:00,SAT-54799,202.57081056181994,56.86346952446059,903.0987274521194,-4.803720982036114,168246.62851051174,10.5,10500168246.628511,47.655,-122.3035,60.0,14.066666666666666
2026-01-20T23:14:05+00:00,SAT-54799,202.43677739269262,57.206017919581576,898.3078163927021,-4.775158867128539,167246.2624288222,10.5,10500167246.262428,47.655,-122.3035,60.0,14.083333333333334
2026-01-20T23:14:06+00:00,SAT-54799,202.29937216967758,57.55184311457367,893.5453912825525,-4.74613206719947,166229.62111206425,10.5,10500166229.621113,47.655,-122.3035,60.0,14.1
2026-01-20T23:14:07+00:00,SAT-54799,202.15844429920182,57.900971845364076,888.8119155675323,-4.716633495690393,165196.4563589826,10.5,10500165196.45636,47.655,-122.3035,60.0,14.116666666666667
2026-01-20T23:14:08+00:00,SAT-54799,202.013834143157,58.2534302066212,884.1078597611637,-4.686656032387465,164146.51878957005,10.5,10500164146.51879,47.655,-122.3035,60.0,14.133333333333333
2026-01-20T23:14:09+00:00,SAT-54799,201.8653723346884,58.6092435828852,879.433701478196,-4.656192561129008,163079.5591657432,10.5,10500163079.559166,47.655,-122.3035,60.0,14.15
2026-01-20T23:14:10+00:00,SAT-54799,201.71287903048886,58.96843657744588,874.7899254305632,-4.625235937852078,161995.32727219848,10.5,10500161995.327272,47.655,-122.3035,60.0,14.166666666666666
2026-01-20T23:14:11+00:00,SAT-54799,201.55616309475877,59.33103293322957,870.1770234552122,-4.593778981336002,160893.57159221137,10.5,10500160893.571592,47.655,-122.3035,60.0,14.183333333333334
2026-01-20T23:14:12+00:00,SAT-54799,201.39502120692484,59.697055446780666,865.5954945511596,-4.561814490871664,159774.03992648964,10.5,10500159774.039927,47.655,-122.3035,60.0,14.2
2026-01-20T23:14:13+00:00,SAT-54799,201.22923688370972,60.06652587685855,861.0458448989305,-4.529335285852829,158636.48077982903,10.5,10500158636.48078,47.655,-122.3035,60.0,14.216666666666667
2026-01-20T23:14:14+00:00,SAT-54799,201.05857940531763,60.43946484909351,856.5285878405065,-4.496334198052354,157480.6430905934,10.5,10500157480.643091,47.655,-122.3035,60.0,14.233333333333333
2026-01-20T23:14:15+00:00,SAT-54799,200.88280263617304,60.815891752223045,852.0442438669822,-4.462804026950559,156306.27466612542,10.5,10500156306.274666,47.655,-122.3035,60.0,14.25
2026-01-20T23:14:16+00:00,SAT-54799,200.70164372980813,61.195824621958316,847.5933406507702,-4.428737620270015,155113.12500341542,10.5,10500155113.125004,47.655,-122.3035,60.0,14.266666666666667
2026-01-20T23:14:17+00:00,SAT-54799,200.51482169937793,61.57928002213232,843.1764129974875,-4.394127839680373,153900.9440879394,10.5,10500153900.944088,47.655,-122.3035,60.0,14.283333333333333
2026-01-20T23:14:18+00:00,SAT-54799,200.32203584230794,61.9662729126626,838.7940028320463,-4.358967599475403,152669.48374829275,10.5,10500152669.483747,47.655,-122.3035,60.0,14.3
2026-01-20T23:14:19+00:00,SAT-54799,200.12296399842526,62.35681650952648,834.4466591461695,-4.323249816863133,151418.49591514043,10.5,10500151418.495914,47.655,-122.3035,60.0,14.316666666666666
2026-01-20T23:14:20+00:00,SAT-54799,199.91726062509113,62.750922127726774,830.1349379954848,-4.2869675098703315,150147.73605024608,10.5,10500150147.73605,47.655,-122.3035,60.0,14.333333333333334
2026-01-20T23:14:21+00:00,SAT-54799,199.70455465970397,63.1485990191718,825.859402398974,-4.25011373349954,148856.96091042148,10.5,10500148856.96091,47.655,-122.3035,60.0,14.35
2026-01-20T23:14:22+00:00,SAT-54799,199.4844471501221,63.54985418944166,821.6206223020971,-4.212681612881663,147545.92970867018,10.5,10500147545.929708,47.655,-122.3035,60.0,14.366666666666667
2026-01-20T23:14:23+00:00,SAT-54799,199.25650861857633,63.954692200357165,817.4191745068498,-4.174664364716352,146214.4048651207,10.5,10500146214.404865,47.655,-122.3035,60.0,14.383333333333333
2026-01-20T23:14:24+00:00,SAT-54799,199.0202761245786,64.3631149554425,813.2556425804395,-4.136055315941593,144862.15266091426,10.5,10500144862.15266,47.655,-122.3035,60.0,14.4
2026-01-20T23:14:25+00:00,SAT-54799,198.77524998677706,64.77512146591195,809.1306167453404,-4.09684786266586,143488.9417998352,10.5,10500143488.9418,47.655,-122.3035,60.0,14.416666666666666
2026-01-20T23:14:26+00:00,SAT-54799,198.52089012109673,65.19070758841903,805.0446938103082,-4.057035570722191,142094.54693013994,10.5,10500142094.54693,47.655,-122.3035,60.0,14.433333333333334
2026-01-20T23:14:27+00:00,SAT-54799,198.25661193381464,65.60986574580781,800.998477001108,-4.016612100936255,140678.7460271288,10.5,10500140678.746027,47.655,-122.3035,60.0,14.45
2026-01-20T23:14:28+00:00,SAT-54799,197.98178171788126,66.03258460967054,796.9925758657743,-3.9755712752761028,139241.32270998985,10.5,10500139241.32271,47.655,-122.3035,60.0,14.466666666666667
2026-01-20T23:14:29+00:00,SAT-54799,197.69571147279106,66.45884875484714,793.027606113899,-3.9339070866821593,137782.06658608693,10.5,10500137782.066586,47.655,-122.3035,60.0,14.483333333333333
2026-01-20T23:14:30+00:00,SAT-54799,197.39765306786666,66.88863827552265,789.1041894461146,-3.891613683330577,136300.77269979572,10.5,10500136300.7727,47.655,-122.3035,60.0,14.5
2026-01-20T23:14:31+00:00,SAT-54799,197.08679165398416,67.32192835434489,785.2229533992729,-3.848685417608851,134797.24324783694,10.5,10500134797.243248,47.655,-122.3035,60.0,14.516666666666667
2026-01-20T23:14:32+00:00,SAT-54799,196.76223820606873,67.75868878504835,781.3845311427776,-3.805116840977337,133271.28739930489,10.5,10500133271.2874,47.655,-122.3035,60.0,14.533333333333333
2026-01-20T23:14:33+00:00,SAT-54799,196.42302106749545,68.19888343485505,777.5895612800429,-3.760902740071148,131722.72256010876,10.5,10500131722.72256,47.655,-122.3035,60.0,14.55
2026-01-20T23:14:34+00:00,SAT-54799,196.06807633785806,68.64246964219234,773.8386876139452,-3.7160381167233103,130151.37367329888,10.5,10500130151.373672,47.655,-122.3035,60.0,14.566666666666666
2026-01-20T23:14:35+00:00,SAT-54799,195.69623692597128,69.08939753211716,770.1325589321998,-3.6705182541039707,128557.07553554165,10.5,10500128557.075535,47.655,-122.3035,60.0,14.583333333333334
2026-01-20T23:14:36+00:00,SAT-54799,195.30622004530386,69.53960924678381,766.4718287267735,-3.6243386876032186,126939.67177731267,10.5,10500126939.671778,47.655,-122.3035,60.0,14.6
2026-01-20T23:14:37+00:00,SAT-54799,194.89661290587168,69.993038063835,762.8571549423373,-3.5774952437420438,125299.01622572327,10.5,10500125299.016226,47.655,-122.3035,60.0,14.616666666666667
2026-01-20T23:14:38+00:00,SAT-54799,194.465856295969,70.449607392402,759.2891996859119,-3.529984068489195,123634.97389629643,10.5,10500123634.973896,47.655,-122.3035,60.0,14.633333333333333
2026-01-20T23:14:39+00:00,SAT-54799,194.0122256970799,70.90922962299098,755.768628908272,-3.4818016278339465,121947.42101302775,10.5,10500121947.421013,47.655,-122.3035,60.0,14.65
2026-01-20T23:14:40+00:00,SAT-54799,193.53380951183263,71.37180480077599,752.296112084779,-3.4329447391629513,120236.24610733533,10.5,10500120236.246107,47.655,-122.3035,60.0,14.666666666666666
2026-01-20T23:14:41+00:00,SAT-54799,193.02848389751423,71.83721909330767,748.8723218649204,-3.383410572978786,118501.35007825063,10.5,10500118501.350079,47.655,-122.3035,60.0,14.683333333333334
2026-01-20T23:14:42+00:00,SAT-54799,192.49388360928359,72.30534300885111,745.4979337201362,-3.3331966747921498,116742.64695917591,10.5,10500116742.64696,47.655,-122.3035,60.0,14.7
2026-01-20T23:14:43+00:00,SAT-54799,191.92736813609076,72.77602931917812,742.1736255698102,-3.2823010151065533,114960.06566855931,10.5,10500114960.065668,47.655,-122.3035,60.0,14.716666666666667
2026-01-20T23:14:44+00:00,SAT-54799,191.3259822724753,73.2491106315901,738.9000773574106,-3.230721968020867,113153.54926046572,10.5,10500113153.549261,47.655,-122.3035,60.0,14.733333333333333
2026-01-20T23:14:45+00:00,SAT-54799,190.68641012292323,73.72439652674186,735.6779706479712,-3.1784583596617755,111323.05662088617,10.5,10500111323.056622,47.655,-122.3035,60.0,14.75
2026-01-20T23:14:46+00:00,SAT-54799,190.004921321633,74.20167018220823,732.5079881772684,-3.1255094700446238,109468.56253291252,10.5,10500109468.562532,47.655,-122.3035,60.0,14.766666666666667
2026-01-20T23:14:47+00:00,SAT-54799,189.27730804556273,74.6806843636808,729.3908133991439,-3.071875056361447,107590.05849238274,10.5,10500107590.058493,47.655,-122.3035,60.0,14.783333333333333
2026-01-20T23:14:48+00:00,SAT-54799,188.4988111314287,75.16115664915216,726.3271300095994,-3.0175553715195536,105687.55335718057,10.5,10500105687.553358,47.655,-122.3035,60.0,14.8
2026-01-20T23:14:49+00:00,SAT-54799,187.66403332479103,75.64276371410436,723.317621452404,-2.9625511994042295,103761.07458228455,10.5,10500103761.074583,47.655,-122.3035,60.0,14.816666666666666
2026-01-20T23:14:50+00:00,SAT-54799,186.76683737667875,76.12513446807061,720.3629703895315,-2.9068638421560906,101810.66777416712,10.5,10500101810.667774,47.655,-122.3035,60.0,14.833333333333334
2026-01-20T23:14:51+00:00,SAT-54799,185.80022641492906,76.60784176997083,717.4638581842878,-2.8504951914633887,99836.39918775269,10.5,10500099836.399187,47.655,-122.3035,60.0,14.85
2026-01-20T23:14:52+00:00,SAT-54799,184.7562037178287,77.09039240752074,714.6209643133349,-2.7934476623331017,97838.35340680106,10.5,10500097838.353407,47.655,-122.3035,60.0,14.866666666666667
2026-01-20T23:14:53+00:00,SAT-54799,183.62560894957946,77.57221490938416,711.8349658447681,-2.735724283360033,95816.63650551325,10.5,10500095816.636505,47.655,-122.3035,60.0,14.883333333333333
2026-01-20T23:14:54+00:00,SAT-54799,182.39792794988216,78.05264471312034,709.1065368261636,-2.677328710803745,93771.37654156503,10.5,10500093771.376541,47.655,-122.3035,60.0,14.9
2026-01-20T23:14:55+00:00,SAT-54799,181.0610738688555,78.53090605997329,706.4363476585888,-2.6182651874548943,91702.72211543223,10.5,10500091702.722115,47.655,-122.3035,60.0,14.916666666666666
2026-01-20T23:14:56+00:00,SAT-54799,179.6011389847982,79.00608986154653,703.8250645116337,-2.558538639722367,89610.84577079272,10.5,10500089610.84577,47.655,-122.3035,60.0,14.933333333333334
2026-01-20T23:14:57+00:00,SAT-54799,178.00211953404525,79.47712668390187,701.2733486416172,-2.49815458845303,87495.94087105691,10.5,10500087495.94087,47.655,-122.3035,60.0,14.95
2026-01-20T23:14:58+00:00,SAT-54799,176.24562172700178,79.94275381334234,698.7818557987334,-2.4371192721435153,85358.2259147657,10.5,10500085358.225914,47.655,-122.3035,60.0,14.966666666666667
2026-01-20T23:14:59+00:00,SAT-54799,174.31056677735253,80.40147537337417,696.3512355113156,-2.375439593488079,83197.9426634703,10.5,10500083197.942663,47.655,-122.3035,60.0,14.983333333333333
