satellites_20260120_184412/SAT-66338.csv

timestamp,satellite,azimuth_deg,elevation_deg,distance_km,relative_velocity_kms,doppler_shift_hz,tx_freq_ghz,rx_freq_hz,ue_lat,ue_lon,ue_alt_m,time_minutes
2026-01-20T23:02:06+00:00,SAT-66338,210.471416034421,40.30455609263626,469116.033285024,-121.56506505437997,4257722.797919719,10.5,10504257722.79792,47.655,-122.3035,60.0,2.1
2026-01-20T23:02:07+00:00,SAT-66338,207.9641530598242,40.80041551562109,468994.7923934764,-117.27118233962558,4107332.8621431445,10.5,10504107332.862143,47.655,-122.3035,60.0,2.1166666666666667
2026-01-20T23:02:08+00:00,SAT-66338,205.42078278861027,41.240863683841816,468877.8339342897,-112.83861251893107,3952085.517270672,10.5,10503952085.517271,47.655,-122.3035,60.0,2.1333333333333333
2026-01-20T23:02:09+00:00,SAT-66338,202.84470080577407,41.62425058153439,468765.2962247375,-108.27270304531075,3792168.053726564,10.5,10503792168.053726,47.655,-122.3035,60.0,2.15
2026-01-20T23:02:10+00:00,SAT-66338,200.23976316271975,41.949090967967706,468657.3122489003,-103.57896798693801,3627773.5975027396,10.5,10503627773.597504,47.655,-122.3035,60.0,2.1666666666666665
2026-01-20T23:02:11+00:00,SAT-66338,197.61025196621404,42.21408878008787,468554.0094914947,-98.76308184166363,3459100.8935170346,10.5,10503459100.893517,47.655,-122.3035,60.0,2.183333333333333
2026-01-20T23:02:12+00:00,SAT-66338,194.9608270500176,42.41815957284035,468455.50977787125,-93.83087056775811,3286353.991471861,10.5,10503286353.991472,47.655,-122.3035,60.0,2.2
2026-01-20T23:02:13+00:00,SAT-66338,192.2964645348448,42.56045011828074,468361.9291229583,-88.7883043275417,3109741.991705435,10.5,10503109741.991705,47.655,-122.3035,60.0,2.216666666666667
2026-01-20T23:02:14+00:00,SAT-66338,189.62238378515318,42.64035435868847,468273.37758744234,-83.64148903327455,2929478.7490930906,10.5,10502929478.749094,47.655,-122.3035,60.0,2.2333333333333334
2026-01-20T23:02:15+00:00,SAT-66338,186.94396510925375,42.65752501869675,468189.9591423798,-78.3966585676376,2745782.6005756115,10.5,10502745782.600576,47.655,-122.3035,60.0,2.25
2026-01-20T23:02:16+00:00,SAT-66338,184.2666611448035,42.61188035530006,468111.77154156833,-73.06016566966875,2558876.045946165,10.5,10502558876.045946,47.655,-122.3035,60.0,2.2666666666666666
2026-01-20T23:02:17+00:00,SAT-66338,181.59590538744303,42.503605734928676,468038.9062030071,-67.6384732179727,2368985.4425514378,10.5,10502368985.44255,47.655,-122.3035,60.0,2.283333333333333
2026-01-20T23:02:18+00:00,SAT-66338,178.9370214838849,42.333149966977295,467971.4480990511,-62.13814609894436,2176340.72048242,10.5,10502176340.720482,47.655,-122.3035,60.0,2.3
2026-01-20T23:02:19+00:00,SAT-66338,176.29513683798947,42.10121656230767,467909.47565467504,-56.565841347533045,1981175.0372622684,10.5,10501981175.037262,47.655,-122.3035,60.0,2.316666666666667
2026-01-20T23:02:20+00:00,SAT-66338,173.67510384965232,41.808750319714505,467853.0606555711,-50.92829968402542,1783724.4814286386,10.5,10501783724.481428,47.655,-122.3035,60.0,2.3333333333333335
2026-01-20T23:02:21+00:00,SAT-66338,171.08143144770267,41.4569198341808,467802.2681646863,-45.2323357012568,1584227.7288483237,10.5,10501584227.728848,47.655,-122.3035,60.0,2.35
2026-01-20T23:02:22+00:00,SAT-66338,168.51822898294787,41.04709667896923,467757.1564485469,-39.484829297115574,1382925.7426473135,10.5,10501382925.742647,47.655,-122.3035,60.0,2.3666666666666667
2026-01-20T23:02:23+00:00,SAT-66338,165.98916363591076,40.58083209579368,467717.77691212785,-33.692715718249524,1180061.4244992782,10.5,10501180061.4245,47.655,-122.3035,60.0,2.3833333333333333
2026-01-20T23:02:24+00:00,SAT-66338,163.49743181668566,40.05983208024115,467684.1740436515,-27.862976379063557,975879.293068031,10.5,10500975879.293068,47.655,-122.3035,60.0,2.4
2026-01-20T23:05:11+00:00,SAT-66338,209.79702046006923,40.440909161451735,469347.8523674783,-118.97413522907186,4166977.4758151337,10.5,10504166977.475815,47.655,-122.3035,60.0,5.183333333333334
2026-01-20T23:05:12+00:00,SAT-66338,207.28019135120488,40.92169942220227,469229.19549660984,-114.75790324521478,4019307.1970968503,10.5,10504019307.197098,47.655,-122.3035,60.0,5.2
2026-01-20T23:05:13+00:00,SAT-66338,204.72817007409094,41.346633565207206,469114.74361443997,-110.40610861613386,3866888.941113407,10.5,10503866888.941113,47.655,-122.3035,60.0,5.216666666666667
2026-01-20T23:05:14+00:00,SAT-66338,202.14447741348337,41.71410635822135,469004.6319221135,-105.92400201861041,3709906.608776026,10.5,10503709906.608776,47.655,-122.3035,60.0,5.233333333333333
2026-01-20T23:05:15+00:00,SAT-66338,199.53308594242287,42.022683949741456,468898.99038410024,-101.31699705164063,3548549.8072210564,10.5,10503548549.80722,47.655,-122.3035,60.0,5.25
2026-01-20T23:05:16+00:00,SAT-66338,196.89838181329213,42.271127778118334,468797.94356570736,-96.59066240051608,3383013.5753629226,10.5,10503383013.575363,47.655,-122.3035,60.0,5.266666666666667
2026-01-20T23:05:17+00:00,SAT-66338,194.24511282626773,42.45841627527768,468701.6104784066,-91.75071398197406,3213498.10878407,10.5,10503213498.108784,47.655,-122.3035,60.0,5.283333333333333
2026-01-20T23:05:18+00:00,SAT-66338,191.57832373802017,42.58376350865341,468610.10443299526,-86.80300810897518,3040208.5203365567,10.5,10503040208.520336,47.655,-122.3035,60.0,5.3
2026-01-20T23:05:19+00:00,SAT-66338,188.90328054385975,42.64663398134638,468523.53289957455,-81.75353268388089,2863354.5316898846,10.5,10502863354.53169,47.655,-122.3035,60.0,5.316666666666666
2026-01-20T23:05:20+00:00,SAT-66338,186.2253862887279,42.64675293788025,468441.99737631116,-76.60839954864822,2683150.205402453,10.5,10502683150.205402,47.655,-122.3035,60.0,5.333333333333333
2026-01-20T23:05:21+00:00,SAT-66338,183.55009147630417,42.58411171171698,468365.59326582804,-71.37383561620776,2499813.6343049076,10.5,10502499813.634304,47.655,-122.3035,60.0,5.35
2026-01-20T23:05:22+00:00,SAT-66338,180.8828026069805,42.45896786792343,468294.4097604401,-66.0561750677859,2313566.668217357,10.5,10502313566.668217,47.655,-122.3035,60.0,5.366666666666666
2026-01-20T23:05:23+00:00,SAT-66338,178.22879244127216,42.27184013477748,468228.5297351725,-60.661850214901996,2124634.593897859,10.5,10502124634.593899,47.655,-122.3035,60.0,5.383333333333334
2026-01-20T23:05:24+00:00,SAT-66338,175.59311553677657,42.02349835968105,468168.0296498915,-55.19738283839282,1933245.8316984233,10.5,10501933245.8317,47.655,-122.3035,60.0,5.4
2026-01-20T23:05:25+00:00,SAT-66338,172.98053216518838,41.71494894600994,468112.979460074,-49.66937524146769,1739631.6222051547,10.5,10501739631.622206,47.655,-122.3035,60.0,5.416666666666667
2026-01-20T23:05:26+00:00,SAT-66338,170.3954431506776,41.34741641275782,468063.4425364999,-44.084501562517005,1544025.721976063,10.5,10501544025.721975,47.655,-122.3035,60.0,5.433333333333334
2026-01-20T23:05:27+00:00,SAT-66338,167.84183740906286,40.92232185093265,468019.4755936082,-38.44949828049355,1346664.070999352,10.5,10501346664.071,47.655,-122.3035,60.0,5.45
2026-01-20T23:05:28+00:00,SAT-66338,165.3232532196255,40.441259137110904,467981.1286273231,-32.77115546553109,1147784.4862530746,10.5,10501147784.486254,47.655,-122.3035,60.0,5.466666666666667
2026-01-20T23:08:15+00:00,SAT-66338,211.53970683488376,40.06826229656938,469696.74301129224,-120.4168782455335,4217508.43904853,10.5,10504217508.439049,47.655,-122.3035,60.0,8.25
2026-01-20T23:08:16+00:00,SAT-66338,209.04988344170164,40.586938681780936,469576.647244722,-116.4127866181948,4077268.212968338,10.5,10504077268.212969,47.655,-122.3035,60.0,8.266666666666667
2026-01-20T23:08:17+00:00,SAT-66338,206.522724132086,41.05098810459463,469460.5448922015,-112.27119144532722,3932212.0310843033,10.5,10503932212.031084,47.655,-122.3035,60.0,8.283333333333333
2026-01-20T23:08:18+00:00,SAT-66338,203.9614159976837,41.458702781843165,469348.5730906,-107.99708510908933,3782514.7477373765,10.5,10503782514.747738,47.655,-122.3035,60.0,8.3
2026-01-20T23:08:19+00:00,SAT-66338,201.36961565962923,41.8085285934756,469240.86399771785,-103.59562490334409,3628356.993173967,10.5,10503628356.993174,47.655,-122.3035,60.0,8.316666666666666
2026-01-20T23:08:20+00:00,SAT-66338,198.7514208422418,42.099089960823655,469137.5446278142,-99.07212608817241,3469924.930285639,10.5,10503469924.930286,47.655,-122.3035,60.0,8.333333333333334
2026-01-20T23:08:21+00:00,SAT-66338,196.11132804112316,42.32921313813009,469038.73669406236,-94.43205422712299,3307409.9862271766,10.5,10503307409.986227,47.655,-122.3035,60.0,8.35
2026-01-20T23:08:22+00:00,SAT-66338,193.45417670523486,42.497947041261185,468944.5564586465,-89.68101925367708,3141008.6445990894,10.5,10503141008.6446,47.655,-122.3035,60.0,8.366666666666667
2026-01-20T23:08:23+00:00,SAT-66338,190.78508108578066,42.604580778079495,468855.1145887775,-84.82476615780023,2970922.1192512535,10.5,10502970922.119251,47.655,-122.3035,60.0,8.383333333333333
2026-01-20T23:08:24+00:00,SAT-66338,188.10935183346294,42.64865712776386,468770.5160219961,-79.86916850668494,2797356.127351916,10.5,10502797356.127352,47.655,-122.3035,60.0,8.4
2026-01-20T23:08:25+00:00,SAT-66338,185.43240996127963,42.62998137775851,468690.8598379388,-74.82021929965715,2620520.5690878327,10.5,10502620520.569088,47.655,-122.3035,60.0,8.416666666666666
2026-01-20T23:08:26+00:00,SAT-66338,182.7596964868357,42.54862511314623,468616.2391392239,-69.68402417003358,2440629.289564558,10.5,10502440629.289564,47.655,-122.3035,60.0,8.433333333333334
2026-01-20T23:08:27+00:00,SAT-66338,180.0965812331362,42.404924784437405,468546.7409391183,-64.4667916884509,2257899.739188017,10.5,10502257899.739187,47.655,-122.3035,60.0,8.45
2026-01-20T23:08:28+00:00,SAT-66338,177.44827449835796,42.19947512196633,468482.44605887437,-59.17482611117984,2072552.7196797873,10.5,10502072552.719679,47.655,-122.3035,60.0,8.466666666666667
2026-01-20T23:08:29+00:00,SAT-66338,174.81974491520714,41.933117698201826,468423.4290322995,-53.814517788448526,1884812.0481360124,10.5,10501884812.048136,47.655,-122.3035,60.0,8.483333333333333
2026-01-20T23:08:30+00:00,SAT-66338,172.2156465432377,41.606925157380026,468369.7580198918,-48.392335368920534,1694904.2839952484,10.5,10501694904.283995,47.655,-122.3035,60.0,8.5
2026-01-20T23:08:31+00:00,SAT-66338,169.64025743885367,41.22218179276686,468321.49473075056,-42.91481658727242,1503058.4063804583,10.5,10501503058.40638,47.655,-122.3035,60.0,8.516666666666667
2026-01-20T23:08:32+00:00,SAT-66338,167.09743131337854,40.78036127969128,468278.6943536742,-37.388559210888715,1309505.4970139759,10.5,10501309505.497013,47.655,-122.3035,60.0,8.533333333333333
2026-01-20T23:08:33+00:00,SAT-66338,164.5905630314442,40.28310243295353,468241.40549728787,-31.820212810897495,1114478.4520043652,10.5,10501114478.452003,47.655,-122.3035,60.0,8.55
2026-01-20T23:11:20+00:00,SAT-66338,210.73146742368223,40.24033998251274,469917.4257822365,-117.8687100369339,4128260.809642536,10.5,10504128260.809643,47.655,-122.3035,60.0,11.333333333333334
2026-01-20T23:11:21+00:00,SAT-66338,208.22959173685268,40.74113869950693,469799.8713887597,-113.92997738440305,3990309.7313283044,10.5,10503990309.731329,47.655,-122.3035,60.0,11.35
2026-01-20T23:11:22+00:00,SAT-66338,205.69140703809921,41.18675180469339,469686.2452246483,-109.85674254396922,3847647.81745002,10.5,10503847647.81745,47.655,-122.3035,60.0,11.366666666666667
2026-01-20T23:11:23+00:00,SAT-66338,203.12025432768766,41.575521298371804,469576.6814334178,-105.65391501857982,3700447.0195680778,10.5,10503700447.019567,47.655,-122.3035,60.0,11.383333333333333
2026-01-20T23:11:24+00:00,SAT-66338,200.51993570232557,41.90595096706489,469471.30926217255,-101.32656556038638,3548884.936872084,10.5,10503548884.936872,47.655,-122.3035,60.0,11.4
2026-01-20T23:11:25+00:00,SAT-66338,197.89468137760306,42.17673079592301,469370.25290078705,-96.87991773315792,3393144.520660884,10.5,10503393144.52066,47.655,-122.3035,60.0,11.416666666666666
2026-01-20T23:11:26+00:00,SAT-66338,195.24910291872948,42.38675950376182,469273.63132950116,-92.31934281316977,3233413.8957501147,10.5,10503233413.89575,47.655,-122.3035,60.0,11.433333333333334
2026-01-20T23:11:27+00:00,SAT-66338,192.58813325579914,42.53516434343304,469181.5581716022,-87.6503509637111,3069886.0513661304,10.5,10503069886.051367,47.655,-122.3035,60.0,11.45
2026-01-20T23:11:28+00:00,SAT-66338,189.9169550405887,42.62131734456829,469094.14155490766,-82.87858479739604,2902758.615670907,10.5,10502902758.615671,47.655,-122.3035,60.0,11.466666666666667
2026-01-20T23:11:29+00:00,SAT-66338,187.240919513538,42.64484730399175,469011.48397966975,-78.00981072208363,2732233.552659547,10.5,10502732233.55266,47.655,-122.3035,60.0,11.483333333333333
2026-01-20T23:11:30+00:00,SAT-66338,184.56545883192535,42.60564698430921,468933.6821951096,-73.04991243130624,2558516.934167555,10.5,10502558516.934168,47.655,-122.3035,60.0,11.5
2026-01-20T23:11:31+00:00,SAT-66338,181.89599515238834,42.50387519270686,468860.8270824448,-68.00488179703642,2381818.620897002,10.5,10502381818.620897,47.655,-122.3035,60.0,11.516666666666667
2026-01-20T23:11:32+00:00,SAT-66338,179.23785014483985,42.339953643217925,468793.00354699924,-62.88081121161998,2202351.9941986324,10.5,10502202351.994198,47.655,-122.3035,60.0,11.533333333333333
2026-01-20T23:11:33+00:00,SAT-66338,176.5961584597316,42.11455874963166,468730.29041795083,-57.68388539348444,2020333.6690731114,10.5,10502020333.669073,47.655,-122.3035,60.0,11.55
2026-01-20T23:11:34+00:00,SAT-66338,173.9757884397908,41.828608723785,468672.76035625173,-52.42037288619161,1835983.1964318857,10.5,10501835983.196432,47.655,-122.3035,60.0,11.566666666666666
2026-01-20T23:11:35+00:00,SAT-66338,171.3812728471343,41.48324655476497,468620.4797710265,-47.096617605889115,1649522.7670531848,10.5,10501649522.767054,47.655,-122.3035,60.0,11.583333333333334
2026-01-20T23:11:36+00:00,SAT-66338,168.8167516765553,41.0798195979998,468573.508744401,-41.71903014637754,1461176.9070486897,10.5,10501461176.90705,47.655,-122.3035,60.0,11.6
2026-01-20T23:11:37+00:00,SAT-66338,166.28592835781916,40.619856605057755,468531.90096500167,-36.29407964232493,1271172.1928788875,10.5,10501271172.192879,47.655,-122.3035,60.0,11.616666666666667
2026-01-20T23:11:38+00:00,SAT-66338,163.7920398025119,40.10504305934738,468495.7036695717,-30.82828448496174,1079736.9261774365,10.5,10501079736.926178,47.655,-122.3035,60.0,11.633333333333333
2026-01-20T23:14:25+00:00,SAT-66338,209.85022763772272,40.42066123448002,470130.0975932663,-115.43841855735005,4043141.7219047435,10.5,10504043141.721905,47.655,-122.3035,60.0,14.416666666666666
2026-01-20T23:14:26+00:00,SAT-66338,207.33554789811132,40.90189048745519,470014.96701049176,-111.55569061161579,3907152.1653222037,10.5,10503907152.165321,47.655,-122.3035,60.0,14.433333333333334
2026-01-20T23:14:27+00:00,SAT-66338,204.78572311546515,41.327342541573906,469903.7088017218,-107.54128329573936,3766550.6401941013,10.5,10503766550.640194,47.655,-122.3035,60.0,14.45
2026-01-20T23:14:28+00:00,SAT-66338,202.2042588846102,41.69541593234892,469796.4542951815,-103.40003464457628,3621506.5949659445,10.5,10503621506.594967,47.655,-122.3035,60.0,14.466666666666667
2026-01-20T23:14:29+00:00,SAT-66338,199.59511119466202,42.00467967031432,469693.3299939627,-99.13693914875496,3472194.957826214,10.5,10503472194.957827,47.655,-122.3035,60.0,14.483333333333333
2026-01-20T23:14:30+00:00,SAT-66338,196.96264855350213,42.253897047188914,469594.457419985,-94.75714178302108,3318795.927553726,10.5,10503318795.927553,47.655,-122.3035,60.0,14.5
2026-01-20T23:14:31+00:00,SAT-66338,194.3116004303725,42.4420472623759,469499.9529639134,-90.26592985611654,3161494.6880659144,10.5,10503161494.688066,47.655,-122.3035,60.0,14.516666666666667
2026-01-20T23:14:32+00:00,SAT-66338,191.6469930174762,42.56834401151474,469409.9277432036,-85.66872675269937,3000481.1892343983,10.5,10503000481.189234,47.655,-122.3035,60.0,14.533333333333333
2026-01-20T23:14:33+00:00,SAT-66338,188.9740740036981,42.632250264973585,469324.4874663889,-80.97108448071148,2835949.8858622736,10.5,10502835949.885862,47.655,-122.3035,60.0,14.55
2026-01-20T23:14:34+00:00,SAT-66338,186.29822886679972,42.63348858617904,469243.73230480007,-76.178675881256,2668099.464841067,10.5,10502668099.464842,47.655,-122.3035,60.0,14.566666666666666
2026-01-20T23:14:35+00:00,SAT-66338,183.62489177025816,42.57204652447325,469167.75677205453,-71.29728744014167,2497132.59338061,10.5,10502497132.59338,47.655,-122.3035,60.0,14.583333333333334
2026-01-20T23:14:36+00:00,SAT-66338,180.95945451085328,42.44817683473467,469096.6496107142,-66.33281059913003,2323255.6146921655,10.5,10502323255.614693,47.655,-122.3035,60.0,14.6
2026-01-20T23:14:37+00:00,SAT-66338,178.3071771774212,42.262392515532,469030.49368761,-61.29123501972221,2146678.312057748,10.5,10502146678.312057,47.655,-122.3035,60.0,14.616666666666667
2026-01-20T23:14:38+00:00,SAT-66338,175.67310393519648,42.01545689266729,468969.3658958837,-56.178639424599695,1967613.588058632,10.5,10501967613.588058,47.655,-122.3035,60.0,14.633333333333333
2026-01-20T23:14:39+00:00,SAT-66338,173.0619871337321,41.708369201560444,468913.3370661642,-51.00118404975564,1786277.2002170724,10.5,10501786277.200216,47.655,-122.3035,60.0,14.65
2026-01-20T23:14:40+00:00,SAT-66338,170.4782222033517,41.34234629924177,468862.4718852719,-45.76510179636443,1602887.4510973408,10.5,10501602887.451097,47.655,-122.3035,60.0,14.666666666666666
2026-01-20T23:14:41+00:00,SAT-66338,167.92579519342962,40.91880128037298,468816.82882374706,-40.47669057882959,1417664.9203020001,10.5,10501417664.920301,47.655,-122.3035,60.0,14.683333333333334
2026-01-20T23:14:42+00:00,SAT-66338,165.4082438970245,40.439319838375695,468776.46007100976,-35.14230429997166,1230832.1483848083,10.5,10501230832.148384,47.655,-122.3035,60.0,14.7
