satellites_20260120_184412/SAT-66169.csv

timestamp,satellite,azimuth_deg,elevation_deg,distance_km,relative_velocity_kms,doppler_shift_hz,tx_freq_ghz,rx_freq_hz,ue_lat,ue_lon,ue_alt_m,time_minutes
2026-01-20T23:02:02+00:00,SAT-66169,78.8175352332357,40.33418716707099,167979.5736500189,20.01328274808985,-700949.8179401945,10.5,10499299050.18206,47.655,-122.3035,60.0,2.033333333333333
2026-01-20T23:02:03+00:00,SAT-66169,77.4210012114058,41.119779951470704,167999.53356401296,23.00390510295977,-805694.0631277574,10.5,10499194305.936872,47.655,-122.3035,60.0,2.05
2026-01-20T23:02:04+00:00,SAT-66169,75.99089635857214,41.88772934622878,168022.47612536902,25.98239964631422,-910013.5410554569,10.5,10499089986.458944,47.655,-122.3035,60.0,2.066666666666667
2026-01-20T23:02:05+00:00,SAT-66169,74.52633130187836,42.637119216747784,168048.38923861625,28.94714693057586,-1013851.5318188777,10.5,10498986148.468182,47.655,-122.3035,60.0,2.0833333333333335
2026-01-20T23:02:06+00:00,SAT-66169,73.02648225365684,43.36700114711673,168077.259193155,31.896536782974845,-1117151.6403565959,10.5,10498882848.359644,47.655,-122.3035,60.0,2.1
2026-01-20T23:02:07+00:00,SAT-66169,71.49060586764558,44.07639566018757,168109.07067250658,34.828969734321255,-1219857.8464918328,10.5,10498780142.153507,47.655,-122.3035,60.0,2.1166666666666667
2026-01-20T23:02:08+00:00,SAT-66169,69.91805545324665,44.76429397220755,168143.8067649883,37.74285772140552,-1321914.529533488,10.5,10498678085.470467,47.655,-122.3035,60.0,2.1333333333333333
2026-01-20T23:02:09+00:00,SAT-66169,68.3082985009697,45.42966033187898,168181.4489750891,40.63662552439024,-1423266.518619683,10.5,10498576733.48138,47.655,-122.3035,60.0,2.15
2026-01-20T23:02:10+00:00,SAT-66169,66.66093533844256,46.07143502719326,168221.97723627873,43.50871153972714,-1523859.1197885806,10.5,10498476140.88021,47.655,-122.3035,60.0,2.1666666666666665
2026-01-20T23:02:11+00:00,SAT-66169,64.9757187323395,46.688538108731656,168265.3699245877,46.35756917542762,-1623638.164846662,10.5,10498376361.835154,47.655,-122.3035,60.0,2.183333333333333
2026-01-20T23:02:12+00:00,SAT-66169,63.252574112982956,47.279873896012404,168311.60387357866,49.18166756354624,-1722550.0363229136,10.5,10498277449.963676,47.655,-122.3035,60.0,2.2
2026-01-20T23:02:13+00:00,SAT-66169,61.49162006421635,47.844336300675806,168360.6543900287,51.97949288939093,-1820541.7140233887,10.5,10498179458.285976,47.655,-122.3035,60.0,2.216666666666667
2026-01-20T23:02:14+00:00,SAT-66169,59.69318857601829,48.38081500493617,168412.49527093704,54.749549034465666,-1917560.7975497819,10.5,10498082439.20245,47.655,-122.3035,60.0,2.2333333333333334
2026-01-20T23:02:15+00:00,SAT-66169,57.8578445136879,48.888202496084915,168467.09882117412,57.49035894581783,-2013555.5542597647,10.5,10497986444.44574,47.655,-122.3035,60.0,2.25
2026-01-20T23:02:16+00:00,SAT-66169,55.98640361928144,49.36540194969828,168524.43587249608,60.20046542056693,-2108474.9467445,10.5,10497891525.053255,47.655,-122.3035,60.0,2.2666666666666666
2026-01-20T23:02:17+00:00,SAT-66169,54.07994833388812,49.81133590956103,168584.47580334215,62.87843175535253,-2202268.6555750566,10.5,10497797731.344425,47.655,-122.3035,60.0,2.283333333333333
2026-01-20T23:02:18+00:00,SAT-66169,52.139840659494716,50.22495568559506,168647.1865592795,65.52284335064988,-2294887.135492327,10.5,10497705112.864508,47.655,-122.3035,60.0,2.3
2026-01-20T23:02:19+00:00,SAT-66169,50.16773122509849,50.60525136050463,168712.5346750479,68.1323078671552,-2386281.620884304,10.5,10497613718.379116,47.655,-122.3035,60.0,2.316666666666667
2026-01-20T23:02:20+00:00,SAT-66169,48.16556381521883,50.951262240210625,168780.48529676074,70.70545663754712,-2476404.175231936,10.5,10497523595.824768,47.655,-122.3035,60.0,2.3333333333333335
2026-01-20T23:02:21+00:00,SAT-66169,46.13557459840995,51.26208756472367,168851.0022055139,73.24094489810466,-2565207.699221369,10.5,10497434792.30078,47.655,-122.3035,60.0,2.35
2026-01-20T23:02:22+00:00,SAT-66169,44.08028548456484,51.53689724552475,168924.04784122563,75.73745343638022,-2652645.9884524257,10.5,10497347354.011547,47.655,-122.3035,60.0,2.3666666666666667
2026-01-20T23:02:23+00:00,SAT-66169,42.00249113218734,51.77494237986006,168999.5833281195,78.19368861204873,-2738673.734168829,10.5,10497261326.265831,47.655,-122.3035,60.0,2.3833333333333333
2026-01-20T23:02:24+00:00,SAT-66169,39.905239433499425,51.97556525775755,169077.56850022858,80.60838341920896,-2823246.5604644865,10.5,10497176753.439535,47.655,-122.3035,60.0,2.4
2026-01-20T23:02:25+00:00,SAT-66169,37.79180548798919,52.13820858032727,169157.9619279587,82.98029813124525,-2906321.0468692817,10.5,10497093678.95313,47.655,-122.3035,60.0,2.4166666666666665
2026-01-20T23:02:26+00:00,SAT-66169,35.66565940452704,52.26242360486342,169240.72094529492,85.30822115655583,-2987854.7583202915,10.5,10497012145.24168,47.655,-122.3035,60.0,2.433333333333333
2026-01-20T23:02:27+00:00,SAT-66169,33.530428551316284,52.34787695270716,169325.80167786172,87.59096965983314,-3067806.2669216576,10.5,10496932193.733078,47.655,-122.3035,60.0,2.45
2026-01-20T23:02:28+00:00,SAT-66169,31.389855168950994,52.394355847638906,169413.15907160245,89.82738984536584,-3146135.161867019,10.5,10496853864.838133,47.655,-122.3035,60.0,2.466666666666667
2026-01-20T23:02:29+00:00,SAT-66169,29.247750513094672,52.40177159992176,169502.74692174158,92.01635789619651,-3222802.082332783,10.5,10496777197.917667,47.655,-122.3035,60.0,2.4833333333333334
2026-01-20T23:02:30+00:00,SAT-66169,27.107946863057634,52.37016120952746,169594.51790268338,94.15678069577731,-3297768.7427535676,10.5,10496702231.257246,47.655,-122.3035,60.0,2.5
2026-01-20T23:02:31+00:00,SAT-66169,24.9742488765343,52.29968702661005,169688.42359863064,96.24759591927078,-3370997.9360199356,10.5,10496629002.06398,47.655,-122.3035,60.0,2.5166666666666666
2026-01-20T23:02:32+00:00,SAT-66169,22.85038581642226,52.190634478683975,169784.41453429413,98.28777266914163,-3442453.555739508,10.5,10496557546.44426,47.655,-122.3035,60.0,2.533333333333333
2026-01-20T23:02:33+00:00,SAT-66169,20.739966098243663,52.04340794336461,169882.44020623615,100.27631245542725,-3512100.6305701863,10.5,10496487899.36943,47.655,-122.3035,60.0,2.55
2026-01-20T23:02:34+00:00,SAT-66169,18.64643548137731,51.8585249087518,169982.4491151917,102.21224867574358,-3579905.306007757,10.5,10496420094.693993,47.655,-122.3035,60.0,2.566666666666667
2026-01-20T23:02:35+00:00,SAT-66169,16.573040062907666,51.636608622610844,170084.38879787095,104.09464820028023,-3645834.8998991246,10.5,10496354165.100101,47.655,-122.3035,60.0,2.5833333333333335
2026-01-20T23:02:36+00:00,SAT-66169,14.522794900195873,51.37837946941683,170188.2058603427,105.9226102987981,-3709857.86486123,10.5,10496290142.13514,47.655,-122.3035,60.0,2.6
2026-01-20T23:02:37+00:00,SAT-66169,12.498458900614505,51.08464535244453,170293.84601034736,107.6952686845348,-3771943.859867266,10.5,10496228056.140133,47.655,-122.3035,60.0,2.6166666666666667
2026-01-20T23:02:38+00:00,SAT-66169,10.502516202927017,50.75629136069735,170401.25409164876,109.41179040093502,-3832063.7112552635,10.5,10496167936.288744,47.655,-122.3035,60.0,2.6333333333333333
2026-01-20T23:02:39+00:00,SAT-66169,8.537164115548489,50.39426901539932,170510.3741172753,111.07137700907968,-3890189.454316882,10.5,10496109810.545683,47.655,-122.3035,60.0,2.65
2026-01-20T23:02:40+00:00,SAT-66169,6.6043073146348785,49.99958536501116,170621.14930394565,112.67326398263585,-3946294.312105999,10.5,10496053705.687895,47.655,-122.3035,60.0,2.6666666666666665
2026-01-20T23:02:41+00:00,SAT-66169,4.705557871006238,49.57329218576924,170733.52210589102,114.21672219202136,-4000352.747420431,10.5,10495999647.252579,47.655,-122.3035,60.0,2.683333333333333
2026-01-20T23:02:42+00:00,SAT-66169,2.842240443186786,49.11647550109324,170847.4342501572,115.70105692084883,-4052340.4283536472,10.5,10495947659.571646,47.655,-122.3035,60.0,2.7
2026-01-20T23:02:43+00:00,SAT-66169,1.0154019448560878,48.63024561289041,170962.82677092627,117.12560852119614,-4102234.2512451047,10.5,10495897765.748755,47.655,-122.3035,60.0,2.716666666666667
2026-01-20T23:02:44+00:00,SAT-66169,359.2258248653152,48.11572778483324,171079.64004449142,118.48975251603063,-4150012.344267586,10.5,10495849987.655733,47.655,-122.3035,60.0,2.7333333333333334
2026-01-20T23:02:45+00:00,SAT-66169,357.47404344837315,47.574053686499255,171197.81382433407,119.7928999102562,-4195654.078321377,10.5,10495804345.921679,47.655,-122.3035,60.0,2.75
2026-01-20T23:02:46+00:00,SAT-66169,355.7603619484139,47.00635366779736,171317.28727651123,121.03449694800348,-4239140.058533549,10.5,10495760859.941467,47.655,-122.3035,60.0,2.7666666666666666
2026-01-20T23:02:47+00:00,SAT-66169,354.08487424911766,46.413749903308116,171437.9990148007,122.21402505876696,-4280452.122371447,10.5,10495719547.877628,47.655,-122.3035,60.0,2.783333333333333
2026-01-20T23:02:48+00:00,SAT-66169,352.44748419467896,45.797350414146884,171559.88713579264,123.3310017290383,-4319573.370170981,10.5,10495680426.62983,47.655,-122.3035,60.0,2.8
2026-01-20T23:02:49+00:00,SAT-66169,350.84792606327704,45.15824394677471,171682.8892548504,124.38497926872293,-4356488.121931309,10.5,10495643511.878069,47.655,-122.3035,60.0,2.816666666666667
2026-01-20T23:02:50+00:00,SAT-66169,349.2857847464112,44.49749568438422,171806.94254084106,125.37554593309393,-4391181.956610417,10.5,10495608818.04339,47.655,-122.3035,60.0,2.8333333333333335
2026-01-20T23:02:51+00:00,SAT-66169,347.7605152303288,43.81614372991456,171931.983751985,126.30232483964173,-4423641.674188609,10.5,10495576358.325811,47.655,-122.3035,60.0,2.85
2026-01-20T23:02:52+00:00,SAT-66169,346.27146112395,43.11519631293806,172057.94927062507,127.16497502842378,-4453855.332806437,10.5,10495546144.667194,47.655,-122.3035,60.0,2.8666666666666667
2026-01-20T23:02:53+00:00,SAT-66169,344.8178720019832,42.39562964387139,172184.77513905344,127.96319042145815,-4481812.212318265,10.5,10495518187.787682,47.655,-122.3035,60.0,2.8833333333333333
2026-01-20T23:02:54+00:00,SAT-66169,343.39891945425325,41.658386358709855,172312.39709430042,128.69670007574365,-4507502.823154105,10.5,10495492497.176846,47.655,-122.3035,60.0,2.9
2026-01-20T23:02:55+00:00,SAT-66169,342.0137117502544,40.90437447901073,172440.75060317595,129.36526791638374,-4530918.896972482,10.5,10495469081.103027,47.655,-122.3035,60.0,2.9166666666666665
2026-01-20T23:02:56+00:00,SAT-66169,340.66130709892684,40.13446682328209,172569.77089704457,129.96869308871342,-4552053.398993417,10.5,10495447946.601007,47.655,-122.3035,60.0,2.933333333333333
2026-01-20T23:06:45+00:00,SAT-66169,78.0790167276591,40.78938694830585,168065.84121692955,20.76249628048211,-727190.4450146714,10.5,10499272809.554985,47.655,-122.3035,60.0,6.75
2026-01-20T23:06:46+00:00,SAT-66169,76.66337266131696,41.5658304720813,168086.5483465533,23.7615855136898,-832231.2360964827,10.5,10499167768.763903,47.655,-122.3035,60.0,6.766666666666667
2026-01-20T23:06:47+00:00,SAT-66169,75.21360002601158,42.32412301068874,168110.24656783894,26.748115441934274,-936832.1471926752,10.5,10499063167.852808,47.655,-122.3035,60.0,6.783333333333333
2026-01-20T23:06:48+00:00,SAT-66169,73.72884034968351,43.06332863992109,168136.92335497306,29.720461871564876,-1040936.29217127,10.5,10498959063.707829,47.655,-122.3035,60.0,6.8
2026-01-20T23:06:49+00:00,SAT-66169,72.20830883064313,43.78247963062153,168166.56456227961,32.677010233621296,-1144487.1219976575,10.5,10498855512.878002,47.655,-122.3035,60.0,6.816666666666666
2026-01-20T23:06:50+00:00,SAT-66169,70.6513100194632,44.48057794979707,168199.15443381926,35.616156796112584,-1247428.4671937348,10.5,10498752571.532806,47.655,-122.3035,60.0,6.833333333333333
2026-01-20T23:06:51+00:00,SAT-66169,69.0572548390966,45.156597331337046,168234.67561419724,38.53630973510045,-1349704.5753517747,10.5,10498650295.424648,47.655,-122.3035,60.0,6.85
2026-01-20T23:06:52+00:00,SAT-66169,67.42567883620991,45.809485979326595,168273.10916043972,41.43589029675802,-1451260.1518346374,10.5,10498548739.848166,47.655,-122.3035,60.0,6.866666666666666
2026-01-20T23:06:53+00:00,SAT-66169,65.75626147697656,46.43816997068781,168314.43455502903,44.31333389288017,-1552040.3981451788,10.5,10498447959.601854,47.655,-122.3035,60.0,6.883333333333334
2026-01-20T23:06:54+00:00,SAT-66169,64.04884623058514,47.04155741510451,168358.62972003152,47.16709100071725,-1651991.0434422307,10.5,10498348008.956558,47.655,-122.3035,60.0,6.9
2026-01-20T23:06:55+00:00,SAT-66169,62.30346110149412,47.618543420350086,168405.67103212292,49.9956282766674,-1751058.3835468192,10.5,10498248941.616453,47.655,-122.3035,60.0,6.916666666666667
2026-01-20T23:06:56+00:00,SAT-66169,60.520339162748606,48.1680159039441,168455.5333387242,52.79742978920969,-1849189.3241246974,10.5,10498150810.675875,47.655,-122.3035,60.0,6.933333333333334
2026-01-20T23:06:57+00:00,SAT-66169,58.699938554337756,48.68886227058073,168508.18997536728,55.570997754415984,-1946331.4064470823,10.5,10498053668.593554,47.655,-122.3035,60.0,6.95
2026-01-20T23:06:58+00:00,SAT-66169,56.84296133990993,49.17997694606619,168563.61278379435,58.31485359874014,-2042432.844614028,10.5,10497957567.155386,47.655,-122.3035,60.0,6.966666666666667
2026-01-20T23:06:59+00:00,SAT-66169,54.950370503428516,49.64026974074945,168621.77213111683,61.02753877008795,-2137442.553961526,10.5,10497862557.44604,47.655,-122.3035,60.0,6.983333333333333
2026-01-20T23:07:00+00:00,SAT-66169,53.02340432487587,50.068674976438096,168682.63692978353,63.707616200124,-2231310.202277677,10.5,10497768689.797722,47.655,-122.3035,60.0,7.0
2026-01-20T23:07:01+00:00,SAT-66169,51.063587308526735,50.46416128172306,168746.17465900714,66.35367056763518,-2323986.219026795,10.5,10497676013.780973,47.655,-122.3035,60.0,7.016666666666667
2026-01-20T23:07:02+00:00,SAT-66169,49.07273689522049,50.82574190893642,168812.35138645323,68.9643094545396,-2415421.835837731,10.5,10497584578.164162,47.655,-122.3035,60.0,7.033333333333333
2026-01-20T23:07:03+00:00,SAT-66169,47.05296516570055,51.15248540355483,168881.13179108256,71.53816426520333,-2505569.118702229,10.5,10497494430.881298,47.655,-122.3035,60.0,7.05
2026-01-20T23:07:04+00:00,SAT-66169,45.00667487284839,51.44352641028042,168952.47918690974,74.07389112162268,-2594380.999328003,10.5,10497405619.000671,47.655,-122.3035,60.0,7.066666666666666
2026-01-20T23:07:05+00:00,SAT-66169,42.936549279953994,51.69807636972526,169026.35554765505,76.57017141119577,-2681811.2943240074,10.5,10497318188.705675,47.655,-122.3035,60.0,7.083333333333333
2026-01-20T23:07:06+00:00,SAT-66169,40.84553548983354,51.91543383389195,169102.72153194246,79.02571250424738,-2767814.7303311997,10.5,10497232185.269669,47.655,-122.3035,60.0,7.1
2026-01-20T23:07:07+00:00,SAT-66169,38.73682117907177,52.094994116283324,169181.53650921336,81.43924914256682,-2852346.992655004,10.5,10497147653.007345,47.655,-122.3035,60.0,7.116666666666666
2026-01-20T23:07:08+00:00,SAT-66169,36.61380491921647,52.23625798978116,169262.7585870249,83.80954332338737,-2935364.721201784,10.5,10497064635.2788,47.655,-122.3035,60.0,7.133333333333334
2026-01-20T23:07:09+00:00,SAT-66169,34.4800606222429,52.338839152263034,169346.34463823272,86.1353855848815,-3016825.5555023192,10.5,10496983174.444498,47.655,-122.3035,60.0,7.15
2026-01-20T23:07:10+00:00,SAT-66169,32.33929686376086,52.40247021404924,169432.25032945606,88.41559514400623,-3096688.1395397396,10.5,10496903311.86046,47.655,-122.3035,60.0,7.166666666666667
2026-01-20T23:07:11+00:00,SAT-66169,30.195312175593735,52.42700699638589,169520.43014967968,90.64902121104414,-3174912.167790304,10.5,10496825087.83221,47.655,-122.3035,60.0,7.183333333333334
2026-01-20T23:07:12+00:00,SAT-66169,28.05194756245382,52.41243098719473,169610.83744016752,92.83454293619555,-3251458.383352837,10.5,10496748541.616648,47.655,-122.3035,60.0,7.2
2026-01-20T23:07:13+00:00,SAT-66169,25.913037717409846,52.35884986150015,169703.42442432255,94.97107028017113,-3326288.6084405663,10.5,10496673711.39156,47.655,-122.3035,60.0,7.216666666666667
2026-01-20T23:07:14+00:00,SAT-66169,23.782362429691602,52.26649604520391,169798.1422384153,97.05754434270526,-3399365.7558870446,10.5,10496600634.244112,47.655,-122.3035,60.0,7.233333333333333
2026-01-20T23:07:15+00:00,SAT-66169,21.663599702881548,52.13572337085545,169894.94096263975,99.09293840361768,-3470653.865608539,10.5,10496529346.134392,47.655,-122.3035,60.0,7.25
2026-01-20T23:07:16+00:00,SAT-66169,19.56028197491145,51.96700194114254,169993.76965320762,101.07625763759255,-3540118.0946143805,10.5,10496459881.905386,47.655,-122.3035,60.0,7.266666666666667
2026-01-20T23:07:17+00:00,SAT-66169,17.475756700940437,51.76091137872815,170094.5763741582,103.00653986185498,-3607724.743193764,10.5,10496392275.256805,47.655,-122.3035,60.0,7.283333333333333
2026-01-20T23:07:18+00:00,SAT-66169,15.413152270116084,51.51813268817201,170197.30822991373,104.8828563548522,-3673441.2835894222,10.5,10496326558.71641,47.655,-122.3035,60.0,7.3
2026-01-20T23:07:19+00:00,SAT-66169,13.375349972229829,51.23943899162466,170301.91139865166,106.70431154793893,-3737236.3491991474,10.5,10496262763.6508,47.655,-122.3035,60.0,7.316666666666666
2026-01-20T23:07:20+00:00,SAT-66169,11.364962455119128,50.92568542497103,170408.33116536879,108.47004394205945,-3799079.76668187,10.5,10496200920.233318,47.655,-122.3035,60.0,7.333333333333333
2026-01-20T23:07:21+00:00,SAT-66169,9.384318771905091,50.57779848228827,170516.51195586033,110.17922562548375,-3858942.5390667417,10.5,10496141057.460934,47.655,-122.3035,60.0,7.35
2026-01-20T23:07:22+00:00,SAT-66169,7.435455896868934,50.19676509594035,170626.3973702175,111.83106368947183,-3916796.895335687,10.5,10496083203.104664,47.655,-122.3035,60.0,7.366666666666666
2026-01-20T23:07:23+00:00,SAT-66169,5.520116293409079,49.783621710900974,170737.93021773713,113.42479987367467,-3972616.278003845,10.5,10496027383.721996,47.655,-122.3035,60.0,7.383333333333334
2026-01-20T23:07:24+00:00,SAT-66169,3.639751000227995,49.33944359475384,170851.05255147783,114.95971027788814,-4026375.3330239733,10.5,10495973624.666977,47.655,-122.3035,60.0,7.4
2026-01-20T23:07:25+00:00,SAT-66169,1.7955275328385996,48.865334585765844,170965.7057025283,116.43510631197684,-4078049.9430567953,10.5,10495921950.056944,47.655,-122.3035,60.0,7.416666666666667
2026-01-20T23:07:26+00:00,SAT-66169,359.98834180020077,48.36241743760441,171081.83031522343,117.85033478454002,-4127617.2305764616,10.5,10495872382.769424,47.655,-122.3035,60.0,7.433333333333334
2026-01-20T23:07:27+00:00,SAT-66169,358.2188332418338,47.83182488779682,171199.36638244856,119.20477782930521,-4175055.5552925374,10.5,10495824944.444708,47.655,-122.3035,60.0,7.45
2026-01-20T23:07:28+00:00,SAT-66169,356.48740238816237,47.27469153701874,171318.25328087033,120.49785285077718,-4220344.512246404,10.5,10495779655.487753,47.655,-122.3035,60.0,7.466666666666667
2026-01-20T23:07:29+00:00,SAT-66169,354.7942300884639,46.692146590465995,171438.42980611348,121.729012603081,-4263464.934572672,10.5,10495736535.065428,47.655,-122.3035,60.0,7.483333333333333
2026-01-20T23:07:30+00:00,SAT-66169,353.1392977184725,46.085307480748234,171559.83420801628,122.89774618571505,-4304398.9283746695,10.5,10495695601.071625,47.655,-122.3035,60.0,7.5
2026-01-20T23:07:31+00:00,SAT-66169,351.5224077550949,45.45527436124089,171682.40422687886,124.00357767719613,-4343129.824868908,10.5,10495656870.17513,47.655,-122.3035,60.0,7.516666666666667
2026-01-20T23:07:32+00:00,SAT-66169,349.94320424252845,44.8031254539043,171806.0771283489,125.04606667460178,-4379642.1992821405,10.5,10495620357.800718,47.655,-122.3035,60.0,7.533333333333333
2026-01-20T23:07:33+00:00,SAT-66169,348.40119270906774,44.12991319854125,171930.78973884572,126.02480877729793,-4413921.887793549,10.5,10495586078.112206,47.655,-122.3035,60.0,7.55
2026-01-20T23:07:34+00:00,SAT-66169,346.89575921430634,43.436661147449506,172056.47848146627,126.93943503552448,-4445955.968221879,10.5,10495554044.031778,47.655,-122.3035,60.0,7.566666666666666
2026-01-20T23:07:35+00:00,SAT-66169,345.42618830140884,42.724361547482815,172183.0794113417,127.78961186618545,-4475732.757076055,10.5,10495524267.242924,47.655,-122.3035,60.0,7.583333333333333
2026-01-20T23:07:36+00:00,SAT-66169,343.99167968418925,41.993973539535745,172310.52825090956,128.5750405903281,-4503241.793355739,10.5,10495496758.206644,47.655,-122.3035,60.0,7.6
2026-01-20T23:07:37+00:00,SAT-66169,342.5913635738839,41.2464219086886,172438.76042472498,129.29545856862816,-4528473.878320834,10.5,10495471526.12168,47.655,-122.3035,60.0,7.616666666666666
2026-01-20T23:07:38+00:00,SAT-66169,341.22431458262366,40.482596307698756,172567.71109540408,129.95063780348428,-4551421.026530911,10.5,10495448578.973469,47.655,-122.3035,60.0,7.633333333333334
2026-01-20T23:11:27+00:00,SAT-66169,78.64023480178827,40.50682046003483,168136.14966817747,18.687663507280238,-654521.024763213,10.5,10499345478.975237,47.655,-122.3035,60.0,11.45
2026-01-20T23:11:28+00:00,SAT-66169,77.23675442814465,41.290439336740185,168154.78749791541,21.70508621871306,-760203.9318030046,10.5,10499239796.068197,47.655,-122.3035,60.0,11.466666666666667
2026-01-20T23:11:29+00:00,SAT-66169,75.79943296980247,42.05625182120334,168176.4347039042,24.71105267239353,-865485.5922363867,10.5,10499134514.407764,47.655,-122.3035,60.0,11.483333333333333
2026-01-20T23:11:30+00:00,SAT-66169,74.32738406881622,42.80333268917653,168201.07986043615,27.703926057420002,-970308.6780218801,10.5,10499029691.321978,47.655,-122.3035,60.0,11.5
2026-01-20T23:11:31+00:00,SAT-66169,72.81978944876498,43.53072433340385,168228.70990935742,30.682078476431276,-1074616.1733078968,10.5,10498925383.826693,47.655,-122.3035,60.0,11.516666666666667
2026-01-20T23:11:32+00:00,SAT-66169,71.27591411876932,44.237438064341326,168259.31016895792,33.6438921074377,-1178351.415124979,10.5,10498821648.584875,47.655,-122.3035,60.0,11.533333333333333
2026-01-20T23:11:33+00:00,SAT-66169,69.69512295655622,44.922455955318995,168292.86434401973,36.58776038015883,-1281458.1345861198,10.5,10498718541.865414,47.655,-122.3035,60.0,11.55
2026-01-20T23:11:34+00:00,SAT-66169,68.0768985792741,45.58473329914447,168329.35453703886,39.512089106824575,-1383880.4964922036,10.5,10498616119.503508,47.655,-122.3035,60.0,11.566666666666666
2026-01-20T23:11:35+00:00,SAT-66169,66.42086034880164,46.22320174138886,168368.76126057477,42.41529751253595,-1485563.1354195958,10.5,10498514436.86458,47.655,-122.3035,60.0,11.583333333333334
2026-01-20T23:11:36+00:00,SAT-66169,64.72678428585476,46.83677315130803,168411.06345062723,45.29581916674647,-1586451.1883445645,10.5,10498413548.811655,47.655,-122.3035,60.0,11.6
2026-01-20T23:11:37+00:00,SAT-66169,62.99462358184435,47.42434428493944,168456.23848094288,48.15210351885027,-1686490.3484260694,10.5,10498313509.651573,47.655,-122.3035,60.0,11.616666666666667
2026-01-20T23:11:38+00:00,SAT-66169,61.224529281127275,47.98480229136882,168504.26217885234,50.98261635104245,-1785626.8808668486,10.5,10498214373.119133,47.655,-122.3035,60.0,11.633333333333333
2026-01-20T23:11:39+00:00,SAT-66169,59.41687067629831,48.517031074285036,168555.1088415598,53.785841285251735,-1883807.6756925727,10.5,10498116192.324306,47.655,-122.3035,60.0,11.65
2026-01-20T23:11:40+00:00,SAT-66169,57.57225478174697,49.019918529109276,168608.75125393496,56.56028036662552,-1980980.2681879608,10.5,10498019019.731812,47.655,-122.3035,60.0,11.666666666666666
2026-01-20T23:11:41+00:00,SAT-66169,55.69154423931884,49.49236462435301,168665.16070688728,59.30445541075949,-2077092.88608246,10.5,10497922907.113918,47.655,-122.3035,60.0,11.683333333333334
2026-01-20T23:11:42+00:00,SAT-66169,53.77587287587937,49.933290284533186,168724.30701708357,62.01690874831686,-2172094.4756299607,10.5,10497827905.52437,47.655,-122.3035,60.0,11.7
2026-01-20T23:11:43+00:00,SAT-66169,51.82665813265516,50.34164698262334,168786.1585474086,64.69620427113162,-2265934.7382477582,10.5,10497734065.261753,47.655,-122.3035,60.0,11.716666666666667
2026-01-20T23:11:44+00:00,SAT-66169,49.84560953889528,50.716426921286384,168850.68222846833,67.34092808344553,-2358564.153325625,10.5,10497641435.846674,47.655,-122.3035,60.0,11.733333333333333
2026-01-20T23:11:45+00:00,SAT-66169,47.83473245042423,51.056673637652,168917.84358074356,69.94968974141126,-2449934.021638457,10.5,10497550065.978361,47.655,-122.3035,60.0,11.75
2026-01-20T23:11:46+00:00,SAT-66169,45.79632631727584,51.36149283436031,168987.606737979,72.52112299488194,-2539996.491326878,10.5,10497460003.508673,47.655,-122.3035,60.0,11.766666666666667
2026-01-20T23:11:47+00:00,SAT-66169,43.73297690574724,51.630063197833174,169059.93447131256,75.0538862197476,-2628704.5730394917,10.5,10497371295.42696,47.655,-122.3035,60.0,11.783333333333333
2026-01-20T23:11:48+00:00,SAT-66169,41.64754207279523,51.861646939635165,169134.7882138357,77.54666396162219,-2716012.193999333,10.5,10497283987.806,47.655,-122.3035,60.0,11.8
2026-01-20T23:11:49+00:00,SAT-66169,39.54313088180081,52.055599781864466,169212.12808669344,79.99816702909581,-2801874.201269953,10.5,10497198125.79873,47.655,-122.3035,60.0,11.816666666666666
2026-01-20T23:11:50+00:00,SAT-66169,37.423076191261174,52.211380090584115,169291.9129252771,82.40713372712318,-2886246.404953901,10.5,10497113753.595047,47.655,-122.3035,60.0,11.833333333333334
2026-01-20T23:11:51+00:00,SAT-66169,35.29090106997359,52.328556877006456,169374.10030664763,84.77232978009937,-2969085.575498512,10.5,10497030914.424501,47.655,-122.3035,60.0,11.85
2026-01-20T23:11:52+00:00,SAT-66169,33.150279759957364,52.406816400538865,169458.64657688164,87.09255032915549,-3050349.5136496485,10.5,10496949650.486351,47.655,-122.3035,60.0,11.866666666666667
2026-01-20T23:11:53+00:00,SAT-66169,31.004994104006386,52.44596714959062,169545.50688040993,89.36661927490437,-3129997.0274318773,10.5,10496870002.972569,47.655,-122.3035,60.0,11.883333333333333
2026-01-20T23:11:54+00:00,SAT-66169,28.858886722438857,52.44594301868226,169634.6351887001,91.59339069915494,-3207987.9819429177,10.5,10496792012.018057,47.655,-122.3035,60.0,11.9
2026-01-20T23:11:55+00:00,SAT-66169,26.71581228613031,52.40680456761796,169725.9843303574,93.77174885421115,-3284283.298978846,10.5,10496715716.701021,47.655,-122.3035,60.0,11.916666666666666
2026-01-20T23:11:56+00:00,SAT-66169,24.579588430411,52.32873831277221,169819.50602121468,95.90060956282633,-3358845.0060664183,10.5,10496641154.993933,47.655,-122.3035,60.0,11.933333333333334
2026-01-20T23:11:57+00:00,SAT-66169,22.45394780721677,52.21205407265871,169915.15089581866,97.97891967361925,-3431636.2173894383,10.5,10496568363.78261,47.655,-122.3035,60.0,11.95
2026-01-20T23:11:58+00:00,SAT-66169,20.342492783966325,52.057180461442115,170012.86853837315,100.00565870393321,-3502621.1913286312,10.5,10496497378.808672,47.655,-122.3035,60.0,11.966666666666667
2026-01-20T23:11:59+00:00,SAT-66169,18.248654054152617,51.8646586851704,170112.60751532053,101.97983785670316,-3571765.2960281717,10.5,10496428234.703972,47.655,-122.3035,60.0,11.983333333333333
2026-01-20T23:12:00+00:00,SAT-66169,16.175654313333172,51.63513485527037,170214.31540694294,103.90050232297584,-3639035.0900396775,10.5,10496360964.90996,47.655,-122.3035,60.0,12.0
2026-01-20T23:12:01+00:00,SAT-66169,14.126477758975026,51.36935106628073,170317.93884125972,105.76672989226617,-3704398.273651016,10.5,10496295601.726349,47.655,-122.3035,60.0,12.016666666666667
2026-01-20T23:12:02+00:00,SAT-66169,12.103846024071004,51.06813552453859,170423.42352653894,107.57763206543665,-3767823.727864044,10.5,10496232176.272137,47.655,-122.3035,60.0,12.033333333333333
2026-01-20T23:12:03+00:00,SAT-66169,10.110200723499444,50.73239201509999,170530.71428491888,109.33235507861774,-3829281.5502566323,10.5,10496170718.449743,47.655,-122.3035,60.0,12.05
2026-01-20T23:12:04+00:00,SAT-66169,8.147692565600071,50.36308899505896,170639.7550870506,111.03007869613319,-3888743.012705805,10.5,10496111256.987293,47.655,-122.3035,60.0,12.066666666666666
2026-01-20T23:12:05+00:00,SAT-66169,6.218176766386976,49.961248594835496,170750.4890855369,112.67001798131658,-3946180.623409225,10.5,10496053819.37659,47.655,-122.3035,60.0,12.083333333333334
2026-01-20T23:12:06+00:00,SAT-66169,4.323214202146629,49.52793576723302,170862.8586501369,114.2514222457567,-4001568.0900833244,10.5,10495998431.909916,47.655,-122.3035,60.0,12.1
2026-01-20T23:12:07+00:00,SAT-66169,2.4640776891444793,49.06424780976918,170976.80540192337,115.77357636780678,-4054880.366143071,10.5,10495945119.633858,47.655,-122.3035,60.0,12.116666666666667
2026-01-20T23:12:08+00:00,SAT-66169,0.6417625870241689,48.571304430560744,171092.27024875418,117.23580022659836,-4106093.630878742,10.5,10495893906.369122,47.655,-122.3035,60.0,12.133333333333333
2026-01-20T23:12:09+00:00,SAT-66169,358.857000948234,48.050238504013436,171209.19342018018,118.63744939644019,-4155185.313776713,10.5,10495844814.686224,47.655,-122.3035,60.0,12.15
2026-01-20T23:12:10+00:00,SAT-66169,357.11027837911786,47.50218761167694,171327.5145030449,119.97791438492786,-4202134.06783483,10.5,10495797865.932165,47.655,-122.3035,60.0,12.166666666666666
2026-01-20T23:12:11+00:00,SAT-66169,355.40185285554236,46.9282864384006,171447.1724763248,121.2566220033643,-4246919.8175603375,10.5,10495753080.18244,47.655,-122.3035,60.0,12.183333333333334
2026-01-20T23:12:12+00:00,SAT-66169,353.7317747434867,46.32966004490736,171568.10574733614,122.47303434986507,-4289523.723353919,10.5,10495710476.276646,47.655,-122.3035,60.0,12.2
2026-01-20T23:12:13+00:00,SAT-66169,352.0999074229936,45.70741803025618,171690.25218692777,123.6266496581909,-4329928.211239405,10.5,10495670071.788761,47.655,-122.3035,60.0,12.216666666666667
2026-01-20T23:12:14+00:00,SAT-66169,350.5059479429866,45.06264955475256,171813.54916552018,124.71700104194896,-4368116.928880393,10.5,10495631883.07112,47.655,-122.3035,60.0,12.233333333333333
2026-01-20T23:12:15+00:00,SAT-66169,348.94944728503174,44.39641919492254,171937.93358789268,125.74365848297626,-4404074.815221839,10.5,10495595925.184778,47.655,-122.3035,60.0,12.25
2026-01-20T23:12:16+00:00,SAT-66169,347.4298298371723,43.70976356131177,172063.34192995305,126.70622691506648,-4437788.033374068,10.5,10495562211.966625,47.655,-122.3035,60.0,12.266666666666667
2026-01-20T23:12:17+00:00,SAT-66169,345.94641185919755,43.0036886378285,172189.71027359634,127.60434698296571,-4469243.997196021,10.5,10495530756.002804,47.655,-122.3035,60.0,12.283333333333333
2026-01-20T23:12:18+00:00,SAT-66169,344.49841871410035,42.27916776181549,172316.97434232067,128.43769517654255,-4498431.375994445,10.5,10495501568.624006,47.655,-122.3035,60.0,12.3
2026-01-20T23:12:19+00:00,SAT-66169,343.0850007532523,41.53714017860927,172445.06953697675,129.20598326063856,-4525340.074554861,10.5,10495474659.925446,47.655,-122.3035,60.0,12.316666666666666
2026-01-20T23:12:20+00:00,SAT-66169,341.705247799446,40.77851010553199,172573.93097094868,129.90895837648472,-4549961.236693584,10.5,10495450038.763306,47.655,-122.3035,60.0,12.333333333333334
2026-01-20T23:12:21+00:00,SAT-66169,340.35820220367106,40.004146234777856,172703.49350543617,130.54640245766316,-4572287.2248022435,10.5,10495427712.775198,47.655,-122.3035,60.0,12.35
