satellites_20260120_184412/SAT-60025.csv

timestamp,satellite,azimuth_deg,elevation_deg,distance_km,relative_velocity_kms,doppler_shift_hz,tx_freq_ghz,rx_freq_hz,ue_lat,ue_lon,ue_alt_m,time_minutes
2026-01-20T23:00:00+00:00,SAT-60025,298.808652075301,48.00614835742959,624.8869290602561,1.8606177142888507,-65166.702759523505,10.5,10499934833.297241,47.655,-122.3035,60.0,0.0
2026-01-20T23:00:01+00:00,SAT-60025,299.7882747017547,47.87709360397164,626.7425851273068,1.9438276310120906,-68081.0660207701,10.5,10499931918.933979,47.655,-122.3035,60.0,0.016666666666666666
2026-01-20T23:00:02+00:00,SAT-60025,300.7568052789846,47.73976475184165,628.6812292179695,2.026267328420926,-70968.4529436018,10.5,10499929031.547056,47.655,-122.3035,60.0,0.03333333333333333
2026-01-20T23:00:03+00:00,SAT-60025,301.7138449215757,47.59443571487885,630.702093166848,2.1079142017199466,-73828.07181246513,10.5,10499926171.928188,47.655,-122.3035,60.0,0.05
2026-01-20T23:00:04+00:00,SAT-60025,302.65903077469693,47.441386255444385,632.8043862640301,2.1887470078184768,-76659.17860446645,10.5,10499923340.821396,47.655,-122.3035,60.0,0.06666666666666667
2026-01-20T23:00:05+00:00,SAT-60025,303.5920357193928,47.28090083915239,634.9872966131611,2.2687459025152372,-79461.07829173603,10.5,10499920538.92171,47.655,-122.3035,60.0,0.08333333333333333
2026-01-20T23:00:06+00:00,SAT-60025,304.51256788520163,47.11326752122153,637.2499925266029,2.3478924178886644,-82233.12404954155,10.5,10499917766.87595,47.655,-122.3035,60.0,0.1
2026-01-20T23:00:07+00:00,SAT-60025,305.42036996383126,46.93877687487166,639.5916238980438,2.42616947174497,-84974.71758719889,10.5,10499915025.282413,47.655,-122.3035,60.0,0.11666666666666667
2026-01-20T23:00:08+00:00,SAT-60025,306.31521836041475,46.75772096462826,642.0113235845308,2.5035613421468015,-87685.30825595824,10.5,10499912314.691744,47.655,-122.3035,60.0,0.13333333333333333
2026-01-20T23:00:09+00:00,SAT-60025,307.1969221906032,46.57039237142274,644.5082087630985,2.580053679915321,-90364.39348687975,10.5,10499909635.606514,47.655,-122.3035,60.0,0.15
2026-01-20T23:00:10+00:00,SAT-60025,308.0653221599098,46.37708327004304,647.0813822998674,2.6556334469546874,-93011.51663069596,10.5,10499906988.48337,47.655,-122.3035,60.0,0.16666666666666666
2026-01-20T23:00:11+00:00,SAT-60025,308.92028932044093,46.178084567085754,649.7299340576302,2.730288947820763,-95626.26806348148,10.5,10499904373.731937,47.655,-122.3035,60.0,0.18333333333333332
2026-01-20T23:00:12+00:00,SAT-60025,309.76172375865946,45.9736850941381,652.4529422349236,2.804009768765233,-98208.28305172022,10.5,10499901791.716948,47.655,-122.3035,60.0,0.2
2026-01-20T23:00:13+00:00,SAT-60025,310.58955320173584,45.7641708641773,655.2494746443055,2.8767867707355155,-100757.24150713261,10.5,10499899242.758493,47.655,-122.3035,60.0,0.21666666666666667
2026-01-20T23:00:14+00:00,SAT-60025,311.40373157960863,45.54982438745737,658.1185899836523,2.948612029047294,-103272.86587375254,10.5,10499896727.134127,47.655,-122.3035,60.0,0.23333333333333334
2026-01-20T23:00:15+00:00,SAT-60025,312.2042375438541,45.33092405059428,661.0593390472887,3.019478849436007,-105754.9216901183,10.5,10499894245.07831,47.655,-122.3035,60.0,0.25
2026-01-20T23:00:16+00:00,SAT-60025,312.9910729811974,45.107743552289584,664.0707659531264,3.089381699679812,-108203.21519441968,10.5,10499891796.784805,47.655,-122.3035,60.0,0.26666666666666666
2026-01-20T23:00:17+00:00,SAT-60025,313.7642615113407,44.88055140071672,667.1519093016069,3.158316166370924,-110617.59181044741,10.5,10499889382.40819,47.655,-122.3035,60.0,0.2833333333333333
2026-01-20T23:00:18+00:00,SAT-60025,314.5238469903206,44.64961046893101,670.3018032915342,3.226278956484361,-112997.93620253711,10.5,10499887002.063797,47.655,-122.3035,60.0,0.3
2026-01-20T23:00:19+00:00,SAT-60025,315.2698920414255,44.41517760293769,673.519478837468,3.2932678118113974,-115344.16927866702,10.5,10499884655.83072,47.655,-122.3035,60.0,0.31666666666666665
2026-01-20T23:00:20+00:00,SAT-60025,316.00247660148136,44.17750328651138,676.8039646017812,3.3592815165035756,-117656.24845468109,10.5,10499882343.751545,47.655,-122.3035,60.0,0.3333333333333333
2026-01-20T23:00:21+00:00,SAT-60025,316.72169651369705,43.93683135335959,680.1542880342408,3.4243197939298895,-119934.16404179133,10.5,10499880065.835958,47.655,-122.3035,60.0,0.35
2026-01-20T23:00:22+00:00,SAT-60025,317.42766214843664,43.69339875196118,683.5694763087201,3.4883833384514404,-122177.9403594607,10.5,10499877822.05964,47.655,-122.3035,60.0,0.36666666666666664
2026-01-20T23:00:23+00:00,SAT-60025,318.12049708785435,43.44743535046091,687.0485572916024,3.551473712230087,-124387.63212120537,10.5,10499875612.367878,47.655,-122.3035,60.0,0.38333333333333336
2026-01-20T23:00:24+00:00,SAT-60025,318.80033684920306,43.19916378846636,690.5905604072666,3.6135933406648837,-126563.32427475971,10.5,10499873436.675726,47.655,-122.3035,60.0,0.4
2026-01-20T23:00:25+00:00,SAT-60025,319.467327671665,42.94879936569842,694.194517499023,3.67474544509311,-128705.12964498145,10.5,10499871294.870356,47.655,-122.3035,60.0,0.4166666666666667
2026-01-20T23:00:26+00:00,SAT-60025,320.12162535614186,42.696549969045094,697.8594636229292,3.7349340232074204,-130813.18824797758,10.5,10499869186.811752,47.655,-122.3035,60.0,0.43333333333333335
2026-01-20T23:00:27+00:00,SAT-60025,320.76339416905057,42.44261603175437,701.5844378220747,3.794163783866367,-132887.66500789305,10.5,10499867112.334991,47.655,-122.3035,60.0,0.45
2026-01-20T23:00:28+00:00,SAT-60025,321.3928058023534,42.1871905251139,705.3684838358508,3.8524401320851456,-134928.74923122325,10.5,10499865071.250769,47.655,-122.3035,60.0,0.4666666666666667
2026-01-20T23:00:29+00:00,SAT-60025,322.0100383990963,41.93045897640903,709.2106507942505,3.9097690861854812,-136936.6517050524,10.5,10499863063.348295,47.655,-122.3035,60.0,0.48333333333333334
2026-01-20T23:00:30+00:00,SAT-60025,322.61527563245477,41.672599515104736,713.1099938295393,3.966157306815107,-138911.60571343868,10.5,10499861088.394287,47.655,-122.3035,60.0,0.5
2026-01-20T23:00:31+00:00,SAT-60025,323.20870585568406,41.413782937222486,717.0655747168696,4.02161197224079,-140853.86266964828,10.5,10499859146.137331,47.655,-122.3035,60.0,0.5166666666666667
2026-01-20T23:00:32+00:00,SAT-60025,323.79052129698266,41.154172795745346,721.0764623905178,4.076140810464783,-142763.6932410095,10.5,10499857236.306759,47.655,-122.3035,60.0,0.5333333333333333
2026-01-20T23:00:33+00:00,SAT-60025,324.360917322453,40.893925504351785,725.1417334921546,4.129752014593005,-144641.3843847484,10.5,10499855358.615616,47.655,-122.3035,60.0,0.55
2026-01-20T23:00:34+00:00,SAT-60025,324.9200917470744,40.63319046004113,729.2604728347087,4.182454247188591,-146487.2395004687,10.5,10499853512.7605,47.655,-122.3035,60.0,0.5666666666666667
2026-01-20T23:00:35+00:00,SAT-60025,325.46824420460933,40.372110176875985,733.4317738705715,4.234256571027961,-148301.57600493604,10.5,10499851698.423996,47.655,-122.3035,60.0,0.5833333333333334
2026-01-20T23:00:36+00:00,SAT-60025,326.00557556365663,40.11082043368726,737.6547390907433,4.285168401800042,-150084.72367540494,10.5,10499849915.276325,47.655,-122.3035,60.0,0.6
