satellites_20260120_184412/SAT-53473.csv

timestamp,satellite,azimuth_deg,elevation_deg,distance_km,relative_velocity_kms,doppler_shift_hz,tx_freq_ghz,rx_freq_hz,ue_lat,ue_lon,ue_alt_m,time_minutes
2026-01-20T23:03:06+00:00,SAT-53473,292.13114251473064,40.03486145814518,3006.986540961965,-6.7037945450553185,234795.2419906469,10.5,10500234795.241991,47.655,-122.3035,60.0,3.1
2026-01-20T23:03:07+00:00,SAT-53473,292.07270646978645,40.09255381900334,3000.300623202363,-6.702201847464379,234739.4589839081,10.5,10500234739.458984,47.655,-122.3035,60.0,3.1166666666666667
2026-01-20T23:03:08+00:00,SAT-53473,292.01389721356026,40.15032888301143,2993.616293893159,-6.700590190302995,234683.01193281333,10.5,10500234683.011932,47.655,-122.3035,60.0,3.1333333333333333
2026-01-20T23:03:09+00:00,SAT-53473,291.9547116508269,40.208186807731146,2986.933571943363,-6.698959404557598,234625.89491779273,10.5,10500234625.894918,47.655,-122.3035,60.0,3.15
2026-01-20T23:03:10+00:00,SAT-53473,291.8951466546181,40.26612774709715,2980.2524764305513,-6.6973093973276505,234568.10468507628,10.5,10500234568.104685,47.655,-122.3035,60.0,3.1666666666666665
2026-01-20T23:03:11+00:00,SAT-53473,291.8351990652694,40.324151851981675,2973.57302652495,-6.695639957658748,234509.63384614847,10.5,10500234509.633846,47.655,-122.3035,60.0,3.183333333333333
2026-01-20T23:03:12+00:00,SAT-53473,291.77486569091263,40.38225926908351,2966.895241607178,-6.6939509728861895,234450.47845501502,10.5,10500234450.478455,47.655,-122.3035,60.0,3.2
2026-01-20T23:03:13+00:00,SAT-53473,291.71414330633854,40.440450141680074,2960.2191411702197,-6.692242278812304,234390.63276077877,10.5,10500234390.632761,47.655,-122.3035,60.0,3.216666666666667
2026-01-20T23:03:14+00:00,SAT-53473,291.6530286529746,40.4987246090856,2953.5447448708173,-6.690513726265945,234330.0915388353,10.5,10500234330.09154,47.655,-122.3035,60.0,3.2333333333333334
2026-01-20T23:03:15+00:00,SAT-53473,291.5915184383714,40.55708280667984,2946.8720725144885,-6.688765147877133,234268.84892717982,10.5,10500234268.848927,47.655,-122.3035,60.0,3.25
2026-01-20T23:03:16+00:00,SAT-53473,291.5296093359154,40.61552486564853,2940.201144073672,-6.686996385611879,234206.89939079367,10.5,10500234206.899391,47.655,-122.3035,60.0,3.2666666666666666
2026-01-20T23:03:17+00:00,SAT-53473,291.4672979843584,40.67405091295839,2933.5319796784215,-6.685207290943974,234144.23772766066,10.5,10500234144.237728,47.655,-122.3035,60.0,3.283333333333333
2026-01-20T23:03:18+00:00,SAT-53473,291.4045809872904,40.73266107133291,2926.8645996069204,-6.683397708042054,234080.85847990733,10.5,10500234080.85848,47.655,-122.3035,60.0,3.3
2026-01-20T23:03:19+00:00,SAT-53473,291.34145491279105,40.79135545907961,2920.199024292767,-6.6815674406418095,234016.75477352735,10.5,10500234016.754774,47.655,-122.3035,60.0,3.316666666666667
2026-01-20T23:03:20+00:00,SAT-53473,291.2779162933001,40.85013418962251,2913.5352743652993,-6.679716357173784,233951.92200040177,10.5,10500233951.922,47.655,-122.3035,60.0,3.3333333333333335
2026-01-20T23:03:21+00:00,SAT-53473,291.21396162467494,40.90899737195318,2906.873370585078,-6.677844285604568,233886.35413519296,10.5,10500233886.354136,47.655,-122.3035,60.0,3.35
2026-01-20T23:03:22+00:00,SAT-53473,291.1495873660399,40.967945110159434,2900.2133338842355,-6.675951040986381,233820.04470024724,10.5,10500233820.0447,47.655,-122.3035,60.0,3.3666666666666667
2026-01-20T23:03:23+00:00,SAT-53473,291.0847899394783,41.02697750318918,2893.555185379358,-6.674036475387628,233752.98851437448,10.5,10500233752.988514,47.655,-122.3035,60.0,3.3833333333333333
2026-01-20T23:03:24+00:00,SAT-53473,291.0195657292357,41.086094645053926,2886.8989463345715,-6.672100394778645,233685.17878183504,10.5,10500233685.178782,47.655,-122.3035,60.0,3.4
2026-01-20T23:03:25+00:00,SAT-53473,290.9539110816634,41.14529662429462,2880.2446382075123,-6.670142658551789,233616.61057795453,10.5,10500233616.610579,47.655,-122.3035,60.0,3.4166666666666665
2026-01-20T23:03:26+00:00,SAT-53473,290.8878223042781,41.204583524325116,2873.59228259605,-6.668163024802585,233547.27543021494,10.5,10500233547.27543,47.655,-122.3035,60.0,3.433333333333333
2026-01-20T23:03:27+00:00,SAT-53473,290.8212956661805,41.26395542240128,2866.9419013393135,-6.666161409993933,233477.17041279367,10.5,10500233477.170412,47.655,-122.3035,60.0,3.45
2026-01-20T23:03:28+00:00,SAT-53473,290.75432739617,41.3234123908907,2860.2935163597463,-6.6641375518341155,233406.28633912536,10.5,10500233406.286339,47.655,-122.3035,60.0,3.466666666666667
2026-01-20T23:03:29+00:00,SAT-53473,290.68691368384805,41.382954495546336,2853.647149841384,-6.662091318751644,233334.61860101987,10.5,10500233334.6186,47.655,-122.3035,60.0,3.4833333333333334
2026-01-20T23:03:30+00:00,SAT-53473,290.61905067794777,41.44258179652631,2847.002824099482,-6.660022505344417,233262.16000442673,10.5,10500233262.160004,47.655,-122.3035,60.0,3.5
2026-01-20T23:03:31+00:00,SAT-53473,290.5507344865147,41.502294347591246,2840.3605616541518,-6.657930931941499,233188.90425650985,10.5,10500233188.904257,47.655,-122.3035,60.0,3.5166666666666666
2026-01-20T23:03:32+00:00,SAT-53473,290.4819611761461,41.56209219618446,2833.7203852046955,-6.655816405723295,233114.84460391128,10.5,10500233114.844604,47.655,-122.3035,60.0,3.533333333333333
2026-01-20T23:03:33+00:00,SAT-53473,290.41272677162624,41.62197538316178,2827.0823176427207,-6.6536787595485185,233039.97519263625,10.5,10500233039.975193,47.655,-122.3035,60.0,3.55
2026-01-20T23:03:34+00:00,SAT-53473,290.34302725513754,41.68194394286687,2820.4463820265314,-6.651517757932524,232964.28777501633,10.5,10500232964.287775,47.655,-122.3035,60.0,3.566666666666667
2026-01-20T23:03:35+00:00,SAT-53473,290.27285856640515,41.74199790235674,2813.8126016492865,-6.649333262687816,232887.77751114094,10.5,10500232887.777512,47.655,-122.3035,60.0,3.5833333333333335
2026-01-20T23:03:36+00:00,SAT-53473,290.20221660122274,41.802137282113975,2807.180999941966,-6.6471250341445565,232810.43600675854,10.5,10500232810.436007,47.655,-122.3035,60.0,3.6
2026-01-20T23:03:37+00:00,SAT-53473,290.1310972119053,41.8623620949659,2800.551600574579,-6.644892907862651,232732.2575024814,10.5,10500232732.257502,47.655,-122.3035,60.0,3.6166666666666667
2026-01-20T23:03:38+00:00,SAT-53473,290.05949620598744,41.92267234659229,2793.9244273811373,-6.64263665093362,232653.2338408694,10.5,10500232653.23384,47.655,-122.3035,60.0,3.6333333333333333
2026-01-20T23:03:39+00:00,SAT-53473,289.98740934637704,41.98306803473092,2787.2995044279396,-6.640356072512301,232573.3583377176,10.5,10500232573.358337,47.655,-122.3035,60.0,3.65
2026-01-20T23:03:40+00:00,SAT-53473,289.9148323503508,42.04354914937928,2780.676855971621,-6.638051001459241,232492.62499899857,10.5,10500232492.624998,47.655,-122.3035,60.0,3.6666666666666665
2026-01-20T23:03:41+00:00,SAT-53473,289.84176088883316,42.10411567279132,2774.0565064394987,-6.635721176382785,232411.02466967082,10.5,10500232411.02467,47.655,-122.3035,60.0,3.683333333333333
2026-01-20T23:03:42+00:00,SAT-53473,289.7681905866732,42.16476757846951,2767.4384805195864,-6.633366427175679,232328.5513918587,10.5,10500232328.551392,47.655,-122.3035,60.0,3.7
2026-01-20T23:03:43+00:00,SAT-53473,289.6941170212012,42.225504831802965,2760.8228030695495,-6.630986531932401,232245.19739349218,10.5,10500232245.197393,47.655,-122.3035,60.0,3.716666666666667
2026-01-20T23:03:44+00:00,SAT-53473,289.61953572213275,42.28632738940064,2754.209499168369,-6.628581288440435,232160.95559223366,10.5,10500232160.955593,47.655,-122.3035,60.0,3.7333333333333334
2026-01-20T23:03:45+00:00,SAT-53473,289.5444421707989,42.34723519907021,2747.598594096698,-6.626150448121362,232075.81728181537,10.5,10500232075.817282,47.655,-122.3035,60.0,3.75
2026-01-20T23:03:46+00:00,SAT-53473,289.468831799999,42.40822819918731,2740.9901133831045,-6.623693826056877,231989.77598561608,10.5,10500231989.775986,47.655,-122.3035,60.0,3.7666666666666666
2026-01-20T23:03:47+00:00,SAT-53473,289.3926999927726,42.46930631906984,2734.384082740584,-6.621211196428168,231902.82379450573,10.5,10500231902.823795,47.655,-122.3035,60.0,3.783333333333333
2026-01-20T23:03:48+00:00,SAT-53473,289.31604208217647,42.530469478387964,2727.7805281073465,-6.61870233643321,231814.95290501506,10.5,10500231814.952906,47.655,-122.3035,60.0,3.8
2026-01-20T23:03:49+00:00,SAT-53473,289.23885335065376,42.59171758697243,2721.1794756438103,-6.61616698249043,231726.15408540235,10.5,10500231726.154085,47.655,-122.3035,60.0,3.816666666666667
2026-01-20T23:03:50+00:00,SAT-53473,289.16112902982167,42.65305054421174,2714.5809517732732,-6.613604967214594,231636.42147312872,10.5,10500231636.421473,47.655,-122.3035,60.0,3.8333333333333335
2026-01-20T23:03:51+00:00,SAT-53473,289.0828642988576,42.71446823971147,2707.984983085971,-6.611016032981991,231545.746045122,10.5,10500231545.746046,47.655,-122.3035,60.0,3.85
2026-01-20T23:03:52+00:00,SAT-53473,289.0040542847679,42.77597055222609,2701.391596429077,-6.6083999415198775,231454.1194560629,10.5,10500231454.119455,47.655,-122.3035,60.0,3.8666666666666667
2026-01-20T23:03:53+00:00,SAT-53473,288.9246940615662,42.8375573495957,2694.8008188874014,-6.605756457473208,231361.53346282206,10.5,10500231361.533463,47.655,-122.3035,60.0,3.8833333333333333
2026-01-20T23:03:54+00:00,SAT-53473,288.84477864956557,42.899228488527186,2688.2126777804815,-6.603085364802329,231267.9804987771,10.5,10500231267.9805,47.655,-122.3035,60.0,3.9
2026-01-20T23:03:55+00:00,SAT-53473,288.7643030145359,42.96098381452281,2681.6272006433187,-6.60038638453118,231173.45079300625,10.5,10500231173.450792,47.655,-122.3035,60.0,3.9166666666666665
2026-01-20T23:03:56+00:00,SAT-53473,288.68326206768126,43.02282316103556,2675.044415289146,-6.597659306244071,231077.936975862,10.5,10500231077.936975,47.655,-122.3035,60.0,3.933333333333333
2026-01-20T23:03:57+00:00,SAT-53473,288.60165066425355,43.084746349845986,2668.464349741052,-6.594903878441337,230981.43023876217,10.5,10500230981.430239,47.655,-122.3035,60.0,3.95
2026-01-20T23:03:58+00:00,SAT-53473,288.5194636032861,43.146753190408866,2661.887032272953,-6.59211984143538,230883.9214863487,10.5,10500230883.921486,47.655,-122.3035,60.0,3.966666666666667
2026-01-20T23:03:59+00:00,SAT-53473,288.4366956270119,43.20884347950142,2655.3124914177615,-6.589306938219464,230785.4017171585,10.5,10500230785.401716,47.655,-122.3035,60.0,3.9833333333333334
2026-01-20T23:04:00+00:00,SAT-53473,288.3533414201267,43.271017000965095,2648.740755964711,-6.58646495820612,230685.8635555277,10.5,10500230685.863556,47.655,-122.3035,60.0,4.0
2026-01-20T23:04:01+00:00,SAT-53473,288.2693956085682,43.333273525855944,2642.1718549130596,-6.58359356764641,230585.29531215664,10.5,10500230585.295313,47.655,-122.3035,60.0,4.016666666666667
2026-01-20T23:04:02+00:00,SAT-53473,288.1848527601818,43.39561281098842,2635.6058175949274,-6.580692582984569,230483.69055814596,10.5,10500230483.690557,47.655,-122.3035,60.0,4.033333333333333
2026-01-20T23:04:03+00:00,SAT-53473,288.09970738231465,43.45803460005097,2629.0426735254973,-6.577761697515046,230381.03855137006,10.5,10500230381.038551,47.655,-122.3035,60.0,4.05
2026-01-20T23:04:04+00:00,SAT-53473,288.0139539224589,43.52053862213545,2622.482452525842,-6.574800656191312,230277.33035902047,10.5,10500230277.330359,47.655,-122.3035,60.0,4.066666666666666
2026-01-20T23:04:05+00:00,SAT-53473,287.92758676696644,43.58312459190917,2615.9251846714005,-6.571809190087348,230172.5565621706,10.5,10500230172.556562,47.655,-122.3035,60.0,4.083333333333333
2026-01-20T23:04:06+00:00,SAT-53473,287.8406002404215,43.645792209162074,2609.37090030582,-6.568787016297031,230066.70725225125,10.5,10500230066.707253,47.655,-122.3035,60.0,4.1
2026-01-20T23:04:07+00:00,SAT-53473,287.75298860509315,43.7085411583431,2602.8196300549,-6.565733897952849,229959.77413316016,10.5,10500229959.774134,47.655,-122.3035,60.0,4.116666666666666
2026-01-20T23:04:08+00:00,SAT-53473,287.66474605959917,43.771371108663395,2596.2714047806753,-6.562649507827849,229851.74574402536,10.5,10500229851.745745,47.655,-122.3035,60.0,4.133333333333334
2026-01-20T23:04:09+00:00,SAT-53473,287.57586673923686,43.83428171288851,2589.7262556715345,-6.559533580984013,229742.6128055968,10.5,10500229742.612806,47.655,-122.3035,60.0,4.15
2026-01-20T23:04:10+00:00,SAT-53473,287.48634471445496,43.89727260758041,2583.1842141801003,-6.556385871062319,229632.3666893393,10.5,10500229632.36669,47.655,-122.3035,60.0,4.166666666666667
2026-01-20T23:04:11+00:00,SAT-53473,287.396173989854,43.96034341291717,2576.645312004694,-6.553206019557429,229520.9948388795,10.5,10500229520.994839,47.655,-122.3035,60.0,4.183333333333334
2026-01-20T23:04:12+00:00,SAT-53473,287.3053485047458,44.02349373124719,2570.1095812011886,-6.54999378453386,229408.48878061346,10.5,10500229408.488781,47.655,-122.3035,60.0,4.2
2026-01-20T23:04:13+00:00,SAT-53473,287.21386213096366,44.08672314783206,2563.5770540667468,-6.546748877103234,229294.83839644812,10.5,10500229294.838396,47.655,-122.3035,60.0,4.216666666666667
2026-01-20T23:04:14+00:00,SAT-53473,287.12170867259437,44.15003123001204,2557.0477631866493,-6.543470972475004,229180.03231084466,10.5,10500229180.03231,47.655,-122.3035,60.0,4.233333333333333
2026-01-20T23:04:15+00:00,SAT-53473,287.02888186565383,44.21341752646422,2550.521741470101,-6.54015978595106,229064.06055247106,10.5,10500229064.060553,47.655,-122.3035,60.0,4.25
2026-01-20T23:04:16+00:00,SAT-53473,286.9353753767323,44.27688156718738,2543.9990221102457,-6.536814985926645,228946.91150712594,10.5,10500228946.911507,47.655,-122.3035,60.0,4.266666666666667
2026-01-20T23:04:17+00:00,SAT-53473,286.84118280281575,44.340422862635826,2537.479638630948,-6.533436313379421,228828.57610275145,10.5,10500228828.576103,47.655,-122.3035,60.0,4.283333333333333
2026-01-20T23:04:18+00:00,SAT-53473,286.74629766946293,44.40404090400321,2530.9636248144043,-6.530023424298986,228709.04229064815,10.5,10500228709.04229,47.655,-122.3035,60.0,4.3
2026-01-20T23:04:19+00:00,SAT-53473,286.6507134311113,44.467735161967745,2524.4510147859037,-6.5265759874541205,228588.29846969753,10.5,10500228588.29847,47.655,-122.3035,60.0,4.316666666666666
2026-01-20T23:04:20+00:00,SAT-53473,286.5544234700375,44.531505086374295,2517.9418430010824,-6.523093733040608,228466.33519021477,10.5,10500228466.33519,47.655,-122.3035,60.0,4.333333333333333
2026-01-20T23:04:21+00:00,SAT-53473,286.45742109472206,44.59535010638535,2511.4361441846636,-6.519576300902408,228343.13983801182,10.5,10500228343.139837,47.655,-122.3035,60.0,4.35
2026-01-20T23:04:22+00:00,SAT-53473,286.35969954015707,44.65926962913937,2504.9339534205637,-6.51602337591379,228218.70137605263,10.5,10500228218.701376,47.655,-122.3035,60.0,4.366666666666666
2026-01-20T23:04:23+00:00,SAT-53473,286.2612519664126,44.7232630397205,2498.4353061069855,-6.512434628457642,228093.00825975163,10.5,10500228093.008259,47.655,-122.3035,60.0,4.383333333333334
2026-01-20T23:04:24+00:00,SAT-53473,286.1620714579307,44.787329700536574,2491.9402379708704,-6.508809719624561,227966.04861906797,10.5,10500227966.048618,47.655,-122.3035,60.0,4.4
2026-01-20T23:04:25+00:00,SAT-53473,286.0621510228058,44.85146895073737,2485.4487850771648,-6.5051483392073655,227837.81158923396,10.5,10500227837.811588,47.655,-122.3035,60.0,4.416666666666667
2026-01-20T23:04:26+00:00,SAT-53473,285.96148359146196,44.91568010599549,2478.960983800195,-6.501450086541345,227708.28313727665,10.5,10500227708.283136,47.655,-122.3035,60.0,4.433333333333334
2026-01-20T23:04:27+00:00,SAT-53473,285.8600620170565,44.97996245710127,2472.476870913885,-6.497714686812249,227577.45363803854,10.5,10500227577.453638,47.655,-122.3035,60.0,4.45
2026-01-20T23:04:28+00:00,SAT-53473,285.75787907280494,45.044315270681615,2465.9964834662374,-6.493941742298469,227445.3091616265,10.5,10500227445.309162,47.655,-122.3035,60.0,4.466666666666667
2026-01-20T23:04:29+00:00,SAT-53473,285.6549274528145,45.10873778744913,2459.5198589019183,-6.490130926932301,227311.83828777028,10.5,10500227311.838287,47.655,-122.3035,60.0,4.483333333333333
2026-01-20T23:04:30+00:00,SAT-53473,285.5511997701567,45.1732292223644,2453.0470349907914,-6.486281867292661,227177.02793768395,10.5,10500227177.027937,47.655,-122.3035,60.0,4.5
2026-01-20T23:04:31+00:00,SAT-53473,285.446688556641,45.23778876360692,2446.578049875144,-6.482394207504757,227040.86564712695,10.5,10500227040.865646,47.655,-122.3035,60.0,4.516666666666667
2026-01-20T23:04:32+00:00,SAT-53473,285.3413862616135,45.302415572176805,2440.112942052193,-6.478467582070144,226903.33861479769,10.5,10500226903.338615,47.655,-122.3035,60.0,4.533333333333333
2026-01-20T23:04:33+00:00,SAT-53473,285.2352852512263,45.36710878121558,2433.651750383675,-6.474501615882484,226764.43370288546,10.5,10500226764.433702,47.655,-122.3035,60.0,4.55
2026-01-20T23:04:34+00:00,SAT-53473,285.128377807601,45.43186749531254,2427.194514105435,-6.470495951091532,226624.1383779611,10.5,10500226624.138378,47.655,-122.3035,60.0,4.566666666666666
2026-01-20T23:04:35+00:00,SAT-53473,285.0206561276757,45.49669079006789,2420.741272810213,-6.466450193213548,226482.43882353525,10.5,10500226482.438824,47.655,-122.3035,60.0,4.583333333333333
2026-01-20T23:04:36+00:00,SAT-53473,284.9121123227977,45.56157771110271,2414.2920664841818,-6.4623639541322735,226339.32144613483,10.5,10500226339.321445,47.655,-122.3035,60.0,4.6
2026-01-20T23:04:37+00:00,SAT-53473,284.8027384176989,45.626527273484854,2407.846935500593,-6.458236889679251,226194.77419152463,10.5,10500226194.77419,47.655,-122.3035,60.0,4.616666666666666
2026-01-20T23:04:38+00:00,SAT-53473,284.6925263488614,45.6915384615206,2401.4059205759536,-6.454068538322827,226048.7808949139,10.5,10500226048.780895,47.655,-122.3035,60.0,4.633333333333334
2026-01-20T23:04:39+00:00,SAT-53473,284.5814679654128,45.75661022690861,2394.9690628870662,-6.449858562906451,225901.32974765406,10.5,10500225901.329748,47.655,-122.3035,60.0,4.65
2026-01-20T23:04:40+00:00,SAT-53473,284.46955502620693,45.821741489313546,2388.536403946994,-6.44560653574794,225752.40577050598,10.5,10500225752.405771,47.655,-122.3035,60.0,4.666666666666667
2026-01-20T23:04:41+00:00,SAT-53473,284.35677920033095,45.88693113475849,2382.1079856953415,-6.441312056691314,225601.99494831453,10.5,10500225601.994947,47.655,-122.3035,60.0,4.683333333333334
2026-01-20T23:04:42+00:00,SAT-53473,284.24313206567956,45.95217801519513,2375.683850470801,-6.43697471013833,225450.08272507132,10.5,10500225450.082726,47.655,-122.3035,60.0,4.7
2026-01-20T23:04:43+00:00,SAT-53473,284.128605108273,46.01748094762136,2369.2640410265567,-6.43259409177577,225296.65494001715,10.5,10500225296.65494,47.655,-122.3035,60.0,4.716666666666667
2026-01-20T23:04:44+00:00,SAT-53473,284.0131897210968,46.082838713457186,2362.8486005190257,-6.428169787066047,225141.69707429226,10.5,10500225141.697075,47.655,-122.3035,60.0,4.733333333333333
2026-01-20T23:04:45+00:00,SAT-53473,283.8968772033401,46.1482500576859,2356.4375725180585,-6.423701339129245,224985.19312602945,10.5,10500224985.193127,47.655,-122.3035,60.0,4.75
2026-01-20T23:04:46+00:00,SAT-53473,283.77965876008807,46.213713687649054,2350.031001049167,-6.419188355678148,224827.129355671,10.5,10500224827.129356,47.655,-122.3035,60.0,4.766666666666667
2026-01-20T23:04:47+00:00,SAT-53473,283.66152550036236,46.27922827291842,2343.628930529104,-6.414630375191272,224667.4895987822,10.5,10500224667.4896,47.655,-122.3035,60.0,4.783333333333333
2026-01-20T23:04:48+00:00,SAT-53473,283.5424684372402,46.34479244378244,2337.2314058349134,-6.410026989872565,224506.2595726205,10.5,10500224506.259573,47.655,-122.3035,60.0,4.8
2026-01-20T23:04:49+00:00,SAT-53473,283.42247848608014,46.410404790975626,2330.838472250347,-6.405377696004576,224343.42163486997,10.5,10500224343.421635,47.655,-122.3035,60.0,4.816666666666666
2026-01-20T23:04:50+00:00,SAT-53473,283.3015464651176,46.47606386385342,2324.450175561532,-6.40068211271674,224178.96244583232,10.5,10500224178.962446,47.655,-122.3035,60.0,4.833333333333333
2026-01-20T23:04:51+00:00,SAT-53473,283.17966309248857,46.54176817079656,2318.0665619344486,-6.395939736541651,224012.8643719494,10.5,10500224012.864372,47.655,-122.3035,60.0,4.85
2026-01-20T23:04:52+00:00,SAT-53473,283.05681898733377,46.60751617707619,2311.687678037205,-6.391150138548431,223845.1123902474,10.5,10500223845.11239,47.655,-122.3035,60.0,4.866666666666666
2026-01-20T23:04:53+00:00,SAT-53473,282.9330046675924,46.67330630472626,2305.313570965692,-6.386312815306267,223675.6888684498,10.5,10500223675.688868,47.655,-122.3035,60.0,4.883333333333334
2026-01-20T23:04:54+00:00,SAT-53473,282.80821055037956,46.73913693086307,2298.9442883178936,-6.381427332294373,223504.5785878006,10.5,10500223504.578588,47.655,-122.3035,60.0,4.9
2026-01-20T23:04:55+00:00,SAT-53473,282.6824269498143,46.80500638746385,2292.579878125152,-6.376493191012174,223331.76408870108,10.5,10500223331.76409,47.655,-122.3035,60.0,4.916666666666667
2026-01-20T23:04:56+00:00,SAT-53473,282.55564407725296,46.87091295975556,2286.2203889159828,-6.371509908581773,223157.22845872465,10.5,10500223157.228458,47.655,-122.3035,60.0,4.933333333333334
2026-01-20T23:04:57+00:00,SAT-53473,282.42785204006964,46.93685488540369,2279.8658697004903,-6.366477012404016,222980.9551454499,10.5,10500222980.955145,47.655,-122.3035,60.0,4.95
2026-01-20T23:04:58+00:00,SAT-53473,282.29904084058893,47.002830353629186,2273.5163699601194,-6.361393997578827,222802.9264651404,10.5,10500222802.926466,47.655,-122.3035,60.0,4.966666666666667
2026-01-20T23:04:59+00:00,SAT-53473,282.16920037574135,47.06883750386005,2267.1719396798676,-6.356260348120586,222623.1243457971,10.5,10500222623.124346,47.655,-122.3035,60.0,4.983333333333333
2026-01-20T23:05:00+00:00,SAT-53473,282.0383204364082,47.13487442458364,2260.832629359342,-6.351075584579083,222441.5319950456,10.5,10500222441.531996,47.655,-122.3035,60.0,5.0
2026-01-20T23:05:01+00:00,SAT-53473,281.9063907058489,47.2009391526728,2254.4984899763217,-6.345839189682138,222258.13129582617,10.5,10500222258.131296,47.655,-122.3035,60.0,5.016666666666667
2026-01-20T23:05:02+00:00,SAT-53473,281.7734007595434,47.26702967191713,2248.1695730244787,-6.340550634911178,222072.90373718267,10.5,10500222072.903738,47.655,-122.3035,60.0,5.033333333333333
2026-01-20T23:05:03+00:00,SAT-53473,281.63934006453155,47.333143911806715,2241.8459305245938,-6.335209401527812,221885.83115070235,10.5,10500221885.83115,47.655,-122.3035,60.0,5.05
2026-01-20T23:05:04+00:00,SAT-53473,281.50419797842903,47.399279746515596,2235.527615014804,-6.329814959280686,221696.8949647399,10.5,10500221696.894964,47.655,-122.3035,60.0,5.066666666666666
2026-01-20T23:05:05+00:00,SAT-53473,281.3679637487698,47.465434993637516,2229.2146795620806,-6.32436677173469,221506.07639106867,10.5,10500221506.076391,47.655,-122.3035,60.0,5.083333333333333
2026-01-20T23:05:06+00:00,SAT-53473,281.2306265123721,47.531607412957015,2222.907177768404,-6.318864285575461,221313.35605027908,10.5,10500221313.35605,47.655,-122.3035,60.0,5.1
2026-01-20T23:05:07+00:00,SAT-53473,281.0921752948321,47.59779470508107,2216.6051637875903,-6.313306988496634,221118.7159992352,10.5,10500221118.716,47.655,-122.3035,60.0,5.116666666666666
2026-01-20T23:05:08+00:00,SAT-53473,280.95259900897867,47.66399451066046,2210.3086922843963,-6.307694282695814,220922.1353003685,10.5,10500220922.1353,47.655,-122.3035,60.0,5.133333333333334
2026-01-20T23:05:09+00:00,SAT-53473,280.81188645578266,47.7302044082503,2204.0178185197874,-6.302025606086765,220723.59426704134,10.5,10500220723.594267,47.655,-122.3035,60.0,5.15
2026-01-20T23:05:10+00:00,SAT-53473,280.67002632296527,47.796421913425775,2197.7325983153173,-6.296300437069562,220523.07463061798,10.5,10500220523.07463,47.655,-122.3035,60.0,5.166666666666667
2026-01-20T23:05:11+00:00,SAT-53473,280.52700718341896,47.86264447792261,2191.4530880127463,-6.290518147683033,220320.55439724185,10.5,10500220320.554398,47.655,-122.3035,60.0,5.183333333333334
2026-01-20T23:05:12+00:00,SAT-53473,280.38281749674195,47.928869487202725,2185.1793445801236,-6.284678176574555,220116.01390596968,10.5,10500220116.013906,47.655,-122.3035,60.0,5.2
2026-01-20T23:05:13+00:00,SAT-53473,280.2374456071777,47.995094259819766,2178.9114255453533,-6.27877993994573,219909.432709712,10.5,10500219909.43271,47.655,-122.3035,60.0,5.216666666666667
2026-01-20T23:05:14+00:00,SAT-53473,280.0908797435093,48.061316045819545,2172.6493890185807,-6.2728228468035425,219700.7901093936,10.5,10500219700.79011,47.655,-122.3035,60.0,5.233333333333333
2026-01-20T23:05:15+00:00,SAT-53473,279.9431080185316,48.12753202527321,2166.3932936993688,-6.266806262743355,219490.0638854805,10.5,10500219490.063885,47.655,-122.3035,60.0,5.25
2026-01-20T23:05:16+00:00,SAT-53473,279.79411842949185,48.19373930639955,2160.1431989199928,-6.260729614129636,219277.2339468299,10.5,10500219277.233948,47.655,-122.3035,60.0,5.266666666666667
2026-01-20T23:05:17+00:00,SAT-53473,279.6438988562134,48.25993492476781,2153.899164584834,-6.254592257486534,219062.27775619563,10.5,10500219062.277756,47.655,-122.3035,60.0,5.283333333333333
2026-01-20T23:05:18+00:00,SAT-53473,279.4924370621362,48.326115841083215,2147.6612512400343,-6.248393594207649,218845.17434784942,10.5,10500218845.174347,47.655,-122.3035,60.0,5.3
2026-01-20T23:05:19+00:00,SAT-53473,279.33972069284886,48.39227894016536,2141.4295200287443,-6.2421329558729415,218625.900310894,10.5,10500218625.90031,47.655,-122.3035,60.0,5.316666666666666
2026-01-20T23:05:20+00:00,SAT-53473,279.18573727727653,48.45842102867931,2135.2040327607538,-6.235809739455511,218404.43452477668,10.5,10500218404.434525,47.655,-122.3035,60.0,5.333333333333333
2026-01-20T23:05:21+00:00,SAT-53473,279.03047422576515,48.524538834273,2128.9848518472704,-6.229423277237426,218180.75360319094,10.5,10500218180.753603,47.655,-122.3035,60.0,5.35
2026-01-20T23:05:22+00:00,SAT-53473,278.87391883129544,48.590629003307384,2122.772040365439,-6.222972925027766,217954.83498384585,10.5,10500217954.834984,47.655,-122.3035,60.0,5.366666666666666
2026-01-20T23:05:23+00:00,SAT-53473,278.7160582685867,48.65668809948923,2116.5656620348777,-6.216457999871913,217726.65474678183,10.5,10500217726.654747,47.655,-122.3035,60.0,5.383333333333334
2026-01-20T23:05:24+00:00,SAT-53473,278.55687959483384,48.72271260181734,2110.3657812563392,-6.209877862882987,217496.19051547773,10.5,10500217496.190516,47.655,-122.3035,60.0,5.4
2026-01-20T23:05:25+00:00,SAT-53473,278.396369748444,48.788698903378226,2104.172463067757,-6.203231820626113,217263.41800291114,10.5,10500217263.418003,47.655,-122.3035,60.0,5.416666666666667
2026-01-20T23:05:26+00:00,SAT-53473,278.2345155502126,48.85464330906056,2097.9857731986526,-6.196519166606186,217028.31246463498,10.5,10500217028.312464,47.655,-122.3035,60.0,5.433333333333334
2026-01-20T23:05:27+00:00,SAT-53473,278.0713037035772,48.92054203368152,2091.8057780831573,-6.189739258742165,216790.85141225508,10.5,10500216790.851412,47.655,-122.3035,60.0,5.45
2026-01-20T23:05:28+00:00,SAT-53473,277.9067207930517,48.98639120091238,2085.632544795772,-6.182891338132337,216551.00826582348,10.5,10500216551.008266,47.655,-122.3035,60.0,5.466666666666667
2026-01-20T23:05:29+00:00,SAT-53473,277.7407532870949,49.05218684023101,2079.4661411678744,-6.175974735988966,216308.75960156455,10.5,10500216308.759602,47.655,-122.3035,60.0,5.483333333333333
2026-01-20T23:05:30+00:00,SAT-53473,277.5733875360703,49.117924886062134,2073.3066356978484,-6.168988707997519,216064.07935043497,10.5,10500216064.07935,47.655,-122.3035,60.0,5.5
2026-01-20T23:05:31+00:00,SAT-53473,277.40460977425096,49.18360117510886,2067.1540976264055,-6.161932558188377,215816.9431366347,10.5,10500215816.943136,47.655,-122.3035,60.0,5.516666666666667
2026-01-20T23:05:32+00:00,SAT-53473,277.23440611891476,49.249211444982784,2061.008596888372,-6.154805499783214,215567.32340385875,10.5,10500215567.323404,47.655,-122.3035,60.0,5.533333333333333
2026-01-20T23:05:33+00:00,SAT-53473,277.0627625729561,49.314751331306866,2054.8702042032546,-6.147606840293968,215315.19589824593,10.5,10500215315.195898,47.655,-122.3035,60.0,5.55
2026-01-20T23:05:34+00:00,SAT-53473,276.8896650229257,49.380216366775656,2048.738990981202,-6.140335801358436,215060.5333582594,10.5,10500215060.533358,47.655,-122.3035,60.0,5.566666666666666
2026-01-20T23:05:35+00:00,SAT-53473,276.7150992416854,49.44560197824461,2042.615029408647,-6.132991626892983,214803.30930265205,10.5,10500214803.309303,47.655,-122.3035,60.0,5.583333333333333
2026-01-20T23:05:36+00:00,SAT-53473,276.5390508884934,49.51090348495655,2036.498392426092,-6.125573536358952,214543.49639365842,10.5,10500214543.496393,47.655,-122.3035,60.0,5.6
2026-01-20T23:05:37+00:00,SAT-53473,276.36150551025855,49.57611609622291,2030.389153752497,-6.118080786530162,214281.06860035387,10.5,10500214281.0686,47.655,-122.3035,60.0,5.616666666666666
2026-01-20T23:05:38+00:00,SAT-53473,276.18244854136265,49.64123490974629,2024.2873878480643,-6.1105125431559895,214015.99670375258,10.5,10500214015.996704,47.655,-122.3035,60.0,5.633333333333334
2026-01-20T23:05:39+00:00,SAT-53473,276.00186530693964,49.706254908523945,2018.1931700050231,-6.1028680295020505,213748.25349933095,10.5,10500213748.2535,47.655,-122.3035,60.0,5.65
2026-01-20T23:05:40+00:00,SAT-53473,275.8197410223521,49.7711709593206,2012.1065762902665,-6.0951464491671326,213477.8110937497,10.5,10500213477.811094,47.655,-122.3035,60.0,5.666666666666667
2026-01-20T23:05:41+00:00,SAT-53473,275.63606079472135,49.83597781027265,2006.027683564964,-6.0873469762336345,213204.64055988082,10.5,10500213204.64056,47.655,-122.3035,60.0,5.683333333333334
2026-01-20T23:05:42+00:00,SAT-53473,275.4508096250231,49.90067008836249,1999.9565695140004,-6.079468775216718,212928.7126355111,10.5,10500212928.712635,47.655,-122.3035,60.0,5.7
2026-01-20T23:05:43+00:00,SAT-53473,275.2639724095802,49.96524229706429,1993.8933126555173,-6.0715110166778326,212649.9982701941,10.5,10500212649.99827,47.655,-122.3035,60.0,5.716666666666667
2026-01-20T23:05:44+00:00,SAT-53473,275.0755339414208,50.029688814137344,1987.8379923348841,-6.063472891655368,212368.46913067228,10.5,10500212368.469131,47.655,-122.3035,60.0,5.733333333333333
2026-01-20T23:05:45+00:00,SAT-53473,274.88547891113296,50.094003889529155,1981.7906887042732,-6.055353480425535,212084.09300432808,10.5,10500212084.093004,47.655,-122.3035,60.0,5.75
2026-01-20T23:05:46+00:00,SAT-53473,274.69379191183623,50.15818164184917,1975.7514828331286,-6.047151969835179,211796.8414110984,10.5,10500211796.841412,47.655,-122.3035,60.0,5.766666666666667
2026-01-20T23:05:47+00:00,SAT-53473,274.5004574378481,50.2222160571347,1969.7204566018797,-6.0388674761134995,211506.68339759152,10.5,10500211506.683397,47.655,-122.3035,60.0,5.783333333333333
2026-01-20T23:05:48+00:00,SAT-53473,274.3054598887245,50.286100985688144,1963.6976927723692,-6.030499110632643,211213.58784030104,10.5,10500211213.587841,47.655,-122.3035,60.0,5.8
2026-01-20T23:05:49+00:00,SAT-53473,274.1087835715061,50.349830139588406,1957.6832749926984,-6.0220459646639,210917.52291170365,10.5,10500210917.522911,47.655,-122.3035,60.0,5.816666666666666
2026-01-20T23:05:50+00:00,SAT-53473,273.9104127036147,50.41339709000782,1951.6772878172735,-6.0135071646476215,210618.45801604533,10.5,10500210618.458015,47.655,-122.3035,60.0,5.833333333333333
2026-01-20T23:05:51+00:00,SAT-53473,273.7103314141505,50.4767952650885,1945.6798166717317,-6.004881776481972,210316.36043712852,10.5,10500210316.360437,47.655,-122.3035,60.0,5.85
2026-01-20T23:05:52+00:00,SAT-53473,273.5085237483754,50.54001794676956,1939.6909479133203,-5.996168880738438,210011.1979726775,10.5,10500210011.197973,47.655,-122.3035,60.0,5.866666666666666
2026-01-20T23:05:53+00:00,SAT-53473,273.3049736699402,50.60305826838128,1933.7107688162637,-5.987367537745859,209702.93771143342,10.5,10500209702.937712,47.655,-122.3035,60.0,5.883333333333334
2026-01-20T23:05:54+00:00,SAT-53473,273.0996650644942,50.6659092118465,1927.739367591952,-5.978476822160802,209391.54724395508,10.5,10500209391.547243,47.655,-122.3035,60.0,5.9
2026-01-20T23:05:55+00:00,SAT-53473,272.8925817422881,50.72856360521618,1921.7768333746503,-5.969495753086591,209076.99221509165,10.5,10500209076.992214,47.655,-122.3035,60.0,5.916666666666667
2026-01-20T23:05:56+00:00,SAT-53473,272.68370744325694,50.79101411943584,1915.823256276905,-5.9604233589694,208759.23859691859,10.5,10500208759.238598,47.655,-122.3035,60.0,5.933333333333334
2026-01-20T23:05:57+00:00,SAT-53473,272.47302584018996,50.8532532657766,1909.8787273802263,-5.951258702474612,208438.25356001258,10.5,10500208438.25356,47.655,-122.3035,60.0,5.95
2026-01-20T23:05:58+00:00,SAT-53473,272.26052054134,50.91527339350777,1903.9433387009583,-5.942000760215325,208114.00126103542,10.5,10500208114.00126,47.655,-122.3035,60.0,5.966666666666667
2026-01-20T23:05:59+00:00,SAT-53473,272.046175097008,50.97706668625467,1898.0171832761037,-5.932648543103881,207786.4470579535,10.5,10500207786.447058,47.655,-122.3035,60.0,5.983333333333333
2026-01-20T23:06:00+00:00,SAT-53473,271.8299730026481,51.038625159630335,1892.1003551291146,-5.9232010457954365,207455.5557393378,10.5,10500207455.555738,47.655,-122.3035,60.0,6.0
2026-01-20T23:06:01+00:00,SAT-53473,271.61189770363086,51.09994065829088,1886.192949286108,-5.913657227100914,207121.29083834254,10.5,10500207121.290838,47.655,-122.3035,60.0,6.016666666666667
2026-01-20T23:06:02+00:00,SAT-53473,271.39193260106344,51.161004852775314,1880.2950618116126,-5.904016089010604,206783.6174004462,10.5,10500206783.617401,47.655,-122.3035,60.0,6.033333333333333
2026-01-20T23:06:03+00:00,SAT-53473,271.17006105502963,51.22180923714966,1874.4067897655061,-5.8942765481925745,206442.497482782,10.5,10500206442.497482,47.655,-122.3035,60.0,6.05
2026-01-20T23:06:04+00:00,SAT-53473,270.946266392626,51.282345125290284,1868.5282312881088,-5.884437583739023,206097.89532884024,10.5,10500206097.895329,47.655,-122.3035,60.0,6.066666666666666
2026-01-20T23:06:05+00:00,SAT-53473,270.72053191094744,51.34260364868902,1862.6594855379262,-5.874498104395124,205749.77271826097,10.5,10500205749.772718,47.655,-122.3035,60.0,6.083333333333333
2026-01-20T23:06:06+00:00,SAT-53473,270.4928408851936,51.40257575286809,1856.8006527618095,-5.864457056281809,205398.0927397413,10.5,10500205398.09274,47.655,-122.3035,60.0,6.1
2026-01-20T23:06:07+00:00,SAT-53473,270.26317657300376,51.462252194890326,1850.951834257678,-5.854313320135755,205042.81619194514,10.5,10500205042.816193,47.655,-122.3035,60.0,6.116666666666666
2026-01-20T23:06:08+00:00,SAT-53473,270.03152222297007,51.52162353980433,1845.113132439729,-5.844065808949585,204683.90500327613,10.5,10500204683.905003,47.655,-122.3035,60.0,6.133333333333334
2026-01-20T23:06:09+00:00,SAT-53473,269.7978610797009,51.58068015807951,1839.28465080627,-5.833713419133729,204321.32052135933,10.5,10500204321.320522,47.655,-122.3035,60.0,6.15
2026-01-20T23:06:10+00:00,SAT-53473,269.5621763910885,51.63941222253915,1833.466493956254,-5.823255015658108,203955.02299264027,10.5,10500203955.022993,47.655,-122.3035,60.0,6.166666666666667
2026-01-20T23:06:11+00:00,SAT-53473,269.32445141634435,51.697809705126836,1827.6587676206377,-5.812689446675398,203584.97207455322,10.5,10500203584.972075,47.655,-122.3035,60.0,6.183333333333334
2026-01-20T23:06:12+00:00,SAT-53473,269.084669433857,51.75586237382737,1821.8615786791534,-5.802015592297418,203211.12854387716,10.5,10500203211.128544,47.655,-122.3035,60.0,6.2
2026-01-20T23:06:13+00:00,SAT-53473,268.84281374745217,51.813559790082884,1816.0750351284353,-5.791232266972473,202833.4508775767,10.5,10500202833.450878,47.655,-122.3035,60.0,6.216666666666667
2026-01-20T23:06:14+00:00,SAT-53473,268.59886769675137,51.87089130521622,1810.2992461475083,-5.7803383215966075,202451.89882917062,10.5,10500202451.898829,47.655,-122.3035,60.0,6.233333333333333
2026-01-20T23:06:15+00:00,SAT-53473,268.3528146638519,51.92784605789737,1804.534322061436,-5.769332541550749,202066.4298575612,10.5,10500202066.429857,47.655,-122.3035,60.0,6.25
2026-01-20T23:06:16+00:00,SAT-53473,268.1046380843959,51.98441297058515,1798.7803744066625,-5.758213743723671,201677.00252518873,10.5,10500201677.002525,47.655,-122.3035,60.0,6.266666666666667
2026-01-20T23:06:17+00:00,SAT-53473,267.85432145512084,52.0405807469658,1793.037515899589,-5.7469807276674985,201283.5747872908,10.5,10500201283.574787,47.655,-122.3035,60.0,6.283333333333333
2026-01-20T23:06:18+00:00,SAT-53473,267.60184834366476,52.09633786890382,1787.3058604538617,-5.735632261239744,200886.10348902544,10.5,10500200886.103489,47.655,-122.3035,60.0,6.3
2026-01-20T23:06:19+00:00,SAT-53473,267.34720239931096,52.15167259327122,1781.5855232119854,-5.724167095375467,200484.54488285494,10.5,10500200484.544884,47.655,-122.3035,60.0,6.316666666666666
2026-01-20T23:06:20+00:00,SAT-53473,267.0903673635991,52.206572948955746,1775.8766205621976,-5.712584011525533,200078.85629003416,10.5,10500200078.85629,47.655,-122.3035,60.0,6.333333333333333
2026-01-20T23:06:21+00:00,SAT-53473,266.83132707916775,52.261026734347865,1770.1792701080362,-5.700881730883473,199668.99292135114,10.5,10500199668.992922,47.655,-122.3035,60.0,6.35
2026-01-20T23:06:22+00:00,SAT-53473,266.57006550292255,52.3150215139781,1764.493590728435,-5.689058995459756,199254.91071669132,10.5,10500199254.910717,47.655,-122.3035,60.0,6.366666666666666
2026-01-20T23:06:23+00:00,SAT-53473,266.3065667160139,52.368544615968034,1758.819702556963,-5.677114482433032,198836.56334525542,10.5,10500198836.563345,47.655,-122.3035,60.0,6.383333333333334
2026-01-20T23:06:24+00:00,SAT-53473,266.040814938049,52.42158312870232,1753.1577270464832,-5.665046951453316,198413.9073647404,10.5,10500198413.907364,47.655,-122.3035,60.0,6.4
2026-01-20T23:06:25+00:00,SAT-53473,265.77279453509465,52.474123898952314,1747.5077868869005,-5.652855064069215,197986.89589691666,10.5,10500197986.895897,47.655,-122.3035,60.0,6.416666666666667
2026-01-20T23:06:26+00:00,SAT-53473,265.50249003614834,52.52615352831771,1741.8700061030022,-5.640537468947488,197555.48161237806,10.5,10500197555.481613,47.655,-122.3035,60.0,6.433333333333334
2026-01-20T23:06:27+00:00,SAT-53473,265.22988614613337,52.5776583705283,1736.244510067305,-5.628092888003849,197119.61974720663,10.5,10500197119.619747,47.655,-122.3035,60.0,6.45
2026-01-20T23:06:28+00:00,SAT-53473,264.9549677556188,52.628624529647766,1730.6314254270026,-5.615519935018565,196679.26175012358,10.5,10500196679.26175,47.655,-122.3035,60.0,6.466666666666667
2026-01-20T23:06:29+00:00,SAT-53473,264.6777199588267,52.67903785657517,1725.0308802118109,-5.602817259108933,196234.36030750244,10.5,10500196234.360308,47.655,-122.3035,60.0,6.483333333333333
2026-01-20T23:06:30+00:00,SAT-53473,264.3981280658879,52.728883947020904,1719.4430037987263,-5.589983491440404,195784.86747696716,10.5,10500195784.867477,47.655,-122.3035,60.0,6.5
2026-01-20T23:06:31+00:00,SAT-53473,264.1161776176424,52.77814813901108,1713.8679269299296,-5.5770172272645695,195330.73405828633,10.5,10500195330.734058,47.655,-122.3035,60.0,6.516666666666667
2026-01-20T23:06:32+00:00,SAT-53473,263.83185440191573,52.82681551033467,1708.3057817486044,-5.563917096020201,194871.91204860833,10.5,10500194871.912048,47.655,-122.3035,60.0,6.533333333333333
2026-01-20T23:06:33+00:00,SAT-53473,263.5451444667835,52.87487087670804,1702.7567017648403,-5.550681672377006,194408.35152683713,10.5,10500194408.351526,47.655,-122.3035,60.0,6.55
2026-01-20T23:06:34+00:00,SAT-53473,263.2560341385641,52.92229878922308,1697.2208219102563,-5.537309518198572,193940.00212335231,10.5,10500193940.002123,47.655,-122.3035,60.0,6.566666666666666
2026-01-20T23:06:35+00:00,SAT-53473,262.9645100381512,52.969083532270915,1691.698278550773,-5.5237992298088345,193466.81467548048,10.5,10500193466.814676,47.655,-122.3035,60.0,6.583333333333333
2026-01-20T23:06:36+00:00,SAT-53473,262.67055909558894,53.015209122009765,1686.1892094522436,-5.510149315912861,192988.73695176496,10.5,10500192988.736952,47.655,-122.3035,60.0,6.6
2026-01-20T23:06:37+00:00,SAT-53473,262.37416857086555,53.06065930382949,1680.6937538678396,-5.496358375306569,192505.71987611166,10.5,10500192505.719875,47.655,-122.3035,60.0,6.616666666666666
2026-01-20T23:06:38+00:00,SAT-53473,262.07532606649994,53.10541755153373,1675.2120524482007,-5.482424850340585,192017.7088930507,10.5,10500192017.708893,47.655,-122.3035,60.0,6.633333333333334
2026-01-20T23:06:39+00:00,SAT-53473,261.77401955277674,53.149467064474116,1669.7442473974609,-5.468347328563915,191524.6545325737,10.5,10500191524.654533,47.655,-122.3035,60.0,6.65
2026-01-20T23:06:40+00:00,SAT-53473,261.4702373782545,53.19279076745155,1664.29048232844,-5.45412429236678,191026.50364156655,10.5,10500191026.503641,47.655,-122.3035,60.0,6.666666666666667
2026-01-20T23:06:41+00:00,SAT-53473,261.1639682932471,53.23537130857781,1658.8509023675194,-5.43975419363705,190523.20199859404,10.5,10500190523.201998,47.655,-122.3035,60.0,6.683333333333334
2026-01-20T23:06:42+00:00,SAT-53473,260.8552014700966,53.277191057957175,1653.4256541850655,-5.425235559672764,190014.698023404,10.5,10500190014.698023,47.655,-122.3035,60.0,6.7
2026-01-20T23:06:43+00:00,SAT-53473,260.543926518234,53.31823210740759,1648.0148859202184,-5.410566808979381,189500.9363253678,10.5,10500189500.936325,47.655,-122.3035,60.0,6.716666666666667
2026-01-20T23:06:44+00:00,SAT-53473,260.2301335092726,53.35847626880557,1642.6187472893964,-5.395746444074141,188981.8644563049,10.5,10500188981.864456,47.655,-122.3035,60.0,6.733333333333333
2026-01-20T23:06:45+00:00,SAT-53473,259.9138129922032,53.397905074187534,1637.2373895025064,-5.380772860076521,188457.42620651072,10.5,10500188457.426207,47.655,-122.3035,60.0,6.75
2026-01-20T23:06:46+00:00,SAT-53473,259.5949560194075,53.43649977451308,1631.8709653700566,-5.365644503654724,187927.5671717352,10.5,10500187927.567171,47.655,-122.3035,60.0,6.766666666666667
2026-01-20T23:06:47+00:00,SAT-53473,259.2735541641884,53.474241339856675,1626.519629251745,-5.3503598011100495,187392.232234393,10.5,10500187392.232235,47.655,-122.3035,60.0,6.783333333333333
2026-01-20T23:06:48+00:00,SAT-53473,258.94959954275123,53.51111045926189,1621.1835370767715,-5.334917153222018,186851.36538301836,10.5,10500186851.365383,47.655,-122.3035,60.0,6.8
2026-01-20T23:06:49+00:00,SAT-53473,258.6230848366424,53.5470875407407,1615.8628463692912,-5.3193149271920666,186304.90943009878,10.5,10500186304.90943,47.655,-122.3035,60.0,6.816666666666666
2026-01-20T23:06:50+00:00,SAT-53473,258.29400331613516,53.58215271146643,1610.557716281905,-5.303551541873786,185752.80899719888,10.5,10500185752.808998,47.655,-122.3035,60.0,6.833333333333333
2026-01-20T23:06:51+00:00,SAT-53473,257.96234885890124,53.616285818804236,1605.268307544143,-5.287625360180007,185195.00674660094,10.5,10500185195.006746,47.655,-122.3035,60.0,6.85
2026-01-20T23:06:52+00:00,SAT-53473,257.62811597520613,53.649466430799244,1599.9947825182567,-5.271534742951031,184631.4452679988,10.5,10500184631.445269,47.655,-122.3035,60.0,6.866666666666666
2026-01-20T23:06:53+00:00,SAT-53473,257.2912998301745,53.681673837300316,1594.737305201287,-5.255278009470798,184062.06569560658,10.5,10500184062.065695,47.655,-122.3035,60.0,6.883333333333334
2026-01-20T23:06:54+00:00,SAT-53473,256.9518962687413,53.7128870510847,1589.4960412665082,-5.238853561864083,183486.81206507492,10.5,10500183486.812065,47.655,-122.3035,60.0,6.9
2026-01-20T23:06:55+00:00,SAT-53473,256.6099018332533,53.743084810080234,1584.271157980809,-5.222259663251457,182905.62354353923,10.5,10500182905.623543,47.655,-122.3035,60.0,6.916666666666667
2026-01-20T23:06:56+00:00,SAT-53473,256.2653137946468,53.77224557838303,1579.0628243433262,-5.2054946819410075,182318.4429822467,10.5,10500182318.442982,47.655,-122.3035,60.0,6.933333333333334
2026-01-20T23:06:57+00:00,SAT-53473,255.91813016895233,53.800347549173914,1573.871210980537,-5.1885569058475705,181725.21041673265,10.5,10500181725.210417,47.655,-122.3035,60.0,6.95
2026-01-20T23:06:58+00:00,SAT-53473,255.56834974529175,53.827368646733106,1568.6964902264383,-5.1714446397293985,181125.8664724604,10.5,10500181125.866472,47.655,-122.3035,60.0,6.966666666666667
2026-01-20T23:06:59+00:00,SAT-53473,255.21597210790836,53.85328652937331,1563.5388361057483,-5.154156174851258,180520.351302294,10.5,10500180520.351303,47.655,-122.3035,60.0,6.983333333333333
2026-01-20T23:07:00+00:00,SAT-53473,254.8609976602229,53.87807859251055,1558.3984243473633,-5.136689798091724,179908.60490547464,10.5,10500179908.604906,47.655,-122.3035,60.0,7.0
2026-01-20T23:07:01+00:00,SAT-53473,254.5034276482811,53.90172197211436,1553.2754323887332,-5.119043765678127,179290.5662077074,10.5,10500179290.566208,47.655,-122.3035,60.0,7.016666666666667
2026-01-20T23:07:02+00:00,SAT-53473,254.14326418586677,53.92419354833601,1548.1700394064303,-5.101216373512739,178666.1755242814,10.5,10500178666.175524,47.655,-122.3035,60.0,7.033333333333333
2026-01-20T23:07:03+00:00,SAT-53473,253.78051027499563,53.945469949875495,1543.08242627658,-5.083205844500701,178035.37061381765,10.5,10500178035.370613,47.655,-122.3035,60.0,7.05
2026-01-20T23:07:04+00:00,SAT-53473,253.41516983371858,53.965527558102245,1538.0127756476647,-5.065010458996316,177398.09124704968,10.5,10500177398.091248,47.655,-122.3035,60.0,7.066666666666666
2026-01-20T23:07:05+00:00,SAT-53473,253.04724771516118,53.98434251221872,1532.9612718832257,-5.046628446808382,176754.27542439383,10.5,10500176754.275425,47.655,-122.3035,60.0,7.083333333333333
2026-01-20T23:07:06+00:00,SAT-53473,252.67674973351302,54.00189071423756,1527.9281011122753,-5.028058031292831,176103.86092025947,10.5,10500176103.86092,47.655,-122.3035,60.0,7.1
2026-01-20T23:07:07+00:00,SAT-53473,252.30368268696546,54.018147834586756,1522.9134512357327,-5.00929747199999,175446.78677673705,10.5,10500175446.786777,47.655,-122.3035,60.0,7.116666666666666
2026-01-20T23:07:08+00:00,SAT-53473,251.9280543772888,54.03308931825886,1517.9175118903247,-4.990344958690686,174782.98959159342,10.5,10500174782.989592,47.655,-122.3035,60.0,7.133333333333334
2026-01-20T23:07:09+00:00,SAT-53473,251.5498736365172,54.046690390923594,1512.9404745181905,-4.971198739304711,174112.40800026886,10.5,10500174112.408,47.655,-122.3035,60.0,7.15
2026-01-20T23:07:10+00:00,SAT-53473,251.169150344254,54.05892606595534,1507.9825323088573,-4.9518570102854715,173434.97883458246,10.5,10500173434.978834,47.655,-122.3035,60.0,7.166666666666667
2026-01-20T23:07:11+00:00,SAT-53473,250.78589545232984,54.06977115145655,1503.0438802505992,-4.932317988726363,172750.63964960322,10.5,10500172750.63965,47.655,-122.3035,60.0,7.183333333333334
2026-01-20T23:07:12+00:00,SAT-53473,250.40012100378448,54.07920025794979,1498.1247151098428,-4.912579866936681,172059.32713235618,10.5,10500172059.327133,47.655,-122.3035,60.0,7.2
2026-01-20T23:07:13+00:00,SAT-53473,250.0118401546652,54.08718780636024,1493.2252354558848,-4.8926408589592265,171360.97873106558,10.5,10500171360.978731,47.655,-122.3035,60.0,7.216666666666667
2026-01-20T23:07:14+00:00,SAT-53473,249.62106719178553,54.09370803656414,1488.3456416392162,-4.872499154649357,170655.5310468092,10.5,10500170655.531046,47.655,-122.3035,60.0,7.233333333333333
2026-01-20T23:07:15+00:00,SAT-53473,249.2278175531501,54.098735016210945,1483.4861358156459,-4.85215297088244,169942.92162701974,10.5,10500169942.921627,47.655,-122.3035,60.0,7.25
2026-01-20T23:07:16+00:00,SAT-53473,248.83210784394734,54.10224265015277,1478.6469219193523,-4.831600456824736,169223.08564767076,10.5,10500169223.085648,47.655,-122.3035,60.0,7.266666666666667
2026-01-20T23:07:17+00:00,SAT-53473,248.4339558589397,54.104204690104076,1473.8282057304125,-4.810839859147018,168495.96169975592,10.5,10500168495.9617,47.655,-122.3035,60.0,7.283333333333333
2026-01-20T23:07:18+00:00,SAT-53473,248.0333805913149,54.10459474504547,1469.0301947775565,-4.78986934202404,167761.48548490973,10.5,10500167761.485485,47.655,-122.3035,60.0,7.3
2026-01-20T23:07:19+00:00,SAT-53473,247.63040225457024,54.1033862917726,1464.2530984204445,-4.768687098527423,167019.59371685708,10.5,10500167019.593718,47.655,-122.3035,60.0,7.316666666666666
2026-01-20T23:07:20+00:00,SAT-53473,247.2250422947999,54.10055268607979,1459.4971278208466,-4.74729131491611,166270.22287071394,10.5,10500166270.22287,47.655,-122.3035,60.0,7.333333333333333
2026-01-20T23:07:21+00:00,SAT-53473,246.81732340484143,54.09606717435841,1454.762495949437,-4.725680226892974,165513.31115333203,10.5,10500165513.311153,47.655,-122.3035,60.0,7.35
2026-01-20T23:07:22+00:00,SAT-53473,246.4072695326262,54.089902905611794,1450.0494175364822,-4.703851976561805,164748.79349332716,10.5,10500164748.793493,47.655,-122.3035,60.0,7.366666666666666
2026-01-20T23:07:23+00:00,SAT-53473,245.99490590023214,54.08203294396313,1445.358109165191,-4.681804809060071,163976.60842799037,10.5,10500163976.608427,47.655,-122.3035,60.0,7.383333333333334
2026-01-20T23:07:24+00:00,SAT-53473,245.58025900551047,54.072430281555505,1440.6887891689553,-4.659536910026429,163196.69241071268,10.5,10500163196.692411,47.655,-122.3035,60.0,7.4
2026-01-20T23:07:25+00:00,SAT-53473,245.16335663600168,54.06106785197904,1436.041677690689,-4.637046501019743,162408.98315296278,10.5,10500162408.983152,47.655,-122.3035,60.0,7.416666666666667
2026-01-20T23:07:26+00:00,SAT-53473,244.74422787339526,54.0479185440272,1431.4169966470054,-4.61433176671839,161613.41707449857,10.5,10500161613.417074,47.655,-122.3035,60.0,7.433333333333334
2026-01-20T23:07:27+00:00,SAT-53473,244.32290310309543,54.03295521606639,1426.8149697649983,-4.591390980225138,160809.93369207424,10.5,10500160809.933693,47.655,-122.3035,60.0,7.45
2026-01-20T23:07:28+00:00,SAT-53473,243.89941401135383,54.016150710539634,1422.2358224940538,-4.568222324604257,159998.46936891487,10.5,10500159998.469368,47.655,-122.3035,60.0,7.466666666666667
2026-01-20T23:07:29+00:00,SAT-53473,243.47379359651666,53.99747786929509,1417.6797820956483,-4.544824080574951,159178.96388853446,10.5,10500159178.963888,47.655,-122.3035,60.0,7.483333333333333
2026-01-20T23:07:30+00:00,SAT-53473,243.04607616230498,53.976909548873536,1413.1470775459547,-4.521194433915636,158351.353709219,10.5,10500158351.353708,47.655,-122.3035,60.0,7.5
2026-01-20T23:07:31+00:00,SAT-53473,242.61629732660296,53.954418636765915,1408.63793963053,-4.497331719716394,157515.58051878057,10.5,10500157515.580519,47.655,-122.3035,60.0,7.516666666666667
2026-01-20T23:07:32+00:00,SAT-53473,242.18449400686265,53.92997806728248,1404.1526007953992,-4.473234145883528,156671.58155051735,10.5,10500156671.58155,47.655,-122.3035,60.0,7.533333333333333
2026-01-20T23:07:33+00:00,SAT-53473,241.75070442861158,53.9035608387512,1399.6912952739046,-4.448900035988066,155819.29808879545,10.5,10500155819.298088,47.655,-122.3035,60.0,7.55
2026-01-20T23:07:34+00:00,SAT-53473,241.31496811033762,53.87514003018613,1395.2542589713462,-4.424327643653728,154958.66896813043,10.5,10500154958.668968,47.655,-122.3035,60.0,7.566666666666666
2026-01-20T23:07:35+00:00,SAT-53473,240.87732586367235,53.844688819118616,1390.841729534742,-4.399515320504001,154089.63645540414,10.5,10500154089.636456,47.655,-122.3035,60.0,7.583333333333333
2026-01-20T23:07:36+00:00,SAT-53473,240.43781977627577,53.812180498977305,1386.4539462550927,-4.374461354438473,153212.14058561798,10.5,10500153212.140585,47.655,-122.3035,60.0,7.6
2026-01-20T23:07:37+00:00,SAT-53473,239.9964932079397,53.777588497604796,1382.0911501309326,-4.34916413309715,152326.12488710467,10.5,10500152326.124887,47.655,-122.3035,60.0,7.616666666666666
2026-01-20T23:07:38+00:00,SAT-53473,239.55339076964256,53.74088639521922,1377.7535837688572,-4.323621965360711,151431.53012971213,10.5,10500151431.53013,47.655,-122.3035,60.0,7.633333333333334
2026-01-20T23:07:39+00:00,SAT-53473,239.10855831766818,53.70204794374923,1373.4414914620706,-4.297833272042441,150528.30100364174,10.5,10500150528.301004,47.655,-122.3035,60.0,7.65
2026-01-20T23:07:40+00:00,SAT-53473,238.66204292760335,53.66104708519404,1369.1551190787538,-4.271796439373562,149616.38098788462,10.5,10500149616.380987,47.655,-122.3035,60.0,7.666666666666667
2026-01-20T23:07:41+00:00,SAT-53473,238.21389288070273,53.61785797127381,1364.8947140965518,-4.245509882601338,148695.71457769646,10.5,10500148695.714579,47.655,-122.3035,60.0,7.683333333333334
2026-01-20T23:07:42+00:00,SAT-53473,237.7641576421263,53.57245498284778,1360.6605255736374,-4.218972062922964,147766.2478776938,10.5,10500147766.247877,47.655,-122.3035,60.0,7.7
2026-01-20T23:07:43+00:00,SAT-53473,237.31288783589417,53.52481274947392,1356.4528041028823,-4.192181428865201,146827.92654872127,10.5,10500146827.926548,47.655,-122.3035,60.0,7.716666666666667
2026-01-20T23:07:44+00:00,SAT-53473,236.86013522347184,53.474906169560676,1352.271801824494,-4.165136517202353,145880.69934242545,10.5,10500145880.699343,47.655,-122.3035,60.0,7.733333333333333
2026-01-20T23:07:45+00:00,SAT-53473,236.40595267079235,53.42271042988855,1348.1177723380042,-4.137835801651861,144924.51280193496,10.5,10500144924.512802,47.655,-122.3035,60.0,7.75
2026-01-20T23:07:46+00:00,SAT-53473,235.95039412847484,53.36820102665598,1343.9909707651566,-4.110277878334373,143959.31775745645,10.5,10500143959.317757,47.655,-122.3035,60.0,7.766666666666667
2026-01-20T23:07:47+00:00,SAT-53473,235.49351459161812,53.31135378486492,1339.8916536278311,-4.082461294738477,142985.0633358962,10.5,10500142985.063335,47.655,-122.3035,60.0,7.783333333333333
2026-01-20T23:07:48+00:00,SAT-53473,235.03537007517053,53.25214487952961,1335.8200788965453,-4.054384712372631,142001.70265761865,10.5,10500142001.702658,47.655,-122.3035,60.0,7.8
2026-01-20T23:07:49+00:00,SAT-53473,234.5760175710536,53.19055085525721,1331.776505876739,-4.026046719742063,141009.18628610618,10.5,10500141009.186287,47.655,-122.3035,60.0,7.816666666666666
2026-01-20T23:07:50+00:00,SAT-53473,234.11551502281858,53.12654864797305,1327.761195281583,-3.997446049686162,140007.46984003414,10.5,10500140007.46984,47.655,-122.3035,60.0,7.833333333333333
2026-01-20T23:07:51+00:00,SAT-53473,233.65392127619123,53.06011560413385,1323.7744090880292,-3.9685813976423914,138996.5076281042,10.5,10500138996.507627,47.655,-122.3035,60.0,7.85
2026-01-20T23:07:52+00:00,SAT-53473,233.19129604696684,52.99122950212045,1319.816410574114,-3.93945154228343,137976.2568742674,10.5,10500137976.256874,47.655,-122.3035,60.0,7.866666666666666
2026-01-20T23:07:53+00:00,SAT-53473,232.72769987474464,52.919868572080134,1315.8874642359433,-3.9100552473146326,136946.67427825567,10.5,10500136946.674278,47.655,-122.3035,60.0,7.883333333333334
2026-01-20T23:07:54+00:00,SAT-53473,232.26319408579297,52.84601151710792,1311.9878358026217,-3.8803913860920534,135907.72038023238,10.5,10500135907.72038,47.655,-122.3035,60.0,7.9
2026-01-20T23:07:55+00:00,SAT-53473,231.7978407410072,52.76963753248872,1308.1177921268923,-3.850458827087251,134859.35554928513,10.5,10500134859.355549,47.655,-122.3035,60.0,7.916666666666667
2026-01-20T23:07:56+00:00,SAT-53473,231.33170259503663,52.69072632653541,1304.2776011900107,-3.820256490954006,133801.54198214374,10.5,10500133801.541983,47.655,-122.3035,60.0,7.933333333333334
2026-01-20T23:07:57+00:00,SAT-53473,230.8648430481324,52.60925814049529,1300.4675320496992,-3.789783357991536,132734.2439645734,10.5,10500132734.243965,47.655,-122.3035,60.0,7.95
2026-01-20T23:07:58+00:00,SAT-53473,230.39732609588947,52.52521376808651,1296.6878547806623,-3.759038459683648,131657.4275750403,10.5,10500131657.427574,47.655,-122.3035,60.0,7.966666666666667
2026-01-20T23:07:59+00:00,SAT-53473,229.92921627892213,52.43857457496124,1292.9388404235378,-3.728020848313048,130571.05962047586,10.5,10500130571.05962,47.655,-122.3035,60.0,7.983333333333333
2026-01-20T23:08:00+00:00,SAT-53473,229.4605786352048,52.34932251859421,1289.220760964154,-3.696729663938344,129475.10998209505,10.5,10500129475.109982,47.655,-122.3035,60.0,8.0
2026-01-20T23:08:01+00:00,SAT-53473,228.99147864387368,52.25744016661223,1285.5338892459858,-3.6651640676388757,128369.54927734772,10.5,10500128369.549278,47.655,-122.3035,60.0,8.016666666666667
2026-01-20T23:08:02+00:00,SAT-53473,228.52198217599866,52.162910716161505,1281.8784989491942,-3.633323314460264,127254.35141478034,10.5,10500127254.351416,47.655,-122.3035,60.0,8.033333333333333
2026-01-20T23:08:03+00:00,SAT-53473,228.05215543627767,52.06571801146863,1278.2548644969056,-3.6012066693020004,126129.49064806363,10.5,10500126129.490648,47.655,-122.3035,60.0,8.05
2026-01-20T23:08:04+00:00,SAT-53473,227.58206491425017,51.96584656294375,1274.6632610453885,-3.5688135062032647,124994.94505340185,10.5,10500124994.945053,47.655,-122.3035,60.0,8.066666666666666
2026-01-20T23:08:05+00:00,SAT-53473,227.11177732312925,51.86328156361689,1271.1039643752017,-3.5361432161577016,123850.69330081635,10.5,10500123850.6933,47.655,-122.3035,60.0,8.083333333333334
2026-01-20T23:08:06+00:00,SAT-53473,226.64135954958152,51.758008907393794,1267.5772508742873,-3.503195269766499,122696.71684852139,10.5,10500122696.716848,47.655,-122.3035,60.0,8.1
2026-01-20T23:08:07+00:00,SAT-53473,226.17087859597765,51.6500152055314,1264.0833974585732,-3.4699692315475734,121533.00044409231,10.5,10500121533.000444,47.655,-122.3035,60.0,8.116666666666667
2026-01-20T23:08:08+00:00,SAT-53473,225.70040152037015,51.539287802043326,1260.62268147831,-3.436464675429037,120359.5291646893,10.5,10500120359.529165,47.655,-122.3035,60.0,8.133333333333333
2026-01-20T23:08:09+00:00,SAT-53473,225.2299953875278,51.425814791125326,1257.1953807086818,-3.402681291997802,119176.29217335721,10.5,10500119176.292173,47.655,-122.3035,60.0,8.15
2026-01-20T23:08:10+00:00,SAT-53473,224.75972720652499,51.30958503111305,1253.8017732334629,-3.368618809893225,117983.2799658985,10.5,10500117983.279966,47.655,-122.3035,60.0,8.166666666666666
2026-01-20T23:08:11+00:00,SAT-53473,224.28966387883042,51.1905881602392,1250.4421374070625,-3.3342770671075503,116780.48686811622,10.5,10500116780.486868,47.655,-122.3035,60.0,8.183333333333334
2026-01-20T23:08:12+00:00,SAT-53473,223.81987213734692,51.06881460961018,1247.1167517454674,-3.2996559214599452,115567.90790023618,10.5,10500115567.9079,47.655,-122.3035,60.0,8.2
2026-01-20T23:08:13+00:00,SAT-53473,223.35041849815067,50.94425561866854,1243.8258949064648,-3.264755363853783,114345.5427436561,10.5,10500114345.542744,47.655,-122.3035,60.0,8.216666666666667
2026-01-20T23:08:14+00:00,SAT-53473,222.88136919767948,50.816903246311604,1240.5698455569145,-3.229575437688746,113113.39291841637,10.5,10500113113.392918,47.655,-122.3035,60.0,8.233333333333333
2026-01-20T23:08:15+00:00,SAT-53473,222.41279014167694,50.686750384202284,1237.348882320393,-3.1941162396089213,111871.46180940174,10.5,10500111871.46181,47.655,-122.3035,60.0,8.25
2026-01-20T23:08:16+00:00,SAT-53473,221.94474685470325,50.553790769423955,1234.1632837240895,-3.158378002947661,110619.75758893321,10.5,10500110619.75759,47.655,-122.3035,60.0,8.266666666666667
2026-01-20T23:08:17+00:00,SAT-53473,221.47730441989714,50.41801899381204,1231.0133280624832,-3.1223610006319396,109358.28981606792,10.5,10500109358.289816,47.655,-122.3035,60.0,8.283333333333333
2026-01-20T23:08:18+00:00,SAT-53473,221.0105274324626,50.27943051587832,1227.899293357853,-3.0860656113157248,108087.07175286948,10.5,10500108087.071753,47.655,-122.3035,60.0,8.3
2026-01-20T23:08:19+00:00,SAT-53473,220.54447994589353,50.13802166996548,1224.821457254834,-3.0494922890890583,106806.119303492,10.5,10500106806.119303,47.655,-122.3035,60.0,8.316666666666666
2026-01-20T23:08:20+00:00,SAT-53473,220.07922542339944,49.99378967578563,1221.7800969451825,-3.012641582394255,105515.45167670521,10.5,10500105515.451677,47.655,-122.3035,60.0,8.333333333333334
