satellites_20260120_184412/SAT-55787.csv

timestamp,satellite,azimuth_deg,elevation_deg,distance_km,relative_velocity_kms,doppler_shift_hz,tx_freq_ghz,rx_freq_hz,ue_lat,ue_lon,ue_alt_m,time_minutes
2026-01-20T23:01:13+00:00,SAT-55787,54.00602762925307,40.197163156644095,717.3941753963393,2.360017947834956,-82657.81139920151,10.5,10499917342.1886,47.655,-122.3035,60.0,1.2166666666666666
2026-01-20T23:01:14+00:00,SAT-55787,53.37897250363189,40.494382166901495,719.7478999629801,2.4224170379244523,-84843.29148202504,10.5,10499915156.708517,47.655,-122.3035,60.0,1.2333333333333334
2026-01-20T23:01:15+00:00,SAT-55787,52.75013802721904,40.786070487468315,722.1638572221367,2.484189137531202,-87006.81170597568,10.5,10499912993.188293,47.655,-122.3035,60.0,1.25
2026-01-20T23:01:16+00:00,SAT-55787,52.11965860799123,41.072198498340796,724.6414218553011,2.5453269172342203,-89148.1153637271,10.5,10499910851.884636,47.655,-122.3035,60.0,1.2666666666666666
2026-01-20T23:01:17+00:00,SAT-55787,51.48767090668407,41.35274110513872,727.1799612340894,2.605823676550366,-91266.96777601671,10.5,10499908733.032225,47.655,-122.3035,60.0,1.2833333333333334
2026-01-20T23:01:18+00:00,SAT-55787,50.85431367352702,41.62767769497296,729.7788360475023,2.665673393023547,-93363.15801095718,10.5,10499906636.84199,47.655,-122.3035,60.0,1.3
2026-01-20T23:01:19+00:00,SAT-55787,50.21972756343059,41.89699209055641,732.4374009781445,2.7248706517343795,-95436.4964151666,10.5,10499904563.503584,47.655,-122.3035,60.0,1.3166666666666667
2026-01-20T23:01:20+00:00,SAT-55787,49.58405495869876,42.160672490829576,735.1550053081409,2.783410681127018,-97486.81586857562,10.5,10499902513.184132,47.655,-122.3035,60.0,1.3333333333333333
2026-01-20T23:01:21+00:00,SAT-55787,48.94743977442856,42.418711408894694,737.9309935607848,2.8412893039766174,-99513.97006710048,10.5,10499900486.029932,47.655,-122.3035,60.0,1.35
2026-01-20T23:01:22+00:00,SAT-55787,48.310027266739326,42.67110559975276,740.7647060932842,2.898502933892654,-101517.83340017467,10.5,10499898482.1666,47.655,-122.3035,60.0,1.3666666666666667
2026-01-20T23:01:23+00:00,SAT-55787,47.671963833629114,42.917855982565904,743.6554796860198,2.9550485872091103,-103498.30136719337,10.5,10499896501.698633,47.655,-122.3035,60.0,1.3833333333333333
2026-01-20T23:01:24+00:00,SAT-55787,47.033396806285666,43.158967558514284,746.602648143663,3.0109238202153934,-105455.28837907466,10.5,10499894544.71162,47.655,-122.3035,60.0,1.4
2026-01-20T23:01:25+00:00,SAT-55787,46.39447424700778,43.394449319295475,749.6055428336912,3.066126738670715,-107388.72809149357,10.5,10499892611.271908,47.655,-122.3035,60.0,1.4166666666666667
2026-01-20T23:01:26+00:00,SAT-55787,45.75534473900799,43.62431415208555,752.6634932343921,3.120655991948517,-109298.57319979486,10.5,10499890701.4268,47.655,-122.3035,60.0,1.4333333333333333
2026-01-20T23:01:27+00:00,SAT-55787,45.1161571721998,43.84857874009117,755.7758274770288,3.1745107345383072,-111184.79409062461,10.5,10499888815.20591,47.655,-122.3035,60.0,1.45
2026-01-20T23:01:28+00:00,SAT-55787,44.47706053229786,44.06726345689362,758.9418728496083,3.2276906108977954,-113047.37831138785,10.5,10499886952.621689,47.655,-122.3035,60.0,1.4666666666666666
2026-01-20T23:01:29+00:00,SAT-55787,43.838203688959254,44.28039225669799,762.1609562855438,3.28019574888021,-114886.33034004546,10.5,10499885113.66966,47.655,-122.3035,60.0,1.4833333333333334
2026-01-20T23:01:30+00:00,SAT-55787,43.19973518218899,44.48799256135038,765.4324048457603,3.332026741765681,-116701.67095577717,10.5,10499883298.329044,47.655,-122.3035,60.0,1.5
2026-01-20T23:01:31+00:00,SAT-55787,42.561803009957835,44.69009514382445,768.7555461828812,3.3831846255275515,-118493.43644275164,10.5,10499881506.563557,47.655,-122.3035,60.0,1.5166666666666666
2026-01-20T23:01:32+00:00,SAT-55787,41.92455441877811,44.886734008165725,772.1297089827408,3.433670823296413,-120261.67664502199,10.5,10499879738.323355,47.655,-122.3035,60.0,1.5333333333333334
2026-01-20T23:01:33+00:00,SAT-55787,41.288135703496344,45.07794626503124,775.5542233505083,3.4834872361787195,-122006.45814737793,10.5,10499877993.541853,47.655,-122.3035,60.0,1.55
2026-01-20T23:01:34+00:00,SAT-55787,40.65269199090727,45.263772010249994,779.0284212873905,3.532636076861698,-123727.85844748579,10.5,10499876272.141552,47.655,-122.3035,60.0,1.5666666666666667
2026-01-20T23:01:35+00:00,SAT-55787,40.01836705405139,45.444254194168494,782.5516370013806,3.5811199797764655,-125425.96981426692,10.5,10499874574.030186,47.655,-122.3035,60.0,1.5833333333333333
2026-01-20T23:01:36+00:00,SAT-55787,39.385303108450806,45.61943849557563,786.1232073278777,3.6289418930526596,-127100.89550369183,10.5,10499872899.104496,47.655,-122.3035,60.0,1.6
2026-01-20T23:01:37+00:00,SAT-55787,38.75364062946521,45.78937319038193,789.7424720425489,3.6761051532342495,-128752.75237564387,10.5,10499871247.247623,47.655,-122.3035,60.0,1.6166666666666667
2026-01-20T23:01:38+00:00,SAT-55787,38.12351816000084,45.95410902329978,793.4087742487078,3.722613336119187,-130381.66566969293,10.5,10499869618.33433,47.655,-122.3035,60.0,1.6333333333333333
2026-01-20T23:01:39+00:00,SAT-55787,37.49507214681887,46.11369907380998,797.1214606159307,3.76847038818987,-131987.77360834618,10.5,10499868012.22639,47.655,-122.3035,60.0,1.65
2026-01-20T23:01:40+00:00,SAT-55787,36.86843675919541,46.26819862782699,800.8798817497521,3.8136804919468457,-133571.22268046474,10.5,10499866428.777319,47.655,-122.3035,60.0,1.6666666666666667
2026-01-20T23:01:41+00:00,SAT-55787,36.24374373454614,46.41766504516755,804.6833924270537,3.8582481262020982,-135132.1697529897,10.5,10499864867.830248,47.655,-122.3035,60.0,1.6833333333333333
2026-01-20T23:01:42+00:00,SAT-55787,35.62112221965691,46.56215763022954,808.5313518915859,3.9021779953348585,-136670.77959318116,10.5,10499863329.220407,47.655,-122.3035,60.0,1.7
2026-01-20T23:01:43+00:00,SAT-55787,35.000698628900906,46.70173750177164,812.4231240789333,3.94547505124098,-138187.2256373784,10.5,10499861812.774363,47.655,-122.3035,60.0,1.7166666666666666
2026-01-20T23:01:44+00:00,SAT-55787,34.38259650530179,46.83646746499898,816.3580778633709,3.9881444602767973,-139681.68883323402,10.5,10499860318.311167,47.655,-122.3035,60.0,1.7333333333333334
2026-01-20T23:01:45+00:00,SAT-55787,33.76693639330561,46.966411884572096,820.3355872717538,4.030191592556024,-141154.3572648457,10.5,10499858845.642735,47.655,-122.3035,60.0,1.75
2026-01-20T23:01:46+00:00,SAT-55787,33.15383572024769,47.09163655933455,824.3550316867295,4.071622005603743,-142605.42558025027,10.5,10499857394.574419,47.655,-122.3035,60.0,1.7666666666666666
2026-01-20T23:01:47+00:00,SAT-55787,32.54340868734186,47.21220859909338,828.4157960336516,4.112441435775766,-144035.09469089293,10.5,10499855964.90531,47.655,-122.3035,60.0,1.7833333333333334
2026-01-20T23:01:48+00:00,SAT-55787,31.935766169665282,47.328196303492874,832.517270958932,4.1526557648161075,-145443.57060032888,10.5,10499854556.4294,47.655,-122.3035,60.0,1.8
2026-01-20T23:01:49+00:00,SAT-55787,31.33101562844113,47.43966904296875,836.658852975042,4.19227104353495,-146831.0652335256,10.5,10499853168.934767,47.655,-122.3035,60.0,1.8166666666666667
2026-01-20T23:01:50+00:00,SAT-55787,30.72926102788618,47.54669714303615,840.8399446291276,4.231293445785022,-148197.79482492097,10.5,10499851802.205175,47.655,-122.3035,60.0,1.8333333333333333
2026-01-20T23:01:51+00:00,SAT-55787,30.13060276642952,47.64935177062103,845.0599546257238,4.269729260842118,-149543.97965155693,10.5,10499850456.020348,47.655,-122.3035,60.0,1.85
2026-01-20T23:01:52+00:00,SAT-55787,29.53513761698405,47.74770482332266,849.3182979418702,4.307584893606724,-150869.84404014127,10.5,10499849130.15596,47.655,-122.3035,60.0,1.8666666666666667
2026-01-20T23:01:53+00:00,SAT-55787,28.942958674863664,47.841828822222,853.6143959424273,4.34486686367348,-152175.61633445608,10.5,10499847824.383665,47.655,-122.3035,60.0,1.8833333333333333
2026-01-20T23:01:54+00:00,SAT-55787,28.354155314083304,47.93179680777798,857.9476764944644,4.381581739387625,-153461.52658573573,10.5,10499846538.473413,47.655,-122.3035,60.0,1.9
2026-01-20T23:01:55+00:00,SAT-55787,27.76881315993716,48.01768223827606,862.3175740158804,4.417736204181523,-154727.8088760525,10.5,10499845272.191124,47.655,-122.3035,60.0,1.9166666666666667
2026-01-20T23:01:56+00:00,SAT-55787,27.187014060641427,48.09955889287245,866.723529590184,4.453336980717792,-155974.69866148804,10.5,10499844025.301338,47.655,-122.3035,60.0,1.9333333333333333
2026-01-20T23:01:57+00:00,SAT-55787,26.60883607626452,48.17750077714807,871.1649910056199,4.488390892079962,-157202.4349152893,10.5,10499842797.565084,47.655,-122.3035,60.0,1.95
2026-01-20T23:01:58+00:00,SAT-55787,26.034353467332764,48.25158203311064,875.6414128553209,4.5229047300811915,-158411.25551548236,10.5,10499841588.744484,47.655,-122.3035,60.0,1.9666666666666666
2026-01-20T23:01:59+00:00,SAT-55787,25.463636706817486,48.32187685133093,880.152256506122,4.556885403847385,-159601.40244888197,10.5,10499840398.597551,47.655,-122.3035,60.0,1.9833333333333334
2026-01-20T23:02:00+00:00,SAT-55787,24.896752480573195,48.38845938866076,884.6969902155591,4.590339813692679,-160773.1173936775,10.5,10499839226.882607,47.655,-122.3035,60.0,2.0
2026-01-20T23:02:01+00:00,SAT-55787,24.33376370993308,48.45140368814522,889.2750891230819,4.623274898458715,-161926.64337745451,10.5,10499838073.356623,47.655,-122.3035,60.0,2.0166666666666666
2026-01-20T23:02:02+00:00,SAT-55787,23.77472957479069,48.51078360326668,893.8860352884782,4.65569757495746,-163062.2226562262,10.5,10499836937.777344,47.655,-122.3035,60.0,2.033333333333333
2026-01-20T23:02:03+00:00,SAT-55787,23.219705549640384,48.566672725425235,898.5293176699023,4.6876148368693755,-164180.10017826548,10.5,10499835819.899822,47.655,-122.3035,60.0,2.05
2026-01-20T23:02:04+00:00,SAT-55787,22.668743433917825,48.6191443159515,903.20443220054,4.719033613759568,-165280.51864625447,10.5,10499834719.481354,47.655,-122.3035,60.0,2.066666666666667
2026-01-20T23:02:05+00:00,SAT-55787,22.12189140385913,48.6682712406368,907.910881724663,4.74996084969875,-166363.72127092295,10.5,10499833636.278728,47.655,-122.3035,60.0,2.0833333333333335
2026-01-20T23:02:06+00:00,SAT-55787,21.579194060191007,48.71412590862793,912.6481760120957,4.7804034851475015,-167429.9511365585,10.5,10499832570.048864,47.655,-122.3035,60.0,2.1
2026-01-20T23:02:07+00:00,SAT-55787,21.04069248252605,48.75678021476812,917.4158317546162,4.810368464777504,-168479.45147493936,10.5,10499831520.548525,47.655,-122.3035,60.0,2.1166666666666667
2026-01-20T23:02:08+00:00,SAT-55787,20.50642428734656,48.79630548543574,922.2133725701543,4.839862651686218,-169512.46266076944,10.5,10499830487.53734,47.655,-122.3035,60.0,2.1333333333333333
2026-01-20T23:02:09+00:00,SAT-55787,19.976423698970073,48.83277242751415,927.0403289214361,4.868892923242163,-170529.22556858556,10.5,10499829470.774431,47.655,-122.3035,60.0,2.15
2026-01-20T23:02:10+00:00,SAT-55787,19.45072161375021,48.866251081237756,931.8962381302163,4.897466124166715,-171529.9799294834,10.5,10499828470.020071,47.655,-122.3035,60.0,2.1666666666666665
2026-01-20T23:02:11+00:00,SAT-55787,18.929345672515826,48.89681077616201,936.7806443447186,4.925589050216431,-172514.9637596037,10.5,10499827485.03624,47.655,-122.3035,60.0,2.183333333333333
2026-01-20T23:02:12+00:00,SAT-55787,18.41232033760547,48.924520090269446,941.693098490801,4.953268468564065,-173484.4140739614,10.5,10499826515.585926,47.655,-122.3035,60.0,2.2
2026-01-20T23:02:13+00:00,SAT-55787,17.89966697016568,48.94944681239542,946.633158243449,4.980511067613647,-174438.5651287575,10.5,10499825561.434872,47.655,-122.3035,60.0,2.216666666666667
2026-01-20T23:02:14+00:00,SAT-55787,17.391403914736337,48.97165790754797,951.6003879482156,5.007323534352666,-175377.6511305798,10.5,10499824622.34887,47.655,-122.3035,60.0,2.2333333333333334
2026-01-20T23:02:15+00:00,SAT-55787,16.887546577861606,48.99121948543834,956.59435861981,5.033712496403843,-176301.9042068108,10.5,10499823698.095793,47.655,-122.3035,60.0,2.25
2026-01-20T23:02:16+00:00,SAT-55787,16.38810751420082,49.00819677166859,961.61464788289,5.059684473942077,-177211.55272155584,10.5,10499822788.447279,47.655,-122.3035,60.0,2.2666666666666666
2026-01-20T23:02:17+00:00,SAT-55787,15.893096518224349,49.02265408178748,966.6608398649017,5.085246004483995,-178106.8256463008,10.5,10499821893.174355,47.655,-122.3035,60.0,2.283333333333333
2026-01-20T23:02:18+00:00,SAT-55787,15.402520705014615,49.03465479803631,971.7325252133737,5.110403516648956,-178987.9481384887,10.5,10499821012.05186,47.655,-122.3035,60.0,2.3
2026-01-20T23:02:19+00:00,SAT-55787,14.916384603657463,49.04426134869478,976.8293009873116,5.135163381999252,-179855.14335718262,10.5,10499820144.856644,47.655,-122.3035,60.0,2.316666666666667
2026-01-20T23:02:20+00:00,SAT-55787,14.434690246192321,49.05153518981266,981.9507706002922,5.159531929146247,-180708.63295712264,10.5,10499819291.367043,47.655,-122.3035,60.0,2.3333333333333335
2026-01-20T23:02:21+00:00,SAT-55787,13.957437255342931,49.05653678939435,987.0965437776274,5.183515402960794,-181548.63566010172,10.5,10499818451.36434,47.655,-122.3035,60.0,2.35
2026-01-20T23:02:22+00:00,SAT-55787,13.484622935992652,49.05932561381263,992.2662364728469,5.207119984448562,-182375.36795108404,10.5,10499817624.63205,47.655,-122.3035,60.0,2.3666666666666667
2026-01-20T23:02:23+00:00,SAT-55787,13.016242364455707,49.05996011640135,997.4594708040037,5.230351790016167,-183189.04405250165,10.5,10499816810.955948,47.655,-122.3035,60.0,2.3833333333333333
2026-01-20T23:02:24+00:00,SAT-55787,12.552288477406124,49.05849772805098,1002.6758749892465,5.253216850600746,-183989.875193284,10.5,10499816010.124807,47.655,-122.3035,60.0,2.4
2026-01-20T23:02:25+00:00,SAT-55787,12.092752161781616,49.054994849900844,1007.915083261579,5.275721134612779,-184778.07041241237,10.5,10499815221.929588,47.655,-122.3035,60.0,2.4166666666666665
2026-01-20T23:02:26+00:00,SAT-55787,11.637622341949593,49.04950684772853,1013.1767358064993,5.297870545742098,-185553.8364820773,10.5,10499814446.163517,47.655,-122.3035,60.0,2.433333333333333
2026-01-20T23:02:27+00:00,SAT-55787,11.186886065971184,49.04208804816194,1018.4604786974528,5.319670909484609,-186317.37743578726,10.5,10499813682.622564,47.655,-122.3035,60.0,2.45
2026-01-20T23:02:28+00:00,SAT-55787,10.74052859193035,49.032791736522576,1023.7659638178454,5.341127947887826,-187068.89368385036,10.5,10499812931.106316,47.655,-122.3035,60.0,2.466666666666667
2026-01-20T23:02:29+00:00,SAT-55787,10.2985334747758,49.02167015642093,1029.0928487578722,5.362247345129524,-187808.58431021636,10.5,10499812191.41569,47.655,-122.3035,60.0,2.4833333333333334
2026-01-20T23:02:30+00:00,SAT-55787,9.860882646617997,49.00877451044985,1034.4407967767481,5.383034707956507,-188536.64568687492,10.5,10499811463.354313,47.655,-122.3035,60.0,2.5
2026-01-20T23:02:31+00:00,SAT-55787,9.42755649853412,48.994154962536214,1039.8094767254834,5.403495525611236,-189253.27007031636,10.5,10499810746.729929,47.655,-122.3035,60.0,2.5166666666666666
2026-01-20T23:02:32+00:00,SAT-55787,8.998533963966654,48.97786064165198,1045.198562929693,5.423635261028553,-189958.64879562714,10.5,10499810041.351204,47.655,-122.3035,60.0,2.533333333333333
2026-01-20T23:02:33+00:00,SAT-55787,8.573792593194893,48.95993964637103,1050.6077351633587,5.443459253511474,-190652.96886778407,10.5,10499809347.031132,47.655,-122.3035,60.0,2.55
2026-01-20T23:02:34+00:00,SAT-55787,8.153308633557225,48.940439050993476,1056.0366785255278,5.46297282082796,-191336.41653751538,10.5,10499808663.583462,47.655,-122.3035,60.0,2.566666666666667
2026-01-20T23:02:35+00:00,SAT-55787,7.737057100049684,48.919404912206566,1061.4850834188333,5.482181138500603,-192009.17307351454,10.5,10499807990.826927,47.655,-122.3035,60.0,2.5833333333333335
2026-01-20T23:02:36+00:00,SAT-55787,7.325011853097514,48.89688227729858,1066.9526454076313,5.501089359834018,-192671.41896630765,10.5,10499807328.581034,47.655,-122.3035,60.0,2.6
2026-01-20T23:02:37+00:00,SAT-55787,6.917145665319338,48.87291519271476,1072.4390651958392,5.519702519952921,-193323.3305672609,10.5,10499806676.669434,47.655,-122.3035,60.0,2.6166666666666667
2026-01-20T23:02:38+00:00,SAT-55787,6.513430293549724,48.847546713824656,1077.944048509072,5.5380256183677705,-193965.08298037833,10.5,10499806034.917019,47.655,-122.3035,60.0,2.6333333333333333
2026-01-20T23:02:39+00:00,SAT-55787,6.113836542691744,48.82081891509656,1083.4673060591242,5.556063521946071,-194596.8466639469,10.5,10499805403.153336,47.655,-122.3035,60.0,2.65
2026-01-20T23:02:40+00:00,SAT-55787,5.718334334565304,48.79277290142917,1089.0085534116783,5.57382108675617,-195218.79169802126,10.5,10499804781.208302,47.655,-122.3035,60.0,2.6666666666666665
2026-01-20T23:02:41+00:00,SAT-55787,5.326892766046617,48.763448819450325,1094.5675109755366,5.591303036961532,-195831.0835427891,10.5,10499804168.916458,47.655,-122.3035,60.0,2.683333333333333
2026-01-20T23:02:42+00:00,SAT-55787,4.939480173717122,48.73288587003159,1100.1439038710662,5.608514072907267,-196433.88682421859,10.5,10499803566.113176,47.655,-122.3035,60.0,2.7
2026-01-20T23:02:43+00:00,SAT-55787,4.5560641889455304,48.701122320709096,1105.737461906446,5.625458742632387,-197027.36083387415,10.5,10499802972.639166,47.655,-122.3035,60.0,2.716666666666667
2026-01-20T23:02:44+00:00,SAT-55787,4.176611799515211,48.66819551941769,1111.3479194257645,5.64214162733445,-197611.6660246727,10.5,10499802388.333975,47.655,-122.3035,60.0,2.7333333333333334
2026-01-20T23:02:45+00:00,SAT-55787,3.801089397213599,48.63414190720106,1116.9750153420925,5.658567116601234,-198186.95613854623,10.5,10499801813.043861,47.655,-122.3035,60.0,2.75
2026-01-20T23:02:46+00:00,SAT-55787,3.429462837769894,48.59899703308302,1122.6184929463832,5.674739639523808,-198753.38630099886,10.5,10499801246.613699,47.655,-122.3035,60.0,2.7666666666666666
2026-01-20T23:02:47+00:00,SAT-55787,3.0616974842044895,48.5627955673696,1128.2780999468682,5.690663464309025,-199311.10600268922,10.5,10499800688.893997,47.655,-122.3035,60.0,2.783333333333333
2026-01-20T23:02:48+00:00,SAT-55787,2.6977582607978055,48.52557131684709,1133.9535883086055,5.706342826891152,-199860.2636039533,10.5,10499800139.736397,47.655,-122.3035,60.0,2.8
2026-01-20T23:02:49+00:00,SAT-55787,2.3376096971161955,48.487357239131896,1139.6447142212917,5.721781901077257,-200401.00528916976,10.5,10499799598.99471,47.655,-122.3035,60.0,2.816666666666667
2026-01-20T23:02:50+00:00,SAT-55787,1.9812159719889741,48.448185457511606,1145.3512380372993,5.736984766493533,-200933.47394410468,10.5,10499799066.526056,47.655,-122.3035,60.0,2.8333333333333335
2026-01-20T23:02:51+00:00,SAT-55787,1.6285409576626966,48.40808727611514,1151.072924177749,5.751955427438475,-201457.80981622956,10.5,10499798542.190184,47.655,-122.3035,60.0,2.85
2026-01-20T23:02:52+00:00,SAT-55787,1.2795482608280504,48.36709319512563,1156.809541057381,5.766697864557014,-201974.152324568,10.5,10499798025.847675,47.655,-122.3035,60.0,2.8666666666666667
2026-01-20T23:02:53+00:00,SAT-55787,0.9342012590364579,48.325232925563455,1162.5608610609659,5.7812159403313315,-202482.63674958423,10.5,10499797517.36325,47.655,-122.3035,60.0,2.8833333333333333
2026-01-20T23:02:54+00:00,SAT-55787,0.5924631407480533,48.2825354050009,1168.3266604254563,5.795513475342162,-202983.3969041766,10.5,10499797016.603096,47.655,-122.3035,60.0,2.9
2026-01-20T23:02:55+00:00,SAT-55787,0.25429693937965353,48.23902881258876,1174.1067191981977,5.8095942234295475,-203476.5642637022,10.5,10499796523.435736,47.655,-122.3035,60.0,2.9166666666666665
2026-01-20T23:02:56+00:00,SAT-55787,359.91966556706626,48.19474058434875,1179.9008211703645,5.823461848263401,-203962.26714537863,10.5,10499796037.732855,47.655,-122.3035,60.0,2.933333333333333
2026-01-20T23:02:57+00:00,SAT-55787,359.58853184816326,48.14969742861809,1185.7087537870325,5.837120008761526,-204440.6336999846,10.5,10499795559.3663,47.655,-122.3035,60.0,2.95
2026-01-20T23:02:58+00:00,SAT-55787,359.2608585465055,48.103925340702254,1191.5303081424374,5.850572215060897,-204911.78686736483,10.5,10499795088.213133,47.655,-122.3035,60.0,2.966666666666667
2026-01-20T23:02:59+00:00,SAT-55787,358.9366083989943,48.05744961876281,1197.3652788315917,5.863821974182341,-205375.8494782233,10.5,10499794624.150522,47.655,-122.3035,60.0,2.9833333333333334
2026-01-20T23:03:00+00:00,SAT-55787,358.61574413978565,48.0102948783141,1203.213463947176,5.876872742296244,-205832.94258226658,10.5,10499794167.057417,47.655,-122.3035,60.0,3.0
2026-01-20T23:03:01+00:00,SAT-55787,358.29822852586267,47.962485066996294,1209.074665028826,5.889727857878699,-206283.18310704915,10.5,10499793716.816893,47.655,-122.3035,60.0,3.0166666666666666
2026-01-20T23:03:02+00:00,SAT-55787,357.9840243644843,47.91404347995402,1214.9486869457505,5.902390635390381,-206726.68713900397,10.5,10499793273.31286,47.655,-122.3035,60.0,3.033333333333333
2026-01-20T23:03:03+00:00,SAT-55787,357.67309453460837,47.864992774120175,1220.83533787278,5.914864344909385,-207163.5692100985,10.5,10499792836.43079,47.655,-122.3035,60.0,3.05
2026-01-20T23:03:04+00:00,SAT-55787,357.3654020080592,47.81535498259902,1226.734429246103,5.927152157701911,-207593.94039148928,10.5,10499792406.059608,47.655,-122.3035,60.0,3.066666666666667
2026-01-20T23:03:05+00:00,SAT-55787,357.0609098722399,47.765151529398615,1232.6457756647173,5.939257192070032,-208017.90989930552,10.5,10499791982.090101,47.655,-122.3035,60.0,3.0833333333333335
2026-01-20T23:03:06+00:00,SAT-55787,356.75958134925344,47.71440324358405,1238.5691948376086,5.951182566962785,-208435.58697233553,10.5,10499791564.413027,47.655,-122.3035,60.0,3.1
2026-01-20T23:03:07+00:00,SAT-55787,356.46137981148877,47.663130372673805,1244.504507584393,5.962931278292256,-208847.07654009323,10.5,10499791152.92346,47.655,-122.3035,60.0,3.1166666666666667
2026-01-20T23:03:08+00:00,SAT-55787,356.16626880194764,47.611352597142925,1250.45153771261,5.974506308686675,-209252.48306683582,10.5,10499790747.516933,47.655,-122.3035,60.0,3.1333333333333333
2026-01-20T23:03:09+00:00,SAT-55787,355.87421204835016,47.55908904360192,1256.4101120044734,5.985910535047538,-209651.90731382294,10.5,10499790348.092686,47.655,-122.3035,60.0,3.15
2026-01-20T23:03:10+00:00,SAT-55787,355.58517348048883,47.50635829873319,1262.3800601114274,5.9971468693956,-210045.4512723392,10.5,10499789954.548727,47.655,-122.3035,60.0,3.1666666666666665
2026-01-20T23:03:11+00:00,SAT-55787,355.29911724024026,47.453178421579985,1268.3612145891711,6.00821807827853,-210433.21183858655,10.5,10499789566.788162,47.655,-122.3035,60.0,3.183333333333333
2026-01-20T23:03:12+00:00,SAT-55787,355.01600769881674,47.399566957487416,1274.3534107525745,6.019126944588097,-210815.2864812063,10.5,10499789184.713518,47.655,-122.3035,60.0,3.2
2026-01-20T23:03:13+00:00,SAT-55787,354.73580946587384,47.345540950160995,1280.356486691977,6.0298761591589125,-211191.76944460886,10.5,10499788808.230555,47.655,-122.3035,60.0,3.216666666666667
2026-01-20T23:03:14+00:00,SAT-55787,354.45848740258765,47.291116954641666,1286.370283181378,6.040468384459056,-211562.75397968848,10.5,10499788437.24602,47.655,-122.3035,60.0,3.2333333333333334
2026-01-20T23:03:15+00:00,SAT-55787,354.1840066311435,47.236311049385485,1292.3946436501453,6.050906228317131,-211928.331423634,10.5,10499788071.668577,47.655,-122.3035,60.0,3.25
2026-01-20T23:03:16+00:00,SAT-55787,353.912332544549,47.18113884844196,1298.42941412852,6.0611922568114895,-212288.59165136382,10.5,10499787711.408348,47.655,-122.3035,60.0,3.2666666666666666
2026-01-20T23:03:17+00:00,SAT-55787,353.6434308152672,47.12561551321683,1304.4744432059802,6.071328967686015,-212643.6221444342,10.5,10499787356.377855,47.655,-122.3035,60.0,3.283333333333333
2026-01-20T23:03:18+00:00,SAT-55787,353.3772674041604,47.06975576433733,1310.5295819630855,6.081318844191943,-212993.5098768075,10.5,10499787006.490124,47.655,-122.3035,60.0,3.3
2026-01-20T23:03:19+00:00,SAT-55787,353.1138085666074,47.0135738927095,1316.5946839570263,6.091164302907917,-213338.33948729,10.5,10499786661.660513,47.655,-122.3035,60.0,3.316666666666667
2026-01-20T23:03:20+00:00,SAT-55787,352.85302086007965,46.957083770921834,1322.6696051551266,6.100867727071338,-213678.1944469365,10.5,10499786321.805553,47.655,-122.3035,60.0,3.3333333333333335
2026-01-20T23:03:21+00:00,SAT-55787,352.59487114985177,46.90029886403925,1328.7542039015925,6.110431439583492,-214013.156113576,10.5,10499785986.843887,47.655,-122.3035,60.0,3.35
2026-01-20T23:03:22+00:00,SAT-55787,352.33932661508913,46.84323224051092,1334.848340857337,6.119857731678753,-214343.30473592805,10.5,10499785656.695265,47.655,-122.3035,60.0,3.3666666666666667
2026-01-20T23:03:23+00:00,SAT-55787,352.08635475337815,46.785896582505394,1340.9518789683978,6.129148872952766,-214668.71980483257,10.5,10499785331.280195,47.655,-122.3035,60.0,3.3833333333333333
2026-01-20T23:03:24+00:00,SAT-55787,351.8359233842808,46.72830419596099,1347.064683444356,6.138307034087375,-214989.4773467498,10.5,10499785010.522654,47.655,-122.3035,60.0,3.4
2026-01-20T23:03:25+00:00,SAT-55787,351.58800065544875,46.670467021198235,1353.186621659686,6.147334413291137,-215305.6543522417,10.5,10499784694.345648,47.655,-122.3035,60.0,3.4166666666666665
2026-01-20T23:03:26+00:00,SAT-55787,351.3425550433538,46.612396642017565,1359.3175631812082,6.156233132430627,-215617.3251380513,10.5,10499784382.674862,47.655,-122.3035,60.0,3.433333333333333
2026-01-20T23:03:27+00:00,SAT-55787,351.0995553576444,46.5541042956425,1365.4573796919524,6.165005273754659,-215924.56263333987,10.5,10499784075.437366,47.655,-122.3035,60.0,3.45
2026-01-20T23:03:28+00:00,SAT-55787,350.85897074358763,46.495600882098984,1371.6059449516438,6.173652876157592,-216227.43824881254,10.5,10499783772.56175,47.655,-122.3035,60.0,3.466666666666667
2026-01-20T23:03:29+00:00,SAT-55787,350.62077068433746,46.436896973390404,1377.763134753465,6.182177972320806,-216526.0231775693,10.5,10499783473.976822,47.655,-122.3035,60.0,3.4833333333333334
2026-01-20T23:03:30+00:00,SAT-55787,350.38492500141837,46.3780028221059,1383.9288269178594,6.190582515839817,-216820.3858427889,10.5,10499783179.614157,47.655,-122.3035,60.0,3.5
2026-01-20T23:03:31+00:00,SAT-55787,350.151403857588,46.31892837056138,1390.102901213657,6.198868460655482,-217110.59467974526,10.5,10499782889.405321,47.655,-122.3035,60.0,3.5166666666666666
2026-01-20T23:03:32+00:00,SAT-55787,349.9201777564237,46.25968325893736,1396.2852393584174,6.207037704847678,-217396.71616722466,10.5,10499782603.283833,47.655,-122.3035,60.0,3.533333333333333
2026-01-20T23:03:33+00:00,SAT-55787,349.691217543729,46.200276833755545,1402.475724962719,6.215092126067118,-217678.8160684974,10.5,10499782321.183931,47.655,-122.3035,60.0,3.55
2026-01-20T23:03:34+00:00,SAT-55787,349.4644944072556,46.14071815587051,1408.674243509783,6.223033531818246,-217956.95769001497,10.5,10499782043.04231,47.655,-122.3035,60.0,3.566666666666667
2026-01-20T23:03:35+00:00,SAT-55787,349.2399798780326,46.08101600869242,1414.8806822855165,6.230863737304529,-218231.2046078809,10.5,10499781768.795393,47.655,-122.3035,60.0,3.5833333333333335
2026-01-20T23:03:36+00:00,SAT-55787,349.01764582859937,46.02117890549693,1421.0949303861885,6.238584520884765,-218501.61910774297,10.5,10499781498.380892,47.655,-122.3035,60.0,3.6
2026-01-20T23:03:37+00:00,SAT-55787,348.7974644727406,45.96121509692609,1427.316878681684,6.246197600108247,-218768.2613454425,10.5,10499781231.738655,47.655,-122.3035,60.0,3.6166666666666667
2026-01-20T23:03:38+00:00,SAT-55787,348.5794083655645,45.90113257865839,1433.5464197548588,6.253704683908667,-219031.1911750662,10.5,10499780968.808825,47.655,-122.3035,60.0,3.6333333333333333
2026-01-20T23:03:39+00:00,SAT-55787,348.363450401861,45.84093909824265,1439.7834478929437,6.261107448756167,-219290.4673136899,10.5,10499780709.532686,47.655,-122.3035,60.0,3.65
2026-01-20T23:03:40+00:00,SAT-55787,348.1495638148664,45.78064216210357,1446.0278590551698,6.268407514449556,-219546.14649351966,10.5,10499780453.853506,47.655,-122.3035,60.0,3.6666666666666665
2026-01-20T23:03:41+00:00,SAT-55787,347.93772217576367,45.720249042562976,1452.2795508162474,6.2756065350304695,-219798.2866460901,10.5,10499780201.713354,47.655,-122.3035,60.0,3.683333333333333
2026-01-20T23:03:42+00:00,SAT-55787,347.7278993900399,45.65976678377347,1458.538422400518,6.28270603307731,-220046.94109853744,10.5,10499779953.0589,47.655,-122.3035,60.0,3.7
2026-01-20T23:03:43+00:00,SAT-55787,347.5200696989706,45.59920220920581,1464.8043745508403,6.2897076206819875,-220292.16631313943,10.5,10499779707.833687,47.655,-122.3035,60.0,3.716666666666667
2026-01-20T23:03:44+00:00,SAT-55787,347.3142076740021,45.538561926669814,1471.0773096178673,6.296612779382119,-220534.0141796104,10.5,10499779465.98582,47.655,-122.3035,60.0,3.7333333333333334
2026-01-20T23:03:45+00:00,SAT-55787,347.1102882178872,45.4778523354749,1477.3571314298376,6.303423033280765,-220772.53807848642,10.5,10499779227.461922,47.655,-122.3035,60.0,3.75
2026-01-20T23:03:46+00:00,SAT-55787,346.9082865603266,45.417079631618506,1483.6437453350297,6.310139841218197,-221007.78910452468,10.5,10499778992.210896,47.655,-122.3035,60.0,3.7666666666666666
2026-01-20T23:03:47+00:00,SAT-55787,346.7081782568196,45.35624981396781,1489.937058136671,6.316764635398124,-221239.8174195573,10.5,10499778760.18258,47.655,-122.3035,60.0,3.783333333333333
2026-01-20T23:03:48+00:00,SAT-55787,346.5099391861969,45.29536868987475,1496.236978066375,6.3232988435349,-221468.6730281802,10.5,10499778531.326971,47.655,-122.3035,60.0,3.8
2026-01-20T23:03:49+00:00,SAT-55787,346.3135455474565,45.23444188041937,1502.5434147796602,6.329743873282423,-221694.40523238727,10.5,10499778305.594769,47.655,-122.3035,60.0,3.816666666666667
2026-01-20T23:03:50+00:00,SAT-55787,346.1189738569754,45.17347482567034,1508.8562793359474,6.336101058623057,-221917.0607538836,10.5,10499778082.939245,47.655,-122.3035,60.0,3.8333333333333335
2026-01-20T23:03:51+00:00,SAT-55787,345.9262009471951,45.112472790360485,1515.1754841250809,6.342371762438574,-222136.68732655383,10.5,10499777863.312674,47.655,-122.3035,60.0,3.85
2026-01-20T23:03:52+00:00,SAT-55787,345.7352039622283,45.051440868385455,1521.5009428961528,6.348557296856615,-222353.33090665832,10.5,10499777646.669094,47.655,-122.3035,60.0,3.8666666666666667
2026-01-20T23:03:53+00:00,SAT-55787,345.545960355775,44.99038398796636,1527.8325707068846,6.35465896084905,-222567.03698968643,10.5,10499777432.96301,47.655,-122.3035,60.0,3.8833333333333333
2026-01-20T23:03:54+00:00,SAT-55787,345.35844788784215,44.929306916316705,1534.1702839105046,6.36067800870277,-222777.84950607092,10.5,10499777222.150494,47.655,-122.3035,60.0,3.9
2026-01-20T23:03:55+00:00,SAT-55787,345.1726446223556,44.86821426449055,1540.5140001111843,6.366615709688264,-222985.8129110332,10.5,10499777014.18709,47.655,-122.3035,60.0,3.9166666666666665
2026-01-20T23:03:56+00:00,SAT-55787,344.98852892302006,44.80711049151201,1546.86363817898,6.372473272885264,-223190.9695516599,10.5,10499776809.030449,47.655,-122.3035,60.0,3.933333333333333
2026-01-20T23:03:57+00:00,SAT-55787,344.80607945127264,44.74599990914218,1553.2191181898042,6.3782519071714825,-223393.36176796202,10.5,10499776606.638231,47.655,-122.3035,60.0,3.95
2026-01-20T23:03:58+00:00,SAT-55787,344.6252751625079,44.68488668592309,1559.5803614252234,6.383952794324832,-223593.0309508011,10.5,10499776406.96905,47.655,-122.3035,60.0,3.966666666666667
2026-01-20T23:03:59+00:00,SAT-55787,344.4460953030507,44.6237748513845,1565.94729034543,6.389577095187873,-223790.01775779383,10.5,10499776209.982243,47.655,-122.3035,60.0,3.9833333333333334
2026-01-20T23:04:00+00:00,SAT-55787,344.26851940691625,44.56266830007184,1572.319828568364,6.395125944623988,-223984.36193665644,10.5,10499776015.638063,47.655,-122.3035,60.0,4.0
2026-01-20T23:04:01+00:00,SAT-55787,344.0925272927091,44.50157079551486,1578.6979008438022,6.400600484312295,-224176.10347382087,10.5,10499775823.896526,47.655,-122.3035,60.0,4.016666666666667
2026-01-20T23:04:02+00:00,SAT-55787,343.91809905964016,44.44048597376899,1585.0814330601563,6.406001781559539,-224365.27975088404,10.5,10499775634.72025,47.655,-122.3035,60.0,4.033333333333333
2026-01-20T23:04:03+00:00,SAT-55787,343.74521508564146,44.37941734766985,1591.4703521702984,6.411330938646878,-224551.9293743948,10.5,10499775448.070625,47.655,-122.3035,60.0,4.05
2026-01-20T23:04:04+00:00,SAT-55787,343.5738560226408,44.318368309884775,1597.864586226442,6.4165890174776665,-224736.08953670043,10.5,10499775263.910463,47.655,-122.3035,60.0,4.066666666666666
2026-01-20T23:04:05+00:00,SAT-55787,343.40400279384255,44.25734213661404,1604.2640643398734,6.421777043848019,-224917.79616551995,10.5,10499775082.203835,47.655,-122.3035,60.0,4.083333333333333
2026-01-20T23:04:06+00:00,SAT-55787,343.2356365907608,44.19634199118981,1610.6687166449376,6.426896058968615,-225097.08572845568,10.5,10499774902.914272,47.655,-122.3035,60.0,4.1
2026-01-20T23:04:07+00:00,SAT-55787,343.0687388691183,44.135370927018975,1617.0784743144159,6.431947069005071,-225273.99346568368,10.5,10499774726.006535,47.655,-122.3035,60.0,4.116666666666666
2026-01-20T23:04:08+00:00,SAT-55787,342.9032913459024,44.07443189098154,1623.49326952457,6.4369310518423575,-225448.55362687193,10.5,10499774551.446373,47.655,-122.3035,60.0,4.133333333333334
2026-01-20T23:04:09+00:00,SAT-55787,342.7392759963134,44.01352772665049,1629.913035426941,6.441848984151814,-225620.80041918214,10.5,10499774379.199581,47.655,-122.3035,60.0,4.15
2026-01-20T23:04:10+00:00,SAT-55787,342.57667505003513,43.95266117717128,1636.337706147135,6.446701820572946,-225790.7672781279,10.5,10499774209.232721,47.655,-122.3035,60.0,4.166666666666667
2026-01-20T23:04:11+00:00,SAT-55787,342.415470988071,43.89183488824945,1642.7672167628532,6.451490493068491,-225958.48684498644,10.5,10499774041.513155,47.655,-122.3035,60.0,4.183333333333334
2026-01-20T23:04:12+00:00,SAT-55787,342.2556465395417,43.83105141108809,1649.2015032812735,6.456215939914293,-226123.99198214678,10.5,10499773876.008018,47.655,-122.3035,60.0,4.2
2026-01-20T23:04:13+00:00,SAT-55787,342.09718467792123,43.77031320492955,1655.640502645348,6.460879060752601,-226287.31419888596,10.5,10499773712.6858,47.655,-122.3035,60.0,4.216666666666667
2026-01-20T23:04:14+00:00,SAT-55787,341.9400686182397,43.70962263999969,1662.084152695272,6.465480706593861,-226448.48330118944,10.5,10499773551.516699,47.655,-122.3035,60.0,4.233333333333333
2026-01-20T23:04:15+00:00,SAT-55787,341.78428181458196,43.64898200045486,1668.5323921199813,6.47002182357201,-226607.53242667,10.5,10499773392.467573,47.655,-122.3035,60.0,4.25
2026-01-20T23:04:16+00:00,SAT-55787,341.6298079543485,43.58839348583547,1674.985160552024,6.474503215923486,-226764.48974308954,10.5,10499773235.510258,47.655,-122.3035,60.0,4.266666666666667
2026-01-20T23:04:17+00:00,SAT-55787,341.47663095791074,43.52785921479833,1681.4423984260382,6.478925732719113,-226919.38498849992,10.5,10499773080.615011,47.655,-122.3035,60.0,4.283333333333333
2026-01-20T23:04:18+00:00,SAT-55787,341.324734973997,43.46738122695698,1687.90404702347,6.483290243471077,-227072.24861689587,10.5,10499772927.751383,47.655,-122.3035,60.0,4.3
2026-01-20T23:04:19+00:00,SAT-55787,341.17410437585187,43.40696148484083,1694.3700484929586,6.487597513022178,-227223.10741630755,10.5,10499772776.892584,47.655,-122.3035,60.0,4.316666666666666
2026-01-20T23:04:20+00:00,SAT-55787,341.02472375996115,43.346601877098074,1700.840345745946,6.491848371083877,-227371.99044674,10.5,10499772628.009554,47.655,-122.3035,60.0,4.333333333333333
2026-01-20T23:04:21+00:00,SAT-55787,340.8765779412742,43.286304219899726,1707.3148825213736,6.496043594220298,-227518.92490675376,10.5,10499772481.075092,47.655,-122.3035,60.0,4.35
2026-01-20T23:04:22+00:00,SAT-55787,340.72965195090876,43.22607025948586,1713.7936033326762,6.500183979234406,-227663.93870375908,10.5,10499772336.061296,47.655,-122.3035,60.0,4.366666666666666
2026-01-20T23:04:23+00:00,SAT-55787,340.5839310324042,43.16590167391158,1720.276453487966,6.504270248148943,-227807.05712604654,10.5,10499772192.942873,47.655,-122.3035,60.0,4.383333333333334
2026-01-20T23:04:24+00:00,SAT-55787,340.4394006399117,43.10580007568387,1726.7633790154532,6.508303194157747,-227948.30795461955,10.5,10499772051.692045,47.655,-122.3035,60.0,4.4
2026-01-20T23:04:25+00:00,SAT-55787,340.2960464334857,43.045767012890025,1733.2543267344265,6.512283513199183,-228087.71556418345,10.5,10499771912.284435,47.655,-122.3035,60.0,4.416666666666667
2026-01-20T23:04:26+00:00,SAT-55787,340.1538542777688,42.98580397195692,1739.749244158257,6.5162119567295385,-228225.30627391618,10.5,10499771774.693726,47.655,-122.3035,60.0,4.433333333333334
2026-01-20T23:04:27+00:00,SAT-55787,340.0128102377025,42.925912378817046,1746.2480795497688,6.520089207392912,-228361.1039929016,10.5,10499771638.896008,47.655,-122.3035,60.0,4.45
2026-01-20T23:04:28+00:00,SAT-55787,339.8729005766968,42.86609360128152,1752.7507818526085,6.523916008933106,-228495.1347701936,10.5,10499771504.86523,47.655,-122.3035,60.0,4.466666666666667
2026-01-20T23:04:29+00:00,SAT-55787,339.73411175231485,42.80634895006654,1759.2573007521846,6.527692998224195,-228627.42091181639,10.5,10499771372.579088,47.655,-122.3035,60.0,4.483333333333333
2026-01-20T23:04:30+00:00,SAT-55787,339.5964304152566,42.746679681422734,1765.76758656908,6.531420873199816,-228757.9868623582,10.5,10499771242.013138,47.655,-122.3035,60.0,4.5
2026-01-20T23:04:31+00:00,SAT-55787,339.4598434051148,42.68708699807936,1772.2815903199512,6.535100308905162,-228886.85626475702,10.5,10499771113.143736,47.655,-122.3035,60.0,4.516666666666667
2026-01-20T23:04:32+00:00,SAT-55787,339.3243377477732,42.62757205097044,1778.7992636946994,6.538731947856567,-229014.05162265274,10.5,10499770985.948378,47.655,-122.3035,60.0,4.533333333333333
2026-01-20T23:04:33+00:00,SAT-55787,339.18990065310936,42.568135940980554,1785.3205590240284,6.542316409475335,-229139.5946307996,10.5,10499770860.405369,47.655,-122.3035,60.0,4.55
2026-01-20T23:04:34+00:00,SAT-55787,339.05651951241674,42.5087797205919,1791.8454292564118,6.545854381640987,-229263.50938164815,10.5,10499770736.490618,47.655,-122.3035,60.0,4.566666666666666
2026-01-20T23:04:35+00:00,SAT-55787,338.9241818942722,42.44950439458062,1798.3738280263685,6.549346429325175,-229385.8156628955,10.5,10499770614.184338,47.655,-122.3035,60.0,4.583333333333333
2026-01-20T23:04:36+00:00,SAT-55787,338.79287554394057,42.39031092252892,1804.9057095318822,6.552793191372349,-229506.53584957655,10.5,10499770493.46415,47.655,-122.3035,60.0,4.6
2026-01-20T23:04:37+00:00,SAT-55787,338.6625883791779,42.331200219401545,1811.4410286080774,6.556195262482476,-229625.6907705997,10.5,10499770374.309229,47.655,-122.3035,60.0,4.616666666666666
2026-01-20T23:04:38+00:00,SAT-55787,338.5333084882466,42.272173157226,1817.9797406831933,6.559553239680629,-229743.3013363085,10.5,10499770256.698664,47.655,-122.3035,60.0,4.633333333333334
2026-01-20T23:04:39+00:00,SAT-55787,338.40502412717024,42.213230566264095,1824.5218017809013,6.5628676864366735,-229859.38728180103,10.5,10499770140.612719,47.655,-122.3035,60.0,4.65
2026-01-20T23:04:40+00:00,SAT-55787,338.27772371755816,42.154373236532784,1831.067168486841,6.566139197342072,-229973.96943218552,10.5,10499770026.030567,47.655,-122.3035,60.0,4.666666666666667
2026-01-20T23:04:41+00:00,SAT-55787,338.15139584344956,42.09560191862634,1837.615797979657,6.569368311746835,-230087.0666777807,10.5,10499769912.933323,47.655,-122.3035,60.0,4.683333333333334
2026-01-20T23:04:42+00:00,SAT-55787,338.0260292496056,42.03691732536546,1844.1676479759055,6.572555610777649,-230198.69937210134,10.5,10499769801.300629,47.655,-122.3035,60.0,4.7
2026-01-20T23:04:43+00:00,SAT-55787,337.90161283821396,41.978320132472106,1850.7226767717211,6.575701592998107,-230308.88497695338,10.5,10499769691.115023,47.655,-122.3035,60.0,4.716666666666667
2026-01-20T23:04:44+00:00,SAT-55787,337.7781356677352,41.9198109803979,1857.2808431604712,6.578806856091177,-230417.64442572254,10.5,10499769582.355574,47.655,-122.3035,60.0,4.733333333333333
2026-01-20T23:04:45+00:00,SAT-55787,337.65558694872146,41.86139047438899,1863.842106531613,6.581871874954179,-230524.9943513218,10.5,10499769475.00565,47.655,-122.3035,60.0,4.75
2026-01-20T23:04:46+00:00,SAT-55787,337.5339560433827,41.80305918664805,1870.4064267482338,6.5848971793769975,-230630.95330923394,10.5,10499769369.04669,47.655,-122.3035,60.0,4.766666666666667
2026-01-20T23:04:47+00:00,SAT-55787,337.4132324622564,41.744817656746925,1876.9737642017992,6.587883283719969,-230735.53931453364,10.5,10499769264.460686,47.655,-122.3035,60.0,4.783333333333333
2026-01-20T23:04:48+00:00,SAT-55787,337.2934058619974,41.68666639272274,1883.5440797967626,6.590830712646058,-230838.77074313728,10.5,10499769161.229258,47.655,-122.3035,60.0,4.8
2026-01-20T23:04:49+00:00,SAT-55787,337.17446604291985,41.628605871856514,1890.1173349608416,6.593739902142518,-230940.66286516265,10.5,10499769059.337135,47.655,-122.3035,60.0,4.816666666666666
2026-01-20T23:04:50+00:00,SAT-55787,337.0564029480376,41.57063654239371,1896.6934915565782,6.596611400030366,-231041.23486761912,10.5,10499768958.765133,47.655,-122.3035,60.0,4.833333333333333
2026-01-20T23:04:51+00:00,SAT-55787,336.9392066589943,41.5127588233352,1903.2725119928753,6.599445644049958,-231140.50208202557,10.5,10499768859.497917,47.655,-122.3035,60.0,4.85
2026-01-20T23:04:52+00:00,SAT-55787,336.822867395552,41.45497310628861,1909.854359115208,6.602243109489694,-231238.48115499222,10.5,10499768761.518845,47.655,-122.3035,60.0,4.866666666666666
2026-01-20T23:04:53+00:00,SAT-55787,336.70737551276204,41.39727975591873,1916.438996243072,6.6050042761258085,-231335.1888903122,10.5,10499768664.81111,47.655,-122.3035,60.0,4.883333333333334
2026-01-20T23:04:54+00:00,SAT-55787,336.59272149871504,41.339679110668385,1923.0263871744617,6.607729581663336,-231430.6406182674,10.5,10499768569.359383,47.655,-122.3035,60.0,4.9
2026-01-20T23:04:55+00:00,SAT-55787,336.47889597301884,41.2821714839106,1929.6164961439074,6.610419479665806,-231524.85222457116,10.5,10499768475.147776,47.655,-122.3035,60.0,4.916666666666667
2026-01-20T23:04:56+00:00,SAT-55787,336.36588968444505,41.22475716452301,1936.209287838294,6.613074410626602,-231617.83913716508,10.5,10499768382.160862,47.655,-122.3035,60.0,4.933333333333334
2026-01-20T23:04:57+00:00,SAT-55787,336.2536935090104,41.167436417720154,1942.8047273838254,6.61569480847647,-231709.6165541394,10.5,10499768290.383446,47.655,-122.3035,60.0,4.95
2026-01-20T23:04:58+00:00,SAT-55787,336.1422984480479,41.11020948579259,1949.4027803394795,6.618281105532301,-231800.19961706028,10.5,10499768199.800383,47.655,-122.3035,60.0,4.966666666666667
2026-01-20T23:04:59+00:00,SAT-55787,336.03169562617603,41.05307658879549,1956.003412695397,6.620833699421684,-231889.60225252793,10.5,10499768110.397747,47.655,-122.3035,60.0,4.983333333333333
2026-01-20T23:05:00+00:00,SAT-55787,335.92187628984345,40.99603792550279,1962.6065908382868,6.623353037705055,-231977.84013600193,10.5,10499768022.159864,47.655,-122.3035,60.0,5.0
2026-01-20T23:05:01+00:00,SAT-55787,335.81283180460264,40.939093673584395,1969.2122816012247,6.6258395161865105,-232064.92713021606,10.5,10499767935.07287,47.655,-122.3035,60.0,5.016666666666667
2026-01-20T23:05:02+00:00,SAT-55787,335.70455365396805,40.88224399068282,1975.8204522120348,6.628293506988121,-232150.87626845928,10.5,10499767849.123732,47.655,-122.3035,60.0,5.033333333333333
2026-01-20T23:05:03+00:00,SAT-55787,335.5970334378319,40.8254890152194,1982.4310702696707,6.630715438989437,-232235.70257190755,10.5,10499767764.297428,47.655,-122.3035,60.0,5.05
2026-01-20T23:05:04+00:00,SAT-55787,335.4902628697906,40.768828866447166,1989.044103800823,6.633105694463963,-232319.41942939608,10.5,10499767680.58057,47.655,-122.3035,60.0,5.066666666666666
2026-01-20T23:05:05+00:00,SAT-55787,335.3842337759489,40.71226364543814,1995.659521213435,6.63546463904838,-232402.03964706807,10.5,10499767597.960354,47.655,-122.3035,60.0,5.083333333333333
2026-01-20T23:05:06+00:00,SAT-55787,335.27893809338946,40.65579343575861,2002.2772912801126,6.637792677276732,-232483.57739341687,10.5,10499767516.422607,47.655,-122.3035,60.0,5.1
2026-01-20T23:05:07+00:00,SAT-55787,335.1743678677868,40.59941830365436,2008.8973831769165,6.640090145990215,-232564.0444660461,10.5,10499767435.955534,47.655,-122.3035,60.0,5.116666666666666
2026-01-20T23:05:08+00:00,SAT-55787,335.0705152526639,40.543138299152936,2015.5197664158509,6.642357438135972,-232643.45462762678,10.5,10499767356.545372,47.655,-122.3035,60.0,5.133333333333334
2026-01-20T23:05:09+00:00,SAT-55787,334.96737250682577,40.48695345606625,2022.1444109008185,6.644594884810289,-232721.8194745514,10.5,10499767278.180525,47.655,-122.3035,60.0,5.15
2026-01-20T23:05:10+00:00,SAT-55787,334.864931993565,40.43086379300803,2028.771286865936,6.646802885123992,-232799.15298536938,10.5,10499767200.847015,47.655,-122.3035,60.0,5.166666666666667
2026-01-20T23:05:11+00:00,SAT-55787,334.76318617802144,40.374869313262465,2035.4003649433662,6.648981713589705,-232875.4647746739,10.5,10499767124.535225,47.655,-122.3035,60.0,5.183333333333334
2026-01-20T23:05:12+00:00,SAT-55787,334.66212762728634,40.31897000632834,2042.031616039053,6.651131821217657,-232950.77063875098,10.5,10499767049.22936,47.655,-122.3035,60.0,5.2
2026-01-20T23:05:13+00:00,SAT-55787,334.5617490063281,40.2631658468056,2048.6650115087473,6.653253426708027,-233025.07823740612,10.5,10499766974.921762,47.655,-122.3035,60.0,5.216666666666667
2026-01-20T23:05:14+00:00,SAT-55787,334.46204307962773,40.2074567968519,2055.3005229263176,6.655346941918052,-233098.40199562174,10.5,10499766901.598005,47.655,-122.3035,60.0,5.233333333333333
2026-01-20T23:05:15+00:00,SAT-55787,334.3630027069211,40.151842804910494,2061.9381222763905,6.657412694861662,-233170.75340183327,10.5,10499766829.246597,47.655,-122.3035,60.0,5.25
2026-01-20T23:05:16+00:00,SAT-55787,334.2646208428625,40.09632380683316,2068.5777818707325,6.659450951047353,-233242.14175527127,10.5,10499766757.858244,47.655,-122.3035,60.0,5.266666666666667
2026-01-20T23:05:17+00:00,SAT-55787,334.1668905363039,40.04089972681753,2075.2194742859106,6.661462068406171,-233312.57959219508,10.5,10499766687.420408,47.655,-122.3035,60.0,5.283333333333333
