satellites_20260120_184412/SAT-56493.csv

timestamp,satellite,azimuth_deg,elevation_deg,distance_km,relative_velocity_kms,doppler_shift_hz,tx_freq_ghz,rx_freq_hz,ue_lat,ue_lon,ue_alt_m,time_minutes
2026-01-20T23:09:47+00:00,SAT-56493,256.63198839623294,40.03959984455731,2672.592159725498,-6.292447268803693,220388.1203790616,10.5,10500220388.120378,47.655,-122.3035,60.0,9.783333333333333
2026-01-20T23:09:48+00:00,SAT-56493,256.67824959405937,40.11452661199413,2666.316492316078,-6.290160395558599,220308.02440455422,10.5,10500220308.024405,47.655,-122.3035,60.0,9.8
2026-01-20T23:09:49+00:00,SAT-56493,256.72489940936543,40.18963412932039,2660.043105681574,-6.287849892386857,220227.10081006106,10.5,10500220227.100811,47.655,-122.3035,60.0,9.816666666666666
2026-01-20T23:09:50+00:00,SAT-56493,256.77194162789397,40.2649232440829,2653.7720233889004,-6.285515624452171,220145.34487304479,10.5,10500220145.344873,47.655,-122.3035,60.0,9.833333333333334
2026-01-20T23:09:51+00:00,SAT-56493,256.8193800831833,40.340394806103475,2647.5032691394463,-6.283157354077943,220062.74826906552,10.5,10500220062.748268,47.655,-122.3035,60.0,9.85
2026-01-20T23:09:52+00:00,SAT-56493,256.8672186564441,40.416049666181486,2641.2368668716463,-6.280774878072827,219979.30388150288,10.5,10500219979.30388,47.655,-122.3035,60.0,9.866666666666667
2026-01-20T23:09:53+00:00,SAT-56493,256.91546127755385,40.49188867643742,2634.9728407265816,-6.278367996895512,219895.004721576,10.5,10500219895.00472,47.655,-122.3035,60.0,9.883333333333333
2026-01-20T23:09:54+00:00,SAT-56493,256.964111925872,40.56791269029287,2628.7112150443445,-6.2759364871737535,219809.84296584412,10.5,10500219809.842966,47.655,-122.3035,60.0,9.9
2026-01-20T23:09:55+00:00,SAT-56493,257.0131746307638,40.64412256210514,2622.452014387803,-6.2734802034891075,219723.8135211381,10.5,10500219723.81352,47.655,-122.3035,60.0,9.916666666666666
2026-01-20T23:09:56+00:00,SAT-56493,257.06265347310256,40.72051914805212,2616.1952634648565,-6.270998827287385,219636.90523034288,10.5,10500219636.90523,47.655,-122.3035,60.0,9.933333333333334
2026-01-20T23:09:57+00:00,SAT-56493,257.1125525844773,40.79710330392585,2609.9409873011086,-6.268492235269392,219549.11377499902,10.5,10500219549.113775,47.655,-122.3035,60.0,9.95
2026-01-20T23:09:58+00:00,SAT-56493,257.16287614977796,40.87387588745291,2603.6892110451336,-6.265960173548351,219460.4302629177,10.5,10500219460.430264,47.655,-122.3035,60.0,9.966666666666667
2026-01-20T23:09:59+00:00,SAT-56493,257.21362840681286,40.95083775660287,2597.4399600987144,-6.263402434144471,219370.84740976687,10.5,10500219370.84741,47.655,-122.3035,60.0,9.983333333333333
2026-01-20T23:10:00+00:00,SAT-56493,257.2648136475764,41.02798977006804,2591.193260071061,-6.260818779811107,219280.35690616546,10.5,10500219280.356907,47.655,-122.3035,60.0,10.0
2026-01-20T23:10:01+00:00,SAT-56493,257.31643621880005,41.10533278680639,2584.9491368079957,-6.2582090084028295,219188.9516721255,10.5,10500219188.951672,47.655,-122.3035,60.0,10.016666666666667
2026-01-20T23:10:02+00:00,SAT-56493,257.3685005231661,41.182867666386,2578.707616356949,-6.2555728724765824,219096.6230411444,10.5,10500219096.623041,47.655,-122.3035,60.0,10.033333333333333
2026-01-20T23:10:03+00:00,SAT-56493,257.4210110197298,41.26059526831956,2572.4687250121324,-6.252910165044616,219003.36376363566,10.5,10500219003.363764,47.655,-122.3035,60.0,10.05
2026-01-20T23:10:04+00:00,SAT-56493,257.473972225223,41.338516452470415,2566.2324892741944,-6.250220638960169,218909.16518347428,10.5,10500218909.165184,47.655,-122.3035,60.0,10.066666666666666
2026-01-20T23:10:05+00:00,SAT-56493,257.52738871454505,41.416632078440095,2559.9989358902712,-6.247504060885312,218814.01912817894,10.5,10500218814.019129,47.655,-122.3035,60.0,10.083333333333334
2026-01-20T23:10:06+00:00,SAT-56493,257.5812651218429,41.4949430056324,2553.768091840215,-6.244760210555567,218717.91788315587,10.5,10500218717.917883,47.655,-122.3035,60.0,10.1
2026-01-20T23:10:07+00:00,SAT-56493,257.63560614155756,41.57345009330388,2547.5399843235546,-6.2419888282294655,218620.8523511602,10.5,10500218620.85235,47.655,-122.3035,60.0,10.116666666666667
2026-01-20T23:10:08+00:00,SAT-56493,257.6904165290049,41.65215419994613,2541.3146407988665,-6.239189688277251,218522.81462968336,10.5,10500218522.81463,47.655,-122.3035,60.0,10.133333333333333
2026-01-20T23:10:09+00:00,SAT-56493,257.7457011016664,41.73105618359248,2535.0920889497584,-6.236362547026348,218423.79618428115,10.5,10500218423.796185,47.655,-122.3035,60.0,10.15
2026-01-20T23:10:10+00:00,SAT-56493,257.8014647400222,41.81015690146524,2528.872356702858,-6.233507141870964,218323.78781738773,10.5,10500218323.787817,47.655,-122.3035,60.0,10.166666666666666
2026-01-20T23:10:11+00:00,SAT-56493,257.8577123883392,41.88945720959784,2522.655472246698,-6.230623244648882,218222.78153779724,10.5,10500218222.781538,47.655,-122.3035,60.0,10.183333333333334
2026-01-20T23:10:12+00:00,SAT-56493,257.91444905606414,41.96895796313892,2516.4414639973684,-6.227710581910932,218120.7677681631,10.5,10500218120.767769,47.655,-122.3035,60.0,10.2
2026-01-20T23:10:13+00:00,SAT-56493,257.97167981837464,42.048660015627206,2510.230360643676,-6.224768920238381,218017.73833317382,10.5,10500218017.738333,47.655,-122.3035,60.0,10.216666666666667
2026-01-20T23:10:14+00:00,SAT-56493,258.02940981768796,42.12856421936368,2504.022191107225,-6.221797980422402,217913.68345375528,10.5,10500217913.683455,47.655,-122.3035,60.0,10.233333333333333
2026-01-20T23:10:15+00:00,SAT-56493,258.08764426421845,42.208671424661226,2497.8169845880834,-6.218797523336956,217808.59475470206,10.5,10500217808.594755,47.655,-122.3035,60.0,10.25
2026-01-20T23:10:16+00:00,SAT-56493,258.1463884375356,42.2889824802113,2491.6147705248086,-6.215767269511483,217702.46244777305,10.5,10500217702.462448,47.655,-122.3035,60.0,10.266666666666667
2026-01-20T23:10:17+00:00,SAT-56493,258.2056476872236,42.36949823239293,2485.415578634683,-6.212706947376718,217595.27702146376,10.5,10500217595.277021,47.655,-122.3035,60.0,10.283333333333333
2026-01-20T23:10:18+00:00,SAT-56493,258.2654274341146,42.45021952520479,2479.2194389058322,-6.209616324431773,217487.03033260966,10.5,10500217487.030333,47.655,-122.3035,60.0,10.3
2026-01-20T23:10:19+00:00,SAT-56493,258.3257331718537,42.531147200604046,2473.0263815582657,-6.206495075666038,217377.71099796446,10.5,10500217377.710999,47.655,-122.3035,60.0,10.316666666666666
2026-01-20T23:10:20+00:00,SAT-56493,258.3865704670891,42.61228209710926,2466.8364371361345,-6.203342962453565,217267.31065983797,10.5,10500217267.31066,47.655,-122.3035,60.0,10.333333333333334
2026-01-20T23:10:21+00:00,SAT-56493,258.4479449615819,42.69362505074707,2460.6496364215814,-6.200159696086896,217155.81920647385,10.5,10500217155.819206,47.655,-122.3035,60.0,10.35
2026-01-20T23:10:22+00:00,SAT-56493,258.5098623729127,42.775176894202005,2454.466010484684,-6.196945005333717,217043.2271381691,10.5,10500217043.227139,47.655,-122.3035,60.0,10.366666666666667
2026-01-20T23:10:23+00:00,SAT-56493,258.572328495879,42.856938456844254,2448.285590666031,-6.193698574043217,216929.52338198505,10.5,10500216929.523382,47.655,-122.3035,60.0,10.383333333333333
2026-01-20T23:10:24+00:00,SAT-56493,258.6353492032737,42.938910563924196,2442.1084086215183,-6.190420151021166,216814.6991400372,10.5,10500216814.69914,47.655,-122.3035,60.0,10.4
2026-01-20T23:10:25+00:00,SAT-56493,258.69893044788677,43.02109403722339,2435.934496257567,-6.187109424290762,216698.74348557828,10.5,10500216698.743486,47.655,-122.3035,60.0,10.416666666666666
2026-01-20T23:10:26+00:00,SAT-56493,258.76307826313246,43.10348969402253,2429.763885791741,-6.183766099376765,216581.64610483975,10.5,10500216581.646105,47.655,-122.3035,60.0,10.433333333333334
2026-01-20T23:10:27+00:00,SAT-56493,258.82779876456505,43.18609834710326,2423.5966097352957,-6.180389889210732,216463.39694347043,10.5,10500216463.396944,47.655,-122.3035,60.0,10.45
2026-01-20T23:10:28+00:00,SAT-56493,258.8930981513354,43.268920804613806,2417.4327008857895,-6.176980487451507,216343.9852721072,10.5,10500216343.985271,47.655,-122.3035,60.0,10.466666666666667
2026-01-20T23:10:29+00:00,SAT-56493,258.95898270731783,43.35195786956242,2411.2721923463046,-6.173537600290636,216223.40080033528,10.5,10500216223.4008,47.655,-122.3035,60.0,10.483333333333333
2026-01-20T23:10:30+00:00,SAT-56493,259.02545880269196,43.4352103397368,2405.115117512948,-6.170060888384697,216101.6316429125,10.5,10500216101.631643,47.655,-122.3035,60.0,10.5
2026-01-20T23:10:31+00:00,SAT-56493,259.0925328947858,43.51867900681978,2398.9615101202658,-6.166550077243177,215978.66818602008,10.5,10500215978.668186,47.655,-122.3035,60.0,10.516666666666667
2026-01-20T23:10:32+00:00,SAT-56493,259.1602115303416,43.602364657006746,2392.8114041765616,-6.163004820582405,215854.49830133902,10.5,10500215854.4983,47.655,-122.3035,60.0,10.533333333333333
2026-01-20T23:10:33+00:00,SAT-56493,259.2285013460951,43.686268069742596,2386.664834035501,-6.159424847269675,215729.11249265514,10.5,10500215729.112494,47.655,-122.3035,60.0,10.55
2026-01-20T23:10:34+00:00,SAT-56493,259.29740907122414,43.7703900184706,2380.5218343211573,-6.155809767177708,215602.4970960608,10.5,10500215602.497095,47.655,-122.3035,60.0,10.566666666666666
2026-01-20T23:10:35+00:00,SAT-56493,259.3669415273771,43.85473126869096,2374.3824400466924,-6.152159312646969,215474.64273698698,10.5,10500215474.642736,47.655,-122.3035,60.0,10.583333333333334
2026-01-20T23:10:36+00:00,SAT-56493,259.4371056317932,43.93929257934987,2368.246686492212,-6.1484731227596,215345.53677456357,10.5,10500215345.536774,47.655,-122.3035,60.0,10.6
2026-01-20T23:10:37+00:00,SAT-56493,259.50790839767194,44.024074701228216,2362.1146092977797,-6.144750880421027,215215.16810279724,10.5,10500215215.168102,47.655,-122.3035,60.0,10.616666666666667
2026-01-20T23:10:38+00:00,SAT-56493,259.5793569363817,44.109078377227036,2355.9862444197065,-6.1409922487699715,215083.52492338113,10.5,10500215083.524923,47.655,-122.3035,60.0,10.633333333333333
2026-01-20T23:10:39+00:00,SAT-56493,259.651458458817,44.19430434175353,2349.8616281502664,-6.137196871778664,214950.59476671682,10.5,10500214950.594767,47.655,-122.3035,60.0,10.65
2026-01-20T23:10:40+00:00,SAT-56493,259.72422027684615,44.27975332010657,2343.740797136813,-6.13336443095696,214816.36647793214,10.5,10500214816.366478,47.655,-122.3035,60.0,10.666666666666666
2026-01-20T23:10:41+00:00,SAT-56493,259.797649805476,44.36542602864286,2337.6237883443387,-6.129494546903553,214680.8267687885,10.5,10500214680.826769,47.655,-122.3035,60.0,10.683333333333334
2026-01-20T23:10:42+00:00,SAT-56493,259.8717545638036,44.45132317355236,2331.5106391162267,-6.125586877680052,214543.9636631571,10.5,10500214543.963663,47.655,-122.3035,60.0,10.7
2026-01-20T23:10:43+00:00,SAT-56493,259.94654217724667,44.53744545100001,2325.401387136887,-6.121641098286015,214405.76577814762,10.5,10500214405.765778,47.655,-122.3035,60.0,10.716666666666667
2026-01-20T23:10:44+00:00,SAT-56493,260.02202037959376,44.623793546979854,2319.296070414863,-6.117656796402743,214266.21867261516,10.5,10500214266.218672,47.655,-122.3035,60.0,10.733333333333333
2026-01-20T23:10:45+00:00,SAT-56493,260.09819701361863,44.71036813566284,2313.1947273699175,-6.113633654412701,214125.31122225017,10.5,10500214125.311222,47.655,-122.3035,60.0,10.75
2026-01-20T23:10:46+00:00,SAT-56493,260.17508003425434,44.79716988033093,2307.097396738583,-6.109571257034778,213983.0288821514,10.5,10500213983.028883,47.655,-122.3035,60.0,10.766666666666667
2026-01-20T23:10:47+00:00,SAT-56493,260.2526775091005,44.88419943154518,2301.004117671567,-6.1054692782048265,213839.3602321733,10.5,10500213839.360231,47.655,-122.3035,60.0,10.783333333333333
2026-01-20T23:10:48+00:00,SAT-56493,260.3309976216242,44.97145742798409,2294.914929644771,-6.101327320181418,213694.29134172844,10.5,10500213694.291342,47.655,-122.3035,60.0,10.8
2026-01-20T23:10:49+00:00,SAT-56493,260.4100486720845,45.05894449495381,2288.8298725307764,-6.097145001694523,213547.80885712773,10.5,10500213547.808857,47.655,-122.3035,60.0,10.816666666666666
2026-01-20T23:10:50+00:00,SAT-56493,260.48983907977265,45.1466612441514,2282.74898658242,-6.092921921549103,213399.8987268238,10.5,10500213399.898727,47.655,-122.3035,60.0,10.833333333333334
2026-01-20T23:10:51+00:00,SAT-56493,260.5703773847268,45.23460827288601,2276.672312452662,-6.088657715572662,213250.54819595543,10.5,10500213250.548197,47.655,-122.3035,60.0,10.85
2026-01-20T23:10:52+00:00,SAT-56493,260.65167225034463,45.322786164116366,2270.599891157664,-6.084351984036629,213099.74326433722,10.5,10500213099.743265,47.655,-122.3035,60.0,10.866666666666667
2026-01-20T23:10:53+00:00,SAT-56493,260.73373246495913,45.411195485415945,2264.5317641122515,-6.080004317678484,212947.46959786452,10.5,10500212947.469599,47.655,-122.3035,60.0,10.883333333333333
2026-01-20T23:10:54+00:00,SAT-56493,260.8165669438373,45.499836788298836,2258.4679731394203,-6.075614312903632,212793.71306094743,10.5,10500212793.71306,47.655,-122.3035,60.0,10.9
2026-01-20T23:10:55+00:00,SAT-56493,260.90018473141185,45.588710607750265,2252.408560464684,-6.0711815769854995,212638.45989864008,10.5,10500212638.459898,47.655,-122.3035,60.0,10.916666666666666
2026-01-20T23:10:56+00:00,SAT-56493,260.98459500368136,45.67781746182247,2246.353568705237,-6.0667056815420874,212481.69510719285,10.5,10500212481.695107,47.655,-122.3035,60.0,10.933333333333334
2026-01-20T23:10:57+00:00,SAT-56493,261.06980706988816,45.76715785052212,2240.3030409055123,-6.062186209107955,212323.40406520007,10.5,10500212323.404066,47.655,-122.3035,60.0,10.95
2026-01-20T23:10:58+00:00,SAT-56493,261.15583037499425,45.856732255370474,2234.2570205262955,-6.0576227525904285,212163.5725145544,10.5,10500212163.572515,47.655,-122.3035,60.0,10.966666666666667
2026-01-20T23:10:59+00:00,SAT-56493,261.2426745021436,45.94654113893729,2228.2155514343785,-6.053014869467817,212002.18495627426,10.5,10500212002.184956,47.655,-122.3035,60.0,10.983333333333333
2026-01-20T23:11:00+00:00,SAT-56493,261.3303491744989,46.03658494367487,2222.178677937896,-6.048362132696264,211839.22643347742,10.5,10500211839.226433,47.655,-122.3035,60.0,11.0
2026-01-20T23:11:01+00:00,SAT-56493,261.41886425786805,46.12686409148879,2216.1464447708872,-6.043664105363044,211674.68164363218,10.5,10500211674.681644,47.655,-122.3035,60.0,11.016666666666667
2026-01-20T23:11:02+00:00,SAT-56493,261.50822976301333,46.21737898291516,2210.1188971031384,-6.038920339983194,211508.53491392214,10.5,10500211508.534914,47.655,-122.3035,60.0,11.033333333333333
2026-01-20T23:11:03+00:00,SAT-56493,261.5984558479371,46.308129996256405,2204.0960805507284,-6.034130405001898,211340.77112947227,10.5,10500211340.77113,47.655,-122.3035,60.0,11.05
2026-01-20T23:11:04+00:00,SAT-56493,261.6895528207188,46.39911748711147,2198.07804116014,-6.029293827549883,211171.37372840036,10.5,10500211171.373728,47.655,-122.3035,60.0,11.066666666666666
2026-01-20T23:11:05+00:00,SAT-56493,261.7815311413657,46.490341787001704,2192.0648254494636,-6.0244101757768025,211000.32758548055,10.5,10500211000.327585,47.655,-122.3035,60.0,11.083333333333334
2026-01-20T23:11:06+00:00,SAT-56493,261.8744014251513,46.581803203237335,2186.056480367489,-6.019478951077899,210827.6152374652,10.5,10500210827.615238,47.655,-122.3035,60.0,11.1
2026-01-20T23:11:07+00:00,SAT-56493,261.96817444411124,46.67350201710577,2180.0530533602805,-6.01449972139903,210653.22155199051,10.5,10500210653.221552,47.655,-122.3035,60.0,11.116666666666667
2026-01-20T23:11:08+00:00,SAT-56493,262.0628611309309,46.76543848409013,2174.054592304805,-6.0094719874833915,210477.1290429715,10.5,10500210477.129044,47.655,-122.3035,60.0,11.133333333333333
2026-01-20T23:11:09+00:00,SAT-56493,262.15847258049087,46.85761283199437,2168.061145575955,-6.004395291090309,210299.32166088128,10.5,10500210299.321661,47.655,-122.3035,60.0,11.15
2026-01-20T23:11:10+00:00,SAT-56493,262.2550200534185,46.95002526072643,2162.0727620056405,-5.999269137509511,210119.7820788736,10.5,10500210119.78208,47.655,-122.3035,60.0,11.166666666666666
2026-01-20T23:11:11+00:00,SAT-56493,262.352514978271,47.042675940846365,2156.0894909191647,-5.994093016591266,209938.49242934686,10.5,10500209938.49243,47.655,-122.3035,60.0,11.183333333333334
2026-01-20T23:11:12+00:00,SAT-56493,262.4509689541553,47.13556501241472,2150.111382150618,-5.988866483570855,209755.43713475933,10.5,10500209755.437136,47.655,-122.3035,60.0,11.2
2026-01-20T23:11:13+00:00,SAT-56493,262.55039375483824,47.228692585082406,2144.13848597767,-5.983588981341326,209570.59668286893,10.5,10500209570.596684,47.655,-122.3035,60.0,11.216666666666667
2026-01-20T23:11:14+00:00,SAT-56493,262.65080132970917,47.32205873536445,2138.170853233612,-5.97826004844853,209383.95491159943,10.5,10500209383.954912,47.655,-122.3035,60.0,11.233333333333333
2026-01-20T23:11:15+00:00,SAT-56493,262.7522038085368,47.415663507151294,2132.2085352119593,-5.972879136717732,209195.49262155284,10.5,10500209195.492622,47.655,-122.3035,60.0,11.25
2026-01-20T23:11:16+00:00,SAT-56493,262.85461350298726,47.509506909322745,2126.2515837529395,-5.967445737465158,209005.19199647167,10.5,10500209005.191996,47.655,-122.3035,60.0,11.266666666666667
2026-01-20T23:11:17+00:00,SAT-56493,262.95804291044425,47.60358891531627,2120.3000512041076,-5.961959351305936,208813.0355457852,10.5,10500208813.035545,47.655,-122.3035,60.0,11.283333333333333
2026-01-20T23:11:18+00:00,SAT-56493,263.0625047174184,47.69790946220118,2114.3539904110717,-5.9564194171456135,208619.0036175925,10.5,10500208619.003618,47.655,-122.3035,60.0,11.3
2026-01-20T23:11:19+00:00,SAT-56493,263.1680118015692,47.79246844857774,2108.4134547790386,-5.950825413417563,208423.07794442386,10.5,10500208423.077944,47.655,-122.3035,60.0,11.316666666666666
2026-01-20T23:11:20+00:00,SAT-56493,263.27457723576896,47.887265734066354,2102.47849823339,-5.945176776882902,208225.23879927114,10.5,10500208225.2388,47.655,-122.3035,60.0,11.333333333333334
2026-01-20T23:11:21+00:00,SAT-56493,263.382214290594,47.98230113745417,2096.5491752612456,-5.939472988626884,208025.46800754502,10.5,10500208025.468008,47.655,-122.3035,60.0,11.35
2026-01-20T23:11:22+00:00,SAT-56493,263.49093643861227,48.07757443620173,2090.625540867255,-5.9337134679027175,207823.7452290362,10.5,10500207823.74523,47.655,-122.3035,60.0,11.366666666666667
2026-01-20T23:11:23+00:00,SAT-56493,263.60075735656244,48.17308536419286,2084.707650635267,-5.927897673029188,207620.05149177727,10.5,10500207620.051493,47.655,-122.3035,60.0,11.383333333333333
2026-01-20T23:11:24+00:00,SAT-56493,263.71169092965965,48.268833611086926,2078.7955606893656,-5.922025030360348,207414.36670426064,10.5,10500207414.366705,47.655,-122.3035,60.0,11.4
2026-01-20T23:11:25+00:00,SAT-56493,263.8237512544374,48.36481882047313,2072.889327725753,-5.916094935400801,207206.66969450048,10.5,10500207206.669695,47.655,-122.3035,60.0,11.416666666666666
2026-01-20T23:11:26+00:00,SAT-56493,263.93695264175994,48.461040588011535,2066.9890090435133,-5.910106846500081,206996.94149160635,10.5,10500206996.941492,47.655,-122.3035,60.0,11.433333333333334
2026-01-20T23:11:27+00:00,SAT-56493,264.05130962170654,48.55749846105719,2061.094662481937,-5.904060160595465,206785.16097377066,10.5,10500206785.160975,47.655,-122.3035,60.0,11.45
2026-01-20T23:11:28+00:00,SAT-56493,264.1668369460173,48.654191936218616,2055.2063464817697,-5.897954287904009,206571.3074843,10.5,10500206571.307484,47.655,-122.3035,60.0,11.466666666666667
2026-01-20T23:11:29+00:00,SAT-56493,264.28354959213084,48.75112045809678,2049.3241200719667,-5.891788621701774,206355.35977315556,10.5,10500206355.359774,47.655,-122.3035,60.0,11.483333333333333
2026-01-20T23:11:30+00:00,SAT-56493,264.40146276658606,48.84828341747858,2043.4480428865897,-5.88556254361083,206137.2961821265,10.5,10500206137.296183,47.655,-122.3035,60.0,11.5
2026-01-20T23:11:31+00:00,SAT-56493,264.52059190864605,48.9456801495787,2037.5781751764284,-5.879275448057594,205917.09550146433,10.5,10500205917.0955,47.655,-122.3035,60.0,11.516666666666667
2026-01-20T23:11:32+00:00,SAT-56493,264.64095269444397,49.043309932638856,2031.7145777962323,-5.872926722583119,205694.7362802661,10.5,10500205694.73628,47.655,-122.3035,60.0,11.533333333333333
2026-01-20T23:11:33+00:00,SAT-56493,264.76256104083654,49.14117198616339,2025.857312211576,-5.86651572750516,205470.1961141537,10.5,10500205470.196114,47.655,-122.3035,60.0,11.55
2026-01-20T23:11:34+00:00,SAT-56493,264.88543310875866,49.23926546875393,2020.006440526011,-5.860041811341113,205243.45218545053,10.5,10500205243.452185,47.655,-122.3035,60.0,11.566666666666666
2026-01-20T23:11:35+00:00,SAT-56493,265.0095853070312,49.337589476158975,2014.1620254928334,-5.853504354624955,205014.4827978362,10.5,10500205014.482798,47.655,-122.3035,60.0,11.583333333333334
2026-01-20T23:11:36+00:00,SAT-56493,265.13503429716263,49.436143040010265,2008.3241304831542,-5.846902701297563,204783.26497334504,10.5,10500204783.264973,47.655,-122.3035,60.0,11.6
2026-01-20T23:11:37+00:00,SAT-56493,265.2617969967326,49.53492512535967,2002.4928195223933,-5.840236182406283,204549.77528242546,10.5,10500204549.775282,47.655,-122.3035,60.0,11.616666666666667
2026-01-20T23:11:38+00:00,SAT-56493,265.3898905832092,49.633934628544615,1996.6681573031403,-5.8335041369554,204313.99057421152,10.5,10500204313.990574,47.655,-122.3035,60.0,11.633333333333333
2026-01-20T23:11:39+00:00,SAT-56493,265.51933249846627,49.73317037537346,1990.8502091772168,-5.826705890887448,204075.88724035947,10.5,10500204075.88724,47.655,-122.3035,60.0,11.65
2026-01-20T23:11:40+00:00,SAT-56493,265.6501404526997,49.83263111888146,1985.039041168705,-5.819840767821374,203835.44159114378,10.5,10500203835.441591,47.655,-122.3035,60.0,11.666666666666666
2026-01-20T23:11:41+00:00,SAT-56493,265.78233242877604,49.932315537227254,1979.2347199762644,-5.812908063739648,203592.62896889256,10.5,10500203592.62897,47.655,-122.3035,60.0,11.683333333333334
2026-01-20T23:11:42+00:00,SAT-56493,265.9159266859056,50.032222231083914,1973.4373130006945,-5.805907091633834,203347.4253116643,10.5,10500203347.425312,47.655,-122.3035,60.0,11.7
2026-01-20T23:11:43+00:00,SAT-56493,266.0509417645187,50.132349721748646,1967.6468883279717,-5.798837151436285,203099.8061001287,10.5,10500203099.8061,47.655,-122.3035,60.0,11.716666666666667
2026-01-20T23:11:44+00:00,SAT-56493,266.1873964904006,50.23269644866692,1961.8635147422729,-5.791697540356818,202849.7467196009,10.5,10500202849.74672,47.655,-122.3035,60.0,11.733333333333333
2026-01-20T23:11:45+00:00,SAT-56493,266.32530997920014,50.333260767083054,1956.0872617286902,-5.784487483597625,202597.2200333841,10.5,10500202597.220034,47.655,-122.3035,60.0,11.75
2026-01-20T23:11:46+00:00,SAT-56493,266.4647016390413,50.43404094439255,1950.3181995450489,-5.777206335392306,202342.2034240075,10.5,10500202342.203424,47.655,-122.3035,60.0,11.766666666666667
2026-01-20T23:11:47+00:00,SAT-56493,266.6055911785441,50.53503515997795,1944.5563990932176,-5.769853285420781,202084.6685106341,10.5,10500202084.66851,47.655,-122.3035,60.0,11.783333333333333
2026-01-20T23:11:48+00:00,SAT-56493,266.74799860711096,50.636241499802736,1938.8019320832248,-5.762427637102801,201824.59089607725,10.5,10500201824.590897,47.655,-122.3035,60.0,11.8
2026-01-20T23:11:49+00:00,SAT-56493,266.8919442426192,50.737657955844085,1933.0548709198208,-5.75492860745975,201561.9431571136,10.5,10500201561.943157,47.655,-122.3035,60.0,11.816666666666666
2026-01-20T23:11:50+00:00,SAT-56493,267.0374487137746,50.83928242191565,1927.3152887886476,-5.747355429656093,201296.69843591918,10.5,10500201296.698437,47.655,-122.3035,60.0,11.833333333333334
2026-01-20T23:11:51+00:00,SAT-56493,267.1845329652794,50.941112691234004,1921.5832596401372,-5.7397073766544855,201028.8312685708,10.5,10500201028.831268,47.655,-122.3035,60.0,11.85
2026-01-20T23:11:52+00:00,SAT-56493,267.33321826367785,51.04314645434127,1915.8588581498204,-5.731983620831231,200758.3126681857,10.5,10500200758.312668,47.655,-122.3035,60.0,11.866666666666667
2026-01-20T23:11:53+00:00,SAT-56493,267.4835261993379,51.1453812944361,1910.1421598186448,-5.724183403326553,200485.1160562845,10.5,10500200485.116056,47.655,-122.3035,60.0,11.883333333333333
2026-01-20T23:11:54+00:00,SAT-56493,267.63547869313993,51.24781468565985,1904.4332409043939,-5.716305898675663,200209.21252159873,10.5,10500200209.212523,47.655,-122.3035,60.0,11.9
2026-01-20T23:11:55+00:00,SAT-56493,267.7890979994055,51.35044398887336,1898.7321784881146,-5.7083503496341645,199930.57554222638,10.5,10500199930.575542,47.655,-122.3035,60.0,11.916666666666666
2026-01-20T23:11:56+00:00,SAT-56493,267.9444067126543,51.453266449785446,1893.0390504060795,-5.700315893791986,199649.17491291877,10.5,10500199649.174913,47.655,-122.3035,60.0,11.933333333333334
2026-01-20T23:11:57+00:00,SAT-56493,268.10142776939654,51.55627919385858,1887.353935354671,-5.692201731930852,199364.9826416712,10.5,10500199364.982641,47.655,-122.3035,60.0,11.95
2026-01-20T23:11:58+00:00,SAT-56493,268.26018445474955,51.659479224178824,1881.6769128273586,-5.684007027004926,199077.9694115978,10.5,10500199077.969412,47.655,-122.3035,60.0,11.966666666666667
2026-01-20T23:11:59+00:00,SAT-56493,268.4207004061829,51.76286341741015,1876.0080631524256,-5.675730937544064,198788.10575085474,10.5,10500198788.105751,47.655,-122.3035,60.0,11.983333333333333
2026-01-20T23:12:00+00:00,SAT-56493,268.5829996181469,51.86642852026034,1870.3474674973816,-5.66737260823295,198495.36170268155,10.5,10500198495.361702,47.655,-122.3035,60.0,12.0
2026-01-20T23:12:01+00:00,SAT-56493,268.7471064464664,51.97017114568842,1864.6952078827708,-5.658931193459698,198199.7076501732,10.5,10500198199.70765,47.655,-122.3035,60.0,12.016666666666667
2026-01-20T23:12:02+00:00,SAT-56493,268.913045613394,52.074087769449335,1859.0513671724937,-5.650405809714993,197901.11264909615,10.5,10500197901.11265,47.655,-122.3035,60.0,12.033333333333333
2026-01-20T23:12:03+00:00,SAT-56493,269.08084221119054,52.17817472566744,1853.4160291116045,-5.641795587855869,197599.54625838727,10.5,10500197599.546259,47.655,-122.3035,60.0,12.05
2026-01-20T23:12:04+00:00,SAT-56493,269.2505217072575,52.28242820327643,1847.789278311983,-5.633099625555915,197294.97687475884,10.5,10500197294.976875,47.655,-122.3035,60.0,12.066666666666666
2026-01-20T23:12:05+00:00,SAT-56493,269.4221099477729,52.38684424148044,1842.1712002854285,-5.624317034500594,196987.37338567816,10.5,10500196987.373386,47.655,-122.3035,60.0,12.083333333333334
2026-01-20T23:12:06+00:00,SAT-56493,269.5956331626927,52.49141872598556,1836.5618814296865,-5.615446912249143,196676.70418385245,10.5,10500196676.704184,47.655,-122.3035,60.0,12.1
2026-01-20T23:12:07+00:00,SAT-56493,269.77111796994757,52.596147384618725,1830.9614090425368,-5.606488350992228,196362.9374739587,10.5,10500196362.937473,47.655,-122.3035,60.0,12.116666666666667
2026-01-20T23:12:08+00:00,SAT-56493,269.9485913796818,52.701025782989454,1825.3698713271472,-5.597440381486388,196046.03930899114,10.5,10500196046.039309,47.655,-122.3035,60.0,12.133333333333333
2026-01-20T23:12:09+00:00,SAT-56493,270.1280807966273,52.80604931899559,1819.7873574533446,-5.588302118921265,195725.9786991482,10.5,10500195725.978699,47.655,-122.3035,60.0,12.15
2026-01-20T23:12:10+00:00,SAT-56493,270.3096140272886,52.91121321996934,1814.2139574734072,-5.579072574365986,195402.72100788757,10.5,10500195402.721008,47.655,-122.3035,60.0,12.166666666666666
2026-01-20T23:12:11+00:00,SAT-56493,270.49321928061363,53.01651253615114,1808.6497624259061,-5.569750828747791,195076.2340453935,10.5,10500195076.234045,47.655,-122.3035,60.0,12.183333333333334
2026-01-20T23:12:12+00:00,SAT-56493,270.6789251745187,53.12194213734211,1803.094864266035,-5.5603358779514735,194746.4826433041,10.5,10500194746.482643,47.655,-122.3035,60.0,12.2
2026-01-20T23:12:13+00:00,SAT-56493,270.86676073691376,53.22749670650156,1797.549355950425,-5.550826777975838,194413.4337387043,10.5,10500194413.433739,47.655,-122.3035,60.0,12.216666666666667
2026-01-20T23:12:14+00:00,SAT-56493,271.05675541168347,53.333170735990414,1792.0133313771903,-5.541222532511932,194077.05243664028,10.5,10500194077.052437,47.655,-122.3035,60.0,12.233333333333333
2026-01-20T23:12:15+00:00,SAT-56493,271.24893906056667,53.438958521553424,1786.4868854380984,-5.53152211179546,193737.3026704105,10.5,10500193737.30267,47.655,-122.3035,60.0,12.25
2026-01-20T23:12:16+00:00,SAT-56493,271.4433419654097,53.544854156529595,1780.9701140519344,-5.521724564304083,193394.1511136777,10.5,10500193394.151114,47.655,-122.3035,60.0,12.266666666666667
2026-01-20T23:12:17+00:00,SAT-56493,271.6399948345162,53.650851528099395,1775.4631140864685,-5.5118288302458485,193047.56064804478,10.5,10500193047.560648,47.655,-122.3035,60.0,12.283333333333333
2026-01-20T23:12:18+00:00,SAT-56493,271.8389288017247,53.756944309806556,1769.9659834664367,-5.501833913912011,192697.49639957963,10.5,10500192697.496399,47.655,-122.3035,60.0,12.3
2026-01-20T23:12:19+00:00,SAT-56493,272.0401754318608,53.863125957287146,1764.4788211096284,-5.49173873486851,192343.92052691116,10.5,10500192343.920527,47.655,-122.3035,60.0,12.316666666666666
2026-01-20T23:12:20+00:00,SAT-56493,272.2437667201565,53.96938970098055,1759.001727011386,-5.48154227644787,191986.797422044,10.5,10500191986.797422,47.655,-122.3035,60.0,12.333333333333334
2026-01-20T23:12:21+00:00,SAT-56493,272.4497350973077,54.0757285416055,1753.5348021810087,-5.471243469463698,191626.08963754796,10.5,10500191626.089638,47.655,-122.3035,60.0,12.35
2026-01-20T23:12:22+00:00,SAT-56493,272.65811342955334,54.18213524323186,1748.0781486941303,-5.460841243683427,191261.75968935143,10.5,10500191261.75969,47.655,-122.3035,60.0,12.366666666666667
2026-01-20T23:12:23+00:00,SAT-56493,272.8689350206829,54.288602327235374,1742.6318696937633,-5.4503345225245345,190893.7698709806,10.5,10500190893.76987,47.655,-122.3035,60.0,12.383333333333333
2026-01-20T23:12:24+00:00,SAT-56493,273.082233613315,54.39512206600295,1737.1960693966323,-5.439722191448116,190522.08114656847,10.5,10500190522.081146,47.655,-122.3035,60.0,12.4
2026-01-20T23:12:25+00:00,SAT-56493,273.29804338868234,54.5016864758912,1731.770853131028,-5.429003193645462,190146.6565022038,10.5,10500190146.656502,47.655,-122.3035,60.0,12.416666666666666
2026-01-20T23:12:26+00:00,SAT-56493,273.51639896998626,54.60828731193083,1726.3563272792321,-5.418176370210589,189767.45534809682,10.5,10500189767.455349,47.655,-122.3035,60.0,12.433333333333334
2026-01-20T23:12:27+00:00,SAT-56493,273.73733541865766,54.714916059243485,1720.9525993793422,-5.407240619880551,189384.43911336086,10.5,10500189384.439114,47.655,-122.3035,60.0,12.45
2026-01-20T23:12:28+00:00,SAT-56493,273.9608882369215,54.821563927471445,1715.5597780677813,-5.396194798770305,188997.56773430304,10.5,10500188997.567734,47.655,-122.3035,60.0,12.466666666666667
2026-01-20T23:12:29+00:00,SAT-56493,274.18709336573863,54.92822184309635,1710.1779731218078,-5.385037783620143,188606.80186961705,10.5,10500188606.80187,47.655,-122.3035,60.0,12.483333333333333
2026-01-20T23:12:30+00:00,SAT-56493,274.4159871849031,55.03488044286464,1704.8072954389438,-5.373768377134676,188212.09958495386,10.5,10500188212.099585,47.655,-122.3035,60.0,12.5
2026-01-20T23:12:31+00:00,SAT-56493,274.6476065085111,55.1415300651973,1699.447857110815,-5.362385443418584,187813.42109645443,10.5,10500187813.421097,47.655,-122.3035,60.0,12.516666666666667
2026-01-20T23:12:32+00:00,SAT-56493,274.88198858592324,55.24816074415837,1694.0997713619122,-5.350887794972924,187410.72481288272,10.5,10500187410.724813,47.655,-122.3035,60.0,12.533333333333333
2026-01-20T23:12:33+00:00,SAT-56493,275.11917109710953,55.354762201034106,1688.7631526010591,-5.339274242354053,187003.96907489098,10.5,10500187003.969074,47.655,-122.3035,60.0,12.55
2026-01-20T23:12:34+00:00,SAT-56493,275.3591921495522,55.46132383676367,1683.4381164233514,-5.327543585230988,186593.1118418108,10.5,10500186593.111841,47.655,-122.3035,60.0,12.566666666666666
2026-01-20T23:12:35+00:00,SAT-56493,275.60209027419216,55.567834724058656,1678.1247796210143,-5.315694612296215,186178.11068852927,10.5,10500186178.11069,47.655,-122.3035,60.0,12.583333333333334
2026-01-20T23:12:36+00:00,SAT-56493,275.84790442061393,55.67428359938365,1672.823260194351,-5.303726101322358,185758.92280747354,10.5,10500185758.922808,47.655,-122.3035,60.0,12.6
2026-01-20T23:12:37+00:00,SAT-56493,276.0966739515511,55.7806588548061,1667.533677362632,-5.291636819089755,185335.50500607464,10.5,10500185335.505007,47.655,-122.3035,60.0,12.616666666666667
2026-01-20T23:12:38+00:00,SAT-56493,276.34843863658955,55.886948529713315,1662.25615157506,-5.279425525939343,184907.8138662284,10.5,10500184907.813866,47.655,-122.3035,60.0,12.633333333333333
2026-01-20T23:12:39+00:00,SAT-56493,276.60323864535223,55.993140302494844,1656.9908045171896,-5.267090953545163,184475.80496579476,10.5,10500184475.804966,47.655,-122.3035,60.0,12.65
2026-01-20T23:12:40+00:00,SAT-56493,276.8611145385958,56.0992214816455,1651.7377591395207,-5.254631853666611,184039.43458610764,10.5,10500184039.434586,47.655,-122.3035,60.0,12.666666666666666
2026-01-20T23:12:41+00:00,SAT-56493,277.1221072610097,56.20517899773564,1646.497139637464,-5.242046931880387,183598.65739098768,10.5,10500183598.65739,47.655,-122.3035,60.0,12.683333333333334
2026-01-20T23:12:42+00:00,SAT-56493,277.38625812956,56.31099939392019,1641.269071497402,-5.229334909406198,183153.42859213983,10.5,10500183153.428593,47.655,-122.3035,60.0,12.7
2026-01-20T23:12:43+00:00,SAT-56493,277.6536088240996,56.416668817583634,1636.0536814810873,-5.216494496535244,182703.70301850644,10.5,10500182703.703018,47.655,-122.3035,60.0,12.716666666666667
2026-01-20T23:12:44+00:00,SAT-56493,277.92420137551204,56.52217301133889,1630.851097636543,-5.2035243709493155,182249.43435691038,10.5,10500182249.434357,47.655,-122.3035,60.0,12.733333333333333
2026-01-20T23:12:45+00:00,SAT-56493,278.19807815160226,56.62749730347996,1625.6614493305829,-5.1904232171299265,181790.57653232967,10.5,10500181790.576532,47.655,-122.3035,60.0,12.75
2026-01-20T23:12:46+00:00,SAT-56493,278.4752818438769,56.73262659913503,1620.484867242032,-5.177189708896651,181327.08309631603,10.5,10500181327.083096,47.655,-122.3035,60.0,12.766666666666667
2026-01-20T23:12:47+00:00,SAT-56493,278.75585545226295,56.83754537097517,1615.321483372359,-5.163822487789736,180858.90646986268,10.5,10500180858.90647,47.655,-122.3035,60.0,12.783333333333333
2026-01-20T23:12:48+00:00,SAT-56493,279.0398422671656,56.94223764939432,1610.17143107787,-5.150320236826263,180386.0005266569,10.5,10500180386.000526,47.655,-122.3035,60.0,12.8
2026-01-20T23:12:49+00:00,SAT-56493,279.3272858546341,57.04668701411993,1605.034845028342,-5.136681546377389,179908.31589553392,10.5,10500179908.315895,47.655,-122.3035,60.0,12.816666666666666
2026-01-20T23:12:50+00:00,SAT-56493,279.6182300319938,57.15087658301498,1599.9118612994216,-5.122905091519513,179425.80617206483,10.5,10500179425.806171,47.655,-122.3035,60.0,12.833333333333334
2026-01-20T23:12:51+00:00,SAT-56493,279.9127188528206,57.254789004443005,1594.8026172881462,-5.108989455101886,178938.42172163585,10.5,10500178938.421722,47.655,-122.3035,60.0,12.85
2026-01-20T23:12:52+00:00,SAT-56493,280.21079657947143,57.3584064459722,1589.7072518049242,-5.094933265803494,178446.11451478436,10.5,10500178446.114515,47.655,-122.3035,60.0,12.866666666666667
2026-01-20T23:12:53+00:00,SAT-56493,280.5125076626423,57.46171058586193,1584.6259050278297,-5.08073509514308,177948.8345200543,10.5,10500177948.83452,47.655,-122.3035,60.0,12.883333333333333
2026-01-20T23:12:54+00:00,SAT-56493,280.8178967126591,57.56468260242153,1579.558718559607,-5.066393572893828,177446.53374630655,10.5,10500177446.533747,47.655,-122.3035,60.0,12.9
2026-01-20T23:12:55+00:00,SAT-56493,281.12700847649705,57.66730316570939,1574.5058353695745,-5.0519072381787735,176939.1610274503,10.5,10500176939.161028,47.655,-122.3035,60.0,12.916666666666666
2026-01-20T23:12:56+00:00,SAT-56493,281.4398878033095,57.76955242620252,1569.4673998840308,-5.037274663107216,176426.66635271313,10.5,10500176426.666353,47.655,-122.3035,60.0,12.933333333333334
2026-01-20T23:12:57+00:00,SAT-56493,281.75657961607914,57.871410006003806,1564.4435579533583,-5.02249443119036,175909.00011066583,10.5,10500175909.00011,47.655,-122.3035,60.0,12.95
2026-01-20T23:12:58+00:00,SAT-56493,282.077128879943,57.972854989636964,1559.4344568406511,-5.007565057685244,175386.11029932936,10.5,10500175386.1103,47.655,-122.3035,60.0,12.966666666666667
2026-01-20T23:12:59+00:00,SAT-56493,282.4015805631778,58.07386591328323,1554.4402452897864,-4.992485119990208,174857.947093176,10.5,10500174857.947094,47.655,-122.3035,60.0,12.983333333333333
2026-01-20T23:13:00+00:00,SAT-56493,282.7299796047815,58.17442075672723,1549.4610734634496,-4.97725310286885,174324.45742221747,10.5,10500174324.457422,47.655,-122.3035,60.0,13.0
2026-01-20T23:13:01+00:00,SAT-56493,283.06237086938745,58.2744969322668,1544.4970930355216,-4.961867574029282,173785.59112153336,10.5,10500173785.591122,47.655,-122.3035,60.0,13.016666666666667
2026-01-20T23:13:02+00:00,SAT-56493,283.3987991119334,58.374071277276684,1539.5484571083566,-4.946327009320419,173241.29480890543,10.5,10500173241.29481,47.655,-122.3035,60.0,13.033333333333333
2026-01-20T23:13:03+00:00,SAT-56493,283.7393089278457,58.47312004338668,1534.6153203043943,-4.930629942595569,172691.5171336748,10.5,10500172691.517134,47.655,-122.3035,60.0,13.05
2026-01-20T23:13:04+00:00,SAT-56493,284.0839447114354,58.57161888883193,1529.6978387083122,-4.914774862128858,172136.20514880665,10.5,10500172136.205149,47.655,-122.3035,60.0,13.066666666666666
2026-01-20T23:13:05+00:00,SAT-56493,284.4327506043728,58.66954286890832,1524.7961699124824,-4.89876023616801,171575.30520585715,10.5,10500171575.305206,47.655,-122.3035,60.0,13.083333333333334
2026-01-20T23:13:06+00:00,SAT-56493,284.78577044328665,58.766866427157716,1519.9104730369443,-4.88258457033371,171008.7649653413,10.5,10500171008.764965,47.655,-122.3035,60.0,13.1
2026-01-20T23:13:07+00:00,SAT-56493,285.1430477092318,58.86356338793512,1515.0409086921313,-4.866246329957518,170436.53067667875,10.5,10500170436.530676,47.655,-122.3035,60.0,13.116666666666667
2026-01-20T23:13:08+00:00,SAT-56493,285.50462546851276,58.959606947698354,1510.1876390190537,-4.849743985452428,169858.54876726252,10.5,10500169858.548767,47.655,-122.3035,60.0,13.133333333333333
2026-01-20T23:13:09+00:00,SAT-56493,285.87054631429123,59.05496966750427,1505.3508276842292,-4.833075980189827,169274.76471737388,10.5,10500169274.764717,47.655,-122.3035,60.0,13.15
2026-01-20T23:13:10+00:00,SAT-56493,286.2408523026577,59.14962346521081,1500.5306399066533,-4.816240799309397,168685.12547019665,10.5,10500168685.125471,47.655,-122.3035,60.0,13.166666666666666
2026-01-20T23:13:11+00:00,SAT-56493,286.6155848916952,59.2435396093933,1495.727242416142,-4.799236845262948,168089.57507283572,10.5,10500168089.575073,47.655,-122.3035,60.0,13.183333333333334
2026-01-20T23:13:12+00:00,SAT-56493,286.99478486714577,59.336688711242935,1490.9408035357997,-4.782062598909429,167488.06031854547,10.5,10500167488.060318,47.655,-122.3035,60.0,13.2
2026-01-20T23:13:13+00:00,SAT-56493,287.37849227862876,59.429040720046906,1486.171493103821,-4.764716479296319,166880.52583568112,10.5,10500166880.525835,47.655,-122.3035,60.0,13.216666666666667
2026-01-20T23:13:14+00:00,SAT-56493,287.76674636115655,59.52056491642764,1481.419482535136,-4.747196908438591,166266.91635653222,10.5,10500166266.916357,47.655,-122.3035,60.0,13.233333333333333
2026-01-20T23:13:15+00:00,SAT-56493,288.15958545898417,59.611229907375225,1476.6849448184532,-4.729502327254705,165647.17727546833,10.5,10500165647.177275,47.655,-122.3035,60.0,13.25
2026-01-20T23:13:16+00:00,SAT-56493,288.5570469477841,59.7010036221484,1471.9680544974044,-4.711631136644882,165021.25258525103,10.5,10500165021.252584,47.655,-122.3035,60.0,13.266666666666667
2026-01-20T23:13:17+00:00,SAT-56493,288.95916714879036,59.789853307668984,1467.2689877104574,-4.693581780680581,164389.0877906812,10.5,10500164389.087791,47.655,-122.3035,60.0,13.283333333333333
2026-01-20T23:13:18+00:00,SAT-56493,289.3659812470662,59.87774552615394,1462.5879221478585,-4.675352644854068,163750.6263448686,10.5,10500163750.626345,47.655,-122.3035,60.0,13.3
2026-01-20T23:13:19+00:00,SAT-56493,289.777523197765,59.96464615154399,1457.9250371100575,-4.656942158470477,163105.81323543505,10.5,10500163105.813236,47.655,-122.3035,60.0,13.316666666666666
2026-01-20T23:13:20+00:00,SAT-56493,290.19382563844255,60.050520368612474,1453.2805134640093,-4.638348716912794,162454.5922619052,10.5,10500162454.592262,47.655,-122.3035,60.0,13.333333333333334
2026-01-20T23:13:21+00:00,SAT-56493,290.61491979142136,60.13533267143464,1448.6545336770084,-4.619570721289863,161796.90742434742,10.5,10500161796.907425,47.655,-122.3035,60.0,13.35
2026-01-20T23:13:22+00:00,SAT-56493,291.04083536670714,60.219046863461465,1444.0472818109754,-4.600606597693598,161132.70359784295,10.5,10500161132.703598,47.655,-122.3035,60.0,13.366666666666667
2026-01-20T23:13:23+00:00,SAT-56493,291.47160046412307,60.3016260588406,1439.4589434975424,-4.581454717382809,160461.92373698571,10.5,10500160461.923737,47.655,-122.3035,60.0,13.383333333333333
2026-01-20T23:13:24+00:00,SAT-56493,291.9072414646278,60.383032683288626,1434.8897059927392,-4.562113512110978,159784.512915149,10.5,10500159784.512915,47.655,-122.3035,60.0,13.4
2026-01-20T23:13:25+00:00,SAT-56493,292.34778293043877,60.463228478037735,1430.3397581166605,-4.542581352570756,159100.4140670975,10.5,10500159100.414066,47.655,-122.3035,60.0,13.416666666666666
2026-01-20T23:13:26+00:00,SAT-56493,292.79324749031275,60.54217450272112,1425.8092903143634,-4.522856674338457,158409.5724000962,10.5,10500158409.572401,47.655,-122.3035,60.0,13.433333333333334
2026-01-20T23:13:27+00:00,SAT-56493,293.2436557352139,60.61983114159204,1421.2984945911562,-4.502937838204071,157711.9305020767,10.5,10500157711.930502,47.655,-122.3035,60.0,13.45
2026-01-20T23:13:28+00:00,SAT-56493,293.6990260971066,60.69615810854198,1416.8075645871875,-4.482823287245231,157007.4338430319,10.5,10500157007.433844,47.655,-122.3035,60.0,13.466666666666667
2026-01-20T23:13:29+00:00,SAT-56493,294.1593747422256,60.771114456032805,1412.336695495375,-4.462511415572596,156296.02617792424,10.5,10500156296.026178,47.655,-122.3035,60.0,13.483333333333333
2026-01-20T23:13:30+00:00,SAT-56493,294.62471544840685,60.84465858312319,1407.886084110244,-4.4420006109715215,155577.65104017718,10.5,10500155577.651041,47.655,-122.3035,60.0,13.5
2026-01-20T23:13:31+00:00,SAT-56493,295.0950594851309,60.91674824560505,1403.4559288342348,-4.421289323634465,154852.25414897487,10.5,10500154852.254148,47.655,-122.3035,60.0,13.516666666666667
2026-01-20T23:13:32+00:00,SAT-56493,295.57041549973275,60.98734056864786,1399.0464296154635,-4.40037593796534,154119.77891930848,10.5,10500154119.77892,47.655,-122.3035,60.0,13.533333333333333
2026-01-20T23:13:33+00:00,SAT-56493,296.05078938823743,61.056392058866216,1394.6577880133327,-4.3792589060187215,153380.1711355813,10.5,10500153380.171135,47.655,-122.3035,60.0,13.55
2026-01-20T23:13:34+00:00,SAT-56493,296.53618418000667,61.123858620040885,1390.2902071310634,-4.357936627104102,152633.37473484097,10.5,10500152633.374735,47.655,-122.3035,60.0,13.566666666666666
2026-01-20T23:13:35+00:00,SAT-56493,297.0265999082978,61.189695568539975,1385.9438916682982,-4.336407565372953,151879.3359251753,10.5,10500151879.335926,47.655,-122.3035,60.0,13.583333333333334
2026-01-20T23:13:36+00:00,SAT-56493,297.52203349402726,61.25385765216336,1381.6190478564329,-4.314670141615698,151117.99939598492,10.5,10500151117.999395,47.655,-122.3035,60.0,13.6
2026-01-20T23:13:37+00:00,SAT-56493,298.0224786169906,61.316299069051645,1377.3158835018614,-4.292722813844767,150349.31114034247,10.5,10500150349.31114,47.655,-122.3035,60.0,13.616666666666667
2026-01-20T23:13:38+00:00,SAT-56493,298.52792559701754,61.37697348951233,1373.0346079488536,-4.270564041860512,149573.2172139413,10.5,10500149573.217215,47.655,-122.3035,60.0,13.633333333333333
2026-01-20T23:13:39+00:00,SAT-56493,299.0383612719677,61.43583407907958,1368.7754320777715,-4.248192288382496,148789.6637747178,10.5,10500148789.663774,47.655,-122.3035,60.0,13.65
2026-01-20T23:13:40+00:00,SAT-56493,299.5537688770573,61.492833523414745,1364.538568302158,-4.225606058550884,147998.59846635727,10.5,10500147998.598467,47.655,-122.3035,60.0,13.666666666666666
2026-01-20T23:13:41+00:00,SAT-56493,300.0741279311195,61.54792405554121,1360.3242305264298,-4.20280380610906,147199.96713241242,10.5,10500147199.967133,47.655,-122.3035,60.0,13.683333333333334
2026-01-20T23:13:42+00:00,SAT-56493,300.59941411312303,61.60105748375396,1356.1326341971371,-4.179784070967551,146393.71863437368,10.5,10500146393.718634,47.655,-122.3035,60.0,13.7
2026-01-20T23:13:43+00:00,SAT-56493,301.12959915929537,61.652185223149935,1351.9639962170254,-4.156545354271655,145579.80047600923,10.5,10500145579.800476,47.655,-122.3035,60.0,13.716666666666667
2026-01-20T23:13:44+00:00,SAT-56493,301.66465074745355,61.7012583274994,1347.8185349836986,-4.133086199519676,144758.1616444687,10.5,10500144758.161644,47.655,-122.3035,60.0,13.733333333333333
2026-01-20T23:13:45+00:00,SAT-56493,302.2045323958666,61.74822752402912,1343.6964703473777,-4.109405138515778,143928.75071732348,10.5,10500143928.750717,47.655,-122.3035,60.0,13.75
2026-01-20T23:13:46+00:00,SAT-56493,302.74920335933587,61.79304324951445,1339.5980236225646,-4.0855007403882935,143091.51757939515,10.5,10500143091.51758,47.655,-122.3035,60.0,13.766666666666667
2026-01-20T23:13:47+00:00,SAT-56493,303.29861853712146,61.8356556888309,1335.5234175508174,-4.061371618588421,142246.4136678796,10.5,10500142246.413668,47.655,-122.3035,60.0,13.783333333333333
2026-01-20T23:13:48+00:00,SAT-56493,303.8527283878644,61.87601481541164,1331.472876256545,-4.037016334848624,141393.3886085638,10.5,10500141393.388609,47.655,-122.3035,60.0,13.8
2026-01-20T23:13:49+00:00,SAT-56493,304.411478836853,61.914070432731364,1327.4466252985894,-4.0124335280087235,140532.3947278607,10.5,10500140532.394728,47.655,-122.3035,60.0,13.816666666666666
2026-01-20T23:13:50+00:00,SAT-56493,304.9748112088464,61.94977221886224,1323.444891593322,-3.987621844506685,139663.38461830214,10.5,10500139663.384619,47.655,-122.3035,60.0,13.833333333333334
2026-01-20T23:13:51+00:00,SAT-56493,305.54266215839584,61.98306977219932,1319.4679034070673,-3.962579946193757,138786.31141225857,10.5,10500138786.311413,47.655,-122.3035,60.0,13.85
2026-01-20T23:13:52+00:00,SAT-56493,306.1149636096301,62.0139126590459,1315.51589034073,-3.937306521887841,137901.12918658656,10.5,10500137901.129187,47.655,-122.3035,60.0,13.866666666666667
2026-01-20T23:13:53+00:00,SAT-56493,306.69164270625663,62.04225046305898,1311.5890833029007,-3.9118002848344213,137007.79287370006,10.5,10500137007.792873,47.655,-122.3035,60.0,13.883333333333333
2026-01-20T23:13:54+00:00,SAT-56493,307.2726217708959,62.06803283630997,1307.6877144854925,-3.886059977461721,136106.25842811586,10.5,10500136106.258429,47.655,-122.3035,60.0,13.9
2026-01-20T23:13:55+00:00,SAT-56493,307.85781827491013,62.09120955199683,1303.8120173346372,-3.860084362733095,135196.48252357802,10.5,10500135196.482523,47.655,-122.3035,60.0,13.916666666666666
2026-01-20T23:13:56+00:00,SAT-56493,308.447144817604,62.11173055860583,1299.9622265302048,-3.8338722259481544,134278.4226161407,10.5,10500134278.422617,47.655,-122.3035,60.0,13.933333333333334
2026-01-20T23:13:57+00:00,SAT-56493,309.0405091165362,62.1295460355556,1296.138577963526,-3.8074224072665475,133352.03808328876,10.5,10500133352.038084,47.655,-122.3035,60.0,13.95
2026-01-20T23:13:58+00:00,SAT-56493,309.63781401497715,62.144606450243515,1292.3413086826788,-3.7807337588012513,132417.28872116303,10.5,10500132417.288721,47.655,-122.3035,60.0,13.966666666666667
2026-01-20T23:13:59+00:00,SAT-56493,310.2389574942786,62.15686261615391,1288.5706568805676,-3.7538051589051413,131474.13524493662,10.5,10500131474.135244,47.655,-122.3035,60.0,13.983333333333333
2026-01-20T23:14:00+00:00,SAT-56493,310.843832701135,62.166265752126165,1284.8268618687528,-3.7266355414309724,130522.54031362326,10.5,10500130522.540314,47.655,-122.3035,60.0,14.0
2026-01-20T23:14:01+00:00,SAT-56493,311.452327992529,62.17276754263501,1281.110164022099,-3.699223847532337,129562.46684194283,10.5,10500129562.466843,47.655,-122.3035,60.0,14.016666666666667
2026-01-20T23:14:02+00:00,SAT-56493,312.0643269858609,62.176320198805534,1277.4208047714935,-3.671569088639452,128593.88020599989,10.5,10500128593.880205,47.655,-122.3035,60.0,14.033333333333333
2026-01-20T23:14:03+00:00,SAT-56493,312.67970863322586,62.17687652015141,1273.7590265337572,-3.643670289241245,127616.7462392702,10.5,10500127616.746239,47.655,-122.3035,60.0,14.05
2026-01-20T23:14:04+00:00,SAT-56493,313.2983472997503,62.17438995676149,1270.1250726986204,-3.6155265051736354,126631.03187313395,10.5,10500126631.031874,47.655,-122.3035,60.0,14.066666666666666
2026-01-20T23:14:05+00:00,SAT-56493,313.92011285831387,62.16881467197813,1266.5191875974606,-3.5871368681723728,125636.70669730428,10.5,10500125636.706697,47.655,-122.3035,60.0,14.083333333333334
2026-01-20T23:14:06+00:00,SAT-56493,314.5448708069187,62.160105604989916,1262.9416164276033,-3.558500514318992,124633.7404537022,10.5,10500124633.740454,47.655,-122.3035,60.0,14.1
2026-01-20T23:14:07+00:00,SAT-56493,315.1724823863656,62.14821853373419,1259.3926052479892,-3.529616666938067,123622.10593986892,10.5,10500123622.10594,47.655,-122.3035,60.0,14.116666666666667
2026-01-20T23:14:08+00:00,SAT-56493,315.80280472751735,62.13311013719922,1255.872400892163,-3.5004845311456747,122601.77531560713,10.5,10500122601.775316,47.655,-122.3035,60.0,14.133333333333333
2026-01-20T23:14:09+00:00,SAT-56493,316.43569099209384,62.1147380579702,1252.3812509864335,-3.471103425300182,121572.72470694348,10.5,10500121572.724707,47.655,-122.3035,60.0,14.15
2026-01-20T23:14:10+00:00,SAT-56493,317.0709905519262,62.09306096341381,1248.9194038369344,-3.4414726842069645,120534.93081594844,10.5,10500120534.930817,47.655,-122.3035,60.0,14.166666666666666
2026-01-20T23:14:11+00:00,SAT-56493,317.7085491628859,62.06803860668154,1245.4871084132185,-3.411591673221249,119488.37141467755,10.5,10500119488.371414,47.655,-122.3035,60.0,14.183333333333334
2026-01-20T23:14:12+00:00,SAT-56493,318.3482091540134,62.03963188679387,1242.0846143177926,-3.3814598680990997,118433.02814189057,10.5,10500118433.028141,47.655,-122.3035,60.0,14.2
2026-01-20T23:14:13+00:00,SAT-56493,318.9898096445122,62.00780290678667,1238.7121716760084,-3.3510767302884124,117368.88213521478,10.5,10500117368.882135,47.655,-122.3035,60.0,14.216666666666667
2026-01-20T23:14:14+00:00,SAT-56493,319.63318674797057,61.97251503172781,1235.370031150334,-3.320441826248502,116295.91821022151,10.5,10500116295.918211,47.655,-122.3035,60.0,14.233333333333333
2026-01-20T23:14:15+00:00,SAT-56493,320.27817381085634,61.93373294403968,1232.0584438356223,-3.2895547400144483,115214.12179805973,10.5,10500115214.121798,47.655,-122.3035,60.0,14.25
2026-01-20T23:14:16+00:00,SAT-56493,320.9246016440456,61.891422698064964,1228.7776612415812,-3.258415148683993,114123.48158932646,10.5,10500114123.48159,47.655,-122.3035,60.0,14.266666666666667
2026-01-20T23:14:17+00:00,SAT-56493,321.5722987789967,61.845551771783846,1225.5279351999604,-3.2270227670955323,113023.9875964561,10.5,10500113023.987597,47.655,-122.3035,60.0,14.283333333333333
2026-01-20T23:14:18+00:00,SAT-56493,322.22109172113323,61.79608911724035,1222.3095178269105,-3.195377384394021,111915.63243441308,10.5,10500111915.632435,47.655,-122.3035,60.0,14.3
2026-01-20T23:14:19+00:00,SAT-56493,322.87080521837606,61.74300520820335,1219.1226614488749,-3.1634788182030165,110798.40971560289,10.5,10500110798.409716,47.655,-122.3035,60.0,14.316666666666666
2026-01-20T23:14:20+00:00,SAT-56493,323.5212625267072,61.686272086270314,1215.9676185741869,-3.13132701005717,109672.31739232174,10.5,10500109672.317392,47.655,-122.3035,60.0,14.333333333333334
2026-01-20T23:14:21+00:00,SAT-56493,324.17228570169345,61.625863402618045,1212.84464176949,-3.0989219078098302,108537.35363817331,10.5,10500108537.353638,47.655,-122.3035,60.0,14.35
2026-01-20T23:14:22+00:00,SAT-56493,324.8236958690989,61.561754459431306,1209.7539836534343,-3.0662635722008837,107393.52058052534,10.5,10500107393.52058,47.655,-122.3035,60.0,14.366666666666667
2026-01-20T23:14:23+00:00,SAT-56493,325.47531352228435,61.49392224627283,1206.6958967840926,-3.0333521002522774,106240.82161749684,10.5,10500106240.821617,47.655,-122.3035,60.0,14.383333333333333
2026-01-20T23:14:24+00:00,SAT-56493,326.12695880463366,61.42234547533951,1203.6706336227744,-3.000187664750095,105079.26280078733,10.5,10500105079.2628,47.655,-122.3035,60.0,14.4
2026-01-20T23:14:25+00:00,SAT-56493,326.7784518019116,61.34700461282118,1200.6784464584637,-2.966770541502916,103908.85379037994,10.5,10500103908.85379,47.655,-122.3035,60.0,14.416666666666666
2026-01-20T23:14:26+00:00,SAT-56493,327.42961284106786,61.26788190626604,1197.7195873050714,-2.9331010292166564,102729.60504821937,10.5,10500102729.60505,47.655,-122.3035,60.0,14.433333333333334
2026-01-20T23:14:27+00:00,SAT-56493,328.08026276883146,61.184961411205435,1194.7943078785993,-2.899179549226595,101541.53133124934,10.5,10500101541.531332,47.655,-122.3035,60.0,14.45
2026-01-20T23:14:28+00:00,SAT-56493,328.7302232513882,61.09822901154091,1191.9028594748372,-2.8650065590751117,100344.64866453937,10.5,10500100344.648664,47.655,-122.3035,60.0,14.466666666666667
2026-01-20T23:14:29+00:00,SAT-56493,329.37931704986676,61.0076724394202,1189.0454929332532,-2.8305826292371177,99138.97702853396,10.5,10500099138.977028,47.655,-122.3035,60.0,14.483333333333333
2026-01-20T23:14:30+00:00,SAT-56493,330.0273683094322,60.913281289295504,1186.2224585243605,-2.7959083838318994,97924.53828253059,10.5,10500097924.538282,47.655,-122.3035,60.0,14.5
2026-01-20T23:14:31+00:00,SAT-56493,330.67420282826527,60.81504703072274,1183.4340058962189,-2.7609845324554634,96701.35727958295,10.5,10500096701.357279,47.655,-122.3035,60.0,14.516666666666667
2026-01-20T23:14:32+00:00,SAT-56493,331.3196483273118,60.71296301680804,1180.6803839891832,-2.725811891107758,95469.46259946092,10.5,10500095469.462599,47.655,-122.3035,60.0,14.533333333333333
2026-01-20T23:14:33+00:00,SAT-56493,331.96353471735114,60.60702448844156,1177.961840929785,-2.690391319016632,94228.8843359583,10.5,10500094228.884336,47.655,-122.3035,60.0,14.55
2026-01-20T23:14:34+00:00,SAT-56493,332.6056943415068,60.49722857793668,1175.2786239876193,-2.6547237870160143,92979.65649178589,10.5,10500092979.656492,47.655,-122.3035,60.0,14.566666666666666
2026-01-20T23:14:35+00:00,SAT-56493,333.24596222490504,60.383574306688885,1172.6309794640351,-2.618810344560921,91721.81582329755,10.5,10500091721.815823,47.655,-122.3035,60.0,14.583333333333334
2026-01-20T23:14:36+00:00,SAT-56493,333.88417630590436,60.266062580961474,1170.0191526137264,-2.5826521270204137,90455.40209592046,10.5,10500090455.402096,47.655,-122.3035,60.0,14.6
2026-01-20T23:14:37+00:00,SAT-56493,334.52017765719046,60.1446961845264,1167.4433875590448,-2.5462503672774597,89180.45849043116,10.5,10500089180.45849,47.655,-122.3035,60.0,14.616666666666667
2026-01-20T23:14:38+00:00,SAT-56493,335.1538106987619,60.019479767448715,1164.9039271927466,-2.509606364115629,87897.03049572415,10.5,10500087897.030497,47.655,-122.3035,60.0,14.633333333333333
2026-01-20T23:14:39+00:00,SAT-56493,335.784923389081,59.890419834007155,1162.4010131122686,-2.4727215444076602,86605.16808691842,10.5,10500086605.168087,47.655,-122.3035,60.0,14.65
2026-01-20T23:14:40+00:00,SAT-56493,336.41336742050726,59.75752472413602,1159.9348854919795,-2.4355973849118757,85304.92298633709,10.5,10500085304.922987,47.655,-122.3035,60.0,14.666666666666666
2026-01-20T23:14:41+00:00,SAT-56493,337.0389983796342,59.62080459684334,1157.5057830334274,-2.3982354805548076,83996.35105505383,10.5,10500083996.351055,47.655,-122.3035,60.0,14.683333333333334
2026-01-20T23:14:42+00:00,SAT-56493,337.6616759125961,59.480271407037726,1155.1139428474874,-2.3606375214301893,82679.51148730029,10.5,10500082679.511488,47.655,-122.3035,60.0,14.7
2026-01-20T23:14:43+00:00,SAT-56493,338.2812638698253,59.335938881280995,1152.7596003594479,-2.3228052780488935,81354.46629385646,10.5,10500081354.466293,47.655,-122.3035,60.0,14.716666666666667
2026-01-20T23:14:44+00:00,SAT-56493,338.897630432657,59.187822492186534,1150.442989228807,-2.2847406220628614,80021.28102789045,10.5,10500080021.281029,47.655,-122.3035,60.0,14.733333333333333
2026-01-20T23:14:45+00:00,SAT-56493,339.51064823103945,59.035939429447275,1148.164341248403,-2.246445515249697,78680.02439915223,10.5,10500078680.024399,47.655,-122.3035,60.0,14.75
2026-01-20T23:14:46+00:00,SAT-56493,340.12019444398453,58.88030856954555,1145.9238862545271,-2.2079220320435713,77330.7690631013,10.5,10500077330.769064,47.655,-122.3035,60.0,14.766666666666667
2026-01-20T23:14:47+00:00,SAT-56493,340.72615089207557,58.72095044194516,1143.721852014569,-2.1691723236048475,75973.59036247303,10.5,10500075973.590363,47.655,-122.3035,60.0,14.783333333333333
2026-01-20T23:14:48+00:00,SAT-56493,341.32840410561545,58.5578871962089,1141.5584641504938,-2.130198656649978,74608.56768726574,10.5,10500074608.567688,47.655,-122.3035,60.0,14.8
2026-01-20T23:14:49+00:00,SAT-56493,341.92684538978096,58.39114256467494,1139.433946023595,-2.091003373143069,73235.78306296893,10.5,10500073235.783064,47.655,-122.3035,60.0,14.816666666666666
2026-01-20T23:14:50+00:00,SAT-56493,342.5213708644727,58.22074182689065,1137.3485186594469,-2.0515889435044583,71855.32301415272,10.5,10500071855.323013,47.655,-122.3035,60.0,14.833333333333334
2026-01-20T23:14:51+00:00,SAT-56493,343.11188150670864,58.04671176821292,1135.3024006197918,-2.011957905088805,70467.27640971026,10.5,10500070467.27641,47.655,-122.3035,60.0,14.85
2026-01-20T23:14:52+00:00,SAT-56493,343.6982831613455,57.86908064273237,1133.2958079357832,-1.9721129242519388,69071.73663670137,10.5,10500069071.736637,47.655,-122.3035,60.0,14.866666666666667
2026-01-20T23:14:53+00:00,SAT-56493,344.28048655853956,57.68787812939017,1131.3289539793293,-1.9320567316654091,67668.79933479446,10.5,10500067668.799335,47.655,-122.3035,60.0,14.883333333333333
2026-01-20T23:14:54+00:00,SAT-56493,344.8584072986602,57.50313529360919,1129.4020493989483,-1.8917921862154643,66258.56463427901,10.5,10500066258.564634,47.655,-122.3035,60.0,14.9
2026-01-20T23:14:55+00:00,SAT-56493,345.4319658461875,57.314884541682275,1127.515301991896,-1.8513222367351214,64841.13581576083,10.5,10500064841.135817,47.655,-122.3035,60.0,14.916666666666666
2026-01-20T23:14:56+00:00,SAT-56493,346.00108750064885,57.12315957826458,1125.6689166144588,-1.8106499184048244,63416.61918409787,10.5,10500063416.619184,47.655,-122.3035,60.0,14.933333333333334
2026-01-20T23:14:57+00:00,SAT-56493,346.56570235524964,56.927995364233745,1123.8630950958366,-1.7697783833076344,61985.125138572235,10.5,10500061985.12514,47.655,-122.3035,60.0,14.95
2026-01-20T23:14:58+00:00,SAT-56493,347.1257452570012,56.72942807010701,1122.0980361215509,-1.728710864181344,60546.76690333588,10.5,10500060546.766903,47.655,-122.3035,60.0,14.966666666666667
2026-01-20T23:14:59+00:00,SAT-56493,347.6811557443971,56.52749503397887,1120.3739351530076,-1.6874507098613438,59101.66176876974,10.5,10500059101.661768,47.655,-122.3035,60.0,14.983333333333333
