satellites_20260120_184412/SAT-66188.csv

timestamp,satellite,azimuth_deg,elevation_deg,distance_km,relative_velocity_kms,doppler_shift_hz,tx_freq_ghz,rx_freq_hz,ue_lat,ue_lon,ue_alt_m,time_minutes
2026-01-20T23:01:12+00:00,SAT-66188,254.4746007616622,40.840918952505945,242838.24770176914,-131.5539144220801,4607574.5555675095,10.5,10504607574.555567,47.655,-122.3035,60.0,1.2
2026-01-20T23:01:13+00:00,SAT-66188,252.89760337485376,41.70202573050837,242707.0445977855,-131.0921165027746,4591400.439030169,10.5,10504591400.43903,47.655,-122.3035,60.0,1.2166666666666666
2026-01-20T23:01:14+00:00,SAT-66188,251.27710260046263,42.540994645352356,242576.3020602601,-130.54400294318933,4572203.183655434,10.5,10504572203.183655,47.655,-122.3035,60.0,1.2333333333333334
2026-01-20T23:01:15+00:00,SAT-66188,249.61182008643715,43.356496070217446,242446.10617465805,-129.90981146371445,4549991.115416925,10.5,10504549991.115417,47.655,-122.3035,60.0,1.25
2026-01-20T23:01:16+00:00,SAT-66188,247.9005902930234,44.147144454126554,242316.54278935827,-129.1898379314244,4524774.596831105,10.5,10504524774.59683,47.655,-122.3035,60.0,1.2666666666666666
2026-01-20T23:01:17+00:00,SAT-66188,246.1423889918551,44.91150066374075,242187.6974576613,-128.3844358182908,4496566.007981606,10.5,10504496566.007982,47.655,-122.3035,60.0,1.2833333333333334
2026-01-20T23:01:18+00:00,SAT-66188,244.33636463450898,45.64807548451862,242059.65538033855,-127.49401872910866,4465379.835057896,10.5,10504465379.835058,47.655,-122.3035,60.0,1.3
2026-01-20T23:01:19+00:00,SAT-66188,242.48187229060375,46.35533446217243,241932.50134565937,-126.51905772931727,4431232.57676426,10.5,10504431232.576765,47.655,-122.3035,60.0,1.3166666666666667
2026-01-20T23:01:20+00:00,SAT-66188,240.57850978987315,47.031704212052716,241806.319672084,-125.46008336532417,4394142.815080103,10.5,10504394142.81508,47.655,-122.3035,60.0,1.3333333333333333
2026-01-20T23:01:21+00:00,SAT-66188,238.62615535641464,47.675580367354826,241681.194148941,-124.31768401712515,4354131.157561722,10.5,10504354131.157562,47.655,-122.3035,60.0,1.35
2026-01-20T23:01:22+00:00,SAT-66188,236.62500590463264,48.28533726336232,241557.2079787479,-123.09250738653424,4311220.28946642,10.5,10504311220.289467,47.655,-122.3035,60.0,1.3666666666666667
2026-01-20T23:01:23+00:00,SAT-66188,234.5756148148914,48.85933945294759,241434.44371804773,-121.78525912988565,4265434.925863943,10.5,10504265434.925863,47.655,-122.3035,60.0,1.3833333333333333
2026-01-20T23:01:24+00:00,SAT-66188,232.47892784553454,49.39595506301785,241312.98321960887,-120.39670333857362,4216801.828467023,10.5,10504216801.828466,47.655,-122.3035,60.0,1.4
2026-01-20T23:01:25+00:00,SAT-66188,230.33631553371444,49.89357095687688,241192.90757414585,-118.92766145313749,4165349.7675980353,10.5,10504165349.767597,47.655,-122.3035,60.0,1.4166666666666667
2026-01-20T23:01:26+00:00,SAT-66188,228.14960030763532,50.35060956734092,241074.29705312327,-117.3790134775571,4111109.564718768,10.5,10504111109.564718,47.655,-122.3035,60.0,1.4333333333333333
2026-01-20T23:01:27+00:00,SAT-66188,225.92107635658056,50.76554718646621,240957.23105034832,-115.75169607260743,4054114.025651633,10.5,10504054114.025652,47.655,-122.3035,60.0,1.45
2026-01-20T23:01:28+00:00,SAT-66188,223.65352040061958,51.13693337203861,240841.7880254652,-114.0467030972224,3994397.959540514,10.5,10503994397.959541,47.655,-122.3035,60.0,1.4666666666666666
2026-01-20T23:01:29+00:00,SAT-66188,221.3501915360241,51.46341104914081,240728.04544690961,-112.26508457995574,3931998.1428269795,10.5,10503931998.142826,47.655,-122.3035,60.0,1.4833333333333334
2026-01-20T23:01:30+00:00,SAT-66188,219.0148186945887,51.74373677107877,240616.07973588855,-110.407946823357,3866953.3229059703,10.5,10503866953.322906,47.655,-122.3035,60.0,1.5
2026-01-20T23:01:31+00:00,SAT-66188,216.6515746546629,51.97680053144371,240505.9662102567,-108.47645149883628,3799304.186424133,10.5,10503799304.186424,47.655,-122.3035,60.0,1.5166666666666666
2026-01-20T23:01:32+00:00,SAT-66188,214.26503618670924,52.16164445611744,240397.7790292952,-106.47181479929522,3729093.329601373,10.5,10503729093.329601,47.655,-122.3035,60.0,1.5333333333333334
2026-01-20T23:01:33+00:00,SAT-66188,211.8601306195081,52.29747968687166,240291.59113933536,-104.39530749097338,3656365.2600467373,10.5,10503656365.260046,47.655,-122.3035,60.0,1.55
2026-01-20T23:01:34+00:00,SAT-66188,209.44206988567774,52.38370078884261,240187.47421933102,-102.24825341103704,3581166.344137613,10.5,10503581166.344137,47.655,-122.3035,60.0,1.5666666666666667
2026-01-20T23:01:35+00:00,SAT-66188,207.016273953848,52.419897075746306,240085.4986279291,-100.03202919634403,3503544.7975199306,10.5,10503503544.79752,47.655,-122.3035,60.0,1.5833333333333333
2026-01-20T23:01:36+00:00,SAT-66188,204.58828621290343,52.40586036056037,239985.73335081062,-97.74806328076295,3423550.649990037,10.5,10503423550.64999,47.655,-122.3035,60.0,1.6
2026-01-20T23:01:37+00:00,SAT-66188,202.16368398574826,52.34158878374807,239888.24594903193,-95.39783506884837,3341235.7165533095,10.5,10503341235.716553,47.655,-122.3035,60.0,1.6166666666666667
2026-01-20T23:01:38+00:00,SAT-66188,199.74798768487523,52.22728654764953,239793.1025081899,-92.98287420689927,3256653.571893534,10.5,10503256653.571894,47.655,-122.3035,60.0,1.6333333333333333
2026-01-20T23:01:39+00:00,SAT-66188,197.3465722230637,52.06335957406035,239700.36758831423,-90.50475912579124,3169859.499336731,10.5,10503169859.499336,47.655,-122.3035,60.0,1.65
2026-01-20T23:01:40+00:00,SAT-66188,194.96458414752675,51.85040729101701,239610.1041752128,-87.96511619087524,3080910.4610770093,10.5,10503080910.461077,47.655,-122.3035,60.0,1.6666666666666667
2026-01-20T23:01:41+00:00,SAT-66188,192.6068675189264,51.58921092429177,239522.37363266508,-85.36561919447348,2989865.0804016273,10.5,10502989865.080402,47.655,-122.3035,60.0,1.6833333333333333
2026-01-20T23:01:42+00:00,SAT-66188,190.27790094797345,51.2807188075075,239437.2356551218,-82.70798743033629,2896783.574250327,10.5,10502896783.574251,47.655,-122.3035,60.0,1.7
2026-01-20T23:01:43+00:00,SAT-66188,187.98174750462852,50.926029331493574,239354.74822232462,-79.99398483537688,2801727.7231552545,10.5,10502801727.723156,47.655,-122.3035,60.0,1.7166666666666666
2026-01-20T23:01:44+00:00,SAT-66188,185.72201834853718,50.526372203994285,239274.9675547821,-77.22541869571936,2704760.8259212887,10.5,10502704760.825922,47.655,-122.3035,60.0,1.7333333333333334
2026-01-20T23:01:45+00:00,SAT-66188,183.5018501874752,50.08308870587528,239197.94807053625,-74.40413865149884,2605947.6647699317,10.5,10502605947.66477,47.655,-122.3035,60.0,1.75
2026-01-20T23:01:46+00:00,SAT-66188,181.3238959533268,49.597611598561215,239123.74234292118,-71.53203502105335,2505354.4466454196,10.5,10502505354.446646,47.655,-122.3035,60.0,1.7666666666666666
2026-01-20T23:01:47+00:00,SAT-66188,179.19032754638772,49.07144528131779,239052.4010599935,-68.61103744692889,2403048.7557920935,10.5,10502403048.755793,47.655,-122.3035,60.0,1.7833333333333334
2026-01-20T23:01:48+00:00,SAT-66188,177.1028490602225,48.50614670723322,238983.9729853131,-65.64311377639737,2299099.5145454006,10.5,10502299099.514545,47.655,-122.3035,60.0,1.8
2026-01-20T23:01:49+00:00,SAT-66188,175.06271865127798,47.90330746582362,238918.5049198401,-62.63026827662112,2193576.9208194083,10.5,10502193576.92082,47.655,-122.3035,60.0,1.8166666666666667
2026-01-20T23:01:50+00:00,SAT-66188,173.07077714771236,47.26453734337047,238856.04166561223,-59.57454037137325,2086552.4038614044,10.5,10502086552.403862,47.655,-122.3035,60.0,1.8333333333333333
2026-01-20T23:01:51+00:00,SAT-66188,171.12748148695226,46.591449561473894,238796.62599068184,-56.478002760412984,1978098.5583844688,10.5,10501978098.558384,47.655,-122.3035,60.0,1.85
2026-01-20T23:01:52+00:00,SAT-66188,169.23294123768162,45.885647811672435,238740.2985959288,-53.34276038954783,1868289.108494691,10.5,10501868289.108494,47.655,-122.3035,60.0,1.8666666666666667
2026-01-20T23:01:53+00:00,SAT-66188,167.38695661422395,45.1487151080529,238687.09808290028,-50.170948284852976,1757198.8318363775,10.5,10501757198.831837,47.655,-122.3035,60.0,1.8833333333333333
2026-01-20T23:01:54+00:00,SAT-66188,165.5890566950983,44.38220443637072,238637.06092381084,-46.96473019529358,1644903.5120509358,10.5,10501644903.51205,47.655,-122.3035,60.0,1.9
2026-01-20T23:01:55+00:00,SAT-66188,163.8385367480881,43.58763110565749,238590.22143289607,-43.72629675841733,1531479.874531673,10.5,10501531479.87453,47.655,-122.3035,60.0,1.9166666666666667
2026-01-20T23:01:56+00:00,SAT-66188,162.1344938555168,42.766466686982646,238546.61173959568,-40.457863981094384,1417005.5332128839,10.5,10501417005.533213,47.655,-122.3035,60.0,1.9333333333333333
2026-01-20T23:01:57+00:00,SAT-66188,160.4758602360111,41.92013438930353,238506.26176325188,-37.16167125305311,1301558.920995463,10.5,10501301558.920996,47.655,-122.3035,60.0,1.95
2026-01-20T23:01:58+00:00,SAT-66188,158.8614338915013,41.05000572314421,238469.1991897888,-33.83997975398099,1185219.2339568476,10.5,10501185219.233957,47.655,-122.3035,60.0,1.9666666666666666
2026-01-20T23:01:59+00:00,SAT-66188,157.2899063465808,40.15739828362426,238435.44944998086,-30.495070408025505,1068066.3597089818,10.5,10501068066.359709,47.655,-122.3035,60.0,1.9833333333333334
2026-01-20T23:05:18+00:00,SAT-66188,255.26989837092128,40.376652036642085,243051.1802331079,-130.98595802818556,4587682.320200158,10.5,10504587682.3202,47.655,-122.3035,60.0,5.3
2026-01-20T23:05:19+00:00,SAT-66188,253.71474834343013,41.24865687280883,242920.54357096777,-130.5839864151263,4573603.573972586,10.5,10504573603.573973,47.655,-122.3035,60.0,5.316666666666666
2026-01-20T23:05:20+00:00,SAT-66188,252.11680451491128,42.09917685995591,242790.3078085164,-130.0960712384081,4556514.720604762,10.5,10504556514.720604,47.655,-122.3035,60.0,5.333333333333333
2026-01-20T23:05:21+00:00,SAT-66188,250.47474221161139,42.926911961724215,242660.55866013464,-129.52241046493415,4536422.693735039,10.5,10504536422.693735,47.655,-122.3035,60.0,5.35
2026-01-20T23:05:22+00:00,SAT-66188,248.78733615273342,43.73050546355226,242531.3816427643,-128.86326081047946,4513336.484635762,10.5,10504513336.484636,47.655,-122.3035,60.0,5.366666666666666
2026-01-20T23:05:23+00:00,SAT-66188,247.0534873987718,44.50854579106613,242402.862017316,-128.11893650425304,4487267.098943019,10.5,10504487267.098944,47.655,-122.3035,60.0,5.383333333333334
2026-01-20T23:05:24+00:00,SAT-66188,245.27225324388098,45.25956939881904,242275.08473130906,-127.28981073276265,4458227.60722689,10.5,10504458227.607227,47.655,-122.3035,60.0,5.4
2026-01-20T23:05:25+00:00,SAT-66188,243.44287983953515,45.982064908798826,242148.1343600716,-126.37631400359102,4426233.087683966,10.5,10504426233.087685,47.655,-122.3035,60.0,5.416666666666667
2026-01-20T23:05:26+00:00,SAT-66188,241.56483725079582,46.674478641981246,242022.09504957203,-125.37893634760555,4391300.703268053,10.5,10504391300.703268,47.655,-122.3035,60.0,5.433333333333334
2026-01-20T23:05:27+00:00,SAT-66188,239.6378563558552,47.335221717068585,241897.05045705466,-124.29822541563071,4353449.635027585,10.5,10504353449.635027,47.655,-122.3035,60.0,5.45
2026-01-20T23:05:28+00:00,SAT-66188,237.6619668882995,47.96267882528042,241773.08369357348,-123.13478748343827,4312701.1173046315,10.5,10504312701.117304,47.655,-122.3035,60.0,5.466666666666667
2026-01-20T23:05:29+00:00,SAT-66188,235.63753557676375,48.55521879766725,241650.27726552333,-121.88928645049745,4269078.402666898,10.5,10504269078.402666,47.655,-122.3035,60.0,5.483333333333333
2026-01-20T23:05:30+00:00,SAT-66188,233.56530315513595,49.11120700818513,241528.71301717006,-120.56244513467504,4222606.807253596,10.5,10504222606.807253,47.655,-122.3035,60.0,5.5
2026-01-20T23:05:31+00:00,SAT-66188,231.4464187038645,49.6290196161881,241408.47207188903,-119.15504338855331,4173313.6448009303,10.5,10504173313.6448,47.655,-122.3035,60.0,5.516666666666667
2026-01-20T23:05:32+00:00,SAT-66188,229.28246966105016,50.107059549613226,241289.63477528287,-117.66791871078986,4121228.248054504,10.5,10504121228.248055,47.655,-122.3035,60.0,5.533333333333333
2026-01-20T23:05:33+00:00,SAT-66188,227.07550559758408,50.5437740675757,241172.28063768864,-116.10196622045474,4066381.967870502,10.5,10504066381.96787,47.655,-122.3035,60.0,5.55
2026-01-20T23:05:34+00:00,SAT-66188,224.8280538403727,50.93767362537069,241056.48827671143,-114.45813741762458,4008808.1298064482,10.5,10504008808.129807,47.655,-122.3035,60.0,5.566666666666666
2026-01-20T23:05:35+00:00,SAT-66188,222.54312510371946,51.28735165962342,240942.3353609936,-112.7374407364559,3948542.0534921763,10.5,10503948542.053492,47.655,-122.3035,60.0,5.583333333333333
2026-01-20T23:05:36+00:00,SAT-66188,220.22420743945594,51.591504819753666,240829.89855343243,-110.94093981798592,3885620.992136007,10.5,10503885620.992136,47.655,-122.3035,60.0,5.6
2026-01-20T23:05:37+00:00,SAT-66188,217.87524726244683,51.848953066814495,240719.25345612064,-109.06975459897514,3820084.170660621,10.5,10503820084.17066,47.655,-122.3035,60.0,5.616666666666666
2026-01-20T23:05:38+00:00,SAT-66188,215.50061663332684,52.05865900576261,240610.4745542006,-107.12505945535212,3751972.720678641,10.5,10503751972.720678,47.655,-122.3035,60.0,5.633333333333334
2026-01-20T23:05:39+00:00,SAT-66188,213.10506676212393,52.2197457606916,240503.63516157042,-105.10808299456697,3681329.673219975,10.5,10503681329.67322,47.655,-122.3035,60.0,5.65
2026-01-20T23:05:40+00:00,SAT-66188,210.693668366771,52.33151271421163,240398.8073667972,-103.02010755735724,3608199.941281548,10.5,10503608199.941282,47.655,-122.3035,60.0,5.666666666666667
2026-01-20T23:05:41+00:00,SAT-66188,208.27174035936056,52.39344846788592,240296.06197952668,-100.86246815502359,3532630.2826062012,10.5,10503532630.282606,47.655,-122.3035,60.0,5.683333333333334
2026-01-20T23:05:42+00:00,SAT-66188,205.84476910676202,52.40524046844395,240195.46847795337,-98.63655222522435,3454669.2911295844,10.5,10503454669.29113,47.655,-122.3035,60.0,5.7
2026-01-20T23:05:43+00:00,SAT-66188,203.41832113368267,52.366780874308084,240097.0949565341,-96.34379801351078,3374367.3402946754,10.5,10503374367.340294,47.655,-122.3035,60.0,5.716666666666667
2026-01-20T23:05:44+00:00,SAT-66188,200.99795265831477,52.2781683982539,240001.0080753153,-93.98569423053502,3291776.5710457526,10.5,10503291776.571045,47.655,-122.3035,60.0,5.733333333333333
2026-01-20T23:05:45+00:00,SAT-66188,198.58911952150225,52.139706046526925,239907.2730096027,-91.5637791629501,3206950.86068835,10.5,10503206950.86069,47.655,-122.3035,60.0,5.75
2026-01-20T23:05:46+00:00,SAT-66188,196.1970910829185,51.95189486329821,239815.95340051752,-89.0796394265557,3119945.779219152,10.5,10503119945.779219,47.655,-122.3035,60.0,5.766666666666667
2026-01-20T23:05:47+00:00,SAT-66188,193.82687136450707,51.71542397164458,239727.1113067961,-86.5349087121256,3030818.5453995606,10.5,10503030818.545399,47.655,-122.3035,60.0,5.783333333333333
2026-01-20T23:05:48+00:00,SAT-66188,191.48313019616413,51.43115735961905,239640.80715784055,-83.93126743009303,2939628.014311076,10.5,10502939628.01431,47.655,-122.3035,60.0,5.8
2026-01-20T23:05:49+00:00,SAT-66188,189.17014640812698,51.10011797797972,239557.0997071236,-81.27044092467442,2846434.6148063582,10.5,10502846434.614807,47.655,-122.3035,60.0,5.816666666666666
2026-01-20T23:05:50+00:00,SAT-66188,186.89176439606564,50.723469801999336,239476.04598737473,-78.55419836730023,2751300.3107524887,10.5,10502751300.310753,47.655,-122.3035,60.0,5.833333333333333
2026-01-20T23:05:51+00:00,SAT-66188,184.65136453125572,50.30249853968578,239397.70126686973,-75.78435163280682,2654288.5616704593,10.5,10502654288.56167,47.655,-122.3035,60.0,5.85
2026-01-20T23:05:52+00:00,SAT-66188,182.4518471601058,49.83859166092725,239322.11900684127,-72.96275421293579,2555464.2846813235,10.5,10502555464.284681,47.655,-122.3035,60.0,5.866666666666666
2026-01-20T23:05:53+00:00,SAT-66188,180.29562929838457,49.333218375925526,239249.3508199729,-70.09129945989395,2454893.7929882356,10.5,10502454893.792988,47.655,-122.3035,60.0,5.883333333333334
2026-01-20T23:05:54+00:00,SAT-66188,178.18465265462726,48.78791012231307,239179.4464306449,-67.17191952135227,2352644.7585756104,10.5,10502352644.758575,47.655,-122.3035,60.0,5.9
2026-01-20T23:05:55+00:00,SAT-66188,176.1204012466259,48.204242019095254,239112.45363624228,-64.2065835638724,2248786.1499860017,10.5,10502248786.149986,47.655,-122.3035,60.0,5.916666666666667
2026-01-20T23:05:56+00:00,SAT-66188,174.10392674273234,47.5838156519793,239048.41827023457,-61.19729690045976,2143388.2017633263,10.5,10502143388.201763,47.655,-122.3035,60.0,5.933333333333334
2026-01-20T23:05:57+00:00,SAT-66188,172.1358795790357,46.92824343815011,238987.38416612588,-58.14609895570064,2036522.3431833524,10.5,10502036522.343184,47.655,-122.3035,60.0,5.95
2026-01-20T23:05:58+00:00,SAT-66188,170.216544049393,46.23913473838361,238929.39312343404,-55.05506180215414,1928261.1469919584,10.5,10501928261.146992,47.655,-122.3035,60.0,5.966666666666667
2026-01-20T23:05:59+00:00,SAT-66188,168.34587568043986,45.518083783625336,238874.48487513003,-51.92628864018152,1818678.276162324,10.5,10501818678.276163,47.655,-122.3035,60.0,5.983333333333333
2026-01-20T23:06:00+00:00,SAT-66188,166.52353944387815,44.76665941414136,238822.69705659288,-48.761912505262785,1707848.438619691,10.5,10501707848.43862,47.655,-122.3035,60.0,6.0
2026-01-20T23:06:01+00:00,SAT-66188,164.74894759607508,43.9863965662239,238774.0651758543,-45.564093926868125,1595847.305245135,10.5,10501595847.305244,47.655,-122.3035,60.0,6.016666666666667
2026-01-20T23:06:02+00:00,SAT-66188,163.0212962337464,43.17878941763507,238728.6225861779,-42.335019781361126,1482751.4696993872,10.5,10501482751.4697,47.655,-122.3035,60.0,6.033333333333333
2026-01-20T23:06:03+00:00,SAT-66188,161.3395998177314,42.34528604145661,238686.40045978263,-39.07690135718581,1368638.380657498,10.5,10501368638.380657,47.655,-122.3035,60.0,6.05
2026-01-20T23:06:04+00:00,SAT-66188,159.70272320226945,41.48728442723542,238647.4277634957,-35.7919727161384,1253586.2844136432,10.5,10501253586.284414,47.655,-122.3035,60.0,6.066666666666666
2026-01-20T23:06:05+00:00,SAT-66188,158.10941085723644,40.60612970469087,238611.73123604016,-32.482488760636045,1137674.1571886989,10.5,10501137674.157188,47.655,-122.3035,60.0,6.083333333333333
2026-01-20T23:09:25+00:00,SAT-66188,254.4426451775438,40.833350635425205,243125.9462829711,-129.99424370089284,4552948.289510922,10.5,10504552948.28951,47.655,-122.3035,60.0,9.416666666666666
2026-01-20T23:09:26+00:00,SAT-66188,252.8647367245262,41.69401343921649,242996.29869058676,-129.56112890243975,4537778.777195314,10.5,10504537778.777195,47.655,-122.3035,60.0,9.433333333333334
2026-01-20T23:09:27+00:00,SAT-66188,251.24333095338932,42.53249322085962,242867.08305802805,-129.0426531961914,4519619.564812433,10.5,10504519619.564812,47.655,-122.3035,60.0,9.45
2026-01-20T23:09:28+00:00,SAT-66188,249.57715488549354,43.34745966486437,242738.3845185737,-128.4390376637967,4498478.395576801,10.5,10504498478.395576,47.655,-122.3035,60.0,9.466666666666667
2026-01-20T23:09:29+00:00,SAT-66188,247.8650490685606,44.137526688111265,242610.28798501036,-127.7505605757289,4474365.015697471,10.5,10504474365.015697,47.655,-122.3035,60.0,9.483333333333333
2026-01-20T23:09:30+00:00,SAT-66188,246.10599610347694,44.90125481304821,242482.87809259613,-126.97755859634313,4447291.216584251,10.5,10504447291.216585,47.655,-122.3035,60.0,9.5
2026-01-20T23:09:31+00:00,SAT-66188,244.29915200089275,45.637154713110895,242356.23914082273,-126.12042637749619,4417270.82061454,10.5,10504417270.820614,47.655,-122.3035,60.0,9.516666666666667
2026-01-20T23:09:32+00:00,SAT-66188,242.44388012654287,46.34369208287467,242230.45503558224,-125.17961597912708,4384319.660839614,10.5,10504384319.66084,47.655,-122.3035,60.0,9.533333333333333
2026-01-20T23:09:33+00:00,SAT-66188,240.53978729796108,47.01929398995813,242105.6092319124,-124.15563822913916,4348455.62861345,10.5,10504348455.628613,47.655,-122.3035,60.0,9.55
2026-01-20T23:09:34+00:00,SAT-66188,238.58676135187457,47.66235686193085,241981.78467538522,-123.049061878796,4309698.644011111,10.5,10504309698.64401,47.655,-122.3035,60.0,9.566666666666666
2026-01-20T23:09:35+00:00,SAT-66188,236.58500932600612,48.271256211768126,241859.06374433805,-121.8605130964205,4268070.638095956,10.5,10504268070.638096,47.655,-122.3035,60.0,9.583333333333334
2026-01-20T23:09:36+00:00,SAT-66188,234.53509511359488,48.8443581813568,241737.5281926099,-120.590676064541,4223595.573834217,10.5,10504223595.573833,47.655,-122.3035,60.0,9.6
2026-01-20T23:09:37+00:00,SAT-66188,232.43797518332642,49.3800329310964,241617.25909168154,-119.2402929368918,4176299.4445889764,10.5,10504176299.44459,47.655,-122.3035,60.0,9.616666666666667
2026-01-20T23:09:38+00:00,SAT-66188,230.2950307542851,49.87666982492276,241498.33677285915,-117.81016268728324,4126210.2338027265,10.5,10504126210.233803,47.655,-122.3035,60.0,9.633333333333333
2026-01-20T23:09:39+00:00,SAT-66188,228.10809464431918,50.33269427581932,241380.84077060572,-116.3011418070254,4073357.939424102,10.5,10504073357.939425,47.655,-122.3035,60.0,9.65
2026-01-20T23:09:40+00:00,SAT-66188,225.8794708527862,50.74658603396071,241264.84976517683,-114.71414295952022,4017774.5267860014,10.5,10504017774.526787,47.655,-122.3035,60.0,9.666666666666666
2026-01-20T23:09:41+00:00,SAT-66188,223.61194500961955,51.11689858002833,241150.44152659853,-113.05013573424802,3959493.9550133855,10.5,10503959493.955013,47.655,-122.3035,60.0,9.683333333333334
2026-01-20T23:09:42+00:00,SAT-66188,221.30878388443682,51.442279198296106,241037.6928578929,-111.3101454660063,3898552.1356680235,10.5,10503898552.135668,47.655,-122.3035,60.0,9.7
2026-01-20T23:09:43+00:00,SAT-66188,218.97372251698707,51.72148919142201,240926.6795394815,-109.49525293345827,3834986.922190391,10.5,10503834986.92219,47.655,-122.3035,60.0,9.716666666666667
2026-01-20T23:09:44+00:00,SAT-66188,216.61093793167237,51.95342362853841,240817.4762738892,-107.60659340286645,3768838.0764071713,10.5,10503768838.076406,47.655,-122.3035,60.0,9.733333333333333
2026-01-20T23:09:45+00:00,SAT-66188,214.2250090326013,52.13712995818101,240710.15663140203,-105.64535708440079,3700147.284513103,10.5,10503700147.284513,47.655,-122.3035,60.0,9.75
2026-01-20T23:09:46+00:00,SAT-66188,211.82086295382936,52.27182480159242,240604.79299526988,-103.6127875516323,3628958.101714951,10.5,10503628958.101715,47.655,-122.3035,60.0,9.766666666666667
2026-01-20T23:09:47+00:00,SAT-66188,209.40370900392705,52.35690825619392,240501.45650848505,-101.5101810746509,3555315.9288744833,10.5,10503555315.928875,47.655,-122.3035,60.0,9.783333333333333
2026-01-20T23:09:48+00:00,SAT-66188,206.97896207206907,52.391975112678494,240400.2170212266,-99.33888664813558,3479268.013491599,10.5,10503479268.01349,47.655,-122.3035,60.0,9.8
2026-01-20T23:09:49+00:00,SAT-66188,204.55215807701018,52.3768224959212,240301.1430382762,-97.10030427485633,3400863.389585309,10.5,10503400863.389585,47.655,-122.3035,60.0,9.816666666666666
2026-01-20T23:09:50+00:00,SAT-66188,202.12886466044066,52.31145358675982,240204.30166814607,-94.79588477435573,3320152.8709929558,10.5,10503320152.870993,47.655,-122.3035,60.0,9.833333333333334
2026-01-20T23:09:51+00:00,SAT-66188,199.71459059686217,52.19607725889913,240109.75857239778,-92.42712817925147,3237188.995201942,10.5,10503237188.995201,47.655,-122.3035,60.0,9.85
2026-01-20T23:09:52+00:00,SAT-66188,197.31469755607404,52.03110365321115,240017.57791656032,-89.9955838020122,3152026.0256885053,10.5,10503152026.025688,47.655,-122.3035,60.0,9.866666666666667
2026-01-20T23:09:53+00:00,SAT-66188,194.93431760564175,51.81713589621038,239927.8223209818,-87.50284815032964,3064719.8789052297,10.5,10503064719.878904,47.655,-122.3035,60.0,9.883333333333333
2026-01-20T23:09:54+00:00,SAT-66188,192.57827952120536,51.5549583433943,239840.55281375986,-84.9505648172779,2975328.1204339634,10.5,10502975328.120434,47.655,-122.3035,60.0,9.9
2026-01-20T23:09:55+00:00,SAT-66188,190.25104625228258,51.24552186122526,239755.82878378208,-82.34042211676622,2883909.882169368,10.5,10502883909.88217,47.655,-122.3035,60.0,9.916666666666666
2026-01-20T23:09:56+00:00,SAT-66188,187.95666525784864,50.88992677046471,239673.70793612432,-79.67415368449055,2790525.8833667883,10.5,10502790525.883368,47.655,-122.3035,60.0,9.933333333333334
2026-01-20T23:09:57+00:00,SAT-66188,185.69873248782432,50.48940411268564,239594.24624684965,-76.95353559449784,2695238.329652133,10.5,10502695238.329653,47.655,-122.3035,60.0,9.95
2026-01-20T23:09:58+00:00,SAT-66188,183.4803701855733,50.045295935215854,239517.4979206834,-74.18038617222622,2598110.906473756,10.5,10502598110.906473,47.655,-122.3035,60.0,9.966666666666667
2026-01-20T23:09:59+00:00,SAT-66188,181.30421782548598,49.559035237903835,239443.5153488743,-71.35656391218632,2499208.7061708416,10.5,10502499208.706171,47.655,-122.3035,60.0,9.983333333333333
2026-01-20T23:10:00+00:00,SAT-66188,179.17243506577398,49.03212618245364,239372.34906913253,-68.48396712046731,2398598.2154524606,10.5,10502398598.215452,47.655,-122.3035,60.0,10.0
2026-01-20T23:10:01+00:00,SAT-66188,177.0867150868674,48.46612506011159,239304.0477259244,-65.56453151112564,2296347.2312129317,10.5,10502296347.231213,47.655,-122.3035,60.0,10.016666666666667
2026-01-20T23:10:02+00:00,SAT-66188,175.04830655161535,47.86262243846504,239238.65803316396,-62.60022925600123,2192524.8272523684,10.5,10502192524.827251,47.655,-122.3035,60.0,10.033333333333333
2026-01-20T23:10:03+00:00,SAT-66188,173.0580422260003,47.22322678148874,239176.22473785267,-59.59306770319042,2087201.3093921775,10.5,10502087201.309393,47.655,-122.3035,60.0,10.05
2026-01-20T23:10:04+00:00,SAT-66188,171.11637238330522,46.54954974576619,239116.79058499666,-56.54508729778475,1980448.1426505395,10.5,10501980448.14265,47.655,-122.3035,60.0,10.066666666666666
2026-01-20T23:10:05+00:00,SAT-66188,169.22340126276106,45.84319327133124,239060.39628459836,-53.45836067319025,1872337.9194165638,10.5,10501872337.919416,47.655,-122.3035,60.0,10.083333333333334
2026-01-20T23:10:06+00:00,SAT-66188,167.37892499074144,45.1057384851107,239007.0804795536,-50.33499030801482,1762944.277384575,10.5,10501762944.277384,47.655,-122.3035,60.0,10.1
2026-01-20T23:10:07+00:00,SAT-66188,165.58246969489892,44.33873639852696,238956.8797158864,-47.17710776394992,1652341.8728615053,10.5,10501652341.872862,47.655,-122.3035,60.0,10.116666666666667
2026-01-20T23:10:08+00:00,SAT-66188,163.83332869473165,43.54370029372949,238909.82841374318,-43.98687130567581,1540606.2974059077,10.5,10501540606.297405,47.655,-122.3035,60.0,10.133333333333333
2026-01-20T23:10:09+00:00,SAT-66188,162.13059800754394,42.72209969851622,238865.95884076098,-40.76646456882158,1427814.031174282,10.5,10501427814.031174,47.655,-122.3035,60.0,10.15
2026-01-20T23:10:10+00:00,SAT-66188,160.47320954759905,41.875355791379945,238825.30108676435,-37.51809469251366,1314042.3775150254,10.5,10501314042.377516,47.655,-122.3035,60.0,10.166666666666666
2026-01-20T23:10:11+00:00,SAT-66188,158.8599616518651,41.00483808734758,238787.88304032435,-34.24399071915839,1199369.4069220484,10.5,10501199369.406921,47.655,-122.3035,60.0,10.183333333333334
2026-01-20T23:10:12+00:00,SAT-66188,157.28954670751781,40.11186223896967,238753.73036691378,-30.946401693358702,1083873.8904507945,10.5,10501083873.890451,47.655,-122.3035,60.0,10.2
2026-01-20T23:13:31+00:00,SAT-66188,255.0842310727544,40.45781950286669,243323.78583337675,-129.32066350926928,4529356.661958879,10.5,10504529356.661959,47.655,-122.3035,60.0,13.516666666666667
2026-01-20T23:13:32+00:00,SAT-66188,253.52392720157283,41.32730560591121,243194.81002497018,-128.9372839809828,4515929.08918449,10.5,10504515929.089184,47.655,-122.3035,60.0,13.533333333333333
2026-01-20T23:13:33+00:00,SAT-66188,251.92069663981536,42.175133716372756,243066.21657374647,-128.46898243165347,4499527.188013387,10.5,10504499527.188013,47.655,-122.3035,60.0,13.55
2026-01-20T23:13:34+00:00,SAT-66188,250.2732286514345,42.999997300406115,242938.09017526798,-127.91594753636593,4480157.56664513,10.5,10504480157.566645,47.655,-122.3035,60.0,13.566666666666666
2026-01-20T23:13:35+00:00,SAT-66188,248.5803151647313,43.80053343097107,242810.51533692502,-127.27842567661611,4457828.854401899,10.5,10504457828.854403,47.655,-122.3035,60.0,13.583333333333334
2026-01-20T23:13:36+00:00,SAT-66188,246.84087805189338,44.575324736967104,242683.57632038355,-126.55672023644722,4432551.677076198,10.5,10504432551.677076,47.655,-122.3035,60.0,13.6
2026-01-20T23:13:37+00:00,SAT-66188,245.0539993210233,45.32290244512813,242557.35708473442,-125.75119288199238,4404338.701745859,10.5,10504404338.701746,47.655,-122.3035,60.0,13.616666666666667
2026-01-20T23:13:38+00:00,SAT-66188,243.21895399668932,46.041750689389,242431.94122836675,-124.86226252021812,4373204.600304822,10.5,10504373204.600306,47.655,-122.3035,60.0,13.633333333333333
2026-01-20T23:13:39+00:00,SAT-66188,241.33524535696714,46.730312233877946,242307.41193187993,-123.89040615455461,4339166.079430936,10.5,10504339166.079432,47.655,-122.3035,60.0,13.65
2026-01-20T23:13:40+00:00,SAT-66188,239.40264193905477,47.38699577043618,242183.8519001418,-122.83615754934323,4302241.833809255,10.5,10504302241.833809,47.655,-122.3035,60.0,13.666666666666666
2026-01-20T23:13:41+00:00,SAT-66188,237.42121555876275,48.010184906865305,242061.34330567927,-121.70010924342743,4262452.616656514,10.5,10504262452.616657,47.655,-122.3035,60.0,13.683333333333334
2026-01-20T23:13:42+00:00,SAT-66188,235.3913792590381,48.59824895818774,241939.96773006045,-120.48291069080044,4219821.174598743,10.5,10504219821.174599,47.655,-122.3035,60.0,13.7
2026-01-20T23:13:43+00:00,SAT-66188,233.313923961302,49.149555566660524,241819.8061071315,-119.18526865973243,4174372.2616503933,10.5,10504174372.26165,47.655,-122.3035,60.0,13.716666666666667
2026-01-20T23:13:44+00:00,SAT-66188,231.19005225917266,49.66248514631389,241700.93866585486,-117.80794712891495,4126132.635576866,10.5,10504126132.635576,47.655,-122.3035,60.0,13.733333333333333
2026-01-20T23:13:45+00:00,SAT-66188,229.02140763051648,50.13544705463577,241583.44487325166,-116.35176707090224,4075131.050309723,10.5,10504075131.05031,47.655,-122.3035,60.0,13.75
2026-01-20T23:13:46+00:00,SAT-66188,226.81009719789532,50.56689730540578,241467.4033775596,-114.81760604133964,4021398.24155972,10.5,10504021398.24156,47.655,-122.3035,60.0,13.766666666666667
2026-01-20T23:13:47+00:00,SAT-66188,224.5587061242397,50.955357536024124,241352.89195180102,-113.20639743096164,3964966.9006186184,10.5,10503964966.90062,47.655,-122.3035,60.0,13.783333333333333
2026-01-20T23:13:48+00:00,SAT-66188,222.2703018130055,51.299434838229416,241239.98743809655,-111.5191309768691,3905871.692266274,10.5,10503905871.692266,47.655,-122.3035,60.0,13.8
2026-01-20T23:13:49+00:00,SAT-66188,219.94842627667302,51.597841964829804,241128.76569146896,-109.7568513185347,3844149.2041958384,10.5,10503844149.204195,47.655,-122.3035,60.0,13.816666666666666
2026-01-20T23:13:50+00:00,SAT-66188,217.5970754875987,51.84941732569498,241019.30152508727,-107.92065837165717,3779837.9601077233,10.5,10503779837.960108,47.655,-122.3035,60.0,13.833333333333334
2026-01-20T23:13:51+00:00,SAT-66188,215.22066499411778,52.05314413153989,240911.66865513794,-106.01170565072755,3712978.360958765,10.5,10503712978.360958,47.655,-122.3035,60.0,13.85
2026-01-20T23:13:52+00:00,SAT-66188,212.82398184168025,52.20816799791433,240805.93964736894,-104.03120100844393,3643612.7108596615,10.5,10503643612.71086,47.655,-122.3035,60.0,13.866666666666667
2026-01-20T23:13:53+00:00,SAT-66188,210.41212351182426,52.31381233576652,240702.18586289653,-101.98040498429805,3571785.159235492,10.5,10503571785.159235,47.655,-122.3035,60.0,13.883333333333333
2026-01-20T23:13:54+00:00,SAT-66188,207.99042549284715,52.369590892355,240600.47740565884,-99.86063039926816,3497541.686630141,10.5,10503497541.68663,47.655,-122.3035,60.0,13.9
2026-01-20T23:13:55+00:00,SAT-66188,205.56437977016157,52.37521690638975,240500.88307027397,-97.67324141897069,3420930.071893911,10.5,10503420930.071894,47.655,-122.3035,60.0,13.916666666666666
2026-01-20T23:13:56+00:00,SAT-66188,203.13954719447318,52.33060847071688,240403.47029083213,-95.4196532063469,3341999.8800191376,10.5,10503341999.880018,47.655,-122.3035,60.0,13.933333333333334
2026-01-20T23:13:57+00:00,SAT-66188,200.721467100397,52.2358898613642,240308.30509003432,-93.1013304798149,3260802.4116405775,10.5,10503260802.41164,47.655,-122.3035,60.0,13.95
2026-01-20T23:13:58+00:00,SAT-66188,198.31556779068174,52.091388776565054,240215.45202976913,-90.7197870140923,3177390.6855521,10.5,10503177390.685553,47.655,-122.3035,60.0,13.966666666666667
2026-01-20T23:13:59+00:00,SAT-66188,195.92708138820922,51.897629618091685,240124.97416218708,-88.27658405142785,3091819.383061306,10.5,10503091819.38306,47.655,-122.3035,60.0,13.983333333333333
2026-01-20T23:14:00+00:00,SAT-66188,193.5609662900618,51.65532312686443,240036.93298235978,-85.77333033022447,3004144.8489920218,10.5,10503004144.848991,47.655,-122.3035,60.0,14.0
2026-01-20T23:14:01+00:00,SAT-66188,191.22183984852927,51.36535283260877,239951.38838091042,-83.21168001638145,2914425.019231155,10.5,10502914425.019232,47.655,-122.3035,60.0,14.016666666666667
2026-01-20T23:14:02+00:00,SAT-66188,188.9139233039231,51.02875890165738,239868.39859870743,-80.59333173138315,2822719.3866882506,10.5,10502822719.386688,47.655,-122.3035,60.0,14.033333333333333
2026-01-20T23:14:03+00:00,SAT-66188,186.6410001271496,50.64672003514321,239788.02018252734,-77.92002800169773,2729088.9820111026,10.5,10502729088.982012,47.655,-122.3035,60.0,14.05
2026-01-20T23:14:04+00:00,SAT-66188,184.40638815361032,50.22053409682405,239710.30794126698,-75.19355348870872,2633596.3115904722,10.5,10502633596.31159,47.655,-122.3035,60.0,14.066666666666666
2026-01-20T23:14:05+00:00,SAT-66188,182.21292520406396,49.751598144320155,239635.3149039209,-72.41573369843853,2536305.312369148,10.5,10502536305.312368,47.655,-122.3035,60.0,14.083333333333334
2026-01-20T23:14:06+00:00,SAT-66188,180.06296722346792,49.24138848277694,239563.09227884567,-69.58843374412676,2437281.3085022005,10.5,10502437281.308502,47.655,-122.3035,60.0,14.1
2026-01-20T23:14:07+00:00,SAT-66188,177.958397508706,48.691441283838024,239493.68941425817,-66.71355748620861,2336590.9812353933,10.5,10502336590.981236,47.655,-122.3035,60.0,14.116666666666667
2026-01-20T23:14:08+00:00,SAT-66188,175.9006452751083,48.103334214797606,239427.15375959195,-63.79304517772043,2234302.286437321,10.5,10502234302.286438,47.655,-122.3035,60.0,14.133333333333333
2026-01-20T23:14:09+00:00,SAT-66188,173.89071171383742,47.478669435682015,239363.53082920134,-60.82887295058309,2130484.4366068826,10.5,10502130484.436607,47.655,-122.3035,60.0,14.15
2026-01-20T23:14:10+00:00,SAT-66188,171.92920157537895,46.819058193013895,239302.86416657866,-57.82305050547072,2025207.8199627106,10.5,10502025207.819963,47.655,-122.3035,60.0,14.166666666666666
2026-01-20T23:14:11+00:00,SAT-66188,170.01635851826748,46.126107172533054,239245.19531087452,-54.7776204082068,1918543.9757999894,10.5,10501918543.9758,47.655,-122.3035,60.0,14.183333333333334
2026-01-20T23:14:12+00:00,SAT-66188,168.15210253171753,45.40140665680311,239190.5637641207,-51.69465582660062,1810565.5152248912,10.5,10501810565.515224,47.655,-122.3035,60.0,14.2
2026-01-20T23:14:13+00:00,SAT-66188,166.33606806566223,44.646520494384525,239139.00696070967,-48.57625939948348,1701346.081543441,10.5,10501701346.081543,47.655,-122.3035,60.0,14.216666666666667
2026-01-20T23:14:14+00:00,SAT-66188,164.5676416645265,43.86297780189908,239090.56023800193,-45.4245611725395,1590960.277965581,10.5,10501590960.277966,47.655,-122.3035,60.0,14.233333333333333
2026-01-20T23:14:15+00:00,SAT-66188,162.84599822037052,43.05226630337587,239045.2568089925,-42.241717495119026,1479483.6289669094,10.5,10501479483.628967,47.655,-122.3035,60.0,14.25
2026-01-20T23:14:16+00:00,SAT-66188,161.170135133263,42.21582715616473,239003.12773607738,-39.029908856800034,1366992.5045159087,10.5,10501366992.504517,47.655,-122.3035,60.0,14.266666666666667
2026-01-20T23:14:17+00:00,SAT-66188,159.538903951603,41.355051126882614,238964.20190697754,-35.791338179899746,1253564.0602704799,10.5,10501253564.06027,47.655,-122.3035,60.0,14.283333333333333
2026-01-20T23:14:18+00:00,SAT-66188,157.95103919656628,40.47127595248125,238928.50601236612,-32.52822954868126,1139276.1930693842,10.5,10501139276.19307,47.655,-122.3035,60.0,14.3
