satellites_20260120_184412/SAT-47366.csv

timestamp,satellite,azimuth_deg,elevation_deg,distance_km,relative_velocity_kms,doppler_shift_hz,tx_freq_ghz,rx_freq_hz,ue_lat,ue_lon,ue_alt_m,time_minutes
2026-01-20T23:11:30+00:00,SAT-47366,182.22013625445527,40.26049041579327,881.6472627276363,-4.164698312787277,145865.35157020667,10.5,10500145865.35157,47.655,-122.3035,60.0,11.5
2026-01-20T23:11:31+00:00,SAT-47366,182.18849834290623,40.65007077961952,877.4936702770163,-4.129071027387191,144617.53333222782,10.5,10500144617.533333,47.655,-122.3035,60.0,11.516666666666667
2026-01-20T23:11:32+00:00,SAT-47366,182.1566225313016,41.043098125336364,873.3756101057022,-4.092933095803258,143351.83010485946,10.5,10500143351.830105,47.655,-122.3035,60.0,11.533333333333333
2026-01-20T23:11:33+00:00,SAT-47366,182.12450089520948,41.43959111387173,869.2935914981545,-4.0562794340122705,142068.06382410342,10.5,10500142068.063824,47.655,-122.3035,60.0,11.55
2026-01-20T23:11:34+00:00,SAT-47366,182.0921251606793,41.839567601038354,865.2481288092996,-4.019105009020222,140766.05821322007,10.5,10500140766.058212,47.655,-122.3035,60.0,11.566666666666666
2026-01-20T23:11:35+00:00,SAT-47366,182.05948668512997,42.243044588260055,861.2397414136367,-3.9814049316642572,139445.6420330451,10.5,10500139445.642033,47.655,-122.3035,60.0,11.583333333333334
2026-01-20T23:11:36+00:00,SAT-47366,182.02657643624778,42.650038180302396,857.2689535617903,-3.9431744118247867,138106.64751332824,10.5,10500138106.647512,47.655,-122.3035,60.0,11.6
2026-01-20T23:11:37+00:00,SAT-47366,181.99338496983955,43.06056353672371,853.3362942817303,-3.9044088062150424,136748.91202652585,10.5,10500136748.912027,47.655,-122.3035,60.0,11.616666666666667
2026-01-20T23:11:38+00:00,SAT-47366,181.95990240590478,43.47463482630635,849.4422972323318,-3.86510358031021,135372.27675439787,10.5,10500135372.276754,47.655,-122.3035,60.0,11.633333333333333
2026-01-20T23:11:39+00:00,SAT-47366,181.92611840338978,43.89226517553317,845.5875005949024,-3.8252543466299707,133976.58802882457,10.5,10500133976.588028,47.655,-122.3035,60.0,11.65
2026-01-20T23:11:40+00:00,SAT-47366,181.89202213297298,44.31346661906375,841.7724469265302,-3.784856897856645,132561.69849174382,10.5,10500132561.698492,47.655,-122.3035,60.0,11.666666666666666
2026-01-20T23:11:41+00:00,SAT-47366,181.85760224759986,44.73825005177275,837.9976829804011,-3.7439071489905023,131127.46506918553,10.5,10500131127.465069,47.655,-122.3035,60.0,11.683333333333334
2026-01-20T23:11:42+00:00,SAT-47366,181.82284685162642,45.16662517263405,834.2637595838079,-3.7024012527582184,129673.75301336398,10.5,10500129673.753014,47.655,-122.3035,60.0,11.7
2026-01-20T23:11:43+00:00,SAT-47366,181.787743466568,45.598600439277476,830.571231401057,-3.6603354971645357,128200.43231450347,10.5,10500128200.432314,47.655,-122.3035,60.0,11.716666666666667
2026-01-20T23:11:44+00:00,SAT-47366,181.75227899555895,46.03418300937503,826.9206567985517,-3.6177063825954194,126707.38040131719,10.5,10500126707.380402,47.655,-122.3035,60.0,11.733333333333333
2026-01-20T23:11:45+00:00,SAT-47366,181.71643968436945,46.473378688487315,823.3125976329765,-3.574510664668115,125194.4836417973,10.5,10500125194.483643,47.655,-122.3035,60.0,11.75
2026-01-20T23:11:46+00:00,SAT-47366,181.6802110791661,46.91619188148352,819.7476189967475,-3.5307452456813584,123661.63354134234,10.5,10500123661.633541,47.655,-122.3035,60.0,11.766666666666667
2026-01-20T23:11:47+00:00,SAT-47366,181.64357798233306,47.362625529005285,816.2262890717212,-3.4864073462658594,122108.73275468299,10.5,10500122108.732754,47.655,-122.3035,60.0,11.783333333333333
2026-01-20T23:11:48+00:00,SAT-47366,181.6065244029902,47.81268106282393,812.7491788117122,-3.4414943744253264,120535.69049914501,10.5,10500120535.690498,47.655,-122.3035,60.0,11.8
2026-01-20T23:11:49+00:00,SAT-47366,181.5690335053129,48.2663583435535,809.3168617556186,-3.396004037102151,118942.42646215131,10.5,10500118942.426462,47.655,-122.3035,60.0,11.816666666666666
2026-01-20T23:11:50+00:00,SAT-47366,181.5310875514818,48.72365561044758,805.9299137292821,-3.3499342983399876,117328.86933589859,10.5,10500117328.869335,47.655,-122.3035,60.0,11.833333333333334
2026-01-20T23:11:51+00:00,SAT-47366,181.49266784066828,49.18456942436094,802.588912589071,-3.3032834276232093,115694.95851040956,10.5,10500115694.958511,47.655,-122.3035,60.0,11.85
2026-01-20T23:11:52+00:00,SAT-47366,181.45375464251885,49.64909461549525,799.2944379172548,-3.2560499662913265,114040.64289722369,10.5,10500114040.642897,47.655,-122.3035,60.0,11.866666666666667
2026-01-20T23:11:53+00:00,SAT-47366,181.4143271257048,50.11722422509531,796.0470707508736,-3.2082327987713293,112365.88342425531,10.5,10500112365.883425,47.655,-122.3035,60.0,11.883333333333333
2026-01-20T23:11:54+00:00,SAT-47366,181.3743632796123,50.58894945547482,792.8473932395657,-3.1598311279925495,110670.65217471807,10.5,10500110670.652174,47.655,-122.3035,60.0,11.9
2026-01-20T23:11:55+00:00,SAT-47366,181.33383982978552,51.06425961550392,789.6959883279144,-3.11084447471696,108954.93236366901,10.5,10500108954.932364,47.655,-122.3035,60.0,11.916666666666666
2026-01-20T23:11:56+00:00,SAT-47366,181.29273214622637,51.54314206459459,786.5934394384633,-3.061272757815406,107218.721149622,10.5,10500107218.72115,47.655,-122.3035,60.0,11.933333333333334
2026-01-20T23:11:57+00:00,SAT-47366,181.2510141425244,52.02558216745941,783.5403300746688,-3.0111162258186632,105462.02723717608,10.5,10500105462.027237,47.655,-122.3035,60.0,11.95
2026-01-20T23:11:58+00:00,SAT-47366,181.20865816716895,52.511563237929785,780.5372434921189,-2.96037551550107,103684.87292886213,10.5,10500103684.872929,47.655,-122.3035,60.0,11.966666666666667
2026-01-20T23:11:59+00:00,SAT-47366,181.16563488421482,53.00106649055327,777.5847623113259,-2.9090516577000294,101887.29432896644,10.5,10500101887.294329,47.655,-122.3035,60.0,11.983333333333333
2026-01-20T23:12:00+00:00,SAT-47366,181.12191314299406,53.4940709926453,774.683468124713,-2.8571460980107166,100069.34206834692,10.5,10500100069.342068,47.655,-122.3035,60.0,12.0
2026-01-20T23:12:01+00:00,SAT-47366,181.0774598353722,53.99055361924996,771.8339410829637,-2.804660670093105,98231.0803695322,10.5,10500098231.08037,47.655,-122.3035,60.0,12.016666666666667
2026-01-20T23:12:02+00:00,SAT-47366,181.0322397400749,54.49048900329341,769.0367595079908,-2.751597669234237,96372.58962318355,10.5,10500096372.589622,47.655,-122.3035,60.0,12.033333333333333
2026-01-20T23:12:03+00:00,SAT-47366,180.98621535071442,54.99384949792119,766.2924994325411,-2.697959812441285,94493.9649903851,10.5,10500094493.96499,47.655,-122.3035,60.0,12.05
2026-01-20T23:12:04+00:00,SAT-47366,180.93934668777146,55.5006051322946,763.6017341795998,-2.6437502659314096,92595.31736545487,10.5,10500092595.317366,47.655,-122.3035,60.0,12.066666666666666
2026-01-20T23:12:05+00:00,SAT-47366,180.89159109137654,56.01072357218999,760.9650339143776,-2.588972661828179,90676.77396072412,10.5,10500090676.77396,47.655,-122.3035,60.0,12.083333333333334
2026-01-20T23:12:06+00:00,SAT-47366,180.84290299280877,56.52417008419499,758.3829651796475,-2.5336311162934515,88738.47894159246,10.5,10500088738.478941,47.655,-122.3035,60.0,12.1
2026-01-20T23:12:07+00:00,SAT-47366,180.79323366195396,57.04090750406822,755.8560904129976,-2.477730189753337,86780.59203347281,10.5,10500086780.592033,47.655,-122.3035,60.0,12.116666666666667
2026-01-20T23:12:08+00:00,SAT-47366,180.74253092926054,57.56089619824626,753.3849675037502,-2.4212749915932403,84803.2921886548,10.5,10500084803.292189,47.655,-122.3035,60.0,12.133333333333333
2026-01-20T23:12:09+00:00,SAT-47366,180.69073887542055,58.084094047201766,750.9701492454678,-2.36427106358039,82806.77350326836,10.5,10500082806.773502,47.655,-122.3035,60.0,12.15
2026-01-20T23:12:10+00:00,SAT-47366,180.63779749005062,58.6104564067279,748.6121829047237,-2.3067245102989378,80791.24978567289,10.5,10500080791.249786,47.655,-122.3035,60.0,12.166666666666666
2026-01-20T23:12:11+00:00,SAT-47366,180.58364228913794,59.13993609767524,746.3116096597856,-2.2486419143711602,78756.95158714493,10.5,10500078756.951588,47.655,-122.3035,60.0,12.183333333333334
2026-01-20T23:12:12+00:00,SAT-47366,180.52820389134467,59.67248338004642,744.0689641238528,-2.1900303944361794,76704.1282325384,10.5,10500076704.128233,47.655,-122.3035,60.0,12.2
2026-01-20T23:12:13+00:00,SAT-47366,180.4714075436643,60.208045941609114,741.8847738104683,-2.130897573099977,74633.04669775834,10.5,10500074633.046698,47.655,-122.3035,60.0,12.216666666666667
2026-01-20T23:12:14+00:00,SAT-47366,180.41317259207094,60.74656888176513,739.7595586308968,-2.0712516338812916,72543.99360424725,10.5,10500072543.993605,47.655,-122.3035,60.0,12.233333333333333
2026-01-20T23:12:15+00:00,SAT-47366,180.35341188661192,61.287994711729844,737.6938303347058,-2.0111012569127955,70437.2729669682,10.5,10500070437.272966,47.655,-122.3035,60.0,12.25
2026-01-20T23:12:16+00:00,SAT-47366,180.29203111533292,61.83226334228541,735.688092014478,-1.9504556797239259,68313.20832327683,10.5,10500068313.208323,47.655,-122.3035,60.0,12.266666666666667
2026-01-20T23:12:17+00:00,SAT-47366,180.22892805253903,62.379312089801196,733.7428375499001,-1.8893246557336882,66172.14127916362,10.5,10500066172.14128,47.655,-122.3035,60.0,12.283333333333333
2026-01-20T23:12:18+00:00,SAT-47366,180.1639917119492,62.929075675395794,731.8585510932483,-1.8277184947017702,64014.43292602306,10.5,10500064014.432926,47.655,-122.3035,60.0,12.3
2026-01-20T23:12:19+00:00,SAT-47366,180.0971013871275,63.48148623891537,730.0357065145324,-1.7656480100120515,61840.461994299214,10.5,10500061840.461994,47.655,-122.3035,60.0,12.316666666666666
2026-01-20T23:12:20+00:00,SAT-47366,180.0281255652753,64.03647334248072,728.2747668992138,-1.7031245674835547,59650.62656305158,10.5,10500059650.626562,47.655,-122.3035,60.0,12.333333333333334
2026-01-20T23:12:21+00:00,SAT-47366,179.9569206897246,64.5939639921921,726.5761839972436,-1.640160052703983,57445.34291583753,10.5,10500057445.342916,47.655,-122.3035,60.0,12.35
2026-01-20T23:12:22+00:00,SAT-47366,179.8833297499683,65.15388265567613,724.94039770468,-1.5767668717560943,55225.045566152934,10.5,10500055225.045567,47.655,-122.3035,60.0,12.366666666666667
2026-01-20T23:12:23+00:00,SAT-47366,179.80718066852705,65.71615128436241,723.367835544582,-1.512957943093808,52990.18697289905,10.5,10500052990.186974,47.655,-122.3035,60.0,12.383333333333333
2026-01-20T23:12:24+00:00,SAT-47366,179.72828445044607,66.28068933861502,721.858912156003,-1.4487466906085635,50741.237297537074,10.5,10500050741.237297,47.655,-122.3035,60.0,12.4
2026-01-20T23:12:25+00:00,SAT-47366,179.6464330532095,66.8474138155271,720.4140287899028,-1.3841470488975243,48478.68458860297,10.5,10500048478.68459,47.655,-122.3035,60.0,12.416666666666666
2026-01-20T23:12:26+00:00,SAT-47366,179.56139692582684,67.41623928485022,719.0335727998023,-1.3191734211692612,46203.03330738641,10.5,10500046203.033308,47.655,-122.3035,60.0,12.433333333333334
2026-01-20T23:12:27+00:00,SAT-47366,179.472922158755,67.98707791473122,717.7179171744228,-1.2538407063322459,43914.80527668438,10.5,10500043914.805277,47.655,-122.3035,60.0,12.45
2026-01-20T23:12:28+00:00,SAT-47366,179.3807271657445,68.55983951372633,716.4674200433075,-1.1881642489931425,41614.53792952989,10.5,10500041614.53793,47.655,-122.3035,60.0,12.466666666666667
2026-01-20T23:12:29+00:00,SAT-47366,179.28449881147927,69.1344315581494,715.2824242323117,-1.1221598536816224,39302.78480740512,10.5,10500039302.784807,47.655,-122.3035,60.0,12.483333333333333
2026-01-20T23:12:30+00:00,SAT-47366,179.18388786855616,69.71075923075314,714.1632568049065,-1.0558437588598806,36980.11464994475,10.5,10500036980.11465,47.655,-122.3035,60.0,12.5
2026-01-20T23:12:31+00:00,SAT-47366,179.07850366758618,70.28872545332106,713.1102286294037,-0.9892326065228326,34647.11033020631,10.5,10500034647.11033,47.655,-122.3035,60.0,12.516666666666667
2026-01-20T23:12:32+00:00,SAT-47366,178.96790776931596,70.86823090844604,712.1236339764981,-0.9223434535584797,32304.369252558172,10.5,10500032304.369253,47.655,-122.3035,60.0,12.533333333333333
2026-01-20T23:12:33+00:00,SAT-47366,178.85160643825995,71.4491740707199,711.2037501054825,-0.8551937225940367,29952.501631103023,10.5,10500029952.50163,47.655,-122.3035,60.0,12.55
2026-01-20T23:12:34+00:00,SAT-47366,178.7290416526802,72.03145121420607,710.350836899482,-0.7878012064255737,27592.130644822704,10.5,10500027592.130646,47.655,-122.3035,60.0,12.566666666666666
2026-01-20T23:12:35+00:00,SAT-47366,178.59958029994363,72.61495642264163,709.5651364962736,-0.7201840205867562,25223.890776334807,10.5,10500025223.890776,47.655,-122.3035,60.0,12.583333333333334
2026-01-20T23:12:36+00:00,SAT-47366,178.46250112432827,73.19958156808549,708.8468729664083,-0.6523606076257674,22848.427961688612,10.5,10500022848.427961,47.655,-122.3035,60.0,12.6
2026-01-20T23:12:37+00:00,SAT-47366,178.3169788527469,73.78521628660698,708.1962519870696,-0.5843496941073755,20466.398084395583,10.5,10500020466.398085,47.655,-122.3035,60.0,12.616666666666667
2026-01-20T23:12:38+00:00,SAT-47366,178.16206477080448,74.37174791408464,707.6134605588132,-0.516170272338748,18078.46633539011,10.5,10500018078.466335,47.655,-122.3035,60.0,12.633333333333333
2026-01-20T23:12:39+00:00,SAT-47366,177.9966627829794,74.95906138965364,707.098666740534,-0.44784157654283824,15685.306378520709,10.5,10500015685.30638,47.655,-122.3035,60.0,12.65
2026-01-20T23:12:40+00:00,SAT-47366,177.8194996857628,75.54703911370541,706.6520194081954,-0.3793830539256888,13287.599337204581,10.5,10500013287.599337,47.655,-122.3035,60.0,12.666666666666666
2026-01-20T23:12:41+00:00,SAT-47366,177.62908795777759,76.13556074090543,706.2736480424134,-0.31081433959946986,10886.032916126374,10.5,10500010886.032917,47.655,-122.3035,60.0,12.683333333333334
2026-01-20T23:12:42+00:00,SAT-47366,177.4236787758146,76.72450289231239,705.9636625410529,-0.2421552287489345,8481.300426389686,10.5,10500008481.300426,47.655,-122.3035,60.0,12.7
2026-01-20T23:12:43+00:00,SAT-47366,177.20120213162232,77.31373875832243,705.7221530595806,-0.1734256421703065,6074.0995785431605,10.5,10500006074.099579,47.655,-122.3035,60.0,12.716666666666667
2026-01-20T23:12:44+00:00,SAT-47366,176.9591897372905,77.90313753890378,705.5491898857894,-0.10464561179997706,3665.1319757342235,10.5,10500003665.131975,47.655,-122.3035,60.0,12.733333333333333
2026-01-20T23:12:45+00:00,SAT-47366,176.69467465151624,78.49256370984683,705.4448233289543,-0.03583523614845868,1255.1015528176367,10.5,10500001255.101553,47.655,-122.3035,60.0,12.75
2026-01-20T23:12:46+00:00,SAT-47366,176.40405905315677,79.08187597763965,705.4090836534356,0.03298533830770029,-1155.286075378364,10.5,10499998844.713924,47.655,-122.3035,60.0,12.766666666666667
2026-01-20T23:12:47+00:00,SAT-47366,176.08293771559778,79.67092586910844,705.4419810308411,0.1017959514067366,-3565.3248147114305,10.5,10499996434.675186,47.655,-122.3035,60.0,12.783333333333333
2026-01-20T23:12:48+00:00,SAT-47366,175.7258589363418,80.25955576155124,705.5435055263774,0.17057645679331224,-5974.309054598627,10.5,10499994025.690945,47.655,-122.3035,60.0,12.8
2026-01-20T23:12:49+00:00,SAT-47366,175.32599555902405,80.84759611512571,705.7136271126192,0.2393067525545104,-8381.534741018599,10.5,10499991618.46526,47.655,-122.3035,60.0,12.816666666666666
2026-01-20T23:12:50+00:00,SAT-47366,174.8746841996155,81.434861548114,705.9522957138337,0.3079668085652354,-10786.300334263151,10.5,10499989213.699665,47.655,-122.3035,60.0,12.833333333333334
2026-01-20T23:12:51+00:00,SAT-47366,174.36076706555335,82.0211451488245,706.259441277576,0.37653669798043143,-13187.90791192796,10.5,10499986812.092089,47.655,-122.3035,60.0,12.85
2026-01-20T23:12:52+00:00,SAT-47366,173.7696308052788,82.60621009411615,706.6349738776952,0.44499662356506,-15585.66409109975,10.5,10499984414.335909,47.655,-122.3035,60.0,12.866666666666667
2026-01-20T23:12:53+00:00,SAT-47366,173.08176758692412,83.18977698401604,707.0787838435974,0.5133269471697024,-17978.881060716594,10.5,10499982021.118938,47.655,-122.3035,60.0,12.883333333333333
2026-01-20T23:12:54+00:00,SAT-47366,172.27055921195722,83.77150418136739,707.590741918908,0.5815082178075425,-20366.877564942595,10.5,10499979633.122435,47.655,-122.3035,60.0,12.9
2026-01-20T23:12:55+00:00,SAT-47366,171.29875281332747,84.35095628404802,708.1706994481348,0.6495211947889111,-22748.979713437508,10.5,10499977251.020287,47.655,-122.3035,60.0,12.916666666666666
2026-01-20T23:12:56+00:00,SAT-47366,170.1126434771183,84.92755159598354,708.8184885864042,0.7173468803535699,-25124.522124277333,10.5,10499974875.477877,47.655,-122.3035,60.0,12.933333333333334
2026-01-20T23:12:57+00:00,SAT-47366,168.63204969819574,85.50047059090456,709.5339225417436,0.7849665416066194,-27492.848692242627,10.5,10499972507.151308,47.655,-122.3035,60.0,12.95
2026-01-20T23:12:58+00:00,SAT-47366,166.73215280707302,86.06848756965519,710.3167958392391,0.8523617350265082,-29853.313447192642,10.5,10499970146.686552,47.655,-122.3035,60.0,12.966666666666667
2026-01-20T23:12:59+00:00,SAT-47366,164.20862968373527,86.62964045342643,711.1668846096389,0.9195143291949083,-32205.28135016171,10.5,10499967794.718649,47.655,-122.3035,60.0,12.983333333333333
2026-01-20T23:13:00+00:00,SAT-47366,160.7061339157412,87.18053070625393,712.0839469006227,0.9864065316867494,-34548.12923516198,10.5,10499965451.870766,47.655,-122.3035,60.0,13.0
2026-01-20T23:13:01+00:00,SAT-47366,155.5610220446279,87.71469485882945,713.0677230148916,1.0530209033309934,-36881.246308656075,10.5,10499963118.75369,47.655,-122.3035,60.0,13.016666666666667
2026-01-20T23:13:02+00:00,SAT-47366,147.43792211415027,88.21840291801462,714.1179358624803,1.1193403917741027,-39204.035325091725,10.5,10499960795.964674,47.655,-122.3035,60.0,13.033333333333333
2026-01-20T23:13:03+00:00,SAT-47366,133.5629761839731,88.65891803900834,715.234291346543,1.1853483351379521,-41515.91271501732,10.5,10499958484.087284,47.655,-122.3035,60.0,13.05
2026-01-20T23:13:04+00:00,SAT-47366,109.50618818075833,88.95591214428823,716.4164787527874,1.2510284867017758,-43816.309449548084,10.5,10499956183.69055,47.655,-122.3035,60.0,13.066666666666666
2026-01-20T23:13:05+00:00,SAT-47366,77.26566214196788,88.97882737834837,717.6641711635245,1.3163650419000728,-46104.6719859469,10.5,10499953895.328014,47.655,-122.3035,60.0,13.083333333333334
2026-01-20T23:13:06+00:00,SAT-47366,51.65619408122252,88.71548665044882,718.9770258986462,1.381342635751395,-48380.46217756968,10.5,10499951619.537823,47.655,-122.3035,60.0,13.1
2026-01-20T23:13:07+00:00,SAT-47366,36.691283423460355,88.29567285572338,720.3546849540355,1.4459463652953608,-50643.15805970438,10.5,10499949356.84194,47.655,-122.3035,60.0,13.116666666666667
2026-01-20T23:13:08+00:00,SAT-47366,28.006001978326438,87.8091636478904,721.7967754623569,1.5101618168055377,-52892.254802681346,10.5,10499947107.745197,47.655,-122.3035,60.0,13.133333333333333
2026-01-20T23:13:09+00:00,SAT-47366,22.562918490068316,87.29307873559333,723.3029101809842,1.5739750406513664,-55127.263831431505,10.5,10499944872.736168,47.655,-122.3035,60.0,13.15
2026-01-20T23:13:10+00:00,SAT-47366,18.88969008177341,86.76276017000161,724.8726879548605,1.6373726129964234,-57347.71498642052,10.5,10499942652.285013,47.655,-122.3035,60.0,13.166666666666666
2026-01-20T23:13:11+00:00,SAT-47366,16.260945877086602,86.22530044708242,726.5056942408889,1.7003415921395457,-59553.15499453035,10.5,10499940446.845005,47.655,-122.3035,60.0,13.183333333333334
2026-01-20T23:13:12+00:00,SAT-47366,14.292190942702828,85.68436307480178,728.2015015887828,1.7628695669799412,-61743.14916651233,10.5,10499938256.850834,47.655,-122.3035,60.0,13.2
2026-01-20T23:13:13+00:00,SAT-47366,12.764300713677823,85.14202430184562,729.9596701702508,1.8249446422062645,-63917.280878246034,10.5,10499936082.719122,47.655,-122.3035,60.0,13.216666666666667
2026-01-20T23:13:14+00:00,SAT-47366,11.544405843769702,84.59955396456155,731.7797482934112,1.8865554453895867,-66075.15181916504,10.5,10499933924.84818,47.655,-122.3035,60.0,13.233333333333333
2026-01-20T23:13:15+00:00,SAT-47366,10.547677538897517,84.05777950681498,733.6612729242797,1.9476911400201231,-68216.38244885832,10.5,10499931783.617552,47.655,-122.3035,60.0,13.25
2026-01-20T23:13:16+00:00,SAT-47366,9.71758930541867,83.51726979653398,735.6037702212598,2.0083414107015205,-70340.61147851146,10.5,10499929659.388521,47.655,-122.3035,60.0,13.266666666666667
2026-01-20T23:13:17+00:00,SAT-47366,9.01510026101114,82.97843432534047,737.6067560548661,2.0684964957260896,-72447.49701182924,10.5,10499927552.502989,47.655,-122.3035,60.0,13.283333333333333
2026-01-20T23:13:18+00:00,SAT-47366,8.412417030264216,82.44157978575792,739.6697365599368,2.12814715853268,-74536.71554536953,10.5,10499925463.284454,47.655,-122.3035,60.0,13.3
2026-01-20T23:13:19+00:00,SAT-47366,7.889234789859699,81.90694389387373,741.7922086593802,2.187284675077795,-76607.96152622641,10.5,10499923392.038473,47.655,-122.3035,60.0,13.316666666666666
2026-01-20T23:13:20+00:00,SAT-47366,7.430384792871592,81.37471643085291,743.9736605753244,2.245900884715,-78660.94913404227,10.5,10499921339.050865,47.655,-122.3035,60.0,13.333333333333334
2026-01-20T23:13:21+00:00,SAT-47366,7.024312909578176,80.84505277672022,746.2135723910135,2.303988135067182,-80695.41035020103,10.5,10499919304.58965,47.655,-122.3035,60.0,13.35
2026-01-20T23:13:22+00:00,SAT-47366,6.662066961107646,80.31808289854249,748.5114165577205,2.3615393092676324,-82711.0959119263,10.5,10499917288.904089,47.655,-122.3035,60.0,13.366666666666667
2026-01-20T23:13:23+00:00,SAT-47366,6.336605424542469,79.79391746595753,750.8666584288301,2.418547799707198,-84707.77439279536,10.5,10499915292.225607,47.655,-122.3035,60.0,13.383333333333333
2026-01-20T23:13:24+00:00,SAT-47366,6.042314834122616,79.27265212013613,753.2787567677382,2.4750075113945003,-86685.23232042833,10.5,10499913314.76768,47.655,-122.3035,60.0,13.4
2026-01-20T23:13:25+00:00,SAT-47366,5.774666073565448,78.7543705130901,755.7471642591022,2.5309128661521796,-88643.27432345842,10.5,10499911356.725677,47.655,-122.3035,60.0,13.416666666666666
2026-01-20T23:13:26+00:00,SAT-47366,5.529965162875365,78.2391465130934,758.2713280242781,2.586258776432776,-90581.72221445327,10.5,10499909418.277786,47.655,-122.3035,60.0,13.433333333333334
2026-01-20T23:13:27+00:00,SAT-47366,5.30516962210429,77.72704583931842,760.8506901106402,2.6410406517402163,-92500.41521482261,10.5,10499907499.584785,47.655,-122.3035,60.0,13.45
2026-01-20T23:13:28+00:00,SAT-47366,5.097751160842537,77.21812728884233,763.4846879873091,2.6952543629543073,-94399.20870531115,10.5,10499905600.791294,47.655,-122.3035,60.0,13.466666666666667
2026-01-20T23:13:29+00:00,SAT-47366,4.9055916349609765,76.71244367965599,766.1727550052956,2.748896289054559,-96277.9758624644,10.5,10499903722.024137,47.655,-122.3035,60.0,13.483333333333333
2026-01-20T23:13:30+00:00,SAT-47366,4.726903242024236,76.21004257296397,768.9143209042461,2.8019632418501663,-98136.60502235431,10.5,10499901863.394978,47.655,-122.3035,60.0,13.5
2026-01-20T23:13:31+00:00,SAT-47366,4.560166629661826,75.71096685394936,771.708812244118,2.854452488177905,-99975.00045804355,10.5,10499900024.999542,47.655,-122.3035,60.0,13.516666666666667
2026-01-20T23:13:32+00:00,SAT-47366,4.404082396411492,75.21525519130368,774.555652858994,2.906361750003268,-101793.08238312758,10.5,10499898206.917618,47.655,-122.3035,60.0,13.533333333333333
2026-01-20T23:13:33+00:00,SAT-47366,4.25753272720191,74.72294240861443,777.4542643109974,2.957689155349053,-103590.78523304632,10.5,10499896409.214767,47.655,-122.3035,60.0,13.55
2026-01-20T23:13:34+00:00,SAT-47366,4.119550780385732,74.23405979693005,780.4040662952655,3.0084332845614012,-105368.0592855165,10.5,10499894631.940714,47.655,-122.3035,60.0,13.566666666666666
2026-01-20T23:13:35+00:00,SAT-47366,3.9892960573241885,73.74863536695396,783.404477091068,3.0585930690538703,-107124.86711412079,10.5,10499892875.132885,47.655,-122.3035,60.0,13.583333333333334
2026-01-20T23:13:36+00:00,SAT-47366,3.8660344397297712,73.2666940773378,786.4549139119378,3.108167878006931,-108861.18662489094,10.5,10499891138.813375,47.655,-122.3035,60.0,13.6
2026-01-20T23:13:37+00:00,SAT-47366,3.7491218894135963,72.78825801603007,789.5547933422699,3.1571574557671087,-110577.00886376081,10.5,10499889422.991137,47.655,-122.3035,60.0,13.616666666666667
2026-01-20T23:13:38+00:00,SAT-47366,3.637991054907809,72.31334656634152,792.7035317114884,3.2055618866729665,-112272.33678462368,10.5,10499887727.663216,47.655,-122.3035,60.0,13.633333333333333
2026-01-20T23:13:39+00:00,SAT-47366,3.532140197398947,71.84197655720875,795.9005454331302,3.253381632600473,-113947.18656432968,10.5,10499886052.813437,47.655,-122.3035,60.0,13.65
2026-01-20T23:13:40+00:00,SAT-47366,3.431123978942064,71.37416239050731,799.1452513813771,3.300617476665597,-115601.5856309126,10.5,10499884398.41437,47.655,-122.3035,60.0,13.666666666666666
2026-01-20T23:13:41+00:00,SAT-47366,3.334545760149609,70.90991616273905,802.4370672114381,3.3472705548063524,-117235.57376972672,10.5,10499882764.42623,47.655,-122.3035,60.0,13.683333333333334
2026-01-20T23:13:42+00:00,SAT-47366,3.2420511247020856,70.44924777024272,805.7754117114318,3.393342303509725,-118849.20129262262,10.5,10499881150.798708,47.655,-122.3035,60.0,13.7
2026-01-20T23:13:43+00:00,SAT-47366,3.153322410437289,69.99216501204684,809.1597051021322,3.4388344459648463,-120442.52855297277,10.5,10499879557.471447,47.655,-122.3035,60.0,13.716666666666667
2026-01-20T23:13:44+00:00,SAT-47366,3.0680740685537256,69.53867368580306,812.5893693229077,3.4837490225850227,-122015.62701468208,10.5,10499877984.372986,47.655,-122.3035,60.0,13.733333333333333
2026-01-20T23:13:45+00:00,SAT-47366,2.986048707345657,69.08877767221438,816.0638283480992,3.5280883256838287,-123568.5769642684,10.5,10499876431.423037,47.655,-122.3035,60.0,13.75
2026-01-20T23:13:46+00:00,SAT-47366,2.9070137074004387,68.6424790218229,819.5825084382478,3.571854918796104,-125101.4681875656,10.5,10499874898.531813,47.655,-122.3035,60.0,13.766666666666667
2026-01-20T23:13:47+00:00,SAT-47366,2.8307583127733777,68.1997780333317,823.1448384105938,3.6150516247366897,-126614.39955148986,10.5,10499873385.600449,47.655,-122.3035,60.0,13.783333333333333
2026-01-20T23:13:48+00:00,SAT-47366,2.7570911224290655,67.76067332844879,826.7502498976645,3.6576814755157567,-128107.47724986279,10.5,10499871892.52275,47.655,-122.3035,60.0,13.8
2026-01-20T23:13:49+00:00,SAT-47366,2.685837919685828,67.325161928261,830.3981775559123,3.6997477815124666,-129580.8172261655,10.5,10499870419.182774,47.655,-122.3035,60.0,13.816666666666666
2026-01-20T23:13:50+00:00,SAT-47366,2.6168397860731942,66.89323931689334,834.0880593433407,3.7412539869192303,-131034.54011058515,10.5,10499868965.45989,47.655,-122.3035,60.0,13.833333333333334
2026-01-20T23:13:51+00:00,SAT-47366,2.5499514599729953,66.46489951865685,837.8193366529614,3.782203822799203,-132468.77658073584,10.5,10499867531.22342,47.655,-122.3035,60.0,13.85
2026-01-20T23:13:52+00:00,SAT-47366,2.4850398998867975,66.04013515325599,841.5914545989,3.8226011288066086,-133883.66111755016,10.5,10499866116.338882,47.655,-122.3035,60.0,13.866666666666667
2026-01-20T23:13:53+00:00,SAT-47366,2.421983027352996,65.61893750850214,845.4038621246964,3.862450000670964,-135279.33717080075,10.5,10499864720.662828,47.655,-122.3035,60.0,13.883333333333333
2026-01-20T23:13:54+00:00,SAT-47366,2.360668619946422,65.20129659277009,849.2560122586988,3.9017546284661817,-136655.95149459998,10.5,10499863344.048506,47.655,-122.3035,60.0,13.9
2026-01-20T23:13:55+00:00,SAT-47366,2.3009933374515064,64.78720120265825,853.1473622081558,3.9405194075920402,-138013.65803444068,10.5,10499861986.341965,47.655,-122.3035,60.0,13.916666666666666
2026-01-20T23:13:56+00:00,SAT-47366,2.24286185986131,64.37663897527342,857.0773735639943,3.978748855115498,-139352.61499711487,10.5,10499860647.385002,47.655,-122.3035,60.0,13.933333333333334
2026-01-20T23:13:57+00:00,SAT-47366,2.1861861245783833,63.96959644694776,861.0455124221628,4.016447643729044,-140672.98604007898,10.5,10499859327.01396,47.655,-122.3035,60.0,13.95
2026-01-20T23:13:58+00:00,SAT-47366,2.130884648599854,63.5660591055932,865.051249538842,4.053620529368138,-141974.93773631038,10.5,10499858025.062263,47.655,-122.3035,60.0,13.966666666666667
2026-01-20T23:13:59+00:00,SAT-47366,2.076881925839021,63.16601144791322,869.0940604134651,4.0902724491666245,-143258.64300512042,10.5,10499856741.356995,47.655,-122.3035,60.0,13.983333333333333
2026-01-20T23:14:00+00:00,SAT-47366,2.024107888461872,62.769437024161356,873.1734254694339,4.126408372729021,-144524.27590308065,10.5,10499855475.724096,47.655,-122.3035,60.0,14.0
2026-01-20T23:14:01+00:00,SAT-47366,1.9724974267146778,62.37631849542665,877.2888300865022,4.1620334189391075,-145772.01571515395,10.5,10499854227.984285,47.655,-122.3035,60.0,14.016666666666667
2026-01-20T23:14:02+00:00,SAT-47366,1.9219899576191506,61.98663767686843,881.4397647496576,4.197152769635249,-147002.04393123896,10.5,10499852997.956068,47.655,-122.3035,60.0,14.033333333333333
2026-01-20T23:14:03+00:00,SAT-47366,1.8725290385404303,61.60037558722092,885.6257251119071,4.231771712092475,-148214.54573407245,10.5,10499851785.454266,47.655,-122.3035,60.0,14.05
2026-01-20T23:14:04+00:00,SAT-47366,1.8240620192922765,61.21751249198814,889.846212099434,4.265895556722906,-149409.70711674984,10.5,10499850590.292883,47.655,-122.3035,60.0,14.066666666666666
2026-01-20T23:14:05+00:00,SAT-47366,1.7765397292774268,60.838027952140564,894.1007319346724,4.299529721986692,-150587.7178566656,10.5,10499849412.282143,47.655,-122.3035,60.0,14.083333333333334
2026-01-20T23:14:06+00:00,SAT-47366,1.7299161944232242,60.46190086281206,898.3887962440671,4.332679666873239,-151748.7691507203,10.5,10499848251.23085,47.655,-122.3035,60.0,14.1
2026-01-20T23:14:07+00:00,SAT-47366,1.6841483816739642,60.08910949627139,902.7099220984953,4.365350903299482,-152893.05404956036,10.5,10499847106.94595,47.655,-122.3035,60.0,14.116666666666667
2026-01-20T23:14:08+00:00,SAT-47366,1.6391959675430696,59.71963154170866,907.0636320660526,4.397548989991686,-154020.76724329306,10.5,10499845979.232758,47.655,-122.3035,60.0,14.133333333333333
2026-01-20T23:14:09+00:00,SAT-47366,1.595021128096883,59.353444143700074,911.4494542587378,4.429279477135993,-155132.1031229142,10.5,10499844867.896877,47.655,-122.3035,60.0,14.15
2026-01-20T23:14:10+00:00,SAT-47366,1.5515883485960016,58.99052394339287,915.8669223239347,4.460548020919208,-156227.25979201146,10.5,10499843772.740208,47.655,-122.3035,60.0,14.166666666666666
2026-01-20T23:14:11+00:00,SAT-47366,1.5088642493313076,58.63084710831377,920.3155755501314,4.491360232047045,-157306.43376123215,10.5,10499842693.566238,47.655,-122.3035,60.0,14.183333333333334
2026-01-20T23:14:12+00:00,SAT-47366,1.4668174280722048,58.27438937307146,924.7949588215597,4.521721771784443,-158369.8233120216,10.5,10499841630.176687,47.655,-122.3035,60.0,14.2
2026-01-20T23:14:13+00:00,SAT-47366,1.425418315494184,57.921126070343284,929.3046226686193,4.551638306522117,-159417.62690535138,10.5,10499840582.373095,47.655,-122.3035,60.0,14.216666666666667
2026-01-20T23:14:14+00:00,SAT-47366,1.3846390434516462,57.57103216394406,933.8441232729907,4.581115500018081,-160450.04290998488,10.5,10499839549.95709,47.655,-122.3035,60.0,14.233333333333333
2026-01-20T23:14:15+00:00,SAT-47366,1.3444533243746157,57.22408228088293,938.4130224650088,4.610159057902824,-161467.27116123668,10.5,10499838532.728838,47.655,-122.3035,60.0,14.25
2026-01-20T23:14:16+00:00,SAT-47366,1.3048363405469783,56.88025073844924,943.0108877654238,4.638774603255052,-162469.50860310852,10.5,10499837530.491396,47.655,-122.3035,60.0,14.266666666666667
2026-01-20T23:14:17+00:00,SAT-47366,1.2657646432566467,56.539511579250195,947.6372923030702,4.666967830566859,-163456.95468080128,10.5,10499836543.045319,47.655,-122.3035,60.0,14.283333333333333
2026-01-20T23:14:18+00:00,SAT-47366,1.2272160591953067,56.201838593106565,952.2918148860889,4.694744378436201,-164429.8068818666,10.5,10499835570.19312,47.655,-122.3035,60.0,14.3
2026-01-20T23:14:19+00:00,SAT-47366,1.1891696051310914,55.86720534715799,956.9740399461826,4.722109894696148,-165388.263017309,10.5,10499834611.736982,47.655,-122.3035,60.0,14.316666666666666
2026-01-20T23:14:20+00:00,SAT-47366,1.151605408997854,55.53558520972146,961.6835575478262,4.74906998668063,-166332.51947968156,10.5,10499833667.48052,47.655,-122.3035,60.0,14.333333333333334
2026-01-20T23:14:21+00:00,SAT-47366,1.1145046373781593,55.20695137646859,966.4199633478758,4.775630238782408,-167262.7718580408,10.5,10499832737.228142,47.655,-122.3035,60.0,14.35
2026-01-20T23:14:22+00:00,SAT-47366,1.0778494285189693,54.88127689397942,971.182858572688,4.8017962256429,-168179.21539990994,10.5,10499831820.7846,47.655,-122.3035,60.0,14.366666666666667
2026-01-20T23:14:23+00:00,SAT-47366,1.0416228303549273,54.558534681192214,975.9718500083959,4.827573500422859,-169082.0446004683,10.5,10499830917.9554,47.655,-122.3035,60.0,14.383333333333333
2026-01-20T23:14:24+00:00,SAT-47366,1.0058087432555871,54.2386975505497,980.7865499794843,4.8529675302212265,-169971.45094064667,10.5,10499830028.549059,47.655,-122.3035,60.0,14.4
2026-01-20T23:14:25+00:00,SAT-47366,0.9703918673798206,53.92173823226054,985.6265762629582,4.877983813738555,-170847.6270081979,10.5,10499829152.372992,47.655,-122.3035,60.0,14.416666666666666
2026-01-20T23:14:26+00:00,SAT-47366,0.9353576532665895,53.60762938956728,990.4915521198602,4.9026277742893845,-171710.76275053772,10.5,10499828289.23725,47.655,-122.3035,60.0,14.433333333333334
2026-01-20T23:14:27+00:00,SAT-47366,0.9006922565425503,53.29634364013374,995.3811062200848,4.926904808282591,-172561.04717273172,10.5,10499827438.952827,47.655,-122.3035,60.0,14.45
2026-01-20T23:14:28+00:00,SAT-47366,0.8663824956614917,52.98785357314887,1000.2948726155453,4.950820257174513,-173398.6673551754,10.5,10499826601.332645,47.655,-122.3035,60.0,14.466666666666667
2026-01-20T23:14:29+00:00,SAT-47366,0.8324158127324599,52.68213176725823,1005.2324906853673,4.9743794265641785,-174223.80912238915,10.5,10499825776.190878,47.655,-122.3035,60.0,14.483333333333333
2026-01-20T23:14:30+00:00,SAT-47366,0.7987802370253567,52.37915080631282,1010.1936051001275,4.9975875891986465,-175036.65714827884,10.5,10499824963.342852,47.655,-122.3035,60.0,14.5
2026-01-20T23:14:31+00:00,SAT-47366,0.7654643509510518,52.078883294066955,1015.1778657890882,5.020449940339889,-175837.3933928946,10.5,10499824162.606607,47.655,-122.3035,60.0,14.516666666666667
2026-01-20T23:14:32+00:00,SAT-47366,0.732457258624501,51.78130187071092,1020.1849278629204,5.042971655717212,-176626.19913217003,10.5,10499823373.800867,47.655,-122.3035,60.0,14.533333333333333
2026-01-20T23:14:33+00:00,SAT-47366,0.6997485562178986,51.486379225031015,1025.2144515942225,5.0651578480665895,-177403.25343574584,10.5,10499822596.746565,47.655,-122.3035,60.0,14.55
2026-01-20T23:14:34+00:00,SAT-47366,0.6673283045627773,51.194088108404166,1030.266102354694,5.08701357325649,-178168.73338152206,10.5,10499821831.266619,47.655,-122.3035,60.0,14.566666666666666
2026-01-20T23:14:35+00:00,SAT-47366,0.6351870034705359,50.90440134762018,1035.339550558422,5.108543830531444,-178922.8140641889,10.5,10499821077.185936,47.655,-122.3035,60.0,14.583333333333334
2026-01-20T23:14:36+00:00,SAT-47366,0.6033155678002533,50.617291856909766,1040.4344716054054,5.129753581130795,-179665.66924733427,10.5,10499820334.330753,47.655,-122.3035,60.0,14.6
2026-01-20T23:14:37+00:00,SAT-47366,0.5717053049028358,50.33273264823636,1045.5505458436533,5.150647732938437,-180397.4708258124,10.5,10499819602.529175,47.655,-122.3035,60.0,14.616666666666667
2026-01-20T23:14:38+00:00,SAT-47366,0.540347893666901,50.0506968417866,1050.6874585159703,5.171231118920318,-181118.38807053425,10.5,10499818881.611929,47.655,-122.3035,60.0,14.633333333333333
2026-01-20T23:14:39+00:00,SAT-47366,0.5092353649151391,49.771157677012056,1055.8448996852403,5.191508516135666,-181828.58829432094,10.5,10499818171.411705,47.655,-122.3035,60.0,14.65
2026-01-20T23:14:40+00:00,SAT-47366,0.4783600829949968,49.494088521926415,1061.022564178666,5.211484661736522,-182528.23741227502,10.5,10499817471.762589,47.655,-122.3035,60.0,14.666666666666666
2026-01-20T23:14:41+00:00,SAT-47366,0.44771472840872933,49.21946288098065,1066.2201515479715,5.231164244795295,-183217.49965554703,10.5,10499816782.500345,47.655,-122.3035,60.0,14.683333333333334
2026-01-20T23:14:42+00:00,SAT-47366,0.4172922815677026,48.947254402853744,1071.4373660214474,5.250551832271387,-183896.53497837347,10.5,10499816103.465021,47.655,-122.3035,60.0,14.7
2026-01-20T23:14:43+00:00,SAT-47366,0.3870860078314484,48.677436891556255,1076.6739163821658,5.2696520233389785,-184565.50446328864,10.5,10499815434.495537,47.655,-122.3035,60.0,14.716666666666667
2026-01-20T23:14:44+00:00,SAT-47366,0.35708944281355837,48.40998430891135,1081.9295160001093,5.288469299182297,-185224.56506031955,10.5,10499814775.43494,47.655,-122.3035,60.0,14.733333333333333
2026-01-20T23:14:45+00:00,SAT-47366,0.3272963791676626,48.14487078443886,1087.2038827144938,5.307008077547292,-185873.8714976164,10.5,10499814126.128502,47.655,-122.3035,60.0,14.75
2026-01-20T23:14:46+00:00,SAT-47366,0.2977008539674779,47.88207062182568,1092.496738770501,5.32527274808908,-186513.5775194696,10.5,10499813486.42248,47.655,-122.3035,60.0,14.766666666666667
2026-01-20T23:14:47+00:00,SAT-47366,0.26829713662858556,47.62155830321349,1097.8078107912618,5.343267628509407,-187143.8343500582,10.5,10499812856.16565,47.655,-122.3035,60.0,14.783333333333333
2026-01-20T23:14:48+00:00,SAT-47366,0.23907971775497996,47.36330849527921,1103.136829706095,5.360996985125822,-187764.79141386916,10.5,10499812235.208586,47.655,-122.3035,60.0,14.8
2026-01-20T23:14:49+00:00,SAT-47366,0.21004329850516454,47.10729605389627,1108.4835306992607,5.378465016777375,-188376.59577200716,10.5,10499811623.404228,47.655,-122.3035,60.0,14.816666666666666
2026-01-20T23:14:50+00:00,SAT-47366,0.18118278066300839,46.853496029176064,1113.84765314266,5.395675824966452,-188979.39107643513,10.5,10499811020.608923,47.655,-122.3035,60.0,14.833333333333334
2026-01-20T23:14:51+00:00,SAT-47366,0.15249325735372082,46.60188367152144,1119.22894049876,5.412633531500855,-189573.32169029745,10.5,10499810426.67831,47.655,-122.3035,60.0,14.85
2026-01-20T23:14:52+00:00,SAT-47366,0.12397000384406898,46.352434431767335,1124.6271403408434,5.4293421479748245,-190158.52811659346,10.5,10499809841.471884,47.655,-122.3035,60.0,14.866666666666667
2026-01-20T23:14:53+00:00,SAT-47366,0.09560846933106985,46.10512396720902,1130.0420042430903,5.445805627329599,-190735.14880404627,10.5,10499809264.851196,47.655,-122.3035,60.0,14.883333333333333
2026-01-20T23:14:54+00:00,SAT-47366,0.06740426902218899,45.859928144817296,1135.4732877220802,5.462027882471272,-191303.32079917888,10.5,10499808696.679201,47.655,-122.3035,60.0,14.9
2026-01-20T23:14:55+00:00,SAT-47366,0.039353176526794945,45.61682304333224,1140.9207501968651,5.478012740414515,-191863.1781402333,10.5,10499808136.82186,47.655,-122.3035,60.0,14.916666666666666
2026-01-20T23:14:56+00:00,SAT-47366,0.01145111688459027,45.375784957145164,1146.384154903305,5.4937640117713284,-192414.85429096068,10.5,10499807585.14571,47.655,-122.3035,60.0,14.933333333333334
2026-01-20T23:14:57+00:00,SAT-47366,359.98369415965016,45.13679039681391,1151.8632688777116,5.509285427669033,-192958.47993122245,10.5,10499807041.52007,47.655,-122.3035,60.0,14.95
2026-01-20T23:14:58+00:00,SAT-47366,359.95607851263037,44.89981609214786,1157.3578628775736,5.524580641567153,-193494.18302062523,10.5,10499806505.816978,47.655,-122.3035,60.0,14.966666666666667
2026-01-20T23:14:59+00:00,SAT-47366,359.92860051591043,44.66483899492945,1162.8677113040965,5.539653275401608,-194022.09041468575,10.5,10499805977.909586,47.655,-122.3035,60.0,14.983333333333333
