satellites_20260120_184412/SAT-66489.csv

timestamp,satellite,azimuth_deg,elevation_deg,distance_km,relative_velocity_kms,doppler_shift_hz,tx_freq_ghz,rx_freq_hz,ue_lat,ue_lon,ue_alt_m,time_minutes
2026-01-20T23:00:01+00:00,SAT-66489,101.16019895079604,40.12573051506623,231390.34660947052,-16.641245751845485,582846.8186293653,10.5,10500582846.81863,47.655,-122.3035,60.0,0.016666666666666666
2026-01-20T23:00:02+00:00,SAT-66489,99.23885103157092,40.52460544391576,231373.74974037404,-12.704823261337241,444976.6519611411,10.5,10500444976.65196,47.655,-122.3035,60.0,0.03333333333333333
2026-01-20T23:00:03+00:00,SAT-66489,97.29505128065865,40.891200376982866,231361.07879664138,-8.757519177090938,306725.3658511144,10.5,10500306725.36585,47.655,-122.3035,60.0,0.05
2026-01-20T23:00:04+00:00,SAT-66489,95.33022257265166,41.22471066377273,231352.34463084876,-4.802138859640297,168191.21589183915,10.5,10500168191.215893,47.655,-122.3035,60.0,0.06666666666666667
2026-01-20T23:00:05+00:00,SAT-66489,93.34595701124131,41.52438380787068,231347.55529769274,-0.8414983037859438,29472.830132879495,10.5,10500029472.830133,47.655,-122.3035,60.0,0.08333333333333333
2026-01-20T23:00:06+00:00,SAT-66489,91.34400982120204,41.78952645876877,231346.71604338443,3.121578205948425,-109330.87303503299,10.5,10499890669.126965,47.655,-122.3035,60.0,0.1
2026-01-20T23:00:07+00:00,SAT-66489,89.32629029536874,42.01951116836654,231349.82929738186,7.084260528493393,-248120.7701001625,10.5,10499751879.2299,47.655,-122.3035,60.0,0.11666666666666667
2026-01-20T23:00:08+00:00,SAT-66489,87.2948497910199,42.21378276643907,231356.8946665489,11.043715075439478,-386797.6168103419,10.5,10499613202.38319,47.655,-122.3035,60.0,0.13333333333333333
2026-01-20T23:00:09+00:00,SAT-66489,85.25186685220243,42.37186421124921,231367.90893171748,14.997107232960458,-525262.1329989723,10.5,10499474737.867,47.655,-122.3035,60.0,0.15
2026-01-20T23:00:10+00:00,SAT-66489,83.19962963554086,42.49336177569848,231382.8660466645,18.94160373657394,-663415.0857591834,10.5,10499336584.91424,47.655,-122.3035,60.0,0.16666666666666666
2026-01-20T23:00:11+00:00,SAT-66489,81.14051593018227,42.57796943876895,231401.75713945777,22.874375255694993,-801157.3799658342,10.5,10499198842.620033,47.655,-122.3035,60.0,0.18333333333333332
2026-01-20T23:00:12+00:00,SAT-66489,79.07697112737843,42.625472369350895,231424.57051637943,26.79259871050032,-938390.1394218976,10.5,10499061609.860579,47.655,-122.3035,60.0,0.2
2026-01-20T23:00:13+00:00,SAT-66489,77.0114846390307,42.63574940733559,231451.29166816006,30.693459777118328,-1075014.7946008116,10.5,10498924985.205399,47.655,-122.3035,60.0,0.21666666666666667
2026-01-20T23:00:14+00:00,SAT-66489,74.9465652696049,42.60877447596939,231481.9032787111,34.57415525705537,-1210933.1656338111,10.5,10498789066.834366,47.655,-122.3035,60.0,0.23333333333333334
2026-01-20T23:00:15+00:00,SAT-66489,72.8847161318531,42.544616885881034,231516.3852362208,38.43189561276517,-1346047.5511162935,10.5,10498653952.448883,47.655,-122.3035,60.0,0.25
2026-01-20T23:00:16+00:00,SAT-66489,70.8284096909631,42.44344052224546,231554.71464677862,42.263907424635285,-1480260.8141618776,10.5,10498519739.185839,47.655,-122.3035,60.0,0.26666666666666666
2026-01-20T23:00:17+00:00,SAT-66489,68.78006353607267,42.30550193730453,231596.8658504501,46.067435529771,-1613476.4573116628,10.5,10498386523.542688,47.655,-122.3035,60.0,0.2833333333333333
2026-01-20T23:00:18+00:00,SAT-66489,66.74201745045357,42.13114740191319,231642.81043948513,49.83974574644363,-1745598.717955934,10.5,10498254401.282043,47.655,-122.3035,60.0,0.3
2026-01-20T23:00:19+00:00,SAT-66489,64.71651225321305,41.92080899408442,231692.51727924292,53.578127146263874,-1876532.6479152811,10.5,10498123467.352085,47.655,-122.3035,60.0,0.31666666666666665
2026-01-20T23:00:20+00:00,SAT-66489,62.705670863871205,41.67499982870658,231745.95253138346,57.279894342292856,-2006184.1935799299,10.5,10497993815.80642,47.655,-122.3035,60.0,0.3333333333333333
2026-01-20T23:00:21+00:00,SAT-66489,60.71148192236617,41.39430855058285,231803.07967934085,60.94238954722653,-2134460.2679960635,10.5,10497865539.732004,47.655,-122.3035,60.0,0.35
2026-01-20T23:00:22+00:00,SAT-66489,58.73578620620008,41.07939322710987,231863.85955584928,64.56298570474503,-2261268.8605389227,10.5,10497738731.139462,47.655,-122.3035,60.0,0.36666666666666664
2026-01-20T23:00:23+00:00,SAT-66489,56.780265943507736,40.73097477768956,231928.25037359213,68.13908767697423,-2386519.0785027333,10.5,10497613480.921497,47.655,-122.3035,60.0,0.38333333333333336
2026-01-20T23:00:24+00:00,SAT-66489,54.84643711983465,40.349830094087935,231996.20775703533,71.66813541857435,-2510121.258270716,10.5,10497489878.74173,47.655,-122.3035,60.0,0.4
2026-01-20T23:04:04+00:00,SAT-66489,100.07978167763075,40.36390378161921,231494.43914996955,-16.163897492975796,566128.0634226158,10.5,10500566128.063423,47.655,-122.3035,60.0,4.066666666666666
2026-01-20T23:04:05+00:00,SAT-66489,98.14492205211151,40.74452360249231,231478.31835620324,-12.21733595863127,427902.7845511322,10.5,10500427902.784552,47.655,-122.3035,60.0,4.083333333333333
2026-01-20T23:04:06+00:00,SAT-66489,96.18837448640788,41.09238556775817,231466.13359980713,-8.260257716892484,289309.16610107344,10.5,10500289309.166101,47.655,-122.3035,60.0,4.1
2026-01-20T23:04:07+00:00,SAT-66489,94.21166000019089,41.40671263024648,231457.89536944416,-4.295477986910982,150445.80895549184,10.5,10500150445.808956,47.655,-122.3035,60.0,4.116666666666666
2026-01-20T23:04:08+00:00,SAT-66489,92.21646598400656,41.686783937811384,231453.6113460652,-0.32582225491847167,11411.673594016673,10.5,10500011411.673594,47.655,-122.3035,60.0,4.133333333333334
2026-01-20T23:04:09+00:00,SAT-66489,90.20463842517165,41.931941721332315,231453.28639266966,3.6458760487197153,-127694.00126655957,10.5,10499872305.998734,47.655,-122.3035,60.0,4.15
2026-01-20T23:04:10+00:00,SAT-66489,88.17817115910586,42.14159786643832,231456.9225463822,7.6167779577019505,-266771.7830175384,10.5,10499733228.216982,47.655,-122.3035,60.0,4.166666666666667
2026-01-20T23:04:11+00:00,SAT-66489,86.1391921974311,42.3152400214337,231464.51901293203,11.584041429151155,-405722.1312955349,10.5,10499594277.868704,47.655,-122.3035,60.0,4.183333333333334
2026-01-20T23:04:12+00:00,SAT-66489,84.08994725256646,42.452437100133245,231476.07216358406,15.54482373376017,-544445.4816954794,10.5,10499455554.518305,47.655,-122.3035,60.0,4.2
2026-01-20T23:04:13+00:00,SAT-66489,82.03278072560252,42.55284404182993,231491.57553445452,19.496283987848354,-682842.3344539498,10.5,10499317157.665546,47.655,-122.3035,60.0,4.216666666666667
2026-01-20T23:04:14+00:00,SAT-66489,79.97011446350709,42.616205709286476,231511.01982835174,23.43558543096676,-820813.3342205392,10.5,10499179186.66578,47.655,-122.3035,60.0,4.233333333333333
2026-01-20T23:04:15+00:00,SAT-66489,77.90442475653039,42.64235981937248,231534.39291888822,27.359898134896554,-958259.3649384396,10.5,10499041740.635061,47.655,-122.3035,60.0,4.25
2026-01-20T23:04:16+00:00,SAT-66489,75.83821802936896,42.63123882915085,231561.67985729477,31.266401253899748,-1095081.6286577408,10.5,10498904918.371342,47.655,-122.3035,60.0,4.266666666666667
2026-01-20T23:04:17+00:00,SAT-66489,73.77400584048911,42.58287072354681,231592.86288147865,35.152285506685665,-1231181.7324643955,10.5,10498768818.267536,47.655,-122.3035,60.0,4.283333333333333
2026-01-20T23:04:18+00:00,SAT-66489,71.71427975171585,42.49737868415715,231627.92142755733,39.01475571523299,-1366461.7774005055,10.5,10498633538.222599,47.655,-122.3035,60.0,4.3
2026-01-20T23:04:19+00:00,SAT-66489,69.6614866685114,42.37497964765047,231666.83214392397,42.851033194609826,-1500824.4421659305,10.5,10498499175.557835,47.655,-122.3035,60.0,4.316666666666666
2026-01-20T23:04:20+00:00,SAT-66489,67.61800523746491,42.21598179375192,231709.56890769672,46.65835811062556,-1634173.0656932283,10.5,10498365826.934307,47.655,-122.3035,60.0,4.333333333333333
2026-01-20T23:04:21+00:00,SAT-66489,65.5861238312126,42.020781031743006,231756.10284351907,50.433991854070996,-1766411.7303035872,10.5,10498233588.269697,47.655,-122.3035,60.0,4.35
2026-01-20T23:04:22+00:00,SAT-66489,63.56802058082842,41.78985657933853,231806.4023447282,54.175219687364276,-1897445.3544035617,10.5,10498102554.645596,47.655,-122.3035,60.0,4.366666666666666
2026-01-20T23:04:23+00:00,SAT-66489,61.565745823601446,41.52376574726349,231860.43309716304,57.87935264456095,-2027179.759031463,10.5,10497972820.240969,47.655,-122.3035,60.0,4.383333333333334
2026-01-20T23:04:24+00:00,SAT-66489,59.58120727619732,41.22313806330887,231918.1581048672,61.54373042903609,-2155521.7693464425,10.5,10497844478.230654,47.655,-122.3035,60.0,4.4
2026-01-20T23:04:25+00:00,SAT-66489,57.61615807174146,40.88866887159875,231979.5377186818,65.16572296126968,-2282379.268838483,10.5,10497717620.731161,47.655,-122.3035,60.0,4.416666666666667
2026-01-20T23:04:26+00:00,SAT-66489,55.672187784660245,40.52111255855634,232044.52966638183,68.74273349250164,-2407661.308381771,10.5,10497592338.691618,47.655,-122.3035,60.0,4.433333333333334
2026-01-20T23:04:27+00:00,SAT-66489,53.750716368589906,40.12127554100306,232113.08908591833,72.27220017857073,-2531278.16135719,10.5,10497468721.838642,47.655,-122.3035,60.0,4.45
2026-01-20T23:08:06+00:00,SAT-66489,100.8229790618086,40.217137543095966,231621.4669249796,-19.373182184878342,678530.7885938297,10.5,10500678530.788593,47.655,-122.3035,60.0,8.1
2026-01-20T23:08:07+00:00,SAT-66489,98.89628991007139,40.610054142466744,231602.14540461393,-15.432110419947614,540497.7846689189,10.5,10500540497.784668,47.655,-122.3035,60.0,8.116666666666667
2026-01-20T23:08:08+00:00,SAT-66489,96.94735464555599,40.97051202500513,231586.7544464884,-11.478257607019579,402017.13437936315,10.5,10500402017.134378,47.655,-122.3035,60.0,8.133333333333333
2026-01-20T23:08:09+00:00,SAT-66489,94.97763023363008,41.297713480514396,231575.30679756834,-7.514434072382338,263187.2672394398,10.5,10500263187.267239,47.655,-122.3035,60.0,8.15
2026-01-20T23:08:10+00:00,SAT-66489,92.98874244446323,41.590914331620304,231567.81240198683,-3.543462311495892,124107.03897930236,10.5,10500124107.038979,47.655,-122.3035,60.0,8.166666666666666
2026-01-20T23:08:11+00:00,SAT-66489,90.98247920067547,41.84943091758859,231564.27838890816,0.4318252965168461,-15124.348503213125,10.5,10499984875.651497,47.655,-122.3035,60.0,8.183333333333334
2026-01-20T23:08:12+00:00,SAT-66489,88.96078094433813,42.0726468183045,231564.70906267056,4.408588965599831,-154407.4338881408,10.5,10499845592.566113,47.655,-122.3035,60.0,8.2
2026-01-20T23:08:13+00:00,SAT-66489,86.92572806515719,42.26001916728494,231569.1058953989,8.383983882435855,-293642.5797795636,10.5,10499706357.420221,47.655,-122.3035,60.0,8.216666666666667
2026-01-20T23:08:14+00:00,SAT-66489,84.87952545183164,42.41108441399857,231577.467521991,12.355162622807933,-432730.05733681034,10.5,10499567269.942663,47.655,-122.3035,60.0,8.233333333333333
2026-01-20T23:08:15+00:00,SAT-66489,82.82448439246689,42.525463393246426,231589.7897375135,16.31927764299832,-571570.1335337873,10.5,10499428429.866467,47.655,-122.3035,60.0,8.25
2026-01-20T23:08:16+00:00,SAT-66489,80.76300210282908,42.60286557572643,231606.06549708277,20.273483737685662,-710063.1572449347,10.5,10499289936.842754,47.655,-122.3035,60.0,8.266666666666667
2026-01-20T23:08:17+00:00,SAT-66489,78.6975392999385,42.64309238682705,231626.28491819717,24.214940368486037,-848109.6408005813,10.5,10499151890.3592,47.655,-122.3035,60.0,8.283333333333333
2026-01-20T23:08:18+00:00,SAT-66489,76.63059630491554,42.64603950539493,231650.43528539132,28.140814364559578,-985610.3545736149,10.5,10499014389.645426,47.655,-122.3035,60.0,8.3
2026-01-20T23:08:19+00:00,SAT-66489,74.56468818395494,42.611698079954124,231678.50105758422,32.048282162940815,-1122466.405445325,10.5,10498877533.594555,47.655,-122.3035,60.0,8.316666666666666
2026-01-20T23:08:20+00:00,SAT-66489,72.50231956057212,42.54015482768689,231710.46387766142,35.93453238483072,-1258579.3270380488,10.5,10498741420.672962,47.655,-122.3035,60.0,8.333333333333334
2026-01-20T23:08:21+00:00,SAT-66489,70.44595966474408,42.4315910141989,231746.30258462657,39.796768163942545,-1393851.1612636922,10.5,10498606148.838736,47.655,-122.3035,60.0,8.35
2026-01-20T23:08:22+00:00,SAT-66489,68.39801822841034,42.28628034246082,231785.9932280754,43.632209805930486,-1528184.5514681695,10.5,10498471815.448532,47.655,-122.3035,60.0,8.366666666666667
2026-01-20T23:08:23+00:00,SAT-66489,66.36082276065238,42.10458580798326,231829.50908532186,47.438096955796595,-1661482.8183431628,10.5,10498338517.181656,47.655,-122.3035,60.0,8.383333333333333
2026-01-20T23:08:24+00:00,SAT-66489,64.33659772109016,41.8869556065671,231876.82068068575,51.21169116865335,-1793650.0499651001,10.5,10498206349.950035,47.655,-122.3035,60.0,8.4
2026-01-20T23:08:25+00:00,SAT-66489,62.32744598175011,41.63391820095594,231927.8958073446,54.95027806675474,-1924591.1773435099,10.5,10498075408.822657,47.655,-122.3035,60.0,8.416666666666666
2026-01-20T23:08:26+00:00,SAT-66489,60.335332914830374,41.34607667338476,231982.69955133653,58.6511701688411,-2054212.0735166443,10.5,10497945787.926483,47.655,-122.3035,60.0,8.433333333333334
2026-01-20T23:08:27+00:00,SAT-66489,58.36207329825018,41.024102498275965,232041.19431838492,62.311708555311,-2182419.6118728425,10.5,10497817580.388126,47.655,-122.3035,60.0,8.45
2026-01-20T23:08:28+00:00,SAT-66489,56.40932119605048,40.66872888500956,232103.33986238408,65.929265828451,-2309121.7698302986,10.5,10497690878.23017,47.655,-122.3035,60.0,8.466666666666667
2026-01-20T23:08:29+00:00,SAT-66489,54.4785627811524,40.28074382904483,232169.09331683698,69.50124769170614,-2434227.6841497943,10.5,10497565772.31585,47.655,-122.3035,60.0,8.483333333333333
2026-01-20T23:12:08+00:00,SAT-66489,101.46979505817264,40.086089906710846,231753.4814166362,-22.33999014466343,782440.9529307307,10.5,10500782440.95293,47.655,-122.3035,60.0,12.133333333333333
2026-01-20T23:12:09+00:00,SAT-66489,99.5504068938019,40.489622104316716,231731.2009997986,-18.408204264456618,644733.1799681047,10.5,10500644733.179968,47.655,-122.3035,60.0,12.15
2026-01-20T23:12:10+00:00,SAT-66489,97.6083055325801,40.86096336882301,231712.84188407887,-14.461542502278244,506504.39069391653,10.5,10500506504.390694,47.655,-122.3035,60.0,12.166666666666666
2026-01-20T23:12:11+00:00,SAT-66489,95.64489141442259,41.19929880478424,231698.41890568993,-10.502807075993616,367852.73063117877,10.5,10500367852.73063,47.655,-122.3035,60.0,12.183333333333334
2026-01-20T23:12:12+00:00,SAT-66489,93.66173556088609,41.5038646995671,231687.94410609946,-6.534814115484109,228876.83256055476,10.5,10500228876.832561,47.655,-122.3035,60.0,12.2
2026-01-20T23:12:13+00:00,SAT-66489,91.660573887733,41.77395557441582,231681.42671815495,-2.5603913567117695,89675.7357567467,10.5,10500089675.735756,47.655,-122.3035,60.0,12.216666666666667
2026-01-20T23:12:14+00:00,SAT-66489,89.6432985669136,42.00893102132633,231678.8731545085,1.417624257240603,-49651.19803322848,10.5,10499950348.801968,47.655,-122.3035,60.0,12.233333333333333
2026-01-20T23:12:15+00:00,SAT-66489,87.61194642687566,42.20822217896238,231680.2869984344,5.39638896198888,-189004.36815152713,10.5,10499810995.63185,47.655,-122.3035,60.0,12.25
2026-01-20T23:12:16+00:00,SAT-66489,85.5686844126859,42.37133770671272,231685.66899702582,9.373054632769684,-328284.02122138,10.5,10499671715.978779,47.655,-122.3035,60.0,12.266666666666667
2026-01-20T23:12:17+00:00,SAT-66489,83.51579233285523,42.497869108050736,231695.01705684623,13.344771163591956,-467390.3344750438,10.5,10499532609.665525,47.655,-122.3035,60.0,12.283333333333333
2026-01-20T23:12:18+00:00,SAT-66489,81.45564311652028,42.58749527621382,231708.32624195341,17.308689018581507,-606223.5051126797,10.5,10499393776.494886,47.655,-122.3035,60.0,12.3
2026-01-20T23:12:19+00:00,SAT-66489,79.39068095187095,42.63998614280521,231725.58877446793,21.261961568946276,-744683.8321527619,10.5,10499255316.167847,47.655,-122.3035,60.0,12.316666666666666
2026-01-20T23:12:20+00:00,SAT-66489,77.32339779360345,42.655205330791,231746.7940374727,25.20174769854184,-882671.8076900031,10.5,10499117328.19231,47.655,-122.3035,60.0,12.333333333333334
2026-01-20T23:12:21+00:00,SAT-66489,75.2563087232996,42.63311174153408,231771.9285805107,29.12521402943487,-1020088.1948440014,10.5,10498979911.805157,47.655,-122.3035,60.0,12.35
2026-01-20T23:12:22+00:00,SAT-66489,73.19192678187942,42.5737600311118,231800.97612730274,33.02953769374192,-1156834.1248407597,10.5,10498843165.875158,47.655,-122.3035,60.0,12.366666666666667
2026-01-20T23:12:23+00:00,SAT-66489,71.1327378231752,42.47729996282284,231833.9175862293,36.91190859084074,-1292811.176069772,10.5,10498707188.82393,47.655,-122.3035,60.0,12.383333333333333
2026-01-20T23:12:24+00:00,SAT-66489,69.08117603280319,42.343974653914614,231870.7310630639,40.769531857009355,-1427921.4605812337,10.5,10498572078.53942,47.655,-122.3035,60.0,12.4
2026-01-20T23:12:25+00:00,SAT-66489,67.03960065869713,42.174117765289935,231911.39187616928,44.599630225094536,-1562067.7067316105,10.5,10498437932.293268,47.655,-122.3035,60.0,12.416666666666666
2026-01-20T23:12:26+00:00,SAT-66489,65.01027447560591,41.96814971085378,231955.87257404713,48.39944675393655,-1695153.3547796381,10.5,10498304846.64522,47.655,-122.3035,60.0,12.433333333333334
2026-01-20T23:12:27+00:00,SAT-66489,62.99534440898942,41.72657298539412,232004.1429556097,52.16624678871509,-1827082.6255459317,10.5,10498172917.374454,47.655,-122.3035,60.0,12.45
2026-01-20T23:12:28+00:00,SAT-66489,60.996824705989255,41.44996673464729,232056.17009240697,55.89732071606966,-1957760.616908953,10.5,10498042239.383091,47.655,-122.3035,60.0,12.466666666666667
2026-01-20T23:12:29+00:00,SAT-66489,59.01658286822913,41.13898069836114,232111.91835360113,59.58998589709105,-2087093.3715065508,10.5,10497912906.628494,47.655,-122.3035,60.0,12.483333333333333
2026-01-20T23:12:30+00:00,SAT-66489,57.05632852923967,40.79432867317996,232171.34943286917,63.2415895939517,-2214987.9792389334,10.5,10497785012.020761,47.655,-122.3035,60.0,12.5
2026-01-20T23:12:31+00:00,SAT-66489,55.1176052867501,40.416781635489286,232234.4223782242,66.84951066838421,-2341352.6367565733,10.5,10497658647.363243,47.655,-122.3035,60.0,12.516666666666667
2026-01-20T23:12:32+00:00,SAT-66489,53.20178548514223,40.007160673938216,232301.09362353082,70.41116195201846,-2466096.730479437,10.5,10497533903.26952,47.655,-122.3035,60.0,12.533333333333333
