satellites_20260120_184412/SAT-61878.csv

timestamp,satellite,azimuth_deg,elevation_deg,distance_km,relative_velocity_kms,doppler_shift_hz,tx_freq_ghz,rx_freq_hz,ue_lat,ue_lon,ue_alt_m,time_minutes
2026-01-20T23:07:01+00:00,SAT-61878,215.44318162450205,40.16257564841519,998.3237645672397,-6.182227382455375,216527.75372948655,10.5,10500216527.753729,47.655,-122.3035,60.0,7.016666666666667
2026-01-20T23:07:02+00:00,SAT-61878,215.45063076153912,40.398116693293076,992.1580231244708,-6.169031700994301,216065.5851470425,10.5,10500216065.585148,47.655,-122.3035,60.0,7.033333333333333
2026-01-20T23:07:03+00:00,SAT-61878,215.45862925920665,40.63625716329592,986.0054421746793,-6.155579768634151,215594.44157417258,10.5,10500215594.441574,47.655,-122.3035,60.0,7.05
2026-01-20T23:07:04+00:00,SAT-61878,215.4671934114355,40.87704006059517,979.8662772854282,-6.141865698999504,215114.1168451102,10.5,10500215114.116844,47.655,-122.3035,60.0,7.066666666666666
2026-01-20T23:07:05+00:00,SAT-61878,215.4763401594404,41.12050916576269,973.7407898949593,-6.127883537809151,214624.40241574086,10.5,10500214624.402416,47.655,-122.3035,60.0,7.083333333333333
2026-01-20T23:07:06+00:00,SAT-61878,215.48608712435518,41.36670905196105,967.6292473799176,-6.113627082095217,214125.081031891,10.5,10500214125.081032,47.655,-122.3035,60.0,7.1
2026-01-20T23:07:07+00:00,SAT-61878,215.49645264137277,41.61568509188586,961.5319233033747,-6.0990900534787755,213615.93279817313,10.5,10500213615.932798,47.655,-122.3035,60.0,7.116666666666666
2026-01-20T23:07:08+00:00,SAT-61878,215.50745579644544,41.86748347159535,955.4490974900385,-6.0842659931265475,213096.731498925,10.5,10500213096.731499,47.655,-122.3035,60.0,7.133333333333334
2026-01-20T23:07:09+00:00,SAT-61878,215.51911646501213,42.12215120004673,949.381056206227,-6.069148237766608,212567.24375817814,10.5,10500212567.243757,47.655,-122.3035,60.0,7.15
2026-01-20T23:07:10+00:00,SAT-61878,215.53145535302727,42.37973611739583,943.328092363761,-6.053730012001174,212027.23227284232,10.5,10500212027.232273,47.655,-122.3035,60.0,7.166666666666667
2026-01-20T23:07:11+00:00,SAT-61878,215.54449404093262,42.64028690702974,937.2905056317919,-6.038004312489671,211476.45175630652,10.5,10500211476.451756,47.655,-122.3035,60.0,7.183333333333334
2026-01-20T23:07:12+00:00,SAT-61878,215.5582550300321,42.903853102434425,931.2686026641355,-6.021964042036547,210914.65363476137,10.5,10500210914.653635,47.655,-122.3035,60.0,7.2
2026-01-20T23:07:13+00:00,SAT-61878,215.57276179237982,43.17048509964691,925.2626971928778,-6.005601821429508,210341.57945697833,10.5,10500210341.579456,47.655,-122.3035,60.0,7.216666666666667
2026-01-20T23:07:14+00:00,SAT-61878,215.58803882321342,43.44023416111049,919.2731103096387,-5.988910163024271,209756.96697398188,10.5,10500209756.966974,47.655,-122.3035,60.0,7.233333333333333
2026-01-20T23:07:15+00:00,SAT-61878,215.60411169753294,43.71315242680817,913.3001705737158,-5.971881361614531,209160.54631685422,10.5,10500209160.546316,47.655,-122.3035,60.0,7.25
2026-01-20T23:07:16+00:00,SAT-61878,215.62100713003846,43.98929292015771,907.3442142290655,-5.9545075295801855,208552.0412277748,10.5,10500208552.041227,47.655,-122.3035,60.0,7.266666666666667
2026-01-20T23:07:17+00:00,SAT-61878,215.6387530392884,44.26870955497373,901.405585386231,-5.936780562871297,207931.1678686347,10.5,10500207931.16787,47.655,-122.3035,60.0,7.283333333333333
2026-01-20T23:07:18+00:00,SAT-61878,215.65737861605135,44.55145714026106,895.484636238194,-5.918692186875435,207297.63642750503,10.5,10500207297.636427,47.655,-122.3035,60.0,7.3
2026-01-20T23:07:19+00:00,SAT-61878,215.67691439665765,44.83759138656956,889.5817272304836,-5.900233902400015,206651.14922670988,10.5,10500206651.149227,47.655,-122.3035,60.0,7.316666666666666
2026-01-20T23:07:20+00:00,SAT-61878,215.6973923411859,45.12716890905527,883.6972272851566,-5.881397011663796,205991.40163315868,10.5,10500205991.401632,47.655,-122.3035,60.0,7.333333333333333
2026-01-20T23:07:21+00:00,SAT-61878,215.7188459173476,45.42024723099515,877.8315139988572,-5.8621725836628515,205318.0808453158,10.5,10500205318.080845,47.655,-122.3035,60.0,7.35
2026-01-20T23:07:22+00:00,SAT-61878,215.7413101901593,45.716884784654255,871.9849738754175,-5.842551496132623,204630.86736288926,10.5,10500204630.867363,47.655,-122.3035,60.0,7.366666666666666
2026-01-20T23:07:23+00:00,SAT-61878,215.76482191840194,46.017140913297474,866.1580025166079,-5.822524413804373,203929.43422527966,10.5,10500203929.434225,47.655,-122.3035,60.0,7.383333333333334
2026-01-20T23:07:24+00:00,SAT-61878,215.78941965795877,46.32107587102985,860.3510048345736,-5.802081710711847,203213.44429043107,10.5,10500203213.44429,47.655,-122.3035,60.0,7.4
2026-01-20T23:07:25+00:00,SAT-61878,215.81514387246398,46.628750817313346,854.564395341757,-5.781213631371907,202482.55588005824,10.5,10500202482.55588,47.655,-122.3035,60.0,7.416666666666667
2026-01-20T23:07:26+00:00,SAT-61878,215.84203705311663,46.94022781860784,848.7985982800689,-5.759910098188801,201736.41603412988,10.5,10500201736.416035,47.655,-122.3035,60.0,7.433333333333334
2026-01-20T23:07:27+00:00,SAT-61878,215.8701438465443,47.25556983835467,843.0540479421418,-5.73816085789312,200974.6656397799,10.5,10500200974.66564,47.655,-122.3035,60.0,7.45
2026-01-20T23:07:28+00:00,SAT-61878,215.89951119332014,47.57484073311882,837.3311888465364,-5.715955380786592,200196.93590243426,10.5,10500200196.935902,47.655,-122.3035,60.0,7.466666666666667
2026-01-20T23:07:29+00:00,SAT-61878,215.93018847672877,47.8981052415184,831.6304760134319,-5.693282902164404,199402.84979659575,10.5,10500199402.849796,47.655,-122.3035,60.0,7.483333333333333
2026-01-20T23:07:30+00:00,SAT-61878,215.96222768345376,48.22542897338276,825.9523751990066,-5.6701324355387035,198592.02252898697,10.5,10500198592.02253,47.655,-122.3035,60.0,7.5
2026-01-20T23:07:31+00:00,SAT-61878,215.99568357732463,48.55687839765129,820.2973631166293,-5.646492729725281,197764.0600355445,10.5,10500197764.060036,47.655,-122.3035,60.0,7.516666666666667
2026-01-20T23:07:32+00:00,SAT-61878,216.03061388674197,48.89252082545831,814.66592770085,-5.622352236012832,196918.55783154737,10.5,10500196918.55783,47.655,-122.3035,60.0,7.533333333333333
2026-01-20T23:07:33+00:00,SAT-61878,216.0670795072922,49.23242438859669,809.0585684041332,-5.597699242722261,196055.10572445334,10.5,10500196055.105724,47.655,-122.3035,60.0,7.55
2026-01-20T23:07:34+00:00,SAT-61878,216.1051447222449,49.57665802333004,803.4757963593916,-5.572521694047819,195173.2814689491,10.5,10500195173.28147,47.655,-122.3035,60.0,7.566666666666666
2026-01-20T23:07:35+00:00,SAT-61878,216.14487744022742,49.92529144025989,797.9181347231945,-5.5468073348764815,194272.6558391374,10.5,10500194272.65584,47.655,-122.3035,60.0,7.583333333333333
2026-01-20T23:07:36+00:00,SAT-61878,216.18634945440309,50.27839509973319,792.3861188745444,-5.520543603853168,193352.7888832289,10.5,10500193352.788883,47.655,-122.3035,60.0,7.6
2026-01-20T23:07:37+00:00,SAT-61878,216.2296367232108,50.636040177031305,786.8802967203015,-5.4937177283596546,192413.23325010523,10.5,10500192413.23325,47.655,-122.3035,60.0,7.616666666666666
2026-01-20T23:07:38+00:00,SAT-61878,216.27481967669047,50.998298529785366,781.4012289058841,-5.466316637343066,191453.53113620423,10.5,10500191453.531136,47.655,-122.3035,60.0,7.633333333333334
2026-01-20T23:07:39+00:00,SAT-61878,216.32198354931663,51.36524265559982,775.9494891129074,-5.438326978697369,190473.21489429325,10.5,10500190473.214893,47.655,-122.3035,60.0,7.65
2026-01-20T23:07:40+00:00,SAT-61878,216.37121874305038,51.73694564606377,770.5256643394865,-5.409735206296141,189471.81008172486,10.5,10500189471.810081,47.655,-122.3035,60.0,7.666666666666667
2026-01-20T23:07:41+00:00,SAT-61878,216.42262122483336,52.113481141935594,765.1303550937404,-5.380527449084679,188448.83087548896,10.5,10500188448.830875,47.655,-122.3035,60.0,7.683333333333334
2026-01-20T23:07:42+00:00,SAT-61878,216.47629295958976,52.49492327401768,759.7641757178534,-5.350689608541948,187403.7834857422,10.5,10500187403.783485,47.655,-122.3035,60.0,7.7
2026-01-20T23:07:43+00:00,SAT-61878,216.5323423854962,52.88134660501346,754.4277546149342,-5.320207305308988,186336.1642865091,10.5,10500186336.164286,47.655,-122.3035,60.0,7.716666666666667
2026-01-20T23:07:44+00:00,SAT-61878,216.59088493417954,53.27282606134252,749.121734529106,-5.289065937285168,185245.46185045879,10.5,10500185245.461851,47.655,-122.3035,60.0,7.733333333333333
2026-01-20T23:07:45+00:00,SAT-61878,216.6520436026783,53.66943686253175,743.8467727676535,-5.257250615732889,184131.15471102123,10.5,10500184131.15471,47.655,-122.3035,60.0,7.75
2026-01-20T23:07:46+00:00,SAT-61878,216.7159495812111,54.071254438550056,738.603541486896,-5.224746245245971,182992.7141632185,10.5,10500182992.714163,47.655,-122.3035,60.0,7.766666666666667
2026-01-20T23:07:47+00:00,SAT-61878,216.78274294554004,54.478354345329,733.392727898304,-5.191537428706577,181829.60093485424,10.5,10500181829.600935,47.655,-122.3035,60.0,7.783333333333333
2026-01-20T23:07:48+00:00,SAT-61878,216.85257341887674,54.89081216435397,728.2150345694073,-5.1576086305559015,180641.27090494373,10.5,10500180641.270905,47.655,-122.3035,60.0,7.8
2026-01-20T23:07:49+00:00,SAT-61878,216.9256012160201,55.30870340600425,723.0711795618662,-5.122943988962112,179427.16852504064,10.5,10500179427.168526,47.655,-122.3035,60.0,7.816666666666666
2026-01-20T23:07:50+00:00,SAT-61878,217.00199797386767,55.73210338785557,717.9618967568746,-5.087527473023779,178186.73232516638,10.5,10500178186.732325,47.655,-122.3035,60.0,7.833333333333333
2026-01-20T23:07:51+00:00,SAT-61878,217.0819477852516,56.161087114764676,712.8879360237789,-5.051342864261784,176919.39426557798,10.5,10500176919.394266,47.655,-122.3035,60.0,7.85
2026-01-20T23:07:52+00:00,SAT-61878,217.16564834608147,56.59572914597116,707.8500634071552,-5.01437369415885,175624.57754913878,10.5,10500175624.577549,47.655,-122.3035,60.0,7.866666666666666
2026-01-20T23:07:53+00:00,SAT-61878,217.25331222978696,57.036103444053644,702.8490613761808,-4.97660336080234,174301.7007066421,10.5,10500174301.700706,47.655,-122.3035,60.0,7.883333333333334
2026-01-20T23:07:54+00:00,SAT-61878,217.34516830932827,57.482283220080205,697.8857289576739,-4.938015052608845,172950.1749253241,10.5,10500172950.174925,47.655,-122.3035,60.0,7.9
2026-01-20T23:07:55+00:00,SAT-61878,217.441463342913,57.93434075706158,692.9608819452054,-4.898591849669317,171569.4075983987,10.5,10500171569.407598,47.655,-122.3035,60.0,7.916666666666667
2026-01-20T23:07:56+00:00,SAT-61878,217.54246374965038,58.39234722611613,688.0753530071352,-4.858316660432113,170158.8001074303,10.5,10500170158.800108,47.655,-122.3035,60.0,7.933333333333334
2026-01-20T23:07:57+00:00,SAT-61878,217.64845759821097,58.85637247900331,683.2299918577975,-4.817172285821668,168717.75006804045,10.5,10500168717.750069,47.655,-122.3035,60.0,7.95
2026-01-20T23:07:58+00:00,SAT-61878,217.7597568418313,59.326484826898124,678.425665364738,-4.775141432497048,167245.65179427897,10.5,10500167245.651794,47.655,-122.3035,60.0,7.966666666666667
2026-01-20T23:07:59+00:00,SAT-61878,217.87669983453,59.80275079901778,673.6632576427277,-4.732206763335454,165741.8980667695,10.5,10500165741.898067,47.655,-122.3035,60.0,7.983333333333333
2026-01-20T23:08:00+00:00,SAT-61878,217.99965417149838,60.28523488276256,668.9436700974278,-4.68835084087741,164205.87815192074,10.5,10500164205.878153,47.655,-122.3035,60.0,8.0
2026-01-20T23:08:01+00:00,SAT-61878,218.12901989983584,60.773999231996655,664.2678215254595,-4.643556275253132,162636.98298293375,10.5,10500162636.982983,47.655,-122.3035,60.0,8.016666666666667
2026-01-20T23:08:02+00:00,SAT-61878,218.26523316338944,61.26910336169949,659.6366480669402,-4.597805615458191,161034.6013518159,10.5,10500161034.601353,47.655,-122.3035,60.0,8.033333333333333
2026-01-20T23:08:03+00:00,SAT-61878,218.40877034258475,61.77060379923276,655.0511032664566,-4.551081519653132,159398.12587399344,10.5,10500159398.125874,47.655,-122.3035,60.0,8.05
2026-01-20T23:08:04+00:00,SAT-61878,218.56015277895855,62.278553718081056,650.5121579641892,-4.503366686058413,157726.9505679604,10.5,10500157726.950567,47.655,-122.3035,60.0,8.066666666666666
2026-01-20T23:08:05+00:00,SAT-61878,218.71995217311812,62.79300252424168,646.0208002559604,-4.454643954690605,156020.4744185104,10.5,10500156020.474419,47.655,-122.3035,60.0,8.083333333333334
2026-01-20T23:08:06+00:00,SAT-61878,218.88879677697915,63.31399540894783,641.5780353518155,-4.4048962885313205,154278.100717193,10.5,10500154278.100718,47.655,-122.3035,60.0,8.1
2026-01-20T23:08:07+00:00,SAT-61878,219.0673785137298,63.84157284833064,637.184885453387,-4.35410686663409,152499.24032331043,10.5,10500152499.240324,47.655,-122.3035,60.0,8.116666666666667
2026-01-20T23:08:08+00:00,SAT-61878,219.25646119535787,64.3757700558776,632.8423895383972,-4.302259136334553,150683.3134925389,10.5,10500150683.313492,47.655,-122.3035,60.0,8.133333333333333
2026-01-20T23:08:09+00:00,SAT-61878,219.45689003713596,64.91661637533878,628.5516030930929,-4.249336779001259,148829.74867737739,10.5,10500148829.748678,47.655,-122.3035,60.0,8.15
2026-01-20T23:08:10+00:00,SAT-61878,219.66960270676537,65.46413459274126,624.3135978788356,-4.195323861550344,146937.9878338321,10.5,10500146937.987833,47.655,-122.3035,60.0,8.166666666666666
2026-01-20T23:08:11+00:00,SAT-61878,219.8956422132305,66.01834017889841,620.1294615475828,-4.140204848419447,145007.4868407937,10.5,10500145007.486841,47.655,-122.3035,60.0,8.183333333333334
2026-01-20T23:08:12+00:00,SAT-61878,220.13617199025643,66.57924043046114,616.0002972454257,-4.083964633126626,143037.71660536426,10.5,10500143037.716606,47.655,-122.3035,60.0,8.2
2026-01-20T23:08:13+00:00,SAT-61878,220.39249361988607,67.14683349353497,611.9272231846542,-4.02658862392203,141028.16606274102,10.5,10500141028.166063,47.655,-122.3035,60.0,8.216666666666667
2026-01-20T23:08:14+00:00,SAT-61878,220.66606774818536,67.72110725459584,607.911372130396,-3.968062820273717,138978.34485507314,10.5,10500138978.344854,47.655,-122.3035,60.0,8.233333333333333
2026-01-20T23:08:15+00:00,SAT-61878,220.9585388762912,68.30203807051251,603.9538908109763,-3.9083738430245156,136887.78438768268,10.5,10500136887.784388,47.655,-122.3035,60.0,8.25
2026-01-20T23:08:16+00:00,SAT-61878,221.27176487488777,68.88958929590909,600.0559392981999,-3.847509042591378,134756.04161866364,10.5,10500134756.041618,47.655,-122.3035,60.0,8.266666666666667
2026-01-20T23:08:17+00:00,SAT-61878,221.60785229896996,69.48370957575081,596.218690279722,-3.785456504060414,132582.69923733152,10.5,10500132582.699238,47.655,-122.3035,60.0,8.283333333333333
2026-01-20T23:08:18+00:00,SAT-61878,221.96919884502285,70.084330831522,592.4433283263392,-3.7222051975449797,130367.37093039976,10.5,10500130367.37093,47.655,-122.3035,60.0,8.3
2026-01-20T23:08:19+00:00,SAT-61878,222.3585446820808,70.69136589237425,588.7310490093209,-3.657745025148359,128109.70302681121,10.5,10500128109.703028,47.655,-122.3035,60.0,8.316666666666666
2026-01-20T23:08:20+00:00,SAT-61878,222.7790348445176,71.30470566370221,585.0830579709062,-3.592066842082329,125809.37523739992,10.5,10500125809.375237,47.655,-122.3035,60.0,8.333333333333334
2026-01-20T23:08:21+00:00,SAT-61878,223.2342955087956,71.92421570831397,581.5005699737362,-3.5251626319576186,123466.10679430432,10.5,10500123466.106794,47.655,-122.3035,60.0,8.35
2026-01-20T23:08:22+00:00,SAT-61878,223.7285278358826,72.54973210983229,577.9848077754638,-3.457025523393043,121079.65703268944,10.5,10500121079.657032,47.655,-122.3035,60.0,8.366666666666667
2026-01-20T23:08:23+00:00,SAT-61878,224.2666241396764,73.18105638496306,574.5370009867997,-3.387649878208403,118649.82847963518,10.5,10500118649.82848,47.655,-122.3035,60.0,8.383333333333333
2026-01-20T23:08:24+00:00,SAT-61878,224.8543126647,73.81794918029958,571.1583848416,-3.3170313865515357,116176.47018588815,10.5,10500116176.470186,47.655,-122.3035,60.0,8.4
2026-01-20T23:08:25+00:00,SAT-61878,225.49833927633776,74.46012238438713,567.8501988720791,-3.2451671465589693,113659.48051591469,10.5,10500113659.480516,47.655,-122.3035,60.0,8.416666666666666
2026-01-20T23:08:26+00:00,SAT-61878,226.20669711355933,75.1072291482418,564.6136855045777,-3.172055765816469,111098.81070147845,10.5,10500111098.810701,47.655,-122.3035,60.0,8.433333333333334
2026-01-20T23:08:27+00:00,SAT-61878,226.98891902138888,75.75885112787584,561.4500885541368,-3.0976973939091885,108494.46598168417,10.5,10500108494.465982,47.655,-122.3035,60.0,8.45
2026-01-20T23:08:28+00:00,SAT-61878,227.85645270799677,76.41448197703652,558.3606516866114,-3.022093853122252,105846.5101806652,10.5,10500105846.510181,47.655,-122.3035,60.0,8.466666666666667
2026-01-20T23:08:29+00:00,SAT-61878,228.82314567871973,77.07350577019614,555.3466167504308,-2.945248716211534,103155.06843144502,10.5,10500103155.068432,47.655,-122.3035,60.0,8.483333333333333
2026-01-20T23:08:30+00:00,SAT-61878,229.90587663334964,77.73516845049548,552.4092220307957,-2.8671673393416404,100420.32832956465,10.5,10500100420.32833,47.655,-122.3035,60.0,8.5
2026-01-20T23:08:31+00:00,SAT-61878,231.12538310023083,78.39853958518933,549.5497004710256,-2.7878569986711703,97642.5447168764,10.5,10500097642.544718,47.655,-122.3035,60.0,8.516666666666667
2026-01-20T23:08:32+00:00,SAT-61878,232.50735250498545,79.06246054922065,546.7692777576843,-2.7073269110069007,94822.0404049406,10.5,10500094822.040405,47.655,-122.3035,60.0,8.533333333333333
2026-01-20T23:08:33+00:00,SAT-61878,234.0838658193748,79.72547343965812,544.0691703851069,-2.625588349949662,91959.21024294564,10.5,10500091959.210243,47.655,-122.3035,60.0,8.55
2026-01-20T23:08:34+00:00,SAT-61878,235.89530835455176,80.38572246092747,541.4505836040903,-2.5426546676851483,89054.52188091421,10.5,10500089054.521881,47.655,-122.3035,60.0,8.566666666666666
2026-01-20T23:08:35+00:00,SAT-61878,237.99288441370027,81.0408156618505,538.9147093488523,-2.4585413682035235,86108.5183341637,10.5,10500086108.518333,47.655,-122.3035,60.0,8.583333333333334
2026-01-20T23:08:36+00:00,SAT-61878,240.44187228912344,81.68762952874768,536.462724090964,-2.3732661761504303,83121.82039475963,10.5,10500083121.820395,47.655,-122.3035,60.0,8.6
2026-01-20T23:08:37+00:00,SAT-61878,243.32568221987242,82.32203175664549,534.0957866246166,-2.2868490745853665,80095.1279539739,10.5,10500080095.127954,47.655,-122.3035,60.0,8.616666666666667
2026-01-20T23:08:38+00:00,SAT-61878,246.75050939490018,82.93848952689045,531.8150358142302,-2.1993123161561052,77029.22039366016,10.5,10500077029.220394,47.655,-122.3035,60.0,8.633333333333333
2026-01-20T23:08:39+00:00,SAT-61878,250.8496330393693,83.52952633394875,529.6215883309171,-2.1106804964827073,73924.95915647228,10.5,10500073924.959156,47.655,-122.3035,60.0,8.65
2026-01-20T23:08:40+00:00,SAT-61878,255.78466199468912,84.08500403565162,527.5165363157583,-2.0209805454235106,70783.28743996241,10.5,10500070783.28744,47.655,-122.3035,60.0,8.666666666666666
2026-01-20T23:08:41+00:00,SAT-61878,261.73745781517607,84.59127456028827,525.5009450517894,-1.9302417514714552,67605.2310510436,10.5,10500067605.23105,47.655,-122.3035,60.0,8.683333333333334
2026-01-20T23:08:42+00:00,SAT-61878,268.8808094636438,85.0304409683827,523.5758506116551,-1.8384957569620197,64391.89823815117,10.5,10500064391.898237,47.655,-122.3035,60.0,8.7
2026-01-20T23:08:43+00:00,SAT-61878,277.311947017569,85.3803760361719,521.742257510045,-1.7457765484976593,61144.47935586632,10.5,10500061144.479357,47.655,-122.3035,60.0,8.716666666666667
2026-01-20T23:08:44+00:00,SAT-61878,286.9454243385492,85.61666747753756,520.0011363656768,-1.652120457523301,57864.24688507227,10.5,10500057864.246885,47.655,-122.3035,60.0,8.733333333333333
2026-01-20T23:08:45+00:00,SAT-61878,297.4123515964475,85.71754146202717,518.3534215627068,-1.5575660931619264,54552.55308057225,10.5,10500054552.553082,47.655,-122.3035,60.0,8.75
2026-01-20T23:08:46+00:00,SAT-61878,308.0759995212332,85.67078612738808,516.8000089791267,-1.462154326147647,51210.82940835787,10.5,10500051210.829409,47.655,-122.3035,60.0,8.766666666666667
2026-01-20T23:08:47+00:00,SAT-61878,318.2274256469666,85.47852028060035,515.341753731182,-1.3659282243313464,47840.58428674392,10.5,10500047840.584288,47.655,-122.3035,60.0,8.783333333333333
2026-01-20T23:08:48+00:00,SAT-61878,327.33846349696296,85.15590221175636,513.9794679821156,-1.2689329822036202,44443.40061796355,10.5,10500044443.400618,47.655,-122.3035,60.0,8.8
2026-01-20T23:08:49+00:00,SAT-61878,335.17776161259025,84.72498270860389,512.7139188211978,-1.1712158479654307,41020.93323387415,10.5,10500041020.933233,47.655,-122.3035,60.0,8.816666666666666
2026-01-20T23:08:50+00:00,SAT-61878,341.758238038875,84.20837791018124,511.54582621549366,-1.0728260253631714,37574.905457806075,10.5,10500037574.905458,47.655,-122.3035,60.0,8.833333333333334
2026-01-20T23:08:51+00:00,SAT-61878,347.2227936362338,83.62565279458875,510.47586105953144,-0.9738145788614014,34107.105783310646,10.5,10500034107.105783,47.655,-122.3035,60.0,8.85
2026-01-20T23:08:52+00:00,SAT-61878,351.75401423575124,82.9922898845445,509.50464331954703,-0.8742343056083733,30619.383389851388,10.5,10500030619.38339,47.655,-122.3035,60.0,8.866666666666667
2026-01-20T23:08:53+00:00,SAT-61878,355.5265103085374,82.32002494417942,508.63274030542027,-0.7741396183992467,27113.64404368068,10.5,10500027113.644043,47.655,-122.3035,60.0,8.883333333333333
2026-01-20T23:08:54+00:00,SAT-61878,358.6891787925474,81.61761353655746,507.8606650593367,-0.6735864107075286,23591.845370669897,10.5,10500023591.845371,47.655,-122.3035,60.0,8.9
2026-01-20T23:08:55+00:00,SAT-61878,1.362487678936062,80.89158796904117,507.1888748790578,-0.5726319028560337,20055.991468565742,10.5,10500020055.991468,47.655,-122.3035,60.0,8.916666666666666
2026-01-20T23:08:56+00:00,SAT-61878,3.6416275304910144,80.14686686155972,506.6177699946094,-0.471334494580996,16508.127743161764,10.5,10500016508.127743,47.655,-122.3035,60.0,8.933333333333334
2026-01-20T23:08:57+00:00,SAT-61878,5.60116962927821,79.38720741293895,506.14769239201394,-0.36975359861321866,12950.335079606293,10.5,10500012950.33508,47.655,-122.3035,60.0,8.95
2026-01-20T23:08:58+00:00,SAT-61878,7.299504353679645,78.61552940466137,505.778924802997,-0.2679494677240891,9384.723784822283,10.5,10500009384.723785,47.655,-122.3035,60.0,8.966666666666667
2026-01-20T23:08:59+00:00,SAT-61878,8.782534801845014,77.83414436303522,505.5116898671868,-0.16598302698916914,5813.427712668728,10.5,10500005813.427713,47.655,-122.3035,60.0,8.983333333333333
2026-01-20T23:09:00+00:00,SAT-61878,10.086578555295025,77.04491739587351,505.346149461603,-0.06391568598498197,2238.5976862777206,10.5,10500002238.597687,47.655,-122.3035,60.0,9.0
2026-01-20T23:09:01+00:00,SAT-61878,11.240588469790557,76.24938204475922,505.28240421744727,0.03819084083542069,-1337.6047931529927,10.5,10499998662.395206,47.655,-122.3035,60.0,9.016666666666667
2026-01-20T23:09:02+00:00,SAT-61878,12.267834121365496,75.44882242496716,505.32049321604046,0.1402747218493007,-4913.014120647616,10.5,10499995086.98588,47.655,-122.3035,60.0,9.033333333333333
2026-01-20T23:09:03+00:00,SAT-61878,13.187171671887539,74.64433251629333,505.4603938719648,0.24227419307530298,-8485.467060317713,10.5,10499991514.53294,47.655,-122.3035,60.0,9.05
2026-01-20T23:09:04+00:00,SAT-61878,14.014004894713073,73.83685939805592,505.7020220005253,0.3441277478893539,-12052.809390015462,10.5,10499987947.19061,47.655,-122.3035,60.0,9.066666666666666
2026-01-20T23:09:05+00:00,SAT-61878,14.761015952414832,73.02723506693648,506.04523207442026,0.44577431764437864,-15612.902227400182,10.5,10499984387.097773,47.655,-122.3035,60.0,9.083333333333334
2026-01-20T23:09:06+00:00,SAT-61878,15.43872454449918,72.2162000929359,506.48981766055095,0.5471534525582952,-19163.62836540104,10.5,10499980836.371635,47.655,-122.3035,60.0,9.1
2026-01-20T23:09:07+00:00,SAT-61878,16.05591876826793,71.40442135174062,507.0355120372357,0.6482055048656834,-22702.898686963217,10.5,10499977297.101313,47.655,-122.3035,60.0,9.116666666666667
2026-01-20T23:09:08+00:00,SAT-61878,16.61998959859953,70.59250541809755,507.68198899408844,0.7488717941895108,-26228.65795706529,10.5,10499973771.342043,47.655,-122.3035,60.0,9.133333333333333
2026-01-20T23:09:09+00:00,SAT-61878,17.137192492073773,69.78100877338643,508.42886379682676,0.8490947719180828,-29738.89057989534,10.5,10499970261.10942,47.655,-122.3035,60.0,9.15
2026-01-20T23:09:10+00:00,SAT-61878,17.61285353430295,68.97044562803923,509.2756943160197,0.9488181851443533,-33231.62634069904,10.5,10499966768.37366,47.655,-122.3035,60.0,9.166666666666666
2026-01-20T23:09:11+00:00,SAT-61878,18.051533076552765,68.16129394927245,510.22198231933703,1.0479872188445334,-36704.94538547597,10.5,10499963295.054615,47.655,-122.3035,60.0,9.183333333333334
2026-01-20T23:09:12+00:00,SAT-61878,18.457156544095266,67.35400014159283,511.267174905598,1.1465486350605538,-40156.98309573824,10.5,10499959843.016905,47.655,-122.3035,60.0,9.2
2026-01-20T23:09:13+00:00,SAT-61878,18.833119720074386,66.54898269625919,512.4106660776317,1.2444509048696846,-43585.93471064468,10.5,10499956414.065289,47.655,-122.3035,60.0,9.216666666666667
2026-01-20T23:09:14+00:00,SAT-61878,19.18237404172483,65.7466350499742,513.6517984467552,1.3416443262226563,-46990.05945419044,10.5,10499953009.940546,47.655,-122.3035,60.0,9.233333333333333
2026-01-20T23:09:15+00:00,SAT-61878,19.507496135606456,64.94732783881335,514.9898650547744,1.438081132297131,-50367.68433020378,10.5,10499949632.31567,47.655,-122.3035,60.0,9.25
2026-01-20T23:09:16+00:00,SAT-61878,19.810744844058185,64.1514106852999,516.4241113040521,1.533715573828925,-53717.20700593379,10.5,10499946282.792994,47.655,-122.3035,60.0,9.266666666666667
2026-01-20T23:09:17+00:00,SAT-61878,20.09410825793048,63.359213632514944,517.9537369696842,1.6285040212887651,-57037.09939071261,10.5,10499942962.90061,47.655,-122.3035,60.0,9.283333333333333
2026-01-20T23:09:18+00:00,SAT-61878,20.359342723643287,62.571048290586745,519.5778983135829,1.7224050130440551,-60325.90932278416,10.5,10499939674.090677,47.655,-122.3035,60.0,9.3
2026-01-20T23:09:19+00:00,SAT-61878,20.608005355413383,61.787208781302674,521.2957102465921,1.815379354220578,-63582.26403185923,10.5,10499936417.735968,47.655,-122.3035,60.0,9.316666666666666
2026-01-20T23:09:20+00:00,SAT-61878,20.84148127610003,61.00797250168177,523.1062485892014,1.9073901026402482,-66804.869646596,10.5,10499933195.130354,47.655,-122.3035,60.0,9.333333333333334
2026-01-20T23:09:21+00:00,SAT-61878,21.0610065375521,60.23360078969887,525.0085523182347,1.9984026529945624,-69992.51414271038,10.5,10499930007.485857,47.655,-122.3035,60.0,9.35
2026-01-20T23:09:22+00:00,SAT-61878,21.26768750425,59.46433947459976,527.0016258974879,2.0883847527912693,-73144.0679014958,10.5,10499926855.932098,47.655,-122.3035,60.0,9.366666666666667
2026-01-20T23:09:23+00:00,SAT-61878,21.462517310129687,58.70041936196015,529.0844416242717,2.177306484762975,-76258.48309369822,10.5,10499923741.516907,47.655,-122.3035,60.0,9.383333333333333
2026-01-20T23:09:24+00:00,SAT-61878,21.6463898862472,57.94205667864958,531.2559419584087,2.2651402996701244,-79334.7948284153,10.5,10499920665.205172,47.655,-122.3035,60.0,9.4
2026-01-20T23:09:25+00:00,SAT-61878,21.82011196955936,57.1894534697646,533.5150418839463,2.351860997994928,-82372.1205119401,10.5,10499917627.879488,47.655,-122.3035,60.0,9.416666666666666
2026-01-20T23:09:26+00:00,SAT-61878,21.98441341841278,56.442797974873706,535.8606312526133,2.437445703534131,-85369.65892286848,10.5,10499914630.341078,47.655,-122.3035,60.0,9.433333333333334
2026-01-20T23:09:27+00:00,SAT-61878,22.139956105455852,55.702264990882384,538.291577100938,2.5218738469229134,-88326.68963503608,10.5,10499911673.310366,47.655,-122.3035,60.0,9.45
2026-01-20T23:09:28+00:00,SAT-61878,22.287341611574305,54.96801622221224,540.8067259509357,2.6051271051666474,-91242.57089966485,10.5,10499908757.4291,47.655,-122.3035,60.0,9.466666666666667
2026-01-20T23:09:29+00:00,SAT-61878,22.42711790244745,54.240200633677546,543.4049060504885,2.6871894003390264,-94116.73959976599,10.5,10499905883.2604,47.655,-122.3035,60.0,9.483333333333333
2026-01-20T23:09:30+00:00,SAT-61878,22.559785143369304,53.518954791147934,546.0849296124268,2.7680468172763852,-96948.70836744682,10.5,10499903051.291632,47.655,-122.3035,60.0,9.5
2026-01-20T23:09:31+00:00,SAT-61878,22.685800775739292,52.80440321324602,548.8455949715237,2.847687540234329,-99738.06336535809,10.5,10499900261.936634,47.655,-122.3035,60.0,9.516666666666667
2026-01-20T23:09:32+00:00,SAT-61878,22.805583962628813,52.09665872809305,551.6856886783174,2.926101803368642,-102484.46255232592,10.5,10499897515.537447,47.655,-122.3035,60.0,9.533333333333333
2026-01-20T23:09:33+00:00,SAT-61878,22.919519493706385,51.395822830792476,554.6039875435438,3.0032818532840015,-105187.63437164926,10.5,10499894812.36563,47.655,-122.3035,60.0,9.55
2026-01-20T23:09:34+00:00,SAT-61878,23.027961224494756,50.70198603955835,557.599260645219,3.0792218045040896,-107847.3726890519,10.5,10499892152.627312,47.655,-122.3035,60.0,9.566666666666666
2026-01-20T23:09:35+00:00,SAT-61878,23.131235110217833,50.0152282737156,560.6702711915777,3.153917636928334,-110463.53670360682,10.5,10499889536.463297,47.655,-122.3035,60.0,9.583333333333334
2026-01-20T23:09:36+00:00,SAT-61878,23.229641892984418,49.335619219447544,563.8157783814743,3.227367077501385,-113036.04680330063,10.5,10499886963.953197,47.655,-122.3035,60.0,9.6
2026-01-20T23:09:37+00:00,SAT-61878,23.323459484266905,48.66321870881059,567.034539146769,3.2995695222879666,-115564.88183576537,10.5,10499884435.118164,47.655,-122.3035,60.0,9.616666666666667
2026-01-20T23:09:38+00:00,SAT-61878,23.41294508326199,47.99807710104295,570.3253098169974,3.3705259848168514,-118050.0772990658,10.5,10499881949.9227,47.655,-122.3035,60.0,9.633333333333333
2026-01-20T23:09:39+00:00,SAT-61878,23.4983370651717,47.34023566002569,573.6868477325215,3.4402389544835863,-120491.72038236418,10.5,10499879508.279617,47.655,-122.3035,60.0,9.65
2026-01-20T23:09:40+00:00,SAT-61878,23.579856666053225,46.689726944265004,577.1179127164598,3.5087123988851965,-122889.9500476912,10.5,10499877110.049952,47.655,-122.3035,60.0,9.666666666666666
2026-01-20T23:09:41+00:00,SAT-61878,23.657709492140217,46.046575180517394,580.617268548948,3.5759515953357965,-125244.95112891018,10.5,10499874755.048872,47.655,-122.3035,60.0,9.683333333333334
2026-01-20T23:09:42+00:00,SAT-61878,23.732086871253532,45.41079665243527,584.1836842733628,3.641963089330173,-127556.95287693602,10.5,10499872443.047123,47.655,-122.3035,60.0,9.7
2026-01-20T23:09:43+00:00,SAT-61878,23.803167067631016,44.78240007882507,587.8159354611215,3.7067546270099583,-129826.22659441474,10.5,10499870173.773405,47.655,-122.3035,60.0,9.716666666666667
2026-01-20T23:09:44+00:00,SAT-61878,23.871116375289926,44.16138698647789,591.5128054091261,3.770335030165824,-132053.08125777182,10.5,10499867946.918743,47.655,-122.3035,60.0,9.733333333333333
2026-01-20T23:09:45+00:00,SAT-61878,23.93609010306094,43.54775208598236,595.2730862125449,3.832714168124425,-134237.86253257398,10.5,10499865762.137468,47.655,-122.3035,60.0,9.75
2026-01-20T23:09:46+00:00,SAT-61878,23.99823346487077,42.94148363381602,599.0955798095542,3.8939028279887076,-136380.94822879578,10.5,10499863619.051771,47.655,-122.3035,60.0,9.766666666666667
2026-01-20T23:09:47+00:00,SAT-61878,24.057682384395147,42.342563796494865,602.9790988966683,3.9539126886108322,-138482.74738924133,10.5,10499861517.252611,47.655,-122.3035,60.0,9.783333333333333
2026-01-20T23:09:48+00:00,SAT-61878,24.114564224728245,41.7509689999786,606.9224678181096,4.012756214224825,-140543.6965641099,10.5,10499859456.303436,47.655,-122.3035,60.0,9.8
2026-01-20T23:09:49+00:00,SAT-61878,24.168998450136044,41.166670276422046,610.9245233490964,4.070446587735746,-142564.25747450034,10.5,10499857435.742525,47.655,-122.3035,60.0,9.816666666666666
2026-01-20T23:09:50+00:00,SAT-61878,24.22109722748773,40.5896336017639,614.9841154125983,4.126997656717904,-144544.91512104016,10.5,10499855455.084879,47.655,-122.3035,60.0,9.833333333333334
2026-01-20T23:09:51+00:00,SAT-61878,24.270965973970192,40.01982022212389,619.1001077422316,4.182423854349849,-146486.17501469437,10.5,10499853513.824986,47.655,-122.3035,60.0,9.85
