satellites_20260120_184412/SAT-54788.csv

timestamp,satellite,azimuth_deg,elevation_deg,distance_km,relative_velocity_kms,doppler_shift_hz,tx_freq_ghz,rx_freq_hz,ue_lat,ue_lon,ue_alt_m,time_minutes
2026-01-20T23:06:02+00:00,SAT-54788,211.6476143959851,40.12263838626793,1308.5050008773567,-5.491318659518832,192329.20771124848,10.5,10500192329.207712,47.655,-122.3035,60.0,6.033333333333333
2026-01-20T23:06:03+00:00,SAT-54788,211.6714684299347,40.33282659142555,1303.028325734263,-5.477627649745801,191849.69063608302,10.5,10500191849.690636,47.655,-122.3035,60.0,6.05
2026-01-20T23:06:04+00:00,SAT-54788,211.69596339029508,40.54455103839521,1297.5653050915832,-5.463756808175836,191363.87509070116,10.5,10500191363.875092,47.655,-122.3035,60.0,6.066666666666666
2026-01-20T23:06:05+00:00,SAT-54788,211.7211135059745,40.757826800236366,1292.1161183015624,-5.449703592791232,190871.67204289022,10.5,10500190871.672043,47.655,-122.3035,60.0,6.083333333333333
2026-01-20T23:06:06+00:00,SAT-54788,211.74693342872143,40.972669055709204,1286.6809472516854,-5.435465396814892,190372.9901922895,10.5,10500190372.990192,47.655,-122.3035,60.0,6.1
2026-01-20T23:06:07+00:00,SAT-54788,211.77343824869448,41.18909308596421,1281.259976429262,-5.421039608438847,189867.7380623361,10.5,10500189867.738062,47.655,-122.3035,60.0,6.116666666666666
2026-01-20T23:06:08+00:00,SAT-54788,211.8006435110956,41.40711427339971,1275.8533929264456,-5.406423532435687,189355.82125476524,10.5,10500189355.821255,47.655,-122.3035,60.0,6.133333333333334
2026-01-20T23:06:09+00:00,SAT-54788,211.8285652330716,41.62674809722822,1270.4613865234298,-5.3916144862862865,188837.14581641014,10.5,10500188837.145817,47.655,-122.3035,60.0,6.15
2026-01-20T23:06:10+00:00,SAT-54788,211.85721992197873,41.84801013269779,1265.0841496757737,-5.376609723789552,188311.61556369206,10.5,10500188311.615564,47.655,-122.3035,60.0,6.166666666666667
2026-01-20T23:06:11+00:00,SAT-54788,211.88662459400464,42.07091604706292,1259.7218775779143,-5.361406486508999,187779.13388449713,10.5,10500187779.133884,47.655,-122.3035,60.0,6.183333333333334
2026-01-20T23:06:12+00:00,SAT-54788,211.9167967939849,42.29548159744915,1254.3747681753694,-5.346001952362001,187239.60193755446,10.5,10500187239.601938,47.655,-122.3035,60.0,6.2
2026-01-20T23:06:13+00:00,SAT-54788,211.9477546158095,42.52172262637788,1249.0430222282134,-5.330393278085115,186692.92013975116,10.5,10500186692.92014,47.655,-122.3035,60.0,6.216666666666667
2026-01-20T23:06:14+00:00,SAT-54788,211.97951672406327,42.74965505882333,1243.7268433322033,-5.3145775979383645,186138.98812075128,10.5,10500186138.988121,47.655,-122.3035,60.0,6.233333333333333
2026-01-20T23:06:15+00:00,SAT-54788,212.01210237666925,42.97929489901876,1238.426437941193,-5.298551983142706,185577.70330232393,10.5,10500185577.703302,47.655,-122.3035,60.0,6.25
2026-01-20T23:06:16+00:00,SAT-54788,212.04553144836538,43.21065822527347,1233.1420154300051,-5.282313487702893,185008.96250325412,10.5,10500185008.962503,47.655,-122.3035,60.0,6.266666666666667
2026-01-20T23:06:17+00:00,SAT-54788,212.07982445558142,43.443761186494626,1227.8737881116028,-5.265859120351212,184432.66095669335,10.5,10500184432.660957,47.655,-122.3035,60.0,6.283333333333333
2026-01-20T23:06:18+00:00,SAT-54788,212.11500258236418,43.67861999723087,1222.621971282239,-5.249185876851197,183848.69344157272,10.5,10500183848.693441,47.655,-122.3035,60.0,6.3
2026-01-20T23:06:19+00:00,SAT-54788,212.1510877077643,43.91525093387615,1217.386783234393,-5.232290672503753,183256.9519186817,10.5,10500183256.95192,47.655,-122.3035,60.0,6.316666666666666
2026-01-20T23:06:20+00:00,SAT-54788,212.1881024340932,44.153670327547815,1212.168445337016,-5.215170426884935,182657.32849854356,10.5,10500182657.328499,47.655,-122.3035,60.0,6.333333333333333
2026-01-20T23:06:21+00:00,SAT-54788,212.22607011719234,44.39389456045525,1206.9671820312692,-5.1978220208104,182049.7139341284,10.5,10500182049.713934,47.655,-122.3035,60.0,6.35
2026-01-20T23:06:22+00:00,SAT-54788,212.26501489791875,44.63594006003917,1201.783220869181,-5.180242276225149,181433.99691650702,10.5,10500181433.996916,47.655,-122.3035,60.0,6.366666666666666
2026-01-20T23:06:23+00:00,SAT-54788,212.30496173500364,44.87982329181937,1196.6167925723591,-5.16242799934275,180810.06558576893,10.5,10500180810.065586,47.655,-122.3035,60.0,6.383333333333334
2026-01-20T23:06:24+00:00,SAT-54788,212.34593643997363,45.12556075387261,1191.4681310476813,-5.144375946610113,180177.80633896464,10.5,10500180177.80634,47.655,-122.3035,60.0,6.4
2026-01-20T23:06:25+00:00,SAT-54788,212.38796571352214,45.37316896935261,1186.3374734369288,-5.126082877253602,179537.10567049292,10.5,10500179537.10567,47.655,-122.3035,60.0,6.416666666666667
2026-01-20T23:06:26+00:00,SAT-54788,212.43107718427004,45.62266448114736,1181.2250601140147,-5.107545470267431,178887.84726468346,10.5,10500178887.847265,47.655,-122.3035,60.0,6.433333333333334
2026-01-20T23:06:27+00:00,SAT-54788,212.47529944873844,45.87406384213438,1176.1311347650012,-5.088760368375193,178229.91353551505,10.5,10500178229.913536,47.655,-122.3035,60.0,6.45
2026-01-20T23:06:28+00:00,SAT-54788,212.5206621138378,46.12738360706309,1171.0559444242751,-5.069724236549826,177563.18767623292,10.5,10500177563.187675,47.655,-122.3035,60.0,6.466666666666667
2026-01-20T23:06:29+00:00,SAT-54788,212.56719584215548,46.38264032693916,1165.999739452356,-5.050433668839664,176887.5503960025,10.5,10500176887.550396,47.655,-122.3035,60.0,6.483333333333333
2026-01-20T23:06:30+00:00,SAT-54788,212.61493239876472,46.639850538359234,1160.9627736066334,-5.03088520380916,176202.8804607092,10.5,10500176202.88046,47.655,-122.3035,60.0,6.5
2026-01-20T23:06:31+00:00,SAT-54788,212.6639047006532,46.89903075302262,1155.945304096701,-5.011075405812129,175509.0575394907,10.5,10500175509.057539,47.655,-122.3035,60.0,6.516666666666667
2026-01-20T23:06:32+00:00,SAT-54788,212.71414686971048,47.160197450906765,1150.9475915586377,-4.991000751088763,174805.95821537316,10.5,10500174805.958216,47.655,-122.3035,60.0,6.533333333333333
2026-01-20T23:06:33+00:00,SAT-54788,212.76569428735633,47.42336706707027,1145.969900142885,-4.970657746541555,174093.46014530602,10.5,10500174093.460146,47.655,-122.3035,60.0,6.55
2026-01-20T23:06:34+00:00,SAT-54788,212.81858365353094,47.6885559840576,1141.0124974836676,-4.950042795423352,173371.43735598976,10.5,10500173371.437355,47.655,-122.3035,60.0,6.566666666666666
2026-01-20T23:06:35+00:00,SAT-54788,212.87285304737821,47.955780516647124,1136.0756548023655,-4.929152329162958,172639.76486096613,10.5,10500172639.76486,47.655,-122.3035,60.0,6.583333333333333
2026-01-20T23:06:36+00:00,SAT-54788,212.9285419929059,48.22505690294499,1131.1596468794137,-4.907982732740055,171898.31604693196,10.5,10500171898.316048,47.655,-122.3035,60.0,6.6
2026-01-20T23:06:37+00:00,SAT-54788,212.98569152744278,48.49640129089849,1126.2647521006274,-4.886530381953201,171146.9639790225,10.5,10500171146.96398,47.655,-122.3035,60.0,6.616666666666666
2026-01-20T23:06:38+00:00,SAT-54788,213.0443442744882,48.76982972615994,1121.3912524663594,-4.864791571169667,170385.57887030471,10.5,10500170385.57887,47.655,-122.3035,60.0,6.633333333333334
2026-01-20T23:06:39+00:00,SAT-54788,213.1045445197885,49.04535813518908,1116.539433672713,-4.842762642079737,169614.0325912977,10.5,10500169614.03259,47.655,-122.3035,60.0,6.65
2026-01-20T23:06:40+00:00,SAT-54788,213.166338293545,49.32300231481867,1111.7095850643452,-4.8204398576025485,168832.1942536218,10.5,10500168832.194254,47.655,-122.3035,60.0,6.666666666666667
2026-01-20T23:06:41+00:00,SAT-54788,213.22977345572363,49.60277791396637,1106.9019997130297,-4.797819499915339,168039.9336433976,10.5,10500168039.933643,47.655,-122.3035,60.0,6.683333333333334
2026-01-20T23:06:42+00:00,SAT-54788,213.29489978779816,49.88470042009809,1102.1169743984474,-4.774897772706266,167237.11779772592,10.5,10500167237.117798,47.655,-122.3035,60.0,6.7
2026-01-20T23:06:43+00:00,SAT-54788,213.36176908851198,50.168785139156356,1097.3548096864683,-4.751670954351597,166423.61636960114,10.5,10500166423.61637,47.655,-122.3035,60.0,6.716666666666667
2026-01-20T23:06:44+00:00,SAT-54788,213.43043527774705,50.455047183627286,1092.6158098546618,-4.728135189548637,165599.29433001508,10.5,10500165599.29433,47.655,-122.3035,60.0,6.733333333333333
2026-01-20T23:06:45+00:00,SAT-54788,213.50095450347038,50.743501447283265,1087.9002830256186,-4.704286701904966,164764.01941373103,10.5,10500164764.019413,47.655,-122.3035,60.0,6.75
2026-01-20T23:06:46+00:00,SAT-54788,213.5733852586137,51.034162591642385,1083.208541088252,-4.680121641618613,163917.6567843993,10.5,10500163917.656784,47.655,-122.3035,60.0,6.766666666666667
2026-01-20T23:06:47+00:00,SAT-54788,213.6477885027247,51.32704502221587,1078.5408997710113,-4.655636183642861,163060.07247270393,10.5,10500163060.072474,47.655,-122.3035,60.0,6.783333333333333
2026-01-20T23:06:48+00:00,SAT-54788,213.7242277928824,51.622162869665324,1073.8976786171913,-4.630826462605539,162191.13109696095,10.5,10500162191.131098,47.655,-122.3035,60.0,6.8
2026-01-20T23:06:49+00:00,SAT-54788,213.8027694217553,51.91952996577605,1069.2792010251528,-4.605688620606444,161310.6975371864,10.5,10500161310.697536,47.655,-122.3035,60.0,6.816666666666666
2026-01-20T23:06:50+00:00,SAT-54788,213.88348256532763,52.219159821210624,1064.685794240868,-4.580218780462629,160418.63599803305,10.5,10500160418.635998,47.655,-122.3035,60.0,6.833333333333333
2026-01-20T23:06:51+00:00,SAT-54788,213.9664394396336,52.521065600298584,1060.1177893771533,-4.554413092167183,159514.81163597322,10.5,10500159514.811636,47.655,-122.3035,60.0,6.85
2026-01-20T23:06:52+00:00,SAT-54788,214.05171546864761,52.825260097550476,1055.5755213865652,-4.528267659364183,158599.0879841411,10.5,10500158599.087984,47.655,-122.3035,60.0,6.866666666666666
2026-01-20T23:06:53+00:00,SAT-54788,214.1393894617188,53.131755707912006,1051.059329107626,-4.50177859801226,157671.3290069783,10.5,10500157671.329006,47.655,-122.3035,60.0,6.883333333333334
2026-01-20T23:06:54+00:00,SAT-54788,214.22954380398804,53.440564399353676,1046.5695552525417,-4.474942050058492,156731.39957915206,10.5,10500156731.39958,47.655,-122.3035,60.0,6.9
2026-01-20T23:06:55+00:00,SAT-54788,214.32226465989282,53.75169768491549,1042.1065463812834,-4.447754154477127,155779.16447120838,10.5,10500155779.16447,47.655,-122.3035,60.0,6.916666666666667
2026-01-20T23:06:56+00:00,SAT-54788,214.41764218989863,54.06516659116865,1037.6706529045514,-4.420211031349089,154814.48779196918,10.5,10500154814.487791,47.655,-122.3035,60.0,6.933333333333334
2026-01-20T23:06:57+00:00,SAT-54788,214.51577078167918,54.38098162373041,1033.2622291026194,-4.392308835385778,153837.23486316213,10.5,10500153837.234863,47.655,-122.3035,60.0,6.95
2026-01-20T23:06:58+00:00,SAT-54788,214.6167492985612,54.699152734684155,1028.8816330907946,-4.3640437423144975,152847.27174258075,10.5,10500152847.271742,47.655,-122.3035,60.0,6.966666666666667
2026-01-20T23:06:59+00:00,SAT-54788,214.72068134507134,55.01968928716428,1024.5292267984596,-4.33541191903681,151844.46417890376,10.5,10500151844.464178,47.655,-122.3035,60.0,6.983333333333333
2026-01-20T23:07:00+00:00,SAT-54788,214.82767555055784,55.342600015666996,1020.2053759778736,-4.306409575992826,150828.679445714,10.5,10500150828.679445,47.655,-122.3035,60.0,7.0
2026-01-20T23:07:01+00:00,SAT-54788,214.93784587441286,55.667892987982086,1015.9104501607501,-4.277032950573678,149799.7857605331,10.5,10500149799.78576,47.655,-122.3035,60.0,7.016666666666667
2026-01-20T23:07:02+00:00,SAT-54788,215.0513119330266,55.99557556364741,1011.6448226313778,-4.247278278760064,148757.65129148334,10.5,10500148757.65129,47.655,-122.3035,60.0,7.033333333333333
2026-01-20T23:07:03+00:00,SAT-54788,215.1681993498108,56.32565434769915,1007.4088704280279,-4.217141850208182,147702.14608663006,10.5,10500147702.146086,47.655,-122.3035,60.0,7.05
2026-01-20T23:07:04+00:00,SAT-54788,215.28864013271283,56.658135145969894,1003.2029742894201,-4.1866199936587485,146633.14156294373,10.5,10500146633.141563,47.655,-122.3035,60.0,7.066666666666666
2026-01-20T23:07:05+00:00,SAT-54788,215.41277307958077,56.99302291651882,999.0275186157445,-4.155709066128046,145550.5101277247,10.5,10500145550.510128,47.655,-122.3035,60.0,7.083333333333333
2026-01-20T23:07:06+00:00,SAT-54788,215.54074421387503,57.33032171718622,994.8828914404595,-4.124405475617094,144454.1259739746,10.5,10500144454.125975,47.655,-122.3035,60.0,7.1
2026-01-20T23:07:07+00:00,SAT-54788,215.67270725447167,57.67003465172733,990.7694843794441,-4.092705663807902,143343.86447434567,10.5,10500143343.864475,47.655,-122.3035,60.0,7.116666666666666
2026-01-20T23:07:08+00:00,SAT-54788,215.8088241212344,58.01216381107444,986.6876925974063,-4.060606149683093,142219.60370888477,10.5,10500142219.603708,47.655,-122.3035,60.0,7.133333333333334
2026-01-20T23:07:09+00:00,SAT-54788,215.9492654817554,58.35671021452508,982.637914730789,-4.028103480914164,141081.2227624443,10.5,10500141081.222763,47.655,-122.3035,60.0,7.15
2026-01-20T23:07:10+00:00,SAT-54788,216.09421133967624,58.70367374289528,978.6205528591573,-3.9951942884576397,139928.60363687074,10.5,10500139928.603638,47.655,-122.3035,60.0,7.166666666666667
2026-01-20T23:07:11+00:00,SAT-54788,216.24385167222044,59.05305307199195,974.6360124221355,-3.961875272768839,138761.63076815233,10.5,10500138761.630768,47.655,-122.3035,60.0,7.183333333333334
2026-01-20T23:07:12+00:00,SAT-54788,216.3983871190069,59.40484560038511,970.684702150094,-3.928143182359964,137580.19027543257,10.5,10500137580.190275,47.655,-122.3035,60.0,7.2
2026-01-20T23:07:13+00:00,SAT-54788,216.55802972654473,59.759047370257946,966.7670340162205,-3.893994843497919,136384.17100115356,10.5,10500136384.171001,47.655,-122.3035,60.0,7.216666666666667
2026-01-20T23:07:14+00:00,SAT-54788,216.72300375575412,60.11565298540227,962.8834231589718,-3.8594272243055587,135173.46675615292,10.5,10500135173.466757,47.655,-122.3035,60.0,7.233333333333333
2026-01-20T23:07:15+00:00,SAT-54788,216.89354656045333,60.474655529380286,959.0342877405977,-3.824437274443771,133947.97070465193,10.5,10500133947.970705,47.655,-122.3035,60.0,7.25
2026-01-20T23:07:16+00:00,SAT-54788,217.06990953324353,60.836046462532885,955.2200489655525,-3.7890221434895612,132707.5830127801,10.5,10500132707.583014,47.655,-122.3035,60.0,7.266666666666667
2026-01-20T23:07:17+00:00,SAT-54788,217.2523591432494,61.19981553231943,951.4411308811123,-3.753179013543207,131452.20498576944,10.5,10500131452.204987,47.655,-122.3035,60.0,7.283333333333333
2026-01-20T23:07:18+00:00,SAT-54788,217.4411780563405,61.565950660549994,947.6979603449385,-3.7169051985932278,130181.74254813606,10.5,10500130181.742548,47.655,-122.3035,60.0,7.3
2026-01-20T23:07:19+00:00,SAT-54788,217.63666635930934,61.9344378317292,943.9909668935416,-3.680198107404138,128896.10494385235,10.5,10500128896.104944,47.655,-122.3035,60.0,7.316666666666666
2026-01-20T23:07:20+00:00,SAT-54788,217.83914289156777,62.30526096883904,940.3205826477572,-3.643055282403649,127595.20609834125,10.5,10500127595.206099,47.655,-122.3035,60.0,7.333333333333333
2026-01-20T23:07:21+00:00,SAT-54788,218.04894669965938,62.67840180309382,936.6872421794399,-3.605474391665758,126278.96433769011,10.5,10500126278.964338,47.655,-122.3035,60.0,7.35
2026-01-20T23:07:22+00:00,SAT-54788,218.2664386247387,63.05383973212557,933.091382386152,-3.5674532091521787,124947.30169662199,10.5,10500124947.301697,47.655,-122.3035,60.0,7.366666666666666
2026-01-20T23:07:23+00:00,SAT-54788,218.49200303613952,63.43155166410927,929.5334423855575,-3.528989657061781,123600.14540175225,10.5,10500123600.145401,47.655,-122.3035,60.0,7.383333333333334
2026-01-20T23:07:24+00:00,SAT-54788,218.72604973043516,63.811511853004646,926.0138633675812,-3.490081834451125,122237.4288740006,10.5,10500122237.428873,47.655,-122.3035,60.0,7.4
2026-01-20T23:07:25+00:00,SAT-54788,218.96901601349617,64.19369172249876,922.5330884180219,-3.450727916495002,120859.08820026928,10.5,10500120859.0882,47.655,-122.3035,60.0,7.416666666666667
2026-01-20T23:07:26+00:00,SAT-54788,219.22136897564903,64.57805966272203,919.0915624426376,-3.4109263136852634,119465.06770925927,10.5,10500119465.067709,47.655,-122.3035,60.0,7.433333333333334
2026-01-20T23:07:27+00:00,SAT-54788,219.48360800056483,64.96458082645321,915.6897319324554,-3.3706755361587604,118055.31521966102,10.5,10500118055.31522,47.655,-122.3035,60.0,7.45
2026-01-20T23:07:28+00:00,SAT-54788,219.75626751124602,65.35321689031562,912.3280448643932,-3.329974314699514,116629.78627816212,10.5,10500116629.786278,47.655,-122.3035,60.0,7.466666666666667
2026-01-20T23:07:29+00:00,SAT-54788,220.03992000012667,65.7439258073249,909.0069504811995,-3.288821509716935,115188.44097147974,10.5,10500115188.440971,47.655,-122.3035,60.0,7.483333333333333
2026-01-20T23:07:30+00:00,SAT-54788,220.3351793575358,66.13666152405013,905.7268991621752,-3.247216214566397,113731.2475450839,10.5,10500113731.247545,47.655,-122.3035,60.0,7.5
2026-01-20T23:07:31+00:00,SAT-54788,220.64270454988014,66.53137368200935,902.4883421908476,-3.205157656388823,112258.17893018055,10.5,10500112258.17893,47.655,-122.3035,60.0,7.516666666666667
2026-01-20T23:07:32+00:00,SAT-54788,220.963203668562,66.92800727590308,899.2917316215425,-3.1626453165070596,110769.21696050181,10.5,10500110769.21696,47.655,-122.3035,60.0,7.533333333333333
2026-01-20T23:07:33+00:00,SAT-54788,221.29743841434922,67.32650229127006,896.1375200258793,-3.119678854486666,109264.34971259348,10.5,10500109264.349712,47.655,-122.3035,60.0,7.55
2026-01-20T23:07:34+00:00,SAT-54788,221.64622904779856,67.72679329332948,893.0261603150047,-3.0762581184044895,107743.57186546412,10.5,10500107743.571865,47.655,-122.3035,60.0,7.566666666666666
2026-01-20T23:07:35+00:00,SAT-54788,222.01045986873717,68.12880897207538,889.9581055515827,-3.03238322517077,106206.88751380492,10.5,10500106206.887514,47.655,-122.3035,60.0,7.583333333333333
2026-01-20T23:07:36+00:00,SAT-54788,222.39108529605824,68.53247164726062,886.933808681679,-2.98805447690018,104654.3072389496,10.5,10500104654.30724,47.655,-122.3035,60.0,7.6
2026-01-20T23:07:37+00:00,SAT-54788,222.789136598433,68.93769670526801,883.9537223500506,-2.943272423760057,103085.85031008553,10.5,10500103085.85031,47.655,-122.3035,60.0,7.616666666666666
2026-01-20T23:07:38+00:00,SAT-54788,223.20572937087968,69.34439197915121,881.0182986527539,-2.898037854630219,101501.54435712089,10.5,10500101501.544357,47.655,-122.3035,60.0,7.633333333333334
2026-01-20T23:07:39+00:00,SAT-54788,223.64207183598492,69.75245705362902,878.1279888990694,-2.85235179080713,99901.42515017794,10.5,10500099901.42515,47.655,-122.3035,60.0,7.65
2026-01-20T23:07:40+00:00,SAT-54788,224.0994740661632,70.16178248492358,875.2832433797043,-2.806215532782233,98285.5382379681,10.5,10500098285.538239,47.655,-122.3035,60.0,7.666666666666667
2026-01-20T23:07:41+00:00,SAT-54788,224.5793582431867,70.5722489313396,872.4845110883429,-2.7596306021087207,96653.93691172033,10.5,10500096653.936913,47.655,-122.3035,60.0,7.683333333333334
2026-01-20T23:07:42+00:00,SAT-54788,225.0832700562244,70.98372616575118,869.7322395011731,-2.7125988234363385,95006.68507838697,10.5,10500095006.685078,47.655,-122.3035,60.0,7.7
2026-01-20T23:07:43+00:00,SAT-54788,225.6128913921744,71.39607197470805,867.0268742745992,-2.6651222530729646,93343.85475856811,10.5,10500093343.85476,47.655,-122.3035,60.0,7.716666666666667
2026-01-20T23:07:44+00:00,SAT-54788,226.17005443197223,71.80913090322662,864.3688590142011,-2.6172032608711375,91665.52895452407,10.5,10500091665.528955,47.655,-122.3035,60.0,7.733333333333333
2026-01-20T23:07:45+00:00,SAT-54788,226.75675733359068,72.22273284737405,861.7586349620257,-2.5688444611470156,89971.7992306653,10.5,10500089971.79923,47.655,-122.3035,60.0,7.75
2026-01-20T23:07:46+00:00,SAT-54788,227.37518163103206,72.63669144717166,859.196640752775,-2.5200487886726983,88262.76837512481,10.5,10500088262.768375,47.655,-122.3035,60.0,7.766666666666667
2026-01-20T23:07:47+00:00,SAT-54788,228.02771154567165,73.05080227454931,856.6833120942056,-2.4708194429096544,86538.5484465769,10.5,10500086538.548447,47.655,-122.3035,60.0,7.783333333333333
2026-01-20T23:07:48+00:00,SAT-54788,228.71695534431774,73.46484076321062,854.2190815031436,-2.4211599395803205,84799.26258049281,10.5,10500084799.26258,47.655,-122.3035,60.0,7.8
2026-01-20T23:07:49+00:00,SAT-54788,229.4457689250968,73.87855986087018,851.8043779900687,-2.37107407946379,83045.04389623368,10.5,10500083045.043896,47.655,-122.3035,60.0,7.816666666666666
2026-01-20T23:07:50+00:00,SAT-54788,230.21728174176323,74.29168734795434,849.4396267748169,-2.3205659769803795,81276.036498203,10.5,10500081276.036499,47.655,-122.3035,60.0,7.833333333333333
2026-01-20T23:07:51+00:00,SAT-54788,231.03492517338074,74.70392278491622,847.1252489737752,-2.269640050403445,79492.3951330229,10.5,10500079492.395134,47.655,-122.3035,60.0,7.85
2026-01-20T23:07:52+00:00,SAT-54788,231.90246334751902,75.11493402751586,844.8616612968394,-2.2183010392026294,77694.28579696828,10.5,10500077694.285797,47.655,-122.3035,60.0,7.866666666666666
2026-01-20T23:07:53+00:00,SAT-54788,232.82402633552596,75.52435325455525,842.6492757270747,-2.166553977984521,75881.8848232582,10.5,10500075881.884823,47.655,-122.3035,60.0,7.883333333333334
2026-01-20T23:07:54+00:00,SAT-54788,233.80414544400074,75.93177243368862,840.4884992263648,-2.1144042391719267,74055.38037686469,10.5,10500074055.380377,47.655,-122.3035,60.0,7.9
2026-01-20T23:07:55+00:00,SAT-54788,234.84779012725556,76.33673816654407,838.3797333984974,-2.06185749357822,72214.97107365959,10.5,10500072214.971073,47.655,-122.3035,60.0,7.916666666666667
2026-01-20T23:07:56+00:00,SAT-54788,235.96040562894993,76.73874582303424,836.3233741915687,-2.0089197607016547,70360.86774193423,10.5,10500070360.867743,47.655,-122.3035,60.0,7.933333333333334
2026-01-20T23:07:57+00:00,SAT-54788,237.14795004301953,77.13723290752,834.3198115502289,-1.9555973461111662,68493.29122938526,10.5,10500068493.29123,47.655,-122.3035,60.0,7.95
2026-01-20T23:07:58+00:00,SAT-54788,238.4169286914704,77.53157156610406,832.369429130374,-1.9018969016705434,66612.47451241988,10.5,10500066612.474512,47.655,-122.3035,60.0,7.966666666666667
2026-01-20T23:07:59+00:00,SAT-54788,239.7744229056924,77.92106020567138,830.4726039537745,-1.8478254000195673,64718.661802377486,10.5,10500064718.661802,47.655,-122.3035,60.0,7.983333333333333
2026-01-20T23:08:00+00:00,SAT-54788,241.22810893044516,78.30491418296734,828.629706088155,-1.7933901129629837,62812.10778861998,10.5,10500062812.107788,47.655,-122.3035,60.0,8.0
2026-01-20T23:08:01+00:00,SAT-54788,242.7862610666479,78.6822555880343,826.8410983488267,-1.7385986635508304,60893.07946260516,10.5,10500060893.079462,47.655,-122.3035,60.0,8.016666666666667
2026-01-20T23:08:02+00:00,SAT-54788,244.4577311508043,79.0521022394352,825.1071359483786,-1.6834589682761911,58961.85409340754,10.5,10500058961.854094,47.655,-122.3035,60.0,8.033333333333333
2026-01-20T23:08:03+00:00,SAT-54788,246.25189375660977,79.41335608747704,823.4281662040178,-1.6279792758853981,57018.72058701584,10.5,10500057018.720587,47.655,-122.3035,60.0,8.05
2026-01-20T23:08:04+00:00,SAT-54788,248.17854369093556,79.76479143571946,821.8045282062016,-1.5721681298625165,55063.97817238092,10.5,10500055063.978172,47.655,-122.3035,60.0,8.066666666666666
2026-01-20T23:08:05+00:00,SAT-54788,250.24772898784795,80.10504359187705,820.2365525246853,-1.5160344089577138,53097.93782089073,10.5,10500053097.93782,47.655,-122.3035,60.0,8.083333333333334
2026-01-20T23:08:06+00:00,SAT-54788,252.46949977714218,80.43259891025546,818.7245608741514,-1.4595872682182647,51120.92018102663,10.5,10500051120.920181,47.655,-122.3035,60.0,8.1
2026-01-20T23:08:07+00:00,SAT-54788,254.85355124045387,80.74578755205545,817.2688658386484,-1.4028361889315624,49133.257327578955,10.5,10500049133.257328,47.655,-122.3035,60.0,8.116666666666667
2026-01-20T23:08:08+00:00,SAT-54788,257.40873959712604,81.04278081392192,815.8697705462207,-1.3457909256080136,47135.290904763664,10.5,10500047135.290905,47.655,-122.3035,60.0,8.133333333333333
2026-01-20T23:08:09+00:00,SAT-54788,260.1424545880515,81.32159534239536,814.5275683964143,-1.288461544292931,45127.37346806695,10.5,10500045127.373468,47.655,-122.3035,60.0,8.15
2026-01-20T23:08:10+00:00,SAT-54788,263.0598439208055,81.58010705593529,813.2425427495727,-1.230858373112557,43109.86675215775,10.5,10500043109.866753,47.655,-122.3035,60.0,8.166666666666666
2026-01-20T23:08:11+00:00,SAT-54788,266.16290593356723,81.8160778170609,812.0149666654552,-1.17299203088849,41083.142673086004,10.5,10500041083.142673,47.655,-122.3035,60.0,8.183333333333334
2026-01-20T23:08:12+00:00,SAT-54788,269.4494991168297,82.0271977696795,810.8451026133157,-1.1148733899447612,39047.582025629184,10.5,10500039047.582026,47.655,-122.3035,60.0,8.2
2026-01-20T23:08:13+00:00,SAT-54788,272.9123585460221,82.21114537715196,809.7332022190775,-1.0565135990781005,37003.575287808126,10.5,10500037003.575287,47.655,-122.3035,60.0,8.216666666666667
2026-01-20T23:08:14+00:00,SAT-54788,276.5382546529276,82.36566544682395,808.6795059895969,-0.9979240409912262,34951.5211300208,10.5,10500034951.52113,47.655,-122.3035,60.0,8.233333333333333
2026-01-20T23:08:15+00:00,SAT-54788,280.30746502939917,82.48866262736728,807.6842430793816,-0.9391163473843033,32891.82694360905,10.5,10500032891.826944,47.655,-122.3035,60.0,8.25
2026-01-20T23:08:16+00:00,SAT-54788,284.1937383084876,82.57830435850188,806.747631042257,-0.8801023776294079,30824.90809394806,10.5,10500030824.908094,47.655,-122.3035,60.0,8.266666666666667
2026-01-20T23:08:17+00:00,SAT-54788,288.16489136715273,82.6331236515773,805.8698756043013,-0.8208942134548027,28751.187734267245,10.5,10500028751.187735,47.655,-122.3035,60.0,8.283333333333333
2026-01-20T23:08:18+00:00,SAT-54788,292.18409054011386,82.65210953448182,805.0511704420825,-0.7615041404905859,26671.096159300818,10.5,10500026671.096159,47.655,-122.3035,60.0,8.3
2026-01-20T23:08:19+00:00,SAT-54788,296.2117359923242,82.63477262751002,804.2916969792998,-0.7019446437560831,24585.07064723714,10.5,10500024585.070646,47.655,-122.3035,60.0,8.316666666666666
2026-01-20T23:08:20+00:00,SAT-54788,300.2077313945732,82.5811758412246,803.5916241879271,-0.6422283912648034,22493.554885494937,10.5,10500022493.554886,47.655,-122.3035,60.0,8.333333333333334
2026-01-20T23:08:21+00:00,SAT-54788,304.1338247648024,82.49192534660553,802.9511084057057,-0.5823682244767692,20396.99863632352,10.5,10500020396.998636,47.655,-122.3035,60.0,8.35
2026-01-20T23:08:22+00:00,SAT-54788,307.9556880003223,82.36812348513809,802.3702931631608,-0.5223771395937409,18295.85708168242,10.5,10500018295.857082,47.655,-122.3035,60.0,8.366666666666667
2026-01-20T23:08:23+00:00,SAT-54788,311.64446919308955,82.21129130538554,801.8493090292726,-0.46226828140696397,16190.59060776346,10.5,10500016190.590609,47.655,-122.3035,60.0,8.383333333333333
2026-01-20T23:08:24+00:00,SAT-54788,315.1776775554588,82.0232722917854,801.3882734632828,-0.40205492206272925,14081.664061270872,10.5,10500014081.66406,47.655,-122.3035,60.0,8.4
2026-01-20T23:08:25+00:00,SAT-54788,318.53939976000186,81.8061298527376,800.9872906876789,-0.3417504532051688,11969.546474228755,10.5,10500011969.546474,47.655,-122.3035,60.0,8.416666666666666
2026-01-20T23:08:26+00:00,SAT-54788,321.7199573885396,81.56204952983347,800.6464515690157,-0.28136836606992277,9854.710366777104,10.5,10500009854.710367,47.655,-122.3035,60.0,8.433333333333334
2026-01-20T23:08:27+00:00,SAT-54788,324.7151748717392,81.29325371093088,800.3658335185886,-0.22092224039135386,7737.631358655512,10.5,10500007737.63136,47.655,-122.3035,60.0,8.45
2026-01-20T23:08:28+00:00,SAT-54788,327.5254367220106,81.0019330061142,800.1455004041716,-0.16042572738595143,5618.78757321003,10.5,10500005618.787573,47.655,-122.3035,60.0,8.466666666666667
2026-01-20T23:08:29+00:00,SAT-54788,330.15468633404953,80.6901953039586,799.9855024787253,-0.09989253555013033,3498.6591399719887,10.5,10500003498.65914,47.655,-122.3035,60.0,8.483333333333333
2026-01-20T23:08:30+00:00,SAT-54788,332.60947566333,80.36003128462077,799.8858763232699,-0.039336414115009224,1377.7276151743513,10.5,10500001377.727615,47.655,-122.3035,60.0,8.5
2026-01-20T23:08:31+00:00,SAT-54788,334.8981307762644,80.01329390962799,799.8466448062593,0.021228861325790348,-743.5245216235514,10.5,10499999256.47548,47.655,-122.3035,60.0,8.516666666666667
2026-01-20T23:08:32+00:00,SAT-54788,337.0300618497122,79.65168892916144,799.8678170572881,0.08178950509086562,-2864.61443754562,10.5,10499997135.385563,47.655,-122.3035,60.0,8.533333333333333
2026-01-20T23:08:33+00:00,SAT-54788,339.01522044584556,79.27677353386242,799.9493884570321,0.14233173711883504,-4985.059496552672,10.5,10499995014.940504,47.655,-122.3035,60.0,8.55
2026-01-20T23:08:34+00:00,SAT-54788,340.8636916586592,78.88996062667722,800.0913406428521,0.20284179656296308,-7104.377735583703,10.5,10499992895.622265,47.655,-122.3035,60.0,8.566666666666666
2026-01-20T23:08:35+00:00,SAT-54788,342.5854012140314,78.49252669562503,800.2936415279574,0.2633059628379382,-9222.088601703088,10.5,10499990777.911398,47.655,-122.3035,60.0,8.583333333333334
2026-01-20T23:08:36+00:00,SAT-54788,344.1899157555555,78.08562172296305,800.5562453415612,0.32371056220208166,-11337.713182637362,10.5,10499988662.286818,47.655,-122.3035,60.0,8.6
2026-01-20T23:08:37+00:00,SAT-54788,345.6863154662543,77.67028004254996,800.8790926755975,0.384041993176975,-13450.775097078118,10.5,10499986549.224903,47.655,-122.3035,60.0,8.616666666666667
2026-01-20T23:08:38+00:00,SAT-54788,347.08312112199155,77.24743134723512,801.2621105567925,0.44428673240329597,-15560.800699778136,10.5,10499984439.1993,47.655,-122.3035,60.0,8.633333333333333
2026-01-20T23:08:39+00:00,SAT-54788,348.3882606113859,76.81791137729735,801.7052125245762,0.5044313560423335,-17667.31983112297,10.5,10499982332.680168,47.655,-122.3035,60.0,8.65
2026-01-20T23:08:40+00:00,SAT-54788,349.60906326890074,76.38247196929373,802.2082987303356,0.5644625512282123,-19769.866218236315,10.5,10499980230.133781,47.655,-122.3035,60.0,8.666666666666666
2026-01-20T23:08:41+00:00,SAT-54788,350.75227299549965,75.94179031695441,802.7712560480938,0.624367132555813,-21867.978052456663,10.5,10499978132.021948,47.655,-122.3035,60.0,8.683333333333334
2026-01-20T23:08:42+00:00,SAT-54788,351.8240734916608,75.49647737262444,803.3939582016296,0.6841320547513253,-23961.19843311374,10.5,10499976038.801567,47.655,-122.3035,60.0,8.7
2026-01-20T23:08:43+00:00,SAT-54788,352.8301207185598,75.04708538907349,804.0762659042349,0.7437444238125537,-26049.075757709066,10.5,10499973950.924242,47.655,-122.3035,60.0,8.716666666666667
2026-01-20T23:08:44+00:00,SAT-54788,353.7755791265233,74.59411463509981,804.8180270095841,0.803191518760595,-28131.16448375178,10.5,10499971868.835516,47.655,-122.3035,60.0,8.733333333333333
2026-01-20T23:08:45+00:00,SAT-54788,354.66515925870294,74.13801933543849,805.6190766842946,0.8624607893016476,-30207.02504686526,10.5,10499969792.974953,47.655,-122.3035,60.0,8.75
2026-01-20T23:08:46+00:00,SAT-54788,355.5031550871969,73.67921291454631,806.4792375781581,0.9215398905293997,-32276.225076211547,10.5,10499967723.774923,47.655,-122.3035,60.0,8.766666666666667
2026-01-20T23:08:47+00:00,SAT-54788,356.2934800771398,73.21807259390464,807.3983200289794,0.9804166722559728,-34338.33902081591,10.5,10499965661.660978,47.655,-122.3035,60.0,8.783333333333333
2026-01-20T23:08:48+00:00,SAT-54788,357.03970129586554,72.75494343569753,808.376122256776,1.0390792025142894,-36392.94897271912,10.5,10499963607.051027,47.655,-122.3035,60.0,8.8
2026-01-20T23:08:49+00:00,SAT-54788,357.7450712522811,72.29014187973235,809.412430581417,1.0975157765597894,-38439.64498225565,10.5,10499961560.355019,47.655,-122.3035,60.0,8.816666666666666
2026-01-20T23:08:50+00:00,SAT-54788,358.41255729838196,71.82395884117993,810.5070196492392,1.1557149283545456,-40478.025460276025,10.5,10499959521.974539,47.655,-122.3035,60.0,8.833333333333334
2026-01-20T23:08:51+00:00,SAT-54788,359.04486857375485,71.3566624225028,811.6596526711181,1.2136654411228602,-42507.697547848366,10.5,10499957492.302452,47.655,-122.3035,60.0,8.85
2026-01-20T23:08:52+00:00,SAT-54788,359.6444805577366,70.88850028817353,812.8700816710646,1.2713563460326904,-44528.27707007642,10.5,10499955471.722929,47.655,-122.3035,60.0,8.866666666666667
2026-01-20T23:08:53+00:00,SAT-54788,0.21365734149773133,70.41970174954945,814.138047733508,1.3287769449472464,-46539.38933295676,10.5,10499953460.610666,47.655,-122.3035,60.0,8.883333333333333
2026-01-20T23:08:54+00:00,SAT-54788,0.7544717797539372,69.95047958829687,815.4632812732686,1.3859168147599825,-48540.66927520844,10.5,10499951459.330725,47.655,-122.3035,60.0,8.9
2026-01-20T23:08:55+00:00,SAT-54788,1.2688236734975307,69.48103165896822,816.8455023098559,1.442765808639607,-50531.76151187856,10.5,10499949468.238487,47.655,-122.3035,60.0,8.916666666666666
2026-01-20T23:08:56+00:00,SAT-54788,1.7584561503092249,69.01154229971283,818.2844207430059,1.4993140712760396,-52512.32086832023,10.5,10499947487.679132,47.655,-122.3035,60.0,8.933333333333334
2026-01-20T23:08:57+00:00,SAT-54788,2.2249704096493774,68.5421835717282,819.7797366434252,1.5555520282933055,-54482.012009387196,10.5,10499945517.987991,47.655,-122.3035,60.0,8.95
2026-01-20T23:08:58+00:00,SAT-54788,2.6698389806458565,68.07311635701583,821.3311405329764,1.6114704260912955,-56440.51083486097,10.5,10499943559.489164,47.655,-122.3035,60.0,8.966666666666667
2026-01-20T23:08:59+00:00,SAT-54788,3.0944176527450833,67.6044913181339,822.938313704598,1.6670602972507396,-58387.50326778656,10.5,10499941612.496733,47.655,-122.3035,60.0,8.983333333333333
2026-01-20T23:09:00+00:00,SAT-54788,3.499956192562283,67.13644975847735,824.6009285077228,1.722312983781846,-60322.6860687382,10.5,10499939677.31393,47.655,-122.3035,60.0,9.0
2026-01-20T23:09:01+00:00,SAT-54788,3.8876079875854774,66.66912437962793,826.3186486568812,1.7772201524157458,-62245.767371390415,10.5,10499937754.232628,47.655,-122.3035,60.0,9.016666666666667
2026-01-20T23:09:02+00:00,SAT-54788,4.258438725076109,66.20263995098095,828.0911295555571,1.8317737705527377,-64156.46584012379,10.5,10499935843.53416,47.655,-122.3035,60.0,9.033333333333333
2026-01-20T23:09:03+00:00,SAT-54788,4.613434198959009,65.73711391275752,829.918018596055,1.8859661320154353,-66054.51157200916,10.5,10499933945.488428,47.655,-122.3035,60.0,9.05
2026-01-20T23:09:04+00:00,SAT-54788,4.953507347246397,65.27265690796958,831.7989554850518,1.9397898419936461,-67939.64556951358,10.5,10499932060.354431,47.655,-122.3035,60.0,9.066666666666666
2026-01-20T23:09:05+00:00,SAT-54788,5.279504593049022,64.80937326205085,833.7335725541335,1.9932378360530618,-69811.62040626502,10.5,10499930188.379593,47.655,-122.3035,60.0,9.083333333333334
2026-01-20T23:09:06+00:00,SAT-54788,5.592211568784592,64.34736140847737,835.7214950892904,2.0463033673021993,-71670.19977758445,10.5,10499928329.800222,47.655,-122.3035,60.0,9.1
2026-01-20T23:09:07+00:00,SAT-54788,5.892358283125496,63.886714274248774,837.7623416476132,2.0989800038368207,-73515.15841097849,10.5,10499926484.841589,47.655,-122.3035,60.0,9.116666666666667
2026-01-20T23:09:08+00:00,SAT-54788,6.180623791568486,63.427519627335464,839.8557243714398,2.1512616487875467,-75346.28276829179,10.5,10499924653.717232,47.655,-122.3035,60.0,9.133333333333333
2026-01-20T23:09:09+00:00,SAT-54788,6.457640424977168,62.96986038622403,842.0012493224972,2.2031425066031645,-77163.36986480569,10.5,10499922836.630135,47.655,-122.3035,60.0,9.15
2026-01-20T23:09:10+00:00,SAT-54788,6.723997615507798,62.51381490675495,844.198516782416,2.25461713418719,-78966.22906025707,10.5,10499921033.770939,47.655,-122.3035,60.0,9.166666666666666
2026-01-20T23:09:11+00:00,SAT-54788,6.98024537166845,62.059457232071004,846.4471216042454,2.3056803565180135,-80754.6791034988,10.5,10499919245.320896,47.655,-122.3035,60.0,9.183333333333334
2026-01-20T23:09:12+00:00,SAT-54788,7.226897423272565,61.60685733616449,848.7466534798128,2.3563273634650175,-82528.55152340986,10.5,10499917471.448477,47.655,-122.3035,60.0,9.2
2026-01-20T23:09:13+00:00,SAT-54788,7.464434089649998,61.15608132731928,851.0966973036418,2.406553627436269,-84287.68774456902,10.5,10499915712.312256,47.655,-122.3035,60.0,9.216666666666667
2026-01-20T23:09:14+00:00,SAT-54788,7.6933048801975294,60.70719164932519,853.4968334547383,2.4563549335947203,-86031.94014555418,10.5,10499913968.059855,47.655,-122.3035,60.0,9.233333333333333
2026-01-20T23:09:15+00:00,SAT-54788,7.9139308659153915,60.26024726004995,855.9466381085101,2.505727383536707,-87761.17218777873,10.5,10499912238.827812,47.655,-122.3035,60.0,9.25
2026-01-20T23:09:16+00:00,SAT-54788,8.126706841611893,59.81530379474523,858.4456835523574,2.554667372495879,-89475.25761707696,10.5,10499910524.742382,47.655,-122.3035,60.0,9.266666666666667
2026-01-20T23:09:17+00:00,SAT-54788,8.332003297315008,59.3724137202627,860.9935384785266,2.6031715931059254,-91174.08059549055,10.5,10499908825.919405,47.655,-122.3035,60.0,9.283333333333333
2026-01-20T23:09:18+00:00,SAT-54788,8.530168219887814,58.9316264765776,863.5897682807175,2.651237042220893,-92857.5359401449,10.5,10499907142.46406,47.655,-122.3035,60.0,9.3
2026-01-20T23:09:19+00:00,SAT-54788,8.721528741275934,58.49298860653794,866.2339353574926,2.6988609825204475,-94525.52777850302,10.5,10499905474.472221,47.655,-122.3035,60.0,9.316666666666666
2026-01-20T23:09:20+00:00,SAT-54788,8.906392644945589,58.05654388230592,868.9255993773929,2.7460409818585356,-96177.97092652219,10.5,10499903822.029074,47.655,-122.3035,60.0,9.333333333333334
2026-01-20T23:09:21+00:00,SAT-54788,9.08504974943039,57.6223334165021,871.6643175832999,2.792774874806524,-97814.78954173191,10.5,10499902185.210459,47.655,-122.3035,60.0,9.35
2026-01-20T23:09:22+00:00,SAT-54788,9.25777317511798,57.19039577176377,874.4496450584402,2.839060772290189,-99435.91746076208,10.5,10499900564.082539,47.655,-122.3035,60.0,9.366666666666667
2026-01-20T23:09:23+00:00,SAT-54788,9.424820508461737,56.76076706143786,877.2811350020044,2.884897036420259,-101041.29731780215,10.5,10499898958.702682,47.655,-122.3035,60.0,9.383333333333333
2026-01-20T23:09:24+00:00,SAT-54788,9.586434870919863,56.33348104745072,880.1583389796608,2.9302823243681693,-102630.88208131566,10.5,10499897369.117918,47.655,-122.3035,60.0,9.4
2026-01-20T23:09:25+00:00,SAT-54788,9.742845905094473,55.90856922571635,883.0808072178306,2.9752155065557693,-104204.63218869762,10.5,10499895795.367811,47.655,-122.3035,60.0,9.416666666666666
2026-01-20T23:09:26+00:00,SAT-54788,9.894270678881139,55.486060917964124,886.0480888163689,3.0196957264346724,-105762.51764000033,10.5,10499894237.48236,47.655,-122.3035,60.0,9.433333333333334
2026-01-20T23:09:27+00:00,SAT-54788,10.040914522276692,55.065983349727055,889.0597320208665,3.063722349778496,-107304.51622193313,10.5,10499892695.483778,47.655,-122.3035,60.0,9.45
2026-01-20T23:09:28+00:00,SAT-54788,10.182971797330092,54.64836173080082,892.1152844443789,3.1072950052342327,-108830.61492814287,10.5,10499891169.385073,47.655,-122.3035,60.0,9.466666666666667
2026-01-20T23:09:29+00:00,SAT-54788,10.320626611307421,54.233219325773824,895.2142933295991,3.150413512401272,-110340.80744023705,10.5,10499889659.19256,47.655,-122.3035,60.0,9.483333333333333
2026-01-20T23:09:30+00:00,SAT-54788,10.454053472990621,53.82057753022225,898.3563057393006,3.1930779397418982,-111835.09615605451,10.5,10499888164.903845,47.655,-122.3035,60.0,9.5
2026-01-20T23:09:31+00:00,SAT-54788,10.583417902693045,53.410455935251576,901.5408688045366,3.2352885571789987,-113313.4905294365,10.5,10499886686.50947,47.655,-122.3035,60.0,9.516666666666667
2026-01-20T23:09:32+00:00,SAT-54788,10.708876995312139,53.0028723948767,904.7675299255632,3.2770458403215335,-114776.00721822062,10.5,10499885223.992783,47.655,-122.3035,60.0,9.533333333333333
2026-01-20T23:09:33+00:00,SAT-54788,10.830579942697035,52.597843089324954,908.0358369769771,3.318350473287942,-116222.67018312846,10.5,10499883777.329817,47.655,-122.3035,60.0,9.55
2026-01-20T23:09:34+00:00,SAT-54788,10.94866851844652,52.195382584952156,911.3453385156696,3.359203328396545,-117653.50997643752,10.5,10499882346.490023,47.655,-122.3035,60.0,9.566666666666666
2026-01-20T23:09:35+00:00,SAT-54788,11.063277527471437,51.795503893678706,914.6955839685238,3.3996054564934868,-119068.5634032248,10.5,10499880931.436596,47.655,-122.3035,60.0,9.583333333333334
2026-01-20T23:09:36+00:00,SAT-54788,11.174535223613363,51.39821853070985,918.0861238104666,3.4395580968097774,-120467.87386660228,10.5,10499879532.126133,47.655,-122.3035,60.0,9.6
2026-01-20T23:09:37+00:00,SAT-54788,11.282563698476162,51.00353656842159,921.5165097523516,3.479062657982471,-121851.4907029981,10.5,10499878148.509296,47.655,-122.3035,60.0,9.616666666666667
2026-01-20T23:09:38+00:00,SAT-54788,11.387479242845844,50.611466689971785,924.9862949099128,3.518120713620058,-123219.46902683792,10.5,10499876780.530973,47.655,-122.3035,60.0,9.633333333333333
2026-01-20T23:09:39+00:00,SAT-54788,11.48939268333331,50.22201624095537,928.4950339682965,3.556733992499929,-124571.86938721871,10.5,10499875428.130613,47.655,-122.3035,60.0,9.65
2026-01-20T23:09:40+00:00,SAT-54788,11.588409696067394,49.835191279816016,932.0422833368164,3.5949043875266327,-125908.75808166475,10.5,10499874091.241919,47.655,-122.3035,60.0,9.666666666666666
2026-01-20T23:09:41+00:00,SAT-54788,11.684631099629401,49.45099662511459,935.6276013126429,3.6326339182138248,-127230.20584208681,10.5,10499872769.794157,47.655,-122.3035,60.0,9.683333333333334
2026-01-20T23:09:42+00:00,SAT-54788,11.778153127659532,49.06943590468919,939.2505482070749,3.6699247544521834,-128536.28866723499,10.5,10499871463.711332,47.655,-122.3035,60.0,9.7
2026-01-20T23:09:43+00:00,SAT-54788,11.869067684277635,48.690511600185275,942.9106864955152,3.706779192172535,-129827.0869703187,10.5,10499870172.91303,47.655,-122.3035,60.0,9.716666666666667
2026-01-20T23:09:44+00:00,SAT-54788,11.957462582337977,48.3142250922168,946.6075809431752,3.7431996652889055,-131102.68599730253,10.5,10499868897.314003,47.655,-122.3035,60.0,9.733333333333333
2026-01-20T23:09:45+00:00,SAT-54788,12.043421766701519,47.940576702392356,950.3407987426901,3.779188711569008,-132363.17463154654,10.5,10499867636.825369,47.655,-122.3035,60.0,9.75
2026-01-20T23:09:46+00:00,SAT-54788,12.127025522570985,47.56956573697496,954.1099096176949,3.814748980643541,-133608.64567432573,10.5,10499866391.354326,47.655,-122.3035,60.0,9.766666666666667
2026-01-20T23:09:47+00:00,SAT-54788,12.20835067095762,47.20119052782613,957.9144859343901,3.8498832396823635,-134839.19604363368,10.5,10499865160.803957,47.655,-122.3035,60.0,9.783333333333333
2026-01-20T23:09:48+00:00,SAT-54788,12.287470752093453,46.835448471183604,961.7541028187666,3.8845943701670507,-136054.9266611438,10.5,10499863945.07334,47.655,-122.3035,60.0,9.8
2026-01-20T23:09:49+00:00,SAT-54788,12.36445619744798,46.47233606514715,965.6283382706132,3.918885309276248,-137255.94039927653,10.5,10499862744.0596,47.655,-122.3035,60.0,9.816666666666666
2026-01-20T23:09:50+00:00,SAT-54788,12.439374490129051,46.111848950988964,969.5367732190647,3.9527591229842,-138442.3446414189,10.5,10499861557.65536,47.655,-122.3035,60.0,9.833333333333334
2026-01-20T23:09:51+00:00,SAT-54788,12.512290317043753,45.753981946057316,973.4789916510542,3.9862189323025534,-139614.2486986007,10.5,10499860385.7513,47.655,-122.3035,60.0,9.85
2026-01-20T23:09:52+00:00,SAT-54788,12.58326571050994,45.39872908201247,977.454580666204,4.0192679665462405,-140771.76567509086,10.5,10499859228.234325,47.655,-122.3035,60.0,9.866666666666667
2026-01-20T23:09:53+00:00,SAT-54788,12.652360182498045,45.04608363671462,981.4631305848395,4.051909491112146,-141915.0099389009,10.5,10499858084.99006,47.655,-122.3035,60.0,9.883333333333333
2026-01-20T23:09:54+00:00,SAT-54788,12.719630849730605,44.696038171094244,985.5042349839753,4.084146870565951,-143044.09933135306,10.5,10499856955.90067,47.655,-122.3035,60.0,9.9
2026-01-20T23:09:55+00:00,SAT-54788,12.785132552562152,44.348584559069415,989.5774907962198,4.115983526601303,-144159.1536946326,10.5,10499855840.846306,47.655,-122.3035,60.0,9.916666666666666
2026-01-20T23:09:56+00:00,SAT-54788,12.848917966318943,44.003714019828415,993.6824983667502,4.147422942648993,-145260.2950332207,10.5,10499854739.704967,47.655,-122.3035,60.0,9.933333333333334
2026-01-20T23:09:57+00:00,SAT-54788,12.911037706354168,43.661417148364634,997.8188615148855,4.1784686165829035,-146347.64585745678,10.5,10499853652.354143,47.655,-122.3035,60.0,9.95
2026-01-20T23:09:58+00:00,SAT-54788,12.971540426506627,43.321683948538855,1001.9861875484908,4.20912416401645,-147421.33280141666,10.5,10499852578.667198,47.655,-122.3035,60.0,9.966666666666667
2026-01-20T23:09:59+00:00,SAT-54788,13.030472913477087,42.98450385653238,1006.1840873814032,4.23939319541046,-148481.48231871074,10.5,10499851518.517681,47.655,-122.3035,60.0,9.983333333333333
2026-01-20T23:10:00+00:00,SAT-54788,13.087880174249138,42.64986577307196,1010.4121755282926,4.26927936089371,-149528.2222522888,10.5,10499850471.777748,47.655,-122.3035,60.0,10.0
2026-01-20T23:10:01+00:00,SAT-54788,13.143805519342129,42.31775809070385,1014.6700701442238,4.298786396300146,-150561.68344685822,10.5,10499849438.316553,47.655,-122.3035,60.0,10.016666666666667
2026-01-20T23:10:02+00:00,SAT-54788,13.1982906420705,41.9881687165203,1018.9573931101338,4.3279180062154365,-151581.99565267944,10.5,10499848418.004347,47.655,-122.3035,60.0,10.033333333333333
2026-01-20T23:10:03+00:00,SAT-54788,13.251375692064723,41.66108510268909,1023.2737700016661,4.356677977469821,-152589.29150056577,10.5,10499847410.7085,47.655,-122.3035,60.0,10.05
2026-01-20T23:10:04+00:00,SAT-54788,13.30309934622122,41.3364942672841,1027.618830171196,4.38507007194338,-153583.70274747035,10.5,10499846416.297253,47.655,-122.3035,60.0,10.066666666666666
2026-01-20T23:10:05+00:00,SAT-54788,13.35349887463377,41.01438282204432,1031.9922067229475,4.413098127355032,-154565.36380654326,10.5,10499845434.636194,47.655,-122.3035,60.0,10.083333333333334
2026-01-20T23:10:06+00:00,SAT-54788,13.402610204171607,40.69473699172991,1036.3935365886296,4.440765949467221,-155534.4079716836,10.5,10499844465.592028,47.655,-122.3035,60.0,10.1
2026-01-20T23:10:07+00:00,SAT-54788,13.450467977553956,40.377542640291885,1040.8224604955649,4.468077409931175,-156490.9708444945,10.5,10499843509.029156,47.655,-122.3035,60.0,10.116666666666667
2026-01-20T23:10:08+00:00,SAT-54788,13.497105610380697,40.06278528909111,1045.278623032403,4.495036337177846,-157435.1865128221,10.5,10499842564.813488,47.655,-122.3035,60.0,10.133333333333333
