satellites_20260120_184412/SAT-66283.csv

timestamp,satellite,azimuth_deg,elevation_deg,distance_km,relative_velocity_kms,doppler_shift_hz,tx_freq_ghz,rx_freq_hz,ue_lat,ue_lon,ue_alt_m,time_minutes
2026-01-20T23:02:19+00:00,SAT-66283,309.4320204231534,40.09533787790485,373417.8614908308,-59.46080215929549,2082568.8105622812,10.5,10502082568.810562,47.655,-122.3035,60.0,2.316666666666667
2026-01-20T23:02:20+00:00,SAT-66283,307.5815832432601,41.14486726765974,373358.5592508106,-59.33562415910352,2078184.5474931423,10.5,10502078184.547493,47.655,-122.3035,60.0,2.3333333333333335
2026-01-20T23:02:21+00:00,SAT-66283,305.6709479441904,42.16326198015256,373299.3818549826,-59.15409995243485,2071826.8019289728,10.5,10502071826.80193,47.655,-122.3035,60.0,2.35
2026-01-20T23:02:22+00:00,SAT-66283,303.697932711927,43.14834375739392,373240.38549929665,-58.916401789719544,2063501.6068084517,10.5,10502063501.606808,47.655,-122.3035,60.0,2.3666666666666667
2026-01-20T23:02:23+00:00,SAT-66283,301.66056943286065,44.09782532336219,373181.62620791176,-58.62275466175186,2053216.8422609034,10.5,10502053216.84226,47.655,-122.3035,60.0,2.3833333333333333
2026-01-20T23:02:24+00:00,SAT-66283,299.5571696905041,45.009315726191446,373123.15978059574,-58.27343610765624,2040982.228880456,10.5,10502040982.22888,47.655,-122.3035,60.0,2.4
2026-01-20T23:02:25+00:00,SAT-66283,297.38639866076636,45.880328902696476,373065.0417403177,-57.8687760655278,2026809.322494837,10.5,10502026809.322495,47.655,-122.3035,60.0,2.4166666666666665
2026-01-20T23:02:26+00:00,SAT-66283,295.1473559980774,46.70829599600767,373007.32728098833,-57.40915691042261,2010711.5154959548,10.5,10502010711.515495,47.655,-122.3035,60.0,2.433333333333333
2026-01-20T23:02:27+00:00,SAT-66283,292.8396620755717,47.490581930606034,372950.071215163,-56.89501267034952,1992704.0093806162,10.5,10501992704.00938,47.655,-122.3035,60.0,2.45
2026-01-20T23:02:28+00:00,SAT-66283,290.4635471256738,48.224506660962014,372893.32792252646,-56.32682881816838,1972803.807461921,10.5,10501972803.807463,47.655,-122.3035,60.0,2.466666666666667
2026-01-20T23:02:29+00:00,SAT-66283,288.01993982159354,48.907371400413304,372837.1512985851,-55.70514178200765,1951029.6977220166,10.5,10501951029.697721,47.655,-122.3035,60.0,2.4833333333333334
2026-01-20T23:02:30+00:00,SAT-66283,285.5105508922573,49.53648992810124,372781.5947038479,-55.030538802409986,1927402.247808732,10.5,10501927402.247808,47.655,-122.3035,60.0,2.5
2026-01-20T23:02:31+00:00,SAT-66283,282.93794643675324,50.10922481461685,372726.71091314894,-54.30365700254212,1901943.7724703944,10.5,10501901943.77247,47.655,-122.3035,60.0,2.5166666666666666
2026-01-20T23:02:32+00:00,SAT-66283,280.3056049755081,50.623028063943295,372672.55206589843,-53.52518280135956,1874678.3130023752,10.5,10501874678.313002,47.655,-122.3035,60.0,2.533333333333333
2026-01-20T23:02:33+00:00,SAT-66283,277.6179519315611,51.07548530333782,372619.16961691785,-52.69585181765478,1845631.633886451,10.5,10501845631.633886,47.655,-122.3035,60.0,2.55
2026-01-20T23:02:34+00:00,SAT-66283,274.8803654707872,51.464362247203184,372566.6142873717,-51.8164475442947,1814831.1763569925,10.5,10501814831.176357,47.655,-122.3035,60.0,2.566666666666667
2026-01-20T23:02:35+00:00,SAT-66283,272.0991486413118,51.78765175812953,372514.9360170209,-50.8878011252871,1782306.050592889,10.5,10501782306.050592,47.655,-122.3035,60.0,2.5833333333333335
2026-01-20T23:02:36+00:00,SAT-66283,269.28146429925584,52.04361952578414,372464.18391669856,-49.910790102486274,1748086.9918218753,10.5,10501748086.991821,47.655,-122.3035,60.0,2.6
2026-01-20T23:02:37+00:00,SAT-66283,266.43523176955324,52.23084616035567,372414.40622203634,-48.886338260768945,1712206.3548979403,10.5,10501712206.354898,47.655,-122.3035,60.0,2.6166666666666667
2026-01-20T23:02:38+00:00,SAT-66283,263.568986947828,52.34826346874206,372365.65024734434,-47.81541422186741,1674698.0650514157,10.5,10501674698.065052,47.655,-122.3035,60.0,2.6333333333333333
2026-01-20T23:02:39+00:00,SAT-66283,260.6917107682723,52.395182823212885,372317.9623408937,-46.69903071760715,1635597.5924346806,10.5,10501635597.592434,47.655,-122.3035,60.0,2.65
2026-01-20T23:02:40+00:00,SAT-66283,257.81263377746524,52.37131390237082,372271.38784092467,-45.538243608140085,1594941.9177365394,10.5,10501594941.917736,47.655,-122.3035,60.0,2.6666666666666665
2026-01-20T23:02:41+00:00,SAT-66283,254.94102694213043,52.276772620829135,372225.9710326328,-44.33415109637503,1552769.5046682525,10.5,10501552769.50467,47.655,-122.3035,60.0,2.683333333333333
2026-01-20T23:02:42+00:00,SAT-66283,252.08599018712502,52.112077738303036,372181.75510593934,-43.08789248476646,1509120.2564210198,10.5,10501509120.25642,47.655,-122.3035,60.0,2.7
2026-01-20T23:02:43+00:00,SAT-66283,249.2562504340936,51.8781363716156,372138.7821145012,-41.800647127324645,1464035.478960944,10.5,10501464035.47896,47.655,-122.3035,60.0,2.716666666666667
2026-01-20T23:02:44+00:00,SAT-66283,246.4599799008207,51.576219339557966,372097.0929357662,-40.47363328925184,1417557.8410886652,10.5,10501417557.84109,47.655,-122.3035,60.0,2.7333333333333334
2026-01-20T23:02:45+00:00,SAT-66283,243.7046434249117,51.20792787130217,372056.72723216575,-39.108107213834536,1369731.3417579792,10.5,10501369731.341759,47.655,-122.3035,60.0,2.75
2026-01-20T23:02:46+00:00,SAT-66283,240.99688080814104,50.77515364091112,372017.72341323784,-37.70536173071815,1320601.261331733,10.5,10501320601.261332,47.655,-122.3035,60.0,2.7666666666666666
2026-01-20T23:02:47+00:00,SAT-66283,238.34242714989182,50.280034331056385,371980.1185991384,-36.26672489293481,1270214.1138447705,10.5,10501270214.113844,47.655,-122.3035,60.0,2.783333333333333
2026-01-20T23:02:48+00:00,SAT-66283,235.74607110943828,49.7249069598162,371943.9485855118,-34.79355918495873,1218617.6192666816,10.5,10501218617.619267,47.655,-122.3035,60.0,2.8
2026-01-20T23:02:49+00:00,SAT-66283,233.2116484203384,49.11226104691712,371909.24780915136,-33.287259713671475,1165860.640141756,10.5,10501165860.640142,47.655,-122.3035,60.0,2.816666666666667
2026-01-20T23:02:50+00:00,SAT-66283,230.74206615312767,48.44469343406918,371876.0493154636,-31.7492532308887,1111993.1473537316,10.5,10501111993.147354,47.655,-122.3035,60.0,2.8333333333333335
2026-01-20T23:02:51+00:00,SAT-66283,228.3393518907847,47.72486618079311,371844.38472690794,-30.180996439077386,1057066.1607848473,10.5,10501057066.160786,47.655,-122.3035,60.0,2.85
2026-01-20T23:02:52+00:00,SAT-66283,226.00472159630402,46.95546857833132,371814.28421312605,-28.5839750577277,1001131.7166162359,10.5,10501001131.716616,47.655,-122.3035,60.0,2.8666666666666667
2026-01-20T23:02:53+00:00,SAT-66283,223.73865995189522,46.1391839027882,371785.77646200184,-26.959701928579506,944242.8009649423,10.5,10500944242.800964,47.655,-122.3035,60.0,2.8833333333333333
2026-01-20T23:02:54+00:00,SAT-66283,221.54100762978507,45.278661214710255,371758.88865261176,-25.309715865435773,886453.3095995218,10.5,10500886453.309599,47.655,-122.3035,60.0,2.9
2026-01-20T23:02:55+00:00,SAT-66283,219.41105066193117,44.37649218307152,371733.64642932196,-23.6355799430963,827817.9880112632,10.5,10500827817.98801,47.655,-122.3035,60.0,2.9166666666666665
2026-01-20T23:02:56+00:00,SAT-66283,217.34760813747036,43.43519272103221,371710.07387759205,-21.938880294869108,768392.389297951,10.5,10500768392.389297,47.655,-122.3035,60.0,2.933333333333333
2026-01-20T23:02:57+00:00,SAT-66283,215.3491153467383,42.45718903386725,371688.19350097794,-20.221224335281207,708232.8119156776,10.5,10500708232.811916,47.655,-122.3035,60.0,2.95
2026-01-20T23:02:58+00:00,SAT-66283,213.41370047877345,41.44480762094824,371668.02619990753,-18.484239249698213,647396.2467789341,10.5,10500647396.246778,47.655,-122.3035,60.0,2.966666666666667
2026-01-20T23:02:59+00:00,SAT-66283,211.53925368697278,40.40026870189023,371649.5912519625,-16.729570462541837,585940.3236111073,10.5,10500585940.32361,47.655,-122.3035,60.0,2.9833333333333334
2026-01-20T23:05:45+00:00,SAT-66283,308.1778385859523,40.81360964497994,373517.2144386771,-57.66174090600372,2019558.0754504476,10.5,10502019558.07545,47.655,-122.3035,60.0,5.75
2026-01-20T23:05:46+00:00,SAT-66283,306.28619479095477,41.84222144305395,373459.70646241354,-57.48971060850951,2013532.8467447632,10.5,10502013532.846745,47.655,-122.3035,60.0,5.766666666666667
2026-01-20T23:05:47+00:00,SAT-66283,304.33283494365867,42.838204535371894,373402.37005769997,-57.263022066548345,2005593.2551137013,10.5,10502005593.255114,47.655,-122.3035,60.0,5.783333333333333
2026-01-20T23:05:48+00:00,SAT-66283,302.31571717375294,43.799305148146345,373345.2597370256,-56.981891082105896,1995746.8588556417,10.5,10501995746.858856,47.655,-122.3035,60.0,5.8
2026-01-20T23:05:49+00:00,SAT-66283,300.2330578052735,44.72316384482729,373288.42979765305,-56.6465849314874,1984003.0191173714,10.5,10501984003.019117,47.655,-122.3035,60.0,5.816666666666666
2026-01-20T23:05:50+00:00,SAT-66283,298.0834028402791,45.607323032140016,373231.93427028146,-56.257421731644925,1970372.8777001847,10.5,10501970372.8777,47.655,-122.3035,60.0,5.833333333333333
2026-01-20T23:05:51+00:00,SAT-66283,295.8657068040965,46.449238047056895,373175.826868341,-55.814770303958156,1954869.3522889111,10.5,10501954869.35229,47.655,-122.3035,60.0,5.85
2026-01-20T23:05:52+00:00,SAT-66283,293.5794175490734,47.24629234852419,373120.1609374245,-55.319050222242886,1937507.1381333757,10.5,10501937507.138134,47.655,-122.3035,60.0,5.866666666666666
2026-01-20T23:05:53+00:00,SAT-66283,291.2245648026451,47.99581727290383,373064.98940466956,-54.77073097299306,1918302.6786365223,10.5,10501918302.678637,47.655,-122.3035,60.0,5.883333333333334
2026-01-20T23:05:54+00:00,SAT-66283,288.80184936207723,48.695116685073316,373010.3647289792,-54.170331734398715,1897274.1576146872,10.5,10501897274.157614,47.655,-122.3035,60.0,5.9
2026-01-20T23:05:55+00:00,SAT-66283,286.31272879627795,49.34149670541731,372956.3388514627,-53.51842083283538,1874441.48026156,10.5,10501874441.48026,47.655,-122.3035,60.0,5.916666666666667
2026-01-20T23:05:56+00:00,SAT-66283,283.75949461512425,49.93230043496775,372902.9631464188,-52.81561550789585,1849826.2649186004,10.5,10501849826.26492,47.655,-122.3035,60.0,5.933333333333334
2026-01-20T23:05:57+00:00,SAT-66283,281.1453350725465,50.46494729860104,372850.28837255226,-52.0625810104423,1823451.8114850111,10.5,10501823451.811485,47.655,-122.3035,60.0,5.95
2026-01-20T23:05:58+00:00,SAT-66283,278.4743773821026,50.936976247767426,372798.3646250912,-51.260030189785596,1795343.086959008,10.5,10501795343.08696,47.655,-122.3035,60.0,5.966666666666667
2026-01-20T23:05:59+00:00,SAT-66283,275.75170313150727,51.34609167774648,372747.2412883152,-50.408722632850306,1765526.695287739,10.5,10501765526.695288,47.655,-122.3035,60.0,5.983333333333333
2026-01-20T23:06:00+00:00,SAT-66283,272.98333143020994,51.690210506092136,372696.96698894276,-49.50946443441073,1734030.8693199768,10.5,10501734030.86932,47.655,-122.3035,60.0,6.0
2026-01-20T23:06:01+00:00,SAT-66283,270.1761656993248,51.967508518495585,372647.58954974683,-48.563106875036326,1700885.4245021783,10.5,10501700885.424501,47.655,-122.3035,60.0,6.016666666666667
2026-01-20T23:06:02+00:00,SAT-66283,267.3379022540823,52.17646382679533,372599.1559444901,-47.57054604164271,1666121.7455885713,10.5,10501666121.745588,47.655,-122.3035,60.0,6.033333333333333
2026-01-20T23:06:03+00:00,SAT-66283,264.47690145750374,52.31589520106717,372551.7122532379,-46.53272177449278,1629772.7497606832,10.5,10501629772.749762,47.655,-122.3035,60.0,6.05
2026-01-20T23:06:04+00:00,SAT-66283,261.60202537011253,52.38499311715616,372505.3036187215,-45.45061700080271,1591872.8632874028,10.5,10501591872.863287,47.655,-122.3035,60.0,6.066666666666666
2026-01-20T23:06:05+00:00,SAT-66283,258.7224487815362,52.38334166306689,372459.97420336603,-44.32525658845839,1552457.9813772803,10.5,10501552457.981377,47.655,-122.3035,60.0,6.083333333333333
2026-01-20T23:06:06+00:00,SAT-66283,255.8474531221455,52.310929933876984,372415.76714746177,-43.157706388903364,1511565.434656416,10.5,10501511565.434656,47.655,-122.3035,60.0,6.1
2026-01-20T23:06:07+00:00,SAT-66283,252.98621443614542,52.16815218734305,372372.7245282899,-41.949072670469796,1469233.9693213126,10.5,10501469233.969322,47.655,-122.3035,60.0,6.116666666666666
2026-01-20T23:06:08+00:00,SAT-66283,250.14759719056556,51.95579675112171,372330.88731981325,-40.70050036385741,1425503.6856881261,10.5,10501425503.685688,47.655,-122.3035,60.0,6.133333333333334
2026-01-20T23:06:09+00:00,SAT-66283,247.33996519711752,51.67502440172026,372290.29535411706,-39.413172656013046,1380416.0239686116,10.5,10501380416.023968,47.655,-122.3035,60.0,6.15
2026-01-20T23:06:10+00:00,SAT-66283,244.5710190427663,51.32733756913047,372250.98728325474,-38.08830930879334,1334013.7053825755,10.5,10501334013.705383,47.655,-122.3035,60.0,6.166666666666667
2026-01-20T23:06:11+00:00,SAT-66283,241.8476670387548,50.91454222276938,372213.0005427708,-36.72716596980242,1286340.708020498,10.5,10501286340.708021,47.655,-122.3035,60.0,6.183333333333334
2026-01-20T23:06:12+00:00,SAT-66283,239.17593352968407,50.43870458156632,372176.37131591025,-35.331032734934986,1237442.2164977123,10.5,10501237442.216497,47.655,-122.3035,60.0,6.2
2026-01-20T23:06:13+00:00,SAT-66283,236.560905461073,49.902104896410385,372141.1344992626,-33.9012329307305,1187364.5793072963,10.5,10501187364.579308,47.655,-122.3035,60.0,6.216666666666667
2026-01-20T23:06:14+00:00,SAT-66283,234.00671529822006,49.30719045221365,372107.3236696197,-32.4391218092324,1136155.2631085208,10.5,10501136155.26311,47.655,-122.3035,60.0,6.233333333333333
2026-01-20T23:06:15+00:00,SAT-66283,231.51655625756692,48.656529692981756,372074.9710521353,-30.94608550494211,1083862.8161949697,10.5,10501083862.816195,47.655,-122.3035,60.0,6.25
2026-01-20T23:06:16+00:00,SAT-66283,229.0927243485697,47.95276901824446,372044.107489525,-29.42353939459474,1030536.8110469435,10.5,10501030536.811047,47.655,-122.3035,60.0,6.266666666666667
2026-01-20T23:06:17+00:00,SAT-66283,226.7366810824133,47.1985934187825,372014.76241290214,-27.872926889661347,976227.8020397836,10.5,10500976227.80204,47.655,-122.3035,60.0,6.283333333333333
2026-01-20T23:06:18+00:00,SAT-66283,224.44913056136576,46.39669170158436,371986.9638138175,-26.295718129581804,920987.2796753577,10.5,10500920987.279675,47.655,-122.3035,60.0,6.3
2026-01-20T23:06:19+00:00,SAT-66283,222.23010513241192,45.54972669385229,371960.73821760295,-24.693408417065903,864867.6157796872,10.5,10500864867.61578,47.655,-122.3035,60.0,6.316666666666666
2026-01-20T23:06:20+00:00,SAT-66283,220.0790545674047,44.660310511965996,371936.110658275,-23.067516840289194,807922.015246416,10.5,10500807922.015247,47.655,-122.3035,60.0,6.333333333333333
2026-01-20T23:06:21+00:00,SAT-66283,217.9949346331995,43.73098472532137,371913.10465481295,-21.41958482021391,750204.4651578462,10.5,10500750204.465158,47.655,-122.3035,60.0,6.35
2026-01-20T23:06:22+00:00,SAT-66283,215.97629191847457,42.76420507580803,371891.7421888856,-19.751174655698033,691769.6838285016,10.5,10500691769.683828,47.655,-122.3035,60.0,6.366666666666666
2026-01-20T23:06:23+00:00,SAT-66283,214.02134270559569,41.76233029787733,371872.04368402896,-18.0638679485182,632673.0656427691,10.5,10500632673.065643,47.655,-122.3035,60.0,6.383333333333334
2026-01-20T23:06:24+00:00,SAT-66283,212.12804450828642,40.727614532038544,371854.027986395,-16.359264172808274,572970.6309505854,10.5,10500572970.63095,47.655,-122.3035,60.0,6.4
2026-01-20T23:09:10+00:00,SAT-66283,308.7038867205075,40.516146880202726,373669.7958425913,-55.96792972699296,1960233.6431473074,10.5,10501960233.643147,47.655,-122.3035,60.0,9.166666666666666
2026-01-20T23:09:11+00:00,SAT-66283,306.82888762778515,41.55370629067631,373613.97716067696,-55.79963601671026,1954339.2855315185,10.5,10501954339.285532,47.655,-122.3035,60.0,9.183333333333334
2026-01-20T23:09:12+00:00,SAT-66283,304.8927764824523,42.55923372057809,373558.32632368966,-55.57821908764791,1946584.3280830735,10.5,10501946584.328083,47.655,-122.3035,60.0,9.2
2026-01-20T23:09:13+00:00,SAT-66283,302.89345101970184,43.53050538361434,373502.8963131862,-55.3038911812933,1936976.2043966418,10.5,10501936976.204397,47.655,-122.3035,60.0,9.216666666666667
2026-01-20T23:09:14+00:00,SAT-66283,300.82904874765137,44.465190316083735,373447.7398990481,-54.97691424592201,1925524.089008874,10.5,10501925524.089008,47.655,-122.3035,60.0,9.233333333333333
2026-01-20T23:09:15+00:00,SAT-66283,298.6980162606011,45.36085697702585,373392.9095899068,-54.59760008348549,1912238.9025430307,10.5,10501912238.902542,47.655,-122.3035,60.0,9.25
2026-01-20T23:09:16+00:00,SAT-66283,296.49918614516156,46.21498329571375,373338.45758342353,-54.16630988780597,1897133.2955346154,10.5,10501897133.295534,47.655,-122.3035,60.0,9.266666666666667
2026-01-20T23:09:17+00:00,SAT-66283,294.23186031703455,47.02497067934611,373284.4357170288,-53.68345351462657,1880221.6228654392,10.5,10501880221.622866,47.655,-122.3035,60.0,9.283333333333333
2026-01-20T23:09:18+00:00,SAT-66283,291.89589783700785,47.78816245631809,373230.8954193902,-53.14949010520095,1861519.9656043714,10.5,10501861519.965605,47.655,-122.3035,60.0,9.3
2026-01-20T23:09:19+00:00,SAT-66283,289.491804281402,48.50186715695506,373177.88766125863,-52.56492667069391,1841046.0814270587,10.5,10501841046.081427,47.655,-122.3035,60.0,9.316666666666666
2026-01-20T23:09:20+00:00,SAT-66283,287.0208189092262,49.16338682715601,373125.4629077257,-51.93031834347783,1818819.413417389,10.5,10501818819.413418,47.655,-122.3035,60.0,9.333333333333334
2026-01-20T23:09:21+00:00,SAT-66283,284.4849947506151,49.77005040080864,373073.6710702311,-51.24626723136943,1794861.0499380175,10.5,10501794861.049938,47.655,-122.3035,60.0,9.35
2026-01-20T23:09:22+00:00,SAT-66283,281.88726604590374,50.31925182112854,373022.5614597124,-50.513422611615255,1769193.7314245584,10.5,10501769193.731424,47.655,-122.3035,60.0,9.366666666666667
2026-01-20T23:09:23+00:00,SAT-66283,279.23149679645707,50.80849228282255,372972.1827395611,-49.73247982025669,1741841.8114864493,10.5,10501741841.811487,47.655,-122.3035,60.0,9.383333333333333
2026-01-20T23:09:24+00:00,SAT-66283,276.52250422079373,51.235425540639795,372922.582879687,-48.904179743812506,1712831.2391035245,10.5,10501712831.239103,47.655,-122.3035,60.0,9.4
2026-01-20T23:09:25+00:00,SAT-66283,273.766051333527,51.59790485031263,372873.80911108915,-48.02930800944498,1682189.5302622067,10.5,10501682189.530262,47.655,-122.3035,60.0,9.416666666666666
2026-01-20T23:09:26+00:00,SAT-66283,270.96880413282486,51.89402972940253,372825.9078812344,-47.108694713432314,1649945.758445462,10.5,10501649945.758446,47.655,-122.3035,60.0,9.433333333333334
2026-01-20T23:09:27+00:00,SAT-66283,268.13825079389335,52.12219044951675,372778.9248097069,-46.143213063985954,1616130.5070985225,10.5,10501616130.5071,47.655,-122.3035,60.0,9.45
2026-01-20T23:09:28+00:00,SAT-66283,265.2825829529123,52.28110801646332,372732.9046452111,-45.13377899906939,1580775.8562432835,10.5,10501580775.856243,47.655,-122.3035,60.0,9.466666666666667
2026-01-20T23:09:29+00:00,SAT-66283,262.4105420537393,52.36986744467051,372687.891222956,-44.08134999477325,1543915.3407425585,10.5,10501543915.340742,47.655,-122.3035,60.0,9.483333333333333
2026-01-20T23:09:30+00:00,SAT-66283,259.53123690349946,52.387942360560196,372643.9274232279,-42.986924539498844,1505583.931883763,10.5,10501505583.931883,47.655,-122.3035,60.0,9.5
2026-01-20T23:09:31+00:00,SAT-66283,256.65394122592704,52.33520941447223,372601.05513048713,-41.85154094051187,1465817.9955793773,10.5,10501465817.995579,47.655,-122.3035,60.0,9.516666666666667
2026-01-20T23:09:32+00:00,SAT-66283,253.7878820724913,52.21195158079394,372559.31519365584,-40.676276249281166,1424655.2547277631,10.5,10501424655.254728,47.655,-122.3035,60.0,9.533333333333333
2026-01-20T23:09:33+00:00,SAT-66283,250.94203084078114,52.01885013765374,372518.74738747656,-39.46224565265586,1382134.7678896128,10.5,10501382134.767889,47.655,-122.3035,60.0,9.55
2026-01-20T23:09:34+00:00,SAT-66283,248.12490835487574,51.75696584497703,372479.39037447894,-38.21060101504708,1338296.878228986,10.5,10501338296.87823,47.655,-122.3035,60.0,9.566666666666666
2026-01-20T23:09:35+00:00,SAT-66283,245.34441412552644,51.42771051652866,372441.2816683999,-36.92252997192658,1293183.181763796,10.5,10501293183.181765,47.655,-122.3035,60.0,9.583333333333334
2026-01-20T23:09:36+00:00,SAT-66283,242.6076874530837,51.03281071682,372404.4575985079,-35.59925471797055,1246836.4849214812,10.5,10501246836.484922,47.655,-122.3035,60.0,9.6
2026-01-20T23:09:37+00:00,SAT-66283,239.9210051616248,50.57426567154361,372368.9532751359,-34.242031020999434,1199300.7700030068,10.5,10501199300.770002,47.655,-122.3035,60.0,9.616666666666667
2026-01-20T23:09:38+00:00,SAT-66283,237.28971762612798,50.054301626726634,372334.8025561976,-32.85214679427887,1150621.145178803,10.5,10501150621.14518,47.655,-122.3035,60.0,9.633333333333333
2026-01-20T23:09:39+00:00,SAT-66283,234.71822194233064,49.47532485369528,372302.0380151281,-31.430921049830854,1100843.8078292948,10.5,10501100843.807829,47.655,-122.3035,60.0,9.65
2026-01-20T23:09:40+00:00,SAT-66283,232.2099686934369,48.83987527838034,372270.69090986776,-29.979702453690997,1050015.9939439017,10.5,10501050015.993944,47.655,-122.3035,60.0,9.666666666666666
2026-01-20T23:09:41+00:00,SAT-66283,229.7674971843344,48.150582398850375,372240.7911532873,-28.49986825573594,998185.940639065,10.5,10500998185.94064,47.655,-122.3035,60.0,9.683333333333334
2026-01-20T23:09:42+00:00,SAT-66283,227.39249305169662,47.41012475374499,372212.36728468025,-26.99282283628868,945402.8352542182,10.5,10500945402.835255,47.655,-122.3035,60.0,9.7
2026-01-20T23:09:43+00:00,SAT-66283,225.08586198533078,46.621193814303844,372185.4464427049,-25.459996358173296,891716.7681410437,10.5,10500891716.76814,47.655,-122.3035,60.0,9.716666666666667
2026-01-20T23:09:44+00:00,SAT-66283,222.84781356987196,45.78646278568899,372160.0543396703,-23.90284335540907,837178.6832335696,10.5,10500837178.683233,47.655,-122.3035,60.0,9.733333333333333
2026-01-20T23:09:45+00:00,SAT-66283,220.6779499571066,44.908560478106274,372136.21523723047,-22.322841529030455,781840.3358726916,10.5,10500781840.335873,47.655,-122.3035,60.0,9.75
2026-01-20T23:09:46+00:00,SAT-66283,218.57535495862484,43.99005013474542,372113.95192327886,-20.72149013503024,725754.2363451235,10.5,10500725754.236345,47.655,-122.3035,60.0,9.766666666666667
2026-01-20T23:09:47+00:00,SAT-66283,216.53868018377366,43.03341293032489,372093.28569045087,-19.100308503708018,668973.598024718,10.5,10500668973.598024,47.655,-122.3035,60.0,9.783333333333333
2026-01-20T23:09:48+00:00,SAT-66283,214.5662257539915,42.04103570978545,372074.23631610314,-17.46083482599258,611552.2948643428,10.5,10500611552.294865,47.655,-122.3035,60.0,9.8
2026-01-20T23:09:49+00:00,SAT-66283,212.65601396187307,41.01520245178032,372056.8220435034,-15.804624406271818,553544.8002025925,10.5,10500553544.800203,47.655,-122.3035,60.0,9.816666666666666
2026-01-20T23:12:35+00:00,SAT-66283,309.16150411715904,40.253423897388295,373816.17639662046,-54.25332703975354,1900181.004278007,10.5,10501900181.004278,47.655,-122.3035,60.0,12.583333333333334
2026-01-20T23:12:36+00:00,SAT-66283,307.30086368176416,41.298727036134885,373762.0677451195,-54.08290918830842,1894212.2502536017,10.5,10501894212.250254,47.655,-122.3035,60.0,12.6
2026-01-20T23:12:37+00:00,SAT-66283,305.3796484985148,42.312510507133055,373708.12905702234,-53.86092467641635,1886437.4136535875,10.5,10501886437.413654,47.655,-122.3035,60.0,12.616666666666667
2026-01-20T23:12:38+00:00,SAT-66283,303.3957072589426,43.29257681542608,373654.4117614784,-53.58758737505562,1876863.985144296,10.5,10501876863.985144,47.655,-122.3035,60.0,12.633333333333333
2026-01-20T23:12:39+00:00,SAT-66283,301.3471128757266,44.2366201387562,373600.96707433637,-53.26315996251677,1865501.164830591,10.5,10501865501.164831,47.655,-122.3035,60.0,12.65
2026-01-20T23:12:40+00:00,SAT-66283,299.2322298402987,45.14223218480755,373547.84594946704,-52.887952942505876,1852359.8278656888,10.5,10501852359.827866,47.655,-122.3035,60.0,12.666666666666666
2026-01-20T23:12:41+00:00,SAT-66283,297.04978940305966,46.00691134808282,373495.09903106577,-52.462325181214936,1837452.543261635,10.5,10501837452.543262,47.655,-122.3035,60.0,12.683333333333334
2026-01-20T23:12:42+00:00,SAT-66283,294.79897150128585,46.82807572135272,373442.7766054183,-51.98668296497663,1820793.5408843895,10.5,10501820793.540884,47.655,-122.3035,60.0,12.7
2026-01-20T23:12:43+00:00,SAT-66283,292.47949172897324,47.6030804298419,373390.92855360796,-51.46147989273323,1802398.7076876329,10.5,10501802398.707687,47.655,-122.3035,60.0,12.716666666666667
2026-01-20T23:12:44+00:00,SAT-66283,290.0916906760111,48.32923971338899,373339.60430432827,-50.88721638547844,1782285.5705313429,10.5,10501782285.570532,47.655,-122.3035,60.0,12.733333333333333
2026-01-20T23:12:45+00:00,SAT-66283,287.6366220477121,49.00385401992131,373288.8527871865,-50.26443934089565,1760473.2840857666,10.5,10501760473.284086,47.655,-122.3035,60.0,12.75
2026-01-20T23:12:46+00:00,SAT-66283,285.11613497768445,49.624242174674336,373238.7223863505,-49.59374170603048,1736982.615864606,10.5,10501736982.615864,47.655,-122.3035,60.0,12.766666666666667
2026-01-20T23:12:47+00:00,SAT-66283,282.53294508320414,50.187778408984784,373189.2608946223,-48.875761398986704,1711835.9084582455,10.5,10501711835.908459,47.655,-122.3035,60.0,12.783333333333333
2026-01-20T23:12:48+00:00,SAT-66283,279.89068821595095,50.691933687292035,373140.5154685871,-48.11118160419781,1685057.089875413,10.5,10501685057.089876,47.655,-122.3035,60.0,12.8
2026-01-20T23:12:49+00:00,SAT-66283,277.19395053975404,51.13432040674906,373092.5325834672,-47.30072939078487,1656671.6251522284,10.5,10501656671.625153,47.655,-122.3035,60.0,12.816666666666666
2026-01-20T23:12:50+00:00,SAT-66283,274.4482690778388,51.51273910416866,373045.35798935476,-46.445175363942106,1626706.5041422495,10.5,10501626706.504143,47.655,-122.3035,60.0,12.833333333333334
2026-01-20T23:12:51+00:00,SAT-66283,271.6600977808173,51.825225455323775,372999.0366677918,-45.545332847166634,1595190.2128747003,10.5,10501595190.212875,47.655,-122.3035,60.0,12.85
2026-01-20T23:12:52+00:00,SAT-66283,268.8367360288934,52.07009552665685,372953.6127891656,-44.602057370298105,1562152.7156234535,10.5,10501562152.715624,47.655,-122.3035,60.0,12.866666666666667
2026-01-20T23:12:53+00:00,SAT-66283,265.98621889549474,52.24598706414738,372909.1296706149,-43.61624545766267,1527625.4124627046,10.5,10501527625.412462,47.655,-122.3035,60.0,12.883333333333333
2026-01-20T23:12:54+00:00,SAT-66283,263.1171714953607,52.35189458755062,372865.62973514514,-42.58883414473558,1491641.122338453,10.5,10501491641.12234,47.655,-122.3035,60.0,12.9
2026-01-20T23:12:55+00:00,SAT-66283,260.23863274396706,52.38719625562988,372823.15447122476,-41.52079980544645,1454234.041995772,10.5,10501454234.041996,47.655,-122.3035,60.0,12.916666666666666
2026-01-20T23:12:56+00:00,SAT-66283,257.3598567964946,52.35167085337355,372781.74439355213,-40.41315761614973,1415439.7272047854,10.5,10501415439.727205,47.655,-122.3035,60.0,12.933333333333334
2026-01-20T23:12:57+00:00,SAT-66283,254.49010255105213,52.24550382509342,372741.43900435633,-39.26696016539559,1375295.044068966,10.5,10501375295.04407,47.655,-122.3035,60.0,12.95
2026-01-20T23:12:58+00:00,SAT-66283,251.63842291366552,52.069281965667834,372702.2767560847,-38.08329673731566,1333838.1439262708,10.5,10501333838.143927,47.655,-122.3035,60.0,12.966666666666667
2026-01-20T23:12:59+00:00,SAT-66283,248.81346544603224,51.82397711700832,372664.29501480534,-36.86329217672361,1291108.4236001626,10.5,10501291108.4236,47.655,-122.3035,60.0,12.983333333333333
2026-01-20T23:13:00+00:00,SAT-66283,246.0232949304603,51.510919910706576,372627.5300247411,-35.608105878855504,1247146.4900160455,10.5,10501247146.490017,47.655,-122.3035,60.0,13.0
2026-01-20T23:13:01+00:00,SAT-66283,243.27524618328246,51.131765174343776,372592.01687381126,-34.31893068979365,1201994.1216894567,10.5,10501201994.121689,47.655,-122.3035,60.0,13.016666666666667
2026-01-20T23:13:02+00:00,SAT-66283,240.57581263246988,50.68845102228927,372557.7894602699,-32.996991521636915,1155694.2202234706,10.5,10501155694.220224,47.655,-122.3035,60.0,13.033333333333333
2026-01-20T23:13:03+00:00,SAT-66283,237.93057310048022,50.18315385626925,372524.88046072575,-31.64354471401395,1108290.7879461946,10.5,10501108290.787947,47.655,-122.3035,60.0,13.05
2026-01-20T23:13:04+00:00,SAT-66283,235.34415620355603,49.61824148605679,372493.3212987976,-30.259876260762233,1059828.8658015653,10.5,10501059828.8658,47.655,-122.3035,60.0,13.066666666666666
2026-01-20T23:13:05+00:00,SAT-66283,232.82023944255354,48.99622643196542,372463.1421155402,-28.847300987213696,1010354.504534413,10.5,10501010354.504534,47.655,-122.3035,60.0,13.083333333333334
2026-01-20T23:13:06+00:00,SAT-66283,230.36157807913364,48.31972114093209,372434.3717406889,-27.40716097391661,959914.7094825329,10.5,10500959914.709482,47.655,-122.3035,60.0,13.1
2026-01-20T23:13:07+00:00,SAT-66283,227.97005794586113,47.591396495616436,372407.0376654776,-25.94082460049933,908557.4070887499,10.5,10500908557.40709,47.655,-122.3035,60.0,13.116666666666667
2026-01-20T23:13:08+00:00,SAT-66283,225.64676584357116,46.81394456642548,372381.1660164094,-24.44968499437216,856331.3905678964,10.5,10500856331.390568,47.655,-122.3035,60.0,13.133333333333333
2026-01-20T23:13:09+00:00,SAT-66283,223.39207147463276,45.99004619395788,372356.78153057495,-22.93515874191455,803286.2747671349,10.5,10500803286.274767,47.655,-122.3035,60.0,13.15
2026-01-20T23:13:10+00:00,SAT-66283,221.20571540184912,45.12234362894612,372333.90753225645,-21.398684520103526,749472.4482397987,10.5,10500749472.44824,47.655,-122.3035,60.0,13.166666666666666
2026-01-20T23:13:11+00:00,SAT-66283,219.08689841748986,44.2134181839982,372312.565910895,-19.84172183977159,694941.0292289666,10.5,10500694941.029228,47.655,-122.3035,60.0,13.183333333333334
2026-01-20T23:13:12+00:00,SAT-66283,217.03436866100927,43.265772632521646,372292.7771003135,-18.265749440575515,639743.8094524811,10.5,10500639743.809452,47.655,-122.3035,60.0,13.2
2026-01-20T23:13:13+00:00,SAT-66283,215.04650383705126,42.2818179657838,372274.56005953805,-16.672264001858263,583933.2089518802,10.5,10500583933.208952,47.655,-122.3035,60.0,13.216666666666667
2026-01-20T23:13:14+00:00,SAT-66283,213.1213867035361,41.2638640071521,372257.9322549069,-15.062778604101048,527562.2222059402,10.5,10500527562.222206,47.655,-122.3035,60.0,13.233333333333333
2026-01-20T23:13:15+00:00,SAT-66283,211.25687280675365,40.214113368351015,372242.9096437124,-13.438821394248789,470684.37138472736,10.5,10500470684.371386,47.655,-122.3035,60.0,13.25
