satellites_20260120_184412/SAT-66328.csv

timestamp,satellite,azimuth_deg,elevation_deg,distance_km,relative_velocity_kms,doppler_shift_hz,tx_freq_ghz,rx_freq_hz,ue_lat,ue_lon,ue_alt_m,time_minutes
2026-01-20T23:00:17+00:00,SAT-66328,211.72562850387342,40.06043445921536,457801.0359550754,-121.26015790628243,4247043.659837385,10.5,10504247043.659838,47.655,-122.3035,60.0,0.2833333333333333
2026-01-20T23:00:18+00:00,SAT-66328,209.2911928904661,40.56938891208191,457680.0991575902,-119.79481120442598,4195721.019927969,10.5,10504195721.019928,47.655,-122.3035,60.0,0.3
2026-01-20T23:00:19+00:00,SAT-66328,206.8208553010058,41.0261497016478,457560.6237992156,-118.19459190068066,4139674.5709898644,10.5,10504139674.57099,47.655,-122.3035,60.0,0.31666666666666665
2026-01-20T23:00:20+00:00,SAT-66328,204.3175479975969,41.42911146807165,457442.7443928934,-116.4612800176601,4078966.6569444886,10.5,10504078966.656944,47.655,-122.3035,60.0,0.3333333333333333
2026-01-20T23:00:21+00:00,SAT-66328,201.78463394298234,41.77680559982255,457326.5936762891,-114.5968015887856,4013664.735629369,10.5,10504013664.73563,47.655,-122.3035,60.0,0.35
2026-01-20T23:00:22+00:00,SAT-66328,199.22588279464534,42.06792251769401,457212.3024661712,-112.60322759123598,3943841.341425533,10.5,10503943841.341425,47.655,-122.3035,60.0,0.36666666666666664
2026-01-20T23:00:23+00:00,SAT-66328,196.64543474197689,42.3013326873298,457099.9995138536,-110.48277096981259,3869573.981020671,10.5,10503869573.98102,47.655,-122.3035,60.0,0.38333333333333336
2026-01-20T23:00:24+00:00,SAT-66328,194.0477524814488,42.4761056084704,456989.8113636063,-108.23778467216985,3790945.0645945985,10.5,10503790945.064594,47.655,-122.3035,60.0,0.4
2026-01-20T23:00:25+00:00,SAT-66328,191.43756222575698,42.59152606095997,456881.86221302656,-105.8707586153694,3708041.7995751537,10.5,10503708041.799576,47.655,-122.3035,60.0,0.4166666666666667
2026-01-20T23:00:26+00:00,SAT-66328,188.81978535564485,42.647106951816845,456776.2737764342,-103.38431825434279,3620956.1404997027,10.5,10503620956.1405,47.655,-122.3035,60.0,0.43333333333333335
2026-01-20T23:00:27+00:00,SAT-66328,186.1994628647814,42.64259822583296,456673.16514969524,-100.78122039396554,3529784.64233626,10.5,10503529784.642336,47.655,-122.3035,60.0,0.45
2026-01-20T23:00:28+00:00,SAT-66328,183.58167533918856,42.57799145295711,456572.6526792223,-98.0643515207302,3434628.4020516193,10.5,10503434628.402052,47.655,-122.3035,60.0,0.4666666666666667
2026-01-20T23:00:29+00:00,SAT-66328,180.97146139742804,42.45351989399149,456474.849832639,-95.23672355321588,3335592.909774824,10.5,10503335592.909775,47.655,-122.3035,60.0,0.48333333333333334
2026-01-20T23:00:30+00:00,SAT-66328,178.37373775096162,42.26965404445939,456379.8670736819,-92.301471978605,3232787.983530101,10.5,10503232787.98353,47.655,-122.3035,60.0,0.5
2026-01-20T23:00:31+00:00,SAT-66328,175.79322380458984,42.02709285428762,456287.8117389619,-89.26185149679254,3126327.616675139,10.5,10503126327.616674,47.655,-122.3035,60.0,0.5166666666666667
2026-01-20T23:00:32+00:00,SAT-66328,173.23437352662472,41.726751009349755,456198.78791906906,-86.12123295038097,3016329.8703765264,10.5,10503016329.870377,47.655,-122.3035,60.0,0.5333333333333333
2026-01-20T23:00:33+00:00,SAT-66328,170.70131672994933,41.369742811952484,456112.89634273987,-82.8831000484597,2902916.758862649,10.5,10502902916.758863,47.655,-122.3035,60.0,0.55
2026-01-20T23:00:34+00:00,SAT-66328,168.19781133432224,40.957363311820416,456030.2342642916,-79.55104521666958,2786214.104075395,10.5,10502786214.104074,47.655,-122.3035,60.0,0.5666666666666667
2026-01-20T23:00:35+00:00,SAT-66328,165.72720753534108,40.49106741272919,455950.89535519545,-76.12876602876815,2666351.4106884757,10.5,10502666351.410688,47.655,-122.3035,60.0,0.5833333333333334
2026-01-20T23:03:24+00:00,SAT-66328,211.93033987441896,40.01173161424524,458020.05527261866,-121.25595528398279,4246896.466227377,10.5,10504246896.466227,47.655,-122.3035,60.0,3.4
2026-01-20T23:03:25+00:00,SAT-66328,209.49897441572597,40.52489330139807,457899.12266654876,-119.85005062833345,4197655.73821574,10.5,10504197655.738216,47.655,-122.3035,60.0,3.4166666666666665
2026-01-20T23:03:26+00:00,SAT-66328,207.03149122306186,40.98599466337647,457779.59221605543,-118.30919440596577,4143688.4354930655,10.5,10504143688.435493,47.655,-122.3035,60.0,3.433333333333333
2026-01-20T23:03:27+00:00,SAT-66328,204.5307863079085,41.393420284728904,457661.5985128345,-116.6351008759529,4085054.598663404,10.5,10504085054.598663,47.655,-122.3035,60.0,3.45
2026-01-20T23:03:28+00:00,SAT-66328,202.00018774339065,41.74568963022678,457545.2744388943,-114.82963061040796,4021819.392832369,10.5,10504021819.392832,47.655,-122.3035,60.0,3.466666666666667
2026-01-20T23:03:29+00:00,SAT-66328,199.44343263965806,42.0414793978158,457430.75102063216,-112.89478879148406,3954053.0479608746,10.5,10503954053.04796,47.655,-122.3035,60.0,3.4833333333333334
2026-01-20T23:03:30+00:00,SAT-66328,196.86463198776184,42.279644659033615,457318.1572846108,-110.83272364947275,3881830.804160737,10.5,10503881830.804161,47.655,-122.3035,60.0,3.5
2026-01-20T23:03:31+00:00,SAT-66328,194.26822356905186,42.45923804045475,457207.62011489103,-108.64572289020612,3805232.78656718,10.5,10503805232.786568,47.655,-122.3035,60.0,3.5166666666666666
2026-01-20T23:03:32+00:00,SAT-66328,191.65891383863743,42.57952621560655,457099.26411392854,-106.33621220328126,3724343.953090552,10.5,10503724343.95309,47.655,-122.3035,60.0,3.533333333333333
2026-01-20T23:03:33+00:00,SAT-66328,189.04161026687282,42.64000305128088,456993.21146495786,-103.90675272854006,3639254.005681726,10.5,10503639254.005682,47.655,-122.3035,60.0,3.55
2026-01-20T23:03:34+00:00,SAT-66328,186.42134630399133,42.64039885518792,456889.5817969033,-101.36003808344698,3550057.286218299,10.5,10503550057.286219,47.655,-122.3035,60.0,3.566666666666667
2026-01-20T23:03:35+00:00,SAT-66328,183.80320161945454,42.580685326790544,456788.4920522547,-98.69889168463274,3456852.6826937185,10.5,10503456852.682693,47.655,-122.3035,60.0,3.5833333333333335
2026-01-20T23:03:36+00:00,SAT-66328,181.1922205776623,42.46107599580844,456690.0563576145,-95.92626311030922,3359743.501813668,10.5,10503359743.501814,47.655,-122.3035,60.0,3.6
2026-01-20T23:03:37+00:00,SAT-66328,178.59333206825588,42.28202213266354,456594.3858978725,-93.04522649335178,3258837.4127150113,10.5,10503258837.412716,47.655,-122.3035,60.0,3.6166666666666667
2026-01-20T23:03:38+00:00,SAT-66328,176.01127363533428,42.044204311340984,456501.58879198314,-90.05897586213553,3154246.2837821725,10.5,10503154246.283783,47.655,-122.3035,60.0,3.6333333333333333
2026-01-20T23:03:39+00:00,SAT-66328,173.45052268220385,41.748519997419216,456411.76997339,-86.97082238147934,3046086.0860133213,10.5,10503046086.086014,47.655,-122.3035,60.0,3.65
2026-01-20T23:03:40+00:00,SAT-66328,170.91523692128717,41.39606768613476,456325.03107320156,-83.78419057962235,2934476.7608731324,10.5,10502934476.760874,47.655,-122.3035,60.0,3.6666666666666665
2026-01-20T23:03:41+00:00,SAT-66328,168.4092057154937,40.98812823718001,456241.4703071301,-80.50261544976112,2819542.1187763563,10.5,10502819542.118776,47.655,-122.3035,60.0,3.683333333333333
2026-01-20T23:03:42+00:00,SAT-66328,165.93581324007366,40.52614411988026,456161.1823653215,-77.12973765082887,2701409.670998805,10.5,10502701409.671,47.655,-122.3035,60.0,3.7
2026-01-20T23:03:43+00:00,SAT-66328,163.4980138103262,40.011697321353914,456084.2583069711,-73.66930054879434,2580210.526051128,10.5,10502580210.52605,47.655,-122.3035,60.0,3.716666666666667
2026-01-20T23:06:32+00:00,SAT-66328,209.63522376701556,40.494340778064426,458114.7334516494,-119.81840694827439,4196547.442687438,10.5,10504196547.442688,47.655,-122.3035,60.0,6.533333333333333
2026-01-20T23:06:33+00:00,SAT-66328,207.16959780127527,40.95823480825615,457995.2345604529,-118.33313779217177,4144527.0341584226,10.5,10504144527.034159,47.655,-122.3035,60.0,6.55
2026-01-20T23:06:34+00:00,SAT-66328,204.67059122146281,41.36853183444397,457877.2169776949,-116.7145884507434,4087838.5897646756,10.5,10504087838.589766,47.655,-122.3035,60.0,6.566666666666666
2026-01-20T23:06:35+00:00,SAT-66328,202.14150942277374,41.723743782852516,457760.8136281467,-114.96455839263633,4026545.1345099597,10.5,10504026545.13451,47.655,-122.3035,60.0,6.583333333333333
2026-01-20T23:06:36+00:00,SAT-66328,199.58606826578466,42.022538646539886,457646.1556419098,-113.0849910776317,3960714.7365766377,10.5,10503960714.736576,47.655,-122.3035,60.0,6.6
2026-01-20T23:06:37+00:00,SAT-66328,197.0083595771607,42.26376170272285,457533.37221080833,-111.0779733919272,3890420.4875468733,10.5,10503890420.487547,47.655,-122.3035,60.0,6.616666666666666
2026-01-20T23:06:38+00:00,SAT-66328,194.41280467253873,42.44645481372648,457422.59044534544,-108.94573202727045,3815740.3755845646,10.5,10503815740.375584,47.655,-122.3035,60.0,6.633333333333334
2026-01-20T23:06:39+00:00,SAT-66328,191.8040967961309,42.5698730750096,457313.93523527024,-106.69063198319884,3736757.232977448,10.5,10503736757.232977,47.655,-122.3035,60.0,6.65
2026-01-20T23:06:40+00:00,SAT-66328,189.18713392545274,42.63349815013127,457207.529111639,-104.31517336270159,3653558.6239076327,10.5,10503653558.623907,47.655,-122.3035,60.0,6.666666666666667
2026-01-20T23:06:41+00:00,SAT-66328,186.56694409352502,42.6370477331346,457103.49211207195,-101.82198990783125,3566236.793162516,10.5,10503566236.793163,47.655,-122.3035,60.0,6.683333333333334
2026-01-20T23:06:42+00:00,SAT-66328,183.94860580317973,42.58048073265559,457001.9416474705,-99.2138450915019,3474888.529253027,10.5,10503474888.529253,47.655,-122.3035,60.0,6.7
2026-01-20T23:06:43+00:00,SAT-66328,181.3371665484619,42.463997950263995,456902.9923726326,-96.49362976435829,3379615.081997033,10.5,10503379615.081997,47.655,-122.3035,60.0,6.716666666666667
2026-01-20T23:06:44+00:00,SAT-66328,178.73756249674793,42.288038226760264,456806.7560592143,-93.66435890360066,3280522.0486494256,10.5,10503280522.048649,47.655,-122.3035,60.0,6.733333333333333
2026-01-20T23:06:45+00:00,SAT-66328,176.15454236148497,42.05327022938449,456713.34147193446,-90.72916881880042,3177719.276037973,10.5,10503177719.276037,47.655,-122.3035,60.0,6.75
2026-01-20T23:06:46+00:00,SAT-66328,173.59259816940664,41.760580238991864,456622.8542475658,-87.69131362184636,3071320.7369258995,10.5,10503071320.736925,47.655,-122.3035,60.0,6.766666666666667
2026-01-20T23:06:47+00:00,SAT-66328,171.05590518907633,41.41105645718838,456535.39677744696,-84.55416121661094,2961444.3895530384,10.5,10502961444.389553,47.655,-122.3035,60.0,6.783333333333333
2026-01-20T23:06:48+00:00,SAT-66328,168.54827268793622,41.00597047618082,456451.0680939936,-81.32119108529135,2848212.10010413,10.5,10502848212.100103,47.655,-122.3035,60.0,6.8
2026-01-20T23:06:49+00:00,SAT-66328,166.07310645579636,40.54675661849761,456369.9637594179,-77.99598943903328,2731749.4728631545,10.5,10502731749.472862,47.655,-122.3035,60.0,6.816666666666666
2026-01-20T23:06:50+00:00,SAT-66328,163.6333834941125,40.03498990020453,456292.175759284,-74.58224592505735,2612185.734882971,10.5,10502612185.734882,47.655,-122.3035,60.0,6.833333333333333
2026-01-20T23:09:39+00:00,SAT-66328,209.7001299508966,40.47796883246892,458326.93222689396,-119.70436387550265,4192553.1718772515,10.5,10504192553.171877,47.655,-122.3035,60.0,9.65
2026-01-20T23:09:40+00:00,SAT-66328,207.2353513744436,40.943115218743266,458207.5470746555,-118.2709044868788,4142347.3605604433,10.5,10504142347.360561,47.655,-122.3035,60.0,9.666666666666666
2026-01-20T23:09:41+00:00,SAT-66328,204.73712436760718,41.35469819225204,458089.59155924723,-116.70421925780421,4087475.4167663027,10.5,10504087475.416767,47.655,-122.3035,60.0,9.683333333333334
2026-01-20T23:09:42+00:00,SAT-66328,202.20874394693695,41.7112264221684,457973.1985512408,-115.00605011038022,4027998.3499751426,10.5,10504027998.349976,47.655,-122.3035,60.0,9.7
2026-01-20T23:09:43+00:00,SAT-66328,199.65391618212266,42.01136411349712,457858.4991839307,-113.17828342250967,3963982.229120492,10.5,10503963982.22912,47.655,-122.3035,60.0,9.716666666666667
2026-01-20T23:09:44+00:00,SAT-66328,197.076723974133,42.25395225817482,457745.622709264,-111.22294800425519,3895498.111712602,10.5,10503895498.111713,47.655,-122.3035,60.0,9.733333333333333
2026-01-20T23:09:45+00:00,SAT-66328,194.48158088133044,42.438027983933225,457634.69635578775,-109.14221361829364,3822621.9920185027,10.5,10503822621.992018,47.655,-122.3035,60.0,9.75
2026-01-20T23:09:46+00:00,SAT-66328,191.87317379150542,42.56284127202835,457525.8451880724,-106.93838773453025,3745434.687394863,10.5,10503745434.687395,47.655,-122.3035,60.0,9.766666666666667
2026-01-20T23:09:47+00:00,SAT-66328,189.2563959605684,42.62786837314164,457419.19196937187,-104.61391361073561,3664021.77106378,10.5,10503664021.771063,47.655,-122.3035,60.0,9.783333333333333
2026-01-20T23:09:48+00:00,SAT-66328,186.6362724863888,42.632821364985844,457314.8570261974,-102.17136804466928,3578473.4933826365,10.5,10503578473.493383,47.655,-122.3035,60.0,9.8
2026-01-20T23:09:49+00:00,SAT-66328,184.01788083039875,42.57765343911755,457212.95811513416,-99.61345790257276,3488884.6602572436,10.5,10503488884.660257,47.655,-122.3035,60.0,9.816666666666666
2026-01-20T23:09:50+00:00,SAT-66328,181.40626936658126,42.46255968665304,457113.6102931194,-96.9430181783394,3395354.565165758,10.5,10503395354.565166,47.655,-122.3035,60.0,9.833333333333334
2026-01-20T23:09:51+00:00,SAT-66328,178.80637700859876,42.287973350429446,457016.9257896562,-94.16300794564542,3297986.8473851895,10.5,10503297986.847385,47.655,-122.3035,60.0,9.85
2026-01-20T23:09:52+00:00,SAT-66328,176.22295698074203,42.05455771361552,456923.013883065,-91.27650847137302,3196889.4259155,10.5,10503196889.425915,47.655,-122.3035,60.0,9.866666666666667
2026-01-20T23:09:53+00:00,SAT-66328,173.6605074001306,41.76319397768418,456831.9807786163,-88.28671914835624,3092174.3570271553,10.5,10503092174.357027,47.655,-122.3035,60.0,9.883333333333333
2026-01-20T23:09:54+00:00,SAT-66328,171.12321098730294,41.4149656483682,456743.92949071893,-85.19695439115817,2983957.7255381146,10.5,10502983957.725538,47.655,-122.3035,60.0,9.9
2026-01-20T23:09:55+00:00,SAT-66328,168.61488554655614,41.01114006552501,456658.95972820616,-82.01063988802753,2872359.513541495,10.5,10502872359.513542,47.655,-122.3035,60.0,9.916666666666666
2026-01-20T23:09:56+00:00,SAT-66328,166.13894624032798,40.55314779257161,456577.16778335784,-78.7313098381346,2757503.5036418876,10.5,10502757503.503641,47.655,-122.3035,60.0,9.933333333333334
2026-01-20T23:09:57+00:00,SAT-66328,163.69837996677532,40.04256060321737,456498.6464236793,-75.36260199407855,2639517.1053229924,10.5,10502639517.105324,47.655,-122.3035,60.0,9.95
2026-01-20T23:12:46+00:00,SAT-66328,209.69379495813268,40.475881260601014,458535.7206306484,-119.51254057151682,4185834.708359896,10.5,10504185834.70836,47.655,-122.3035,60.0,12.766666666666667
2026-01-20T23:12:47+00:00,SAT-66328,207.2288487313363,40.94074330178022,458416.526790185,-118.12711390652483,4137311.206202895,10.5,10504137311.206203,47.655,-122.3035,60.0,12.783333333333333
2026-01-20T23:12:48+00:00,SAT-66328,204.73047636984367,41.352030127915015,458298.7146819156,-116.60860745352305,4084126.686942845,10.5,10504084126.686943,47.655,-122.3035,60.0,12.8
2026-01-20T23:12:49+00:00,SAT-66328,202.20197485133482,41.70825138268934,458182.4170307486,-114.95870973396958,4026340.2897436493,10.5,10504026340.289743,47.655,-122.3035,60.0,12.816666666666666
2026-01-20T23:12:50+00:00,SAT-66328,199.6470519667846,42.00807235367057,458067.76487757394,-113.17925370573843,3964016.2125434573,10.5,10503964016.212543,47.655,-122.3035,60.0,12.833333333333334
2026-01-20T23:12:51+00:00,SAT-66328,197.0697920308861,42.25033521136041,457954.8874352114,-111.27221454562253,3897223.6343885493,10.5,10503897223.634388,47.655,-122.3035,60.0,12.85
2026-01-20T23:12:52+00:00,SAT-66328,194.47460965210232,42.434078341279786,457843.91194657126,-109.23970840761872,3826036.6719432166,10.5,10503826036.671944,47.655,-122.3035,60.0,12.866666666666667
2026-01-20T23:12:53+00:00,SAT-66328,191.86619235458267,42.55855304182468,457734.96354405273,-107.08398908484267,3750534.2625759053,10.5,10503750534.262575,47.655,-122.3035,60.0,12.883333333333333
2026-01-20T23:12:54+00:00,SAT-66328,189.24943358330904,42.62323691714147,457628.1651122721,-104.80744654930378,3670800.1132159554,10.5,10503670800.113216,47.655,-122.3035,60.0,12.9
2026-01-20T23:12:55+00:00,SAT-66328,186.62935815056485,42.627843409853305,457523.6371522469,-102.41260366221881,3586922.585134872,10.5,10503586922.585135,47.655,-122.3035,60.0,12.916666666666666
2026-01-20T23:12:56+00:00,SAT-66328,184.01104277491763,42.57232706185078,457421.4976488611,-99.90211443523366,3498994.6330469507,10.5,10503498994.633047,47.655,-122.3035,60.0,12.933333333333334
2026-01-20T23:12:57+00:00,SAT-66328,181.3995346240744,42.4568842745512,457321.86194006435,-97.27876065402252,3407113.6868534447,10.5,10503407113.686853,47.655,-122.3035,60.0,12.95
2026-01-20T23:12:58+00:00,SAT-66328,178.79977099035818,42.28194953685009,457224.8425894388,-94.54544902581709,3311381.551736967,10.5,10503311381.551737,47.655,-122.3035,60.0,12.966666666666667
2026-01-20T23:12:59+00:00,SAT-66328,176.21650309577615,42.048187291059,457130.5492616104,-91.70520823774918,3211904.305132207,10.5,10503211904.305132,47.655,-122.3035,60.0,12.983333333333333
2026-01-20T23:13:00+00:00,SAT-66328,173.6542267502193,41.75647979328275,457039.0886005946,-88.76118570691136,3108792.1828993084,10.5,10503108792.1829,47.655,-122.3035,60.0,13.0
2026-01-20T23:13:01+00:00,SAT-66328,171.11712212652714,41.407911484979444,456950.5641113829,-85.71664483418128,3002159.4831411783,10.5,10503002159.48314,47.655,-122.3035,60.0,13.016666666666667
2026-01-20T23:13:02+00:00,SAT-66328,168.6090043005832,41.00375051062765,456865.07604426827,-82.57496031324752,2892124.401905731,10.5,10502892124.401905,47.655,-122.3035,60.0,13.033333333333333
2026-01-20T23:13:03+00:00,SAT-66328,166.1332856139321,40.54542810306502,456782.72128384915,-79.33961605596699,2778808.960523127,10.5,10502778808.960524,47.655,-122.3035,60.0,13.05
2026-01-20T23:13:04+00:00,SAT-66328,163.69295011949086,40.03451656883783,456703.5932401027,-76.01420048636375,2662338.840781709,10.5,10502662338.840782,47.655,-122.3035,60.0,13.066666666666666
