satellites_20260120_184412/SAT-66536.csv

timestamp,satellite,azimuth_deg,elevation_deg,distance_km,relative_velocity_kms,doppler_shift_hz,tx_freq_ghz,rx_freq_hz,ue_lat,ue_lon,ue_alt_m,time_minutes
2026-01-20T23:02:58+00:00,SAT-66536,174.2166085096056,40.33166570821677,215757.68503487072,-93.35092010079099,3269544.09593021,10.5,10503269544.09593,47.655,-122.3035,60.0,2.966666666666667
2026-01-20T23:02:59+00:00,SAT-66536,172.326137788291,40.70082823022826,215664.58305055686,-90.00019254121628,3152187.44323038,10.5,10503152187.44323,47.655,-122.3035,60.0,2.9833333333333334
2026-01-20T23:03:00+00:00,SAT-66536,170.41475829667678,41.03869849801713,215574.82285852908,-86.58825633076593,3032687.0046645477,10.5,10503032687.004665,47.655,-122.3035,60.0,3.0
2026-01-20T23:03:01+00:00,SAT-66536,168.4838924017199,41.34453738497755,215488.46550421522,-83.117435720518,2911124.1853370406,10.5,10502911124.185337,47.655,-122.3035,60.0,3.0166666666666666
2026-01-20T23:03:02+00:00,SAT-66536,166.53511562870654,41.61765688925005,215405.56971498995,-79.59010247536634,2787582.054486996,10.5,10502787582.054487,47.655,-122.3035,60.0,3.033333333333333
2026-01-20T23:03:03+00:00,SAT-66536,164.5701498484085,41.85742639610106,215326.19185278786,-76.00867446889463,2662145.2962749097,10.5,10502662145.296274,47.655,-122.3035,60.0,3.05
2026-01-20T23:03:04+00:00,SAT-66536,162.59085384046307,42.06327867464213,215250.38586811753,-72.37561294851959,2534900.1139963823,10.5,10502534900.113997,47.655,-122.3035,60.0,3.066666666666667
2026-01-20T23:03:05+00:00,SAT-66536,160.59921128721666,42.23471547930867,215178.20325680354,-68.69342156927199,2405934.1962410402,10.5,10502405934.196241,47.655,-122.3035,60.0,3.0833333333333335
2026-01-20T23:03:06+00:00,SAT-66536,158.59731625931173,42.37131263673479,215109.69301769178,-64.96464333429712,2275336.609735925,10.5,10502275336.609735,47.655,-122.3035,60.0,3.1
2026-01-20T23:03:07+00:00,SAT-66536,156.5873564403721,42.472724493725856,215044.9016134064,-61.1918587899835,2143197.736131263,10.5,10502143197.736132,47.655,-122.3035,60.0,3.1166666666666667
2026-01-20T23:03:08+00:00,SAT-66536,154.57159433815823,42.538687622096106,214983.8729329065,-57.3776837277688,2009609.1915079877,10.5,10502009609.191507,47.655,-122.3035,60.0,3.1333333333333333
2026-01-20T23:03:09+00:00,SAT-66536,152.5523468524044,42.56902368633931,214926.64825633535,-53.524767064155796,1874663.7521269324,10.5,10501874663.752127,47.655,-122.3035,60.0,3.15
2026-01-20T23:03:10+00:00,SAT-66536,150.53196361697684,42.563641400825546,214873.2662219834,-49.635788408998806,1738455.269259934,10.5,10501738455.26926,47.655,-122.3035,60.0,3.1666666666666665
2026-01-20T23:03:11+00:00,SAT-66536,148.5128046009867,42.522537525272796,214823.7627956768,-45.71345576288594,1601078.5885424188,10.5,10501601078.588543,47.655,-122.3035,60.0,3.183333333333333
2026-01-20T23:03:12+00:00,SAT-66536,146.4972174706709,42.44579687283532,214778.17124246262,-41.760502954020076,1462629.4602021335,10.5,10501462629.460201,47.655,-122.3035,60.0,3.2
2026-01-20T23:03:13+00:00,SAT-66536,144.48751523969923,42.333591331631624,214736.5221008498,-37.77968763653229,1323204.468951614,10.5,10501323204.468952,47.655,-122.3035,60.0,3.216666666666667
2026-01-20T23:03:14+00:00,SAT-66536,142.48595468667136,42.18617792515118,214698.84315904696,-33.77378844402835,1182900.9342933425,10.5,10501182900.934294,47.655,-122.3035,60.0,3.2333333333333334
2026-01-20T23:03:15+00:00,SAT-66536,140.49471604769687,42.00389596436,214665.1594340388,-29.745602619349242,1041816.8275039362,10.5,10501041816.827503,47.655,-122.3035,60.0,3.25
2026-01-20T23:03:16+00:00,SAT-66536,138.51588438525093,41.78716336545211,214635.49315302644,-25.697943759181356,900050.6926408543,10.5,10500900050.69264,47.655,-122.3035,60.0,3.2666666666666666
2026-01-20T23:03:17+00:00,SAT-66536,136.55143297244913,41.53647222437759,214609.86373711727,-21.633638963699727,757701.5467108486,10.5,10500757701.546711,47.655,-122.3035,60.0,3.283333333333333
2026-01-20T23:03:18+00:00,SAT-66536,134.60320900261397,41.25238376001079,214588.28778785747,-17.555526595945057,614868.8011938684,10.5,10500614868.801193,47.655,-122.3035,60.0,3.3
2026-01-20T23:03:19+00:00,SAT-66536,132.67292177188278,40.93552274023984,214570.7790759991,-13.466453526768396,471652.16554936866,10.5,10500471652.16555,47.655,-122.3035,60.0,3.316666666666667
2026-01-20T23:03:20+00:00,SAT-66536,130.7621334738898,40.586571520076085,214557.34853301506,-9.369272808501876,328151.5657384206,10.5,10500328151.565739,47.655,-122.3035,60.0,3.3333333333333335
2026-01-20T23:03:21+00:00,SAT-66536,128.87225258396904,40.206263811239204,214548.00424493407,-5.266840992208897,184467.05026246328,10.5,10500184467.050262,47.655,-122.3035,60.0,3.35
2026-01-20T23:07:07+00:00,SAT-66536,174.30809975250335,40.305415192495026,215936.88411498707,-94.3115911871892,3303190.861010541,10.5,10503303190.86101,47.655,-122.3035,60.0,7.116666666666666
2026-01-20T23:07:08+00:00,SAT-66536,172.41912030955177,40.67579782761911,215842.82402137638,-91.00557229166405,3187400.0948431883,10.5,10503187400.094843,47.655,-122.3035,60.0,7.133333333333334
2026-01-20T23:07:09+00:00,SAT-66536,170.5091869913652,41.01493575862048,215752.06113061082,-87.63771289544992,3069443.4127566484,10.5,10503069443.412756,47.655,-122.3035,60.0,7.15
2026-01-20T23:07:10+00:00,SAT-66536,168.57971357100146,41.322088317834734,215664.6571182831,-84.21030408409725,2949401.05825818,10.5,10502949401.058258,47.655,-122.3035,60.0,7.166666666666667
2026-01-20T23:07:11+00:00,SAT-66536,166.63226701201893,41.596565595259776,215580.6713750099,-80.72568522166004,2827354.9657724556,10.5,10502827354.965773,47.655,-122.3035,60.0,7.183333333333334
2026-01-20T23:07:12+00:00,SAT-66536,164.66856077606428,41.837734701507316,215500.16095828215,-77.18624175196646,2703388.6836327547,10.5,10502703388.683632,47.655,-122.3035,60.0,7.2
2026-01-20T23:07:13+00:00,SAT-66536,162.69044553244595,42.045025768692845,215423.1805465082,-73.59440378659723,2577587.3246259945,10.5,10502577587.324627,47.655,-122.3035,60.0,7.216666666666667
2026-01-20T23:07:14+00:00,SAT-66536,160.69989726868843,42.217937566453024,215349.78239446503,-69.95264368224669,2450037.481141671,10.5,10502450037.481142,47.655,-122.3035,60.0,7.233333333333333
2026-01-20T23:07:15+00:00,SAT-66536,158.69900292822862,42.35604260572623,215280.01629116593,-66.26347358425687,2320827.139136026,10.5,10502320827.139135,47.655,-122.3035,60.0,7.25
2026-01-20T23:07:16+00:00,SAT-66536,156.68994376915524,42.458991612539464,215213.9295201779,-62.529444352086344,2190045.6404974223,10.5,10502190045.640497,47.655,-122.3035,60.0,7.266666666666667
2026-01-20T23:07:17+00:00,SAT-66536,154.67497667765528,42.526517265969254,215151.56682101073,-58.753142301922345,2057783.568958845,10.5,10502057783.568958,47.655,-122.3035,60.0,7.283333333333333
2026-01-20T23:07:18+00:00,SAT-66536,152.65641385122296,42.55843710266209,215092.97035375496,-54.93718764582002,1924132.6954299505,10.5,10501924132.69543,47.655,-122.3035,60.0,7.3
2026-01-20T23:07:19+00:00,SAT-66536,150.63660122278202,42.55465551679521,215038.1796652762,-51.08423176744927,1789185.8825822007,10.5,10501789185.882582,47.655,-122.3035,60.0,7.316666666666666
2026-01-20T23:07:20+00:00,SAT-66536,148.6178961331458,42.515164802100635,214987.2316581268,-47.19695541094588,1653037.0214147675,10.5,10501653037.021416,47.655,-122.3035,60.0,7.333333333333333
2026-01-20T23:07:21+00:00,SAT-66536,146.60264472374232,42.44004520923853,214940.16056126362,-43.27806588750802,1515780.9334177251,10.5,10501515780.933418,47.655,-122.3035,60.0,7.35
2026-01-20T23:07:22+00:00,SAT-66536,144.59315959989235,42.329464017543444,214896.99790355182,-39.330294922268216,1377513.2951604014,10.5,10501377513.29516,47.655,-122.3035,60.0,7.366666666666666
2026-01-20T23:07:23+00:00,SAT-66536,142.59169824548488,42.183673646398866,214857.772489416,-35.35639613267772,1238330.549973729,10.5,10501238330.549974,47.655,-122.3035,60.0,7.383333333333334
2026-01-20T23:07:24+00:00,SAT-66536,140.60044267577317,42.003008856748835,214822.51037700634,-31.35914268975227,1098329.8260371808,10.5,10501098329.826036,47.655,-122.3035,60.0,7.4
2026-01-20T23:07:25+00:00,SAT-66536,138.6214807407962,41.78788311506803,214791.23485869708,-27.341324812101433,957608.8486090769,10.5,10500957608.84861,47.655,-122.3035,60.0,7.416666666666667
2026-01-20T23:07:26+00:00,SAT-66536,136.65678944114333,41.538784212158376,214763.9664440845,-23.305747304030664,816265.8538005048,10.5,10500816265.8538,47.655,-122.3035,60.0,7.433333333333334
2026-01-20T23:07:27+00:00,SAT-66536,134.70822052953022,41.256269243714314,214740.72284543994,-19.255226942267203,674399.4970474062,10.5,10500674399.497047,47.655,-122.3035,60.0,7.45
2026-01-20T23:07:28+00:00,SAT-66536,132.7774886021655,40.9409590723749,214721.51896576953,-15.19259020860055,532108.7736980554,10.5,10500532108.773699,47.655,-122.3035,60.0,7.466666666666667
2026-01-20T23:07:29+00:00,SAT-66536,130.8661617556024,40.5935323907588,214706.3668891348,-11.120670582185147,389492.924178046,10.5,10500389492.924177,47.655,-122.3035,60.0,7.483333333333333
2026-01-20T23:07:30+00:00,SAT-66536,128.9756548627282,40.21471951491602,214695.2758736742,-7.042306058647249,246651.34709891904,10.5,10500246651.3471,47.655,-122.3035,60.0,7.5
2026-01-20T23:11:16+00:00,SAT-66536,174.30393524582672,40.29861274697055,216113.83383356733,-95.0357189485559,3328552.8782709967,10.5,10503328552.878271,47.655,-122.3035,60.0,11.266666666666667
2026-01-20T23:11:17+00:00,SAT-66536,172.41539494311306,40.6686352953319,216019.05154320263,-91.77319481733139,3214285.4827321223,10.5,10503214285.482733,47.655,-122.3035,60.0,11.283333333333333
2026-01-20T23:11:18+00:00,SAT-66536,170.5059257529716,41.007423167719956,215927.5230769048,-88.44836119663779,3097835.745303162,10.5,10503097835.745304,47.655,-122.3035,60.0,11.3
2026-01-20T23:11:19+00:00,SAT-66536,168.57694066938024,41.314236685474086,215839.3105780047,-85.06347698227987,2979282.782070317,10.5,10502979282.78207,47.655,-122.3035,60.0,11.316666666666666
2026-01-20T23:11:20+00:00,SAT-66536,166.6300056096134,41.58838687898198,215754.47393696106,-81.62085003554903,2858707.4240982565,10.5,10502858707.424099,47.655,-122.3035,60.0,11.333333333333334
2026-01-20T23:11:21+00:00,SAT-66536,164.66683270911264,41.82924173990868,215673.07074252557,-78.12283434268947,2736192.117942605,10.5,10502736192.117943,47.655,-122.3035,60.0,11.35
2026-01-20T23:11:22+00:00,SAT-66536,162.6892710386804,42.03623220892723,215595.15623574113,-74.57182893565086,2611820.887850134,10.5,10502611820.88785,47.655,-122.3035,60.0,11.366666666666667
2026-01-20T23:11:23+00:00,SAT-66536,160.69929472267324,42.20885777989063,215520.78326501598,-70.97027499271485,2485679.234210442,10.5,10502485679.234211,47.655,-122.3035,60.0,11.383333333333333
2026-01-20T23:11:24+00:00,SAT-66536,158.69898860494936,42.34669159138655,215450.00224408993,-67.32065472181023,2357854.0944449226,10.5,10502357854.094444,47.655,-122.3035,60.0,11.4
2026-01-20T23:11:25+00:00,SAT-66536,156.69053160670276,42.449384892115724,215382.86111111403,-63.625488731984014,2228433.750944569,10.5,10502228433.750944,47.655,-122.3035,60.0,11.416666666666666
2026-01-20T23:11:26+00:00,SAT-66536,154.6761780883996,42.516670768209124,215319.405290352,-59.88733390899399,2097507.756664235,10.5,10502097507.756664,47.655,-122.3035,60.0,11.433333333333334
2026-01-20T23:11:27+00:00,SAT-66536,152.65823755646622,42.54836704107313,215259.6776560001,-56.108781193941155,1965166.8573209473,10.5,10501965166.85732,47.655,-122.3035,60.0,11.45
2026-01-20T23:11:28+00:00,SAT-66536,150.63905313703262,42.544378261673025,215203.71849822268,-52.292453804224024,1831502.9290842009,10.5,10501831502.929085,47.655,-122.3035,60.0,11.466666666666667
2026-01-20T23:11:29+00:00,SAT-66536,148.62097926998146,42.50469674925464,215151.56549096195,-48.44100441411423,1696608.879827789,10.5,10501696608.879827,47.655,-122.3035,60.0,11.483333333333333
2026-01-20T23:11:30+00:00,SAT-66536,146.60635916080656,42.42940264711402,215103.2536625596,-44.557112798991255,1560578.5666209394,10.5,10501560578.566622,47.655,-122.3035,60.0,11.5
2026-01-20T23:11:31+00:00,SAT-66536,144.59750249256112,42.31866299591467,215058.81536872807,-40.64348414597107,1423506.7365593843,10.5,10501423506.736559,47.655,-122.3035,60.0,11.516666666666667
2026-01-20T23:11:32+00:00,SAT-66536,142.59666386898544,42.172729847719914,215018.2802672065,-36.70284600959658,1285488.9201407598,10.5,10501285488.920141,47.655,-122.3035,60.0,11.533333333333333
2026-01-20T23:11:33+00:00,SAT-66536,140.60602251541928,41.99193747283311,214981.67529545288,-32.73794616358858,1146621.3560238401,10.5,10501146621.356024,47.655,-122.3035,60.0,11.55
2026-01-20T23:11:34+00:00,SAT-66536,138.62766362172846,41.77669873112514,214949.02465047908,-28.75155011439071,1007000.9039423615,10.5,10501007000.903942,47.655,-122.3035,60.0,11.566666666666666
2026-01-20T23:11:35+00:00,SAT-66536,136.66356169530934,41.527500700339544,214920.34977116503,-24.746438841128334,866724.9655488249,10.5,10500866724.96555,47.655,-122.3035,60.0,11.583333333333334
2026-01-20T23:11:36+00:00,SAT-66536,134.7155661836219,41.244899666265134,214895.66932282745,-20.725406055059885,725891.388428887,10.5,10500725891.38843,47.655,-122.3035,60.0,11.6
2026-01-20T23:11:37+00:00,SAT-66536,132.78538958738613,40.929515595839725,214874.99918452188,-16.69125591676748,584598.3861477214,10.5,10500584598.386148,47.655,-122.3035,60.0,11.616666666666667
2026-01-20T23:11:38+00:00,SAT-66536,130.8745981388799,40.58202621297949,214858.3524386209,-12.646800384599581,442944.44538126304,10.5,10500442944.445381,47.655,-122.3035,60.0,11.633333333333333
2026-01-20T23:11:39+00:00,SAT-66536,128.9846050967212,40.20316080653353,214845.7393630373,-8.594856980130311,301028.2476531423,10.5,10500301028.247654,47.655,-122.3035,60.0,11.65
