satellites_20260120_184412/SAT-55663.csv

timestamp,satellite,azimuth_deg,elevation_deg,distance_km,relative_velocity_kms,doppler_shift_hz,tx_freq_ghz,rx_freq_hz,ue_lat,ue_lon,ue_alt_m,time_minutes
2026-01-20T23:03:38+00:00,SAT-55663,237.47307153036678,40.0497177510827,2059.6681512298956,-0.4194754863479918,14691.80591145463,10.5,10500014691.805912,47.655,-122.3035,60.0,3.6333333333333333
2026-01-20T23:03:39+00:00,SAT-55663,237.69596736481583,40.15982122376447,2059.2497943448443,-0.3970303564339767,13905.682519060421,10.5,10500013905.68252,47.655,-122.3035,60.0,3.65
2026-01-20T23:03:40+00:00,SAT-55663,237.91981331434016,40.26936011170179,2058.8538227360273,-0.3745723164385815,13119.106961006692,10.5,10500013119.10696,47.655,-122.3035,60.0,3.6666666666666665
2026-01-20T23:03:41+00:00,SAT-55663,238.14460677534413,40.378327636063204,2058.480249279099,-0.35210211286397064,12332.10538295694,10.5,10500012332.105383,47.655,-122.3035,60.0,3.683333333333333
2026-01-20T23:03:42+00:00,SAT-55663,238.37034499188684,40.48671703613053,2058.129086105203,-0.32962049784846564,11544.704127976725,10.5,10500011544.704128,47.655,-122.3035,60.0,3.7
2026-01-20T23:03:43+00:00,SAT-55663,238.59702505535557,40.59452157147358,2057.800344595349,-0.3071282214067916,10756.929464754285,10.5,10500010756.929464,47.655,-122.3035,60.0,3.716666666666667
2026-01-20T23:03:44+00:00,SAT-55663,238.82464390122112,40.70173452270136,2057.4940353825327,-0.28462603906048906,9968.807854849822,10.5,10500009968.807856,47.655,-122.3035,60.0,3.7333333333333334
2026-01-20T23:03:45+00:00,SAT-55663,239.0531983089794,40.808349193744554,2057.210168346243,-0.26211470472131254,9180.365703442018,10.5,10500009180.365704,47.655,-122.3035,60.0,3.75
2026-01-20T23:03:46+00:00,SAT-55663,239.28268489896408,40.91435891264736,2056.9487526140674,-0.2395949766846658,8391.629569243503,10.5,10500008391.62957,47.655,-122.3035,60.0,3.7666666666666666
2026-01-20T23:03:47+00:00,SAT-55663,239.51310013237395,41.01975703385005,2056.7097965573207,-0.21706761150758738,7602.625950081998,10.5,10500007602.62595,47.655,-122.3035,60.0,3.783333333333333
2026-01-20T23:03:48+00:00,SAT-55663,239.744440307947,41.12453693892042,2056.493307792777,-0.19453337097517226,6813.381526893877,10.5,10500006813.381527,47.655,-122.3035,60.0,3.8
2026-01-20T23:03:49+00:00,SAT-55663,239.97670156288552,41.22869203921356,2056.299293177458,-0.17199301383564816,6023.922874251579,10.5,10500006023.922874,47.655,-122.3035,60.0,3.816666666666667
2026-01-20T23:03:50+00:00,SAT-55663,240.2098798688083,41.33221577626301,2056.127758811659,-0.1494473023698786,5234.276690455386,10.5,10500005234.27669,47.655,-122.3035,60.0,3.8333333333333335
2026-01-20T23:03:51+00:00,SAT-55663,240.4439710315676,41.43510162392455,2055.978710035429,-0.12689700090227868,4444.469745379406,10.5,10500004444.469746,47.655,-122.3035,60.0,3.85
2026-01-20T23:03:52+00:00,SAT-55663,240.67897069150717,41.53734309065492,2055.852151426529,-0.10434286972301501,3654.5286676012965,10.5,10500003654.528667,47.655,-122.3035,60.0,3.8666666666666667
2026-01-20T23:03:53+00:00,SAT-55663,240.91487431792967,41.63893371925135,2055.7480868044586,-0.08178567529737847,2864.48030197769,10.5,10500002864.480303,47.655,-122.3035,60.0,3.8833333333333333
2026-01-20T23:03:54+00:00,SAT-55663,241.1516772124951,41.7398670904936,2055.6665192242954,-0.059226181486287756,2074.351402149088,10.5,10500002074.351402,47.655,-122.3035,60.0,3.9
2026-01-20T23:03:55+00:00,SAT-55663,241.38937450521274,41.84013682351618,2055.607450979293,-0.03666515395839927,1284.1687850706112,10.5,10500001284.168785,47.655,-122.3035,60.0,3.9166666666666665
2026-01-20T23:03:56+00:00,SAT-55663,241.6279611551202,41.93973657819896,2055.5708835990786,-0.014103356451642521,493.9592000751615,10.5,10500000493.9592,47.655,-122.3035,60.0,3.933333333333333
2026-01-20T23:03:57+00:00,SAT-55663,241.86743194614147,42.03866005549158,2055.5568178515773,0.008458443802042078,-296.2504811293212,10.5,10499999703.74952,47.655,-122.3035,60.0,3.95
2026-01-20T23:03:58+00:00,SAT-55663,242.10778149037753,42.136901000846436,2055.5652537395295,0.031019482739972588,-1086.4334978357333,10.5,10499998913.566502,47.655,-122.3035,60.0,3.966666666666667
2026-01-20T23:03:59+00:00,SAT-55663,242.34900422302738,42.234453204116186,2055.5961905036484,0.05357899389228413,-1876.563005027242,10.5,10499998123.436995,47.655,-122.3035,60.0,3.9833333333333334
2026-01-20T23:04:00+00:00,SAT-55663,242.5910944054299,42.33131050280066,2055.649626620224,0.07613621328091337,-2666.6122449604463,10.5,10499997333.387754,47.655,-122.3035,60.0,4.0
2026-01-20T23:04:01+00:00,SAT-55663,242.834046119236,42.42746678164585,2055.7255598036027,0.0986903751248873,-3456.554396746421,10.5,10499996543.445602,47.655,-122.3035,60.0,4.016666666666667
2026-01-20T23:04:02+00:00,SAT-55663,243.07785327148946,42.52291597662011,2055.823987004394,0.12124071558082088,-4246.362707358766,10.5,10499995753.637293,47.655,-122.3035,60.0,4.033333333333333
2026-01-20T23:04:03+00:00,SAT-55663,243.32250958913198,42.61765207461647,2055.9449044114,0.14378647096389346,-5036.01042932468,10.5,10499994963.98957,47.655,-122.3035,60.0,4.05
2026-01-20T23:04:04+00:00,SAT-55663,243.56800862108312,42.71166911615321,2056.088307451774,0.16632687799738508,-5825.470829464774,10.5,10499994174.529171,47.655,-122.3035,60.0,4.066666666666666
2026-01-20T23:04:05+00:00,SAT-55663,243.8143437366732,42.80496119659163,2056.2541907914306,0.18886117490890614,-6614.717227287668,10.5,10499993385.282772,47.655,-122.3035,60.0,4.083333333333333
2026-01-20T23:04:06+00:00,SAT-55663,244.06150812534062,42.8975224678227,2056.44254833654,0.21138860042996696,-7403.722959950692,10.5,10499992596.27704,47.655,-122.3035,60.0,4.1
2026-01-20T23:04:07+00:00,SAT-55663,244.30949479669437,42.98934714005331,2056.6533732340354,0.2339083943219853,-8192.461400682887,10.5,10499991807.538599,47.655,-122.3035,60.0,4.116666666666666
2026-01-20T23:04:08+00:00,SAT-55663,244.55829657823466,43.08042948268895,2056.886657872639,0.25641979795235337,-8980.905978961318,10.5,10499991019.09402,47.655,-122.3035,60.0,4.133333333333334
2026-01-20T23:04:09+00:00,SAT-55663,244.80790611834777,43.170763827145485,2057.1423938844637,0.2789220541551855,-9769.030175633863,10.5,10499990230.969824,47.655,-122.3035,60.0,4.15
2026-01-20T23:04:10+00:00,SAT-55663,245.05831588420645,43.260344567711634,2057.420572146474,0.30141440649999013,-10556.807497305008,10.5,10499989443.192503,47.655,-122.3035,60.0,4.166666666666667
2026-01-20T23:04:11+00:00,SAT-55663,245.30951816127185,43.34916616299857,2057.7211827812234,0.32389610037468614,-11344.211514267661,10.5,10499988655.788486,47.655,-122.3035,60.0,4.183333333333334
2026-01-20T23:04:12+00:00,SAT-55663,245.56150505348148,43.437223137597854,2058.044215158664,0.3463663835293976,-12131.215879549161,10.5,10499987868.78412,47.655,-122.3035,60.0,4.2
2026-01-20T23:04:13+00:00,SAT-55663,245.81426848490187,43.52451008420199,2058.3896578985036,0.36882450486028445,-12917.794286315859,10.5,10499987082.205713,47.655,-122.3035,60.0,4.216666666666667
2026-01-20T23:04:14+00:00,SAT-55663,246.06780019813567,43.61102166454061,2058.7574988713513,0.3912697162889388,-13703.920533697541,10.5,10499986296.079466,47.655,-122.3035,60.0,4.233333333333333
2026-01-20T23:04:15+00:00,SAT-55663,246.32209175637433,43.696752611547005,2059.14772520173,0.4137012694480299,-14489.568410704693,10.5,10499985510.43159,47.655,-122.3035,60.0,4.25
2026-01-20T23:04:16+00:00,SAT-55663,246.5771345406477,43.78169772983667,2059.5603232677927,0.4361184203475235,-15274.711859659248,10.5,10499984725.288141,47.655,-122.3035,60.0,4.266666666666667
2026-01-20T23:04:17+00:00,SAT-55663,246.83291975361618,43.86585189838277,2059.995278705686,0.45852042789296804,-16059.324924298677,10.5,10499983940.675076,47.655,-122.3035,60.0,4.283333333333333
2026-01-20T23:04:18+00:00,SAT-55663,247.08943841919077,43.94921007168858,2060.452576412438,0.480906549821006,-16843.381607420437,10.5,10499983156.618393,47.655,-122.3035,60.0,4.3
2026-01-20T23:04:19+00:00,SAT-55663,247.34668138122268,44.03176728066677,2060.932200544793,0.5032760516892743,-17626.856185746274,10.5,10499982373.143814,47.655,-122.3035,60.0,4.316666666666666
2026-01-20T23:04:20+00:00,SAT-55663,247.6046393077514,44.11351863525591,2061.434134527011,0.5256281956719364,-18409.722817494403,10.5,10499981590.277182,47.655,-122.3035,60.0,4.333333333333333
2026-01-20T23:04:21+00:00,SAT-55663,247.86330268763464,44.19445932453667,2061.9583610474942,0.5479622523442829,-19191.95595512603,10.5,10499980808.044044,47.655,-122.3035,60.0,4.35
2026-01-20T23:04:22+00:00,SAT-55663,248.1226618354645,44.27458461946144,2062.504862067166,0.5702774909658231,-19973.53000501815,10.5,10499980026.469995,47.655,-122.3035,60.0,4.366666666666666
2026-01-20T23:04:23+00:00,SAT-55663,248.3827068897122,44.35388987336428,2063.073618818156,0.5925731862040333,-20754.419562957617,10.5,10499979245.580437,47.655,-122.3035,60.0,4.383333333333334
2026-01-20T23:04:24+00:00,SAT-55663,248.64342781539364,44.43237052386354,2063.6646118091962,0.6148486157347963,-21534.59933009843,10.5,10499978465.40067,47.655,-122.3035,60.0,4.4
2026-01-20T23:04:25+00:00,SAT-55663,248.9048144053255,44.51002209425259,2064.2778208286227,0.637103059097383,-22314.044072858298,10.5,10499977685.955927,47.655,-122.3035,60.0,4.416666666666667
2026-01-20T23:04:26+00:00,SAT-55663,249.1668562802845,44.58684019451219,2064.913224946229,0.6593358003875083,-23092.7287172409,10.5,10499976907.271282,47.655,-122.3035,60.0,4.433333333333334
2026-01-20T23:04:27+00:00,SAT-55663,249.42954289159073,44.662820523016954,2065.5708025178155,0.6815461250621542,-23870.628236927223,10.5,10499976129.371763,47.655,-122.3035,60.0,4.45
2026-01-20T23:04:28+00:00,SAT-55663,249.69286352124823,44.73795886744544,2066.2505311865443,0.7037333268035851,-24647.717893682446,10.5,10499975352.282106,47.655,-122.3035,60.0,4.466666666666667
2026-01-20T23:04:29+00:00,SAT-55663,249.95680728609017,44.8122511068128,2066.952387891143,0.7258966970411271,-25423.97287036432,10.5,10499974576.02713,47.655,-122.3035,60.0,4.483333333333333
2026-01-20T23:04:30+00:00,SAT-55663,250.22136313653152,44.885693211888714,2067.676348863659,0.7480355341191994,-26199.3685920264,10.5,10499973800.631409,47.655,-122.3035,60.0,4.5
2026-01-20T23:04:31+00:00,SAT-55663,250.48651986000255,44.958281246906076,2068.4223896363537,0.770149141751308,-26973.88067177038,10.5,10499973026.119328,47.655,-122.3035,60.0,4.516666666666667
2026-01-20T23:04:32+00:00,SAT-55663,250.75226608331047,45.03001137089681,2069.1904850470605,0.7922368220759862,-27747.48466753575,10.5,10499972252.515333,47.655,-122.3035,60.0,4.533333333333333
2026-01-20T23:04:33+00:00,SAT-55663,251.01859027264754,45.10087983833615,2069.9806092376107,0.8142978906962879,-28520.156608846457,10.5,10499971479.843391,47.655,-122.3035,60.0,4.55
2026-01-20T23:04:34+00:00,SAT-55663,251.2854807393643,45.170883001289354,2070.7927356672653,0.8363316559360351,-29291.872270276952,10.5,10499970708.12773,47.655,-122.3035,60.0,4.566666666666666
2026-01-20T23:04:35+00:00,SAT-55663,251.55292563762094,45.2400173093127,2071.626837105452,0.8583374387472944,-30062.607868696257,10.5,10499969937.392132,47.655,-122.3035,60.0,4.583333333333333
2026-01-20T23:04:36+00:00,SAT-55663,251.82091297016404,45.308279311486274,2072.4828856443623,0.8803145617950875,-30832.339680968285,10.5,10499969167.660318,47.655,-122.3035,60.0,4.6
2026-01-20T23:04:37+00:00,SAT-55663,252.08943058961154,45.37566565717339,2073.3608527006595,0.9022623504003923,-31601.04407697981,10.5,10499968398.955923,47.655,-122.3035,60.0,4.616666666666666
2026-01-20T23:04:38+00:00,SAT-55663,252.35846620026823,45.44217309688093,2074.2607090181255,0.9241801368551834,-32368.697670771377,10.5,10499967631.30233,47.655,-122.3035,60.0,4.633333333333334
2026-01-20T23:04:39+00:00,SAT-55663,252.62800736195584,45.50779848358233,2075.1824246746155,0.9460672598283228,-33135.2772997291,10.5,10499966864.7227,47.655,-122.3035,60.0,4.65
2026-01-20T23:04:40+00:00,SAT-55663,252.8980414929224,45.57253877371781,2076.125969088418,0.9679230564131917,-33900.75974605909,10.5,10499966099.240253,47.655,-122.3035,60.0,4.666666666666667
2026-01-20T23:04:41+00:00,SAT-55663,253.1685558708522,45.63639102769815,2077.0913110166807,0.9897468722257612,-34665.12209046464,10.5,10499965334.877909,47.655,-122.3035,60.0,4.683333333333334
2026-01-20T23:04:42+00:00,SAT-55663,253.43953763690305,45.69935241108867,2078.0784185639136,1.0115380613535199,-35428.34171035736,10.5,10499964571.658289,47.655,-122.3035,60.0,4.7
2026-01-20T23:04:43+00:00,SAT-55663,253.71097379992176,45.76142019575223,2079.087259190437,1.0332959757522264,-36190.395908486724,10.5,10499963809.604092,47.655,-122.3035,60.0,4.716666666666667
2026-01-20T23:04:44+00:00,SAT-55663,253.98285123717784,45.822591760123466,2080.117799710254,1.0550199793401183,-36951.26240657875,10.5,10499963048.737593,47.655,-122.3035,60.0,4.733333333333333
2026-01-20T23:04:45+00:00,SAT-55663,254.2551566999447,45.88286459056218,2081.1700063029825,1.0767094335006855,-37710.91883758196,10.5,10499962289.081161,47.655,-122.3035,60.0,4.75
2026-01-20T23:04:46+00:00,SAT-55663,254.52787681414583,45.94223628149629,2082.2438445113276,1.0983637125203558,-38469.34328636025,10.5,10499961530.656713,47.655,-122.3035,60.0,4.766666666666667
2026-01-20T23:04:47+00:00,SAT-55663,254.80099808637658,46.00070453674889,2083.3392792539476,1.1199821896576836,-39226.51380177709,10.5,10499960773.486198,47.655,-122.3035,60.0,4.783333333333333
2026-01-20T23:04:48+00:00,SAT-55663,255.0745069051702,46.05826716971735,2084.456274824433,1.1415642474220924,-39982.40875670051,10.5,10499960017.591244,47.655,-122.3035,60.0,4.8
2026-01-20T23:04:49+00:00,SAT-55663,255.34838954603615,46.11492210435176,2085.5947949005285,1.1631092747906107,-40737.00675052143,10.5,10499959262.99325,47.655,-122.3035,60.0,4.816666666666666
2026-01-20T23:04:50+00:00,SAT-55663,255.62263217501297,46.1706673757178,2086.754802550586,1.1846166612932105,-41490.286401997175,10.5,10499958509.713598,47.655,-122.3035,60.0,4.833333333333333
2026-01-20T23:04:51+00:00,SAT-55663,255.8972208512422,46.225501130322264,2087.936260234116,1.2060858057193735,-42242.22665419228,10.5,10499957757.773346,47.655,-122.3035,60.0,4.85
2026-01-20T23:04:52+00:00,SAT-55663,256.17214153166105,46.279421626819754,2089.13912981102,1.2275161135830914,-42992.80668569208,10.5,10499957007.193314,47.655,-122.3035,60.0,4.866666666666666
2026-01-20T23:04:53+00:00,SAT-55663,256.4473800751157,46.33242723652564,2090.3633725483005,1.2489069862477256,-43742.00552970922,10.5,10499956257.99447,47.655,-122.3035,60.0,4.883333333333334
2026-01-20T23:04:54+00:00,SAT-55663,256.72292224391344,46.38451644339171,2091.608949115918,1.2702578511259488,-44489.80313181348,10.5,10499955510.196869,47.655,-122.3035,60.0,4.9
2026-01-20T23:04:55+00:00,SAT-55663,256.99875371281496,46.43568784535536,2092.875819612774,1.2915681174298141,-45236.178800111935,10.5,10499954763.8212,47.655,-122.3035,60.0,4.916666666666667
2026-01-20T23:04:56+00:00,SAT-55663,257.2748600671503,46.485940153535694,2094.1639435485577,1.3128372216930149,-45981.11279963106,10.5,10499954018.887201,47.655,-122.3035,60.0,4.933333333333334
2026-01-20T23:04:57+00:00,SAT-55663,257.55122681218984,46.535272193528826,2095.473279870993,1.3340645853164934,-46724.58486538437,10.5,10499953275.415134,47.655,-122.3035,60.0,4.95
2026-01-20T23:04:58+00:00,SAT-55663,257.8278393723361,46.5836829047374,2096.8037869507484,1.3552496560315486,-47466.57565458588,10.5,10499952533.424345,47.655,-122.3035,60.0,4.966666666666667
2026-01-20T23:04:59+00:00,SAT-55663,258.1046831001454,46.63117134145358,2098.1554226076973,1.3763918774808523,-48207.065681248554,10.5,10499951792.934319,47.655,-122.3035,60.0,4.983333333333333
2026-01-20T23:05:00+00:00,SAT-55663,258.38174327826033,46.677736672587294,2099.528144106838,1.3974906939710654,-48946.035482641084,10.5,10499951053.964518,47.655,-122.3035,60.0,5.0
2026-01-20T23:05:01+00:00,SAT-55663,258.6590051225557,46.72337818158823,2100.921908158959,1.418545569791796,-49683.46629591948,10.5,10499950316.533705,47.655,-122.3035,60.0,5.016666666666667
2026-01-20T23:05:02+00:00,SAT-55663,258.93645378969063,46.76809526706154,2102.3366709405645,1.4395559637682727,-50419.3391668541,10.5,10499949580.660833,47.655,-122.3035,60.0,5.033333333333333
2026-01-20T23:05:03+00:00,SAT-55663,259.2140743788969,46.81188744234508,2103.772388088429,1.4605213460740178,-51153.63553868052,10.5,10499948846.364462,47.655,-122.3035,60.0,5.05
2026-01-20T23:05:04+00:00,SAT-55663,259.4918519377199,46.85475433570853,2105.229014710914,1.4814411924777997,-51886.337050603506,10.5,10499948113.662949,47.655,-122.3035,60.0,5.066666666666666
2026-01-20T23:05:05+00:00,SAT-55663,259.7697714662776,46.896695690245984,2106.7065053935453,1.5023149846389068,-52617.42554813878,10.5,10499947382.574451,47.655,-122.3035,60.0,5.083333333333333
2026-01-20T23:05:06+00:00,SAT-55663,260.0478179218853,46.93771136378502,2108.2048142048916,1.5231422109840833,-53346.88311382695,10.5,10499946653.116886,47.655,-122.3035,60.0,5.1
2026-01-20T23:05:07+00:00,SAT-55663,260.3259762236231,46.9778013287293,2109.723894703313,1.543922365940877,-54074.69204038217,10.5,10499945925.30796,47.655,-122.3035,60.0,5.116666666666666
2026-01-20T23:05:08+00:00,SAT-55663,260.6042312570221,47.01696567187708,2111.2636999429446,1.5646549508280423,-54800.834861877825,10.5,10499945199.165138,47.655,-122.3035,60.0,5.133333333333334
2026-01-20T23:05:09+00:00,SAT-55663,260.8825678786892,47.055204594172736,2112.8241824805705,1.5853394730362897,-55525.29432505284,10.5,10499944474.705675,47.655,-122.3035,60.0,5.15
2026-01-20T23:05:10+00:00,SAT-55663,261.1609709210293,47.09251841043518,2114.4052943816787,1.605975446782991,-56248.05341574472,10.5,10499943751.946585,47.655,-122.3035,60.0,5.166666666666667
2026-01-20T23:05:11+00:00,SAT-55663,261.43942519693104,47.128907549024525,2116.00698722727,1.6265623938546894,-56969.095384895365,10.5,10499943030.904615,47.655,-122.3035,60.0,5.183333333333334
2026-01-20T23:05:12+00:00,SAT-55663,261.7179155047592,47.16437255150989,2117.629212121408,1.6470998351205914,-57688.40345131768,10.5,10499942311.596548,47.655,-122.3035,60.0,5.2
2026-01-20T23:05:13+00:00,SAT-55663,261.9964266315992,47.198914072059004,2119.2719196903017,1.6675873130939671,-58405.961591891195,10.5,10499941594.038408,47.655,-122.3035,60.0,5.216666666666667
2026-01-20T23:05:14+00:00,SAT-55663,262.27494336096476,47.23253287737154,2120.9350601038936,1.6880243714046455,-59121.75382260209,10.5,10499940878.246178,47.655,-122.3035,60.0,5.233333333333333
2026-01-20T23:05:15+00:00,SAT-55663,262.5534504762615,47.2652298459863,2122.618583076975,1.708410538205893,-59835.76361738185,10.5,10499940164.236383,47.655,-122.3035,60.0,5.25
2026-01-20T23:05:16+00:00,SAT-55663,262.8319327617227,47.297005967292435,2124.3224378537457,1.7287453859934043,-60547.97600322135,10.5,10499939452.023996,47.655,-122.3035,60.0,5.266666666666667
2026-01-20T23:05:17+00:00,SAT-55663,263.11037501389995,47.327862341757886,2126.046573252043,1.7490284656460013,-61258.37524999717,10.5,10499938741.62475,47.655,-122.3035,60.0,5.283333333333333
2026-01-20T23:05:18+00:00,SAT-55663,263.3887620413343,47.35780017969101,2127.79093764178,1.7692593499709182,-61966.946395611594,10.5,10499938033.053604,47.655,-122.3035,60.0,5.3
2026-01-20T23:05:19+00:00,SAT-55663,263.6670786719247,47.38682080087339,2129.555478966818,1.7894376083667585,-62673.67435858231,10.5,10499937326.325642,47.655,-122.3035,60.0,5.316666666666666
2026-01-20T23:05:20+00:00,SAT-55663,263.9453097559897,47.41492563366996,2131.3401447415627,1.809562823146245,-63378.54450973404,10.5,10499936621.45549,47.655,-122.3035,60.0,5.333333333333333
2026-01-20T23:05:21+00:00,SAT-55663,264.2234401718621,47.44211621436641,2133.144882063847,1.8296345827969704,-64081.54243616158,10.5,10499935918.457563,47.655,-122.3035,60.0,5.35
2026-01-20T23:05:22+00:00,SAT-55663,264.50145483063994,47.468394186392146,2134.9696376210904,1.8496524742902534,-64782.65367185341,10.5,10499935217.346329,47.655,-122.3035,60.0,5.366666666666666
2026-01-20T23:05:23+00:00,SAT-55663,264.77933867930994,47.493761299330906,2136.8143576887824,1.8696161130879587,-65481.86474865744,10.5,10499934518.135252,47.655,-122.3035,60.0,5.383333333333334
2026-01-20T23:05:24+00:00,SAT-55663,265.0570767090589,47.518219408411305,2138.678988158902,1.8895250920923299,-66179.16140828822,10.5,10499933820.838593,47.655,-122.3035,60.0,5.4
2026-01-20T23:05:25+00:00,SAT-55663,265.3346539549735,47.541770473126924,2140.563474517415,1.9093790347026094,-66874.53046059416,10.5,10499933125.46954,47.655,-122.3035,60.0,5.416666666666667
2026-01-20T23:05:26+00:00,SAT-55663,265.612055504492,47.564416556658216,2142.467761874692,1.9291775544229988,-67567.9583688576,10.5,10499932432.041632,47.655,-122.3035,60.0,5.433333333333334
2026-01-20T23:05:27+00:00,SAT-55663,265.8892664992462,47.586159824651446,2144.3917949556367,1.9489202853449212,-68259.43231741231,10.5,10499931740.567682,47.655,-122.3035,60.0,5.45
2026-01-20T23:05:28+00:00,SAT-55663,266.1662721417081,47.60700254438647,2146.3355181202205,1.9686068639850245,-68948.9395755338,10.5,10499931051.060425,47.655,-122.3035,60.0,5.466666666666667
2026-01-20T23:05:29+00:00,SAT-55663,266.4430576988777,47.62694708365122,2148.298875365902,1.9882369303722625,-69636.46753551337,10.5,10499930363.532465,47.655,-122.3035,60.0,5.483333333333333
2026-01-20T23:05:30+00:00,SAT-55663,266.7196085061971,47.645995909619174,2150.281810331126,2.007810126495794,-70322.00365829695,10.5,10499929677.996342,47.655,-122.3035,60.0,5.5
2026-01-20T23:05:31+00:00,SAT-55663,266.9959099711202,47.66415158767667,2152.284266297285,2.0273261138327183,-71005.53608738063,10.5,10499928994.463913,47.655,-122.3035,60.0,5.516666666666667
2026-01-20T23:05:32+00:00,SAT-55663,267.2719475793389,47.68141678041305,2154.306186208147,2.046784552691484,-71687.05292532935,10.5,10499928312.947075,47.655,-122.3035,60.0,5.533333333333333
2026-01-20T23:05:33+00:00,SAT-55663,267.5477068977676,47.69779424634445,2156.347512668698,2.066185111763622,-72366.54256831916,10.5,10499927633.457432,47.655,-122.3035,60.0,5.55
2026-01-20T23:05:34+00:00,SAT-55663,267.8231735789418,47.71328683871224,2158.4081879534974,2.085527466627553,-73043.99365373397,10.5,10499926956.006346,47.655,-122.3035,60.0,5.566666666666666
2026-01-20T23:05:35+00:00,SAT-55663,268.0983333650768,47.72789750423377,2160.488154013547,2.1048112975446873,-73719.39498297592,10.5,10499926280.605017,47.655,-122.3035,60.0,5.583333333333333
2026-01-20T23:05:36+00:00,SAT-55663,268.37317209189075,47.74162928182318,2162.587352480965,2.1240362987936443,-74392.73584838904,10.5,10499925607.264153,47.655,-122.3035,60.0,5.6
2026-01-20T23:05:37+00:00,SAT-55663,268.647675693457,47.754485301327044,2164.7057246829618,2.143202160829451,-75064.00540839903,10.5,10499924935.99459,47.655,-122.3035,60.0,5.616666666666666
2026-01-20T23:05:38+00:00,SAT-55663,268.9218302046795,47.76646878212362,2166.843211638029,2.1623085859796594,-75733.19323725757,10.5,10499924266.806763,47.655,-122.3035,60.0,5.633333333333334
2026-01-20T23:05:39+00:00,SAT-55663,269.1956217657921,47.777583031805605,2168.9997540677796,2.181355290269611,-76400.28938897095,10.5,10499923599.710611,47.655,-122.3035,60.0,5.65
2026-01-20T23:05:40+00:00,SAT-55663,269.469036627058,47.78783144483999,2171.1752924106086,2.2003419754731532,-77065.28341839775,10.5,10499922934.716581,47.655,-122.3035,60.0,5.666666666666667
2026-01-20T23:05:41+00:00,SAT-55663,269.74206114950465,47.79721750103225,2173.36976680748,2.219268383368139,-77728.16628150617,10.5,10499922271.83372,47.655,-122.3035,60.0,5.683333333333334
2026-01-20T23:05:42+00:00,SAT-55663,270.01468181307825,47.80574476429509,2175.5831171418263,2.23813422531293,-78388.92786884507,10.5,10499921611.07213,47.655,-122.3035,60.0,5.7
2026-01-20T23:05:43+00:00,SAT-55663,270.28688521505126,47.81341688098897,2177.815283009205,2.256939242016089,-79047.55909893148,10.5,10499920952.4409,47.655,-122.3035,60.0,5.716666666666667
2026-01-20T23:05:44+00:00,SAT-55663,270.558658076583,47.82023757858616,2180.0662037465754,2.275683188918196,-79704.05140626007,10.5,10499920295.948593,47.655,-122.3035,60.0,5.733333333333333
2026-01-20T23:05:45+00:00,SAT-55663,270.8299872468941,47.826210664181666,2182.3358184469903,2.2943657886796585,-80358.39507722511,10.5,10499919641.604923,47.655,-122.3035,60.0,5.75
2026-01-20T23:05:46+00:00,SAT-55663,271.10085970158764,47.83134002286044,2184.6240659268997,2.312986822809429,-81010.58245934595,10.5,10499918989.417542,47.655,-122.3035,60.0,5.766666666666667
2026-01-20T23:05:47+00:00,SAT-55663,271.3712625523309,47.83562961633733,2186.9308847848483,2.331546036356774,-81660.60462316943,10.5,10499918339.395376,47.655,-122.3035,60.0,5.783333333333333
2026-01-20T23:05:48+00:00,SAT-55663,271.64118304449244,47.83908348127933,2189.256213365108,2.350043209016808,-82308.45385268661,10.5,10499917691.546146,47.655,-122.3035,60.0,5.8
2026-01-20T23:05:49+00:00,SAT-55663,271.9106085636049,47.84170572782654,2191.5999897922343,2.368478102150367,-82954.12178974446,10.5,10499917045.87821,47.655,-122.3035,60.0,5.816666666666666
2026-01-20T23:05:50+00:00,SAT-55663,272.17952663517326,47.84350053796749,2193.962151952779,2.3868505085887755,-83597.6011784197,10.5,10499916402.39882,47.655,-122.3035,60.0,5.833333333333333
2026-01-20T23:05:51+00:00,SAT-55663,272.44792493043974,47.844472163994304,2196.342637526678,2.4051602179148204,-84238.88464901147,10.5,10499915761.11535,47.655,-122.3035,60.0,5.85
2026-01-20T23:05:52+00:00,SAT-55663,272.71579126791136,47.844624926886176,2198.741383984012,2.4234070045564278,-84877.9643010315,10.5,10499915122.0357,47.655,-122.3035,60.0,5.866666666666666
2026-01-20T23:05:53+00:00,SAT-55663,272.98311361329075,47.84396321468483,2201.1583285698894,2.4415906923819053,-85514.83396560297,10.5,10499914485.166035,47.655,-122.3035,60.0,5.883333333333334
2026-01-20T23:05:54+00:00,SAT-55663,273.2498800871103,47.84249148090648,2203.5934083537586,2.4597110782761407,-86149.48652877544,10.5,10499913850.513472,47.655,-122.3035,60.0,5.9
2026-01-20T23:05:55+00:00,SAT-55663,273.5160789630919,47.84021424288699,2206.0465602024924,2.4777679730357742,-86781.91536384691,10.5,10499913218.084637,47.655,-122.3035,60.0,5.916666666666667
2026-01-20T23:05:56+00:00,SAT-55663,273.7816986713623,47.837136080158736,2208.5177207942666,2.4957611957386354,-87412.11413415767,10.5,10499912587.885866,47.655,-122.3035,60.0,5.933333333333334
2026-01-20T23:05:57+00:00,SAT-55663,274.04672780081347,47.833261632805446,2211.0068266268167,2.513690575633554,-88040.07685927948,10.5,10499911959.923141,47.655,-122.3035,60.0,5.95
2026-01-20T23:05:58+00:00,SAT-55663,274.3111551016667,47.82859559981206,2213.5138140275817,2.5315559423195237,-88665.7975710483,10.5,10499911334.202429,47.655,-122.3035,60.0,5.966666666666667
2026-01-20T23:05:59+00:00,SAT-55663,274.5749694866519,47.823142737406336,2216.038619154055,2.549357137395878,-89289.27072160273,10.5,10499910710.729279,47.655,-122.3035,60.0,5.983333333333333
2026-01-20T23:06:00+00:00,SAT-55663,274.8381600336352,47.81690785740197,2218.581178005751,2.5670939940676845,-89910.49046907874,10.5,10499910089.509531,47.655,-122.3035,60.0,6.0
2026-01-20T23:06:01+00:00,SAT-55663,275.10071598569846,47.80989582556117,2221.141426415835,2.584766370272779,-90529.45183785836,10.5,10499909470.548162,47.655,-122.3035,60.0,6.016666666666667
2026-01-20T23:06:02+00:00,SAT-55663,275.36262675490013,47.80211155990102,2223.719300075787,2.602374115309261,-91146.14954972363,10.5,10499908853.85045,47.655,-122.3035,60.0,6.033333333333333
2026-01-20T23:06:03+00:00,SAT-55663,275.6238819221778,47.793560029059876,2226.314734526789,2.6199171034623654,-91760.57920161166,10.5,10499908239.4208,47.655,-122.3035,60.0,6.05
2026-01-20T23:06:04+00:00,SAT-55663,275.8844712409027,47.78424625058589,2228.9276651846417,2.6373951917030403,-92372.73578404005,10.5,10499907627.264215,47.655,-122.3035,60.0,6.066666666666666
2026-01-20T23:06:05+00:00,SAT-55663,276.1443846356402,47.77417528933528,2231.5580273225005,2.654808244334828,-92982.61454434486,10.5,10499907017.385456,47.655,-122.3035,60.0,6.083333333333333
2026-01-20T23:06:06+00:00,SAT-55663,276.40361220372154,47.76335225582974,2234.2057560781836,2.6721561712402,-93590.21232622903,10.5,10499906409.787674,47.655,-122.3035,60.0,6.1
2026-01-20T23:06:07+00:00,SAT-55663,276.66214422037973,47.7517823044417,2236.870786499634,2.6894388176608994,-94195.5237094038,10.5,10499905804.47629,47.655,-122.3035,60.0,6.116666666666666
2026-01-20T23:06:08+00:00,SAT-55663,276.91997113263795,47.739470632018865,2239.553053480448,2.7066561051023847,-94798.54594465828,10.5,10499905201.454056,47.655,-122.3035,60.0,6.133333333333334
2026-01-20T23:06:09+00:00,SAT-55663,277.17708356741855,47.72642247595403,2242.2524918359363,2.7238079210613146,-95399.27509164959,10.5,10499904600.724909,47.655,-122.3035,60.0,6.15
2026-01-20T23:06:10+00:00,SAT-55663,277.43347232837925,47.71264311270396,2244.9690362692086,2.7408941561065387,-95997.70731763593,10.5,10499904002.292683,47.655,-122.3035,60.0,6.166666666666667
2026-01-20T23:06:11+00:00,SAT-55663,277.68912839643673,47.69813785617854,2247.702621374232,2.7579147334404603,-96593.83993284058,10.5,10499903406.160067,47.655,-122.3035,60.0,6.183333333333334
2026-01-20T23:06:12+00:00,SAT-55663,277.94404293311817,47.68291205598195,2250.453181668383,2.7748695570418134,-97187.6695741927,10.5,10499902812.330425,47.655,-122.3035,60.0,6.2
2026-01-20T23:06:13+00:00,SAT-55663,278.1982072786552,47.66697109591366,2253.220651573273,2.791758542936939,-97779.1933005795,10.5,10499902220.8067,47.655,-122.3035,60.0,6.216666666666667
2026-01-20T23:06:14+00:00,SAT-55663,278.45161295315717,47.650320392333285,2256.0049654267623,2.808581631217145,-98368.40901374519,10.5,10499901631.590986,47.655,-122.3035,60.0,6.233333333333333
2026-01-20T23:06:15+00:00,SAT-55663,278.70425165872774,47.63296539244874,2258.8060575069626,2.82533872560299,-98955.31334157645,10.5,10499901044.686659,47.655,-122.3035,60.0,6.25
2026-01-20T23:06:16+00:00,SAT-55663,278.9561152758072,47.614911572973774,2261.623861995964,2.8420297862375947,-99539.90488811677,10.5,10499900460.095112,47.655,-122.3035,60.0,6.266666666666667
2026-01-20T23:06:17+00:00,SAT-55663,279.2071958682141,47.59616443824532,2264.4583130361048,2.8586547342643076,-100122.1808914727,10.5,10499899877.819109,47.655,-122.3035,60.0,6.283333333333333
2026-01-20T23:06:18+00:00,SAT-55663,279.45748567908134,47.57672951892759,2267.3093446910775,2.8752135265162133,-100702.1398397562,10.5,10499899297.86016,47.655,-122.3035,60.0,6.3
2026-01-20T23:06:19+00:00,SAT-55663,279.7069771337199,47.55661237026841,2270.1768909815232,2.891706106056942,-101279.77973881483,10.5,10499898720.22026,47.655,-122.3035,60.0,6.316666666666666
2026-01-20T23:06:20+00:00,SAT-55663,279.9556628378466,47.53581857068386,2273.060885871297,2.9081324282325274,-101855.09902467772,10.5,10499898144.900976,47.655,-122.3035,60.0,6.333333333333333
2026-01-20T23:06:21+00:00,SAT-55663,280.2035355780505,47.514353720185035,2275.961263279721,2.9244924630209015,-102428.09664584513,10.5,10499897571.903355,47.655,-122.3035,60.0,6.35
2026-01-20T23:06:22+00:00,SAT-55663,280.45058832249026,47.49222343879821,2278.877957096174,2.9407861564692004,-102998.77071265949,10.5,10499897001.229288,47.655,-122.3035,60.0,6.366666666666666
2026-01-20T23:06:23+00:00,SAT-55663,280.696814217942,47.469433365281446,2281.810901156226,2.9570135007104366,-103567.12094958567,10.5,10499896432.879051,47.655,-122.3035,60.0,6.383333333333334
2026-01-20T23:06:24+00:00,SAT-55663,280.94220659314976,47.44598915533968,2284.7600292876014,2.97317445892612,-104133.14606708438,10.5,10499895866.853933,47.655,-122.3035,60.0,6.4
2026-01-20T23:06:25+00:00,SAT-55663,281.18675895527076,47.421896480412045,2287.7252752813038,2.98926901605033,-104696.84553748336,10.5,10499895303.154463,47.655,-122.3035,60.0,6.416666666666667
2026-01-20T23:06:26+00:00,SAT-55663,281.43046499092986,47.397161026099994,2290.7065729133114,3.0052971495674057,-105258.2185721889,10.5,10499894741.781427,47.655,-122.3035,60.0,6.433333333333334
2026-01-20T23:06:27+00:00,SAT-55663,281.6733185644699,47.37178849083384,2293.7038559371467,3.0212588615056535,-105817.26524224089,10.5,10499894182.734758,47.655,-122.3035,60.0,6.45
2026-01-20T23:06:28+00:00,SAT-55663,281.91531371904864,47.34578458429985,2296.717058108355,3.0371541235983974,-106373.98455762076,10.5,10499893626.015442,47.655,-122.3035,60.0,6.466666666666667
2026-01-20T23:06:29+00:00,SAT-55663,282.15644467285614,47.31915502634008,2299.7461131542905,3.0529829725497764,-106928.37780386272,10.5,10499893071.622196,47.655,-122.3035,60.0,6.483333333333333
2026-01-20T23:06:30+00:00,SAT-55663,282.39670582343695,47.291905545060516,2302.7909548389134,3.0687453663223927,-107480.44350863932,10.5,10499892519.556492,47.655,-122.3035,60.0,6.5
2026-01-20T23:06:31+00:00,SAT-55663,282.6360917397975,47.26404187619957,2305.8515168842587,3.0844413510036492,-108030.18328612628,10.5,10499891969.816713,47.655,-122.3035,60.0,6.516666666666667
2026-01-20T23:06:32+00:00,SAT-55663,282.8745971684435,47.23556976105651,2308.9277330583263,3.1000709135226407,-108577.59667852527,10.5,10499891422.403322,47.655,-122.3035,60.0,6.533333333333333
2026-01-20T23:06:33+00:00,SAT-55663,283.1122170270973,47.20649494574165,2312.0195371160794,3.115634091311786,-109122.68499687791,10.5,10499890877.315002,47.655,-122.3035,60.0,6.55
2026-01-20T23:06:34+00:00,SAT-55663,283.3489464074347,47.17682317946058,2315.126862849814,3.131130890130231,-109665.44844289387,10.5,10499890334.551558,47.655,-122.3035,60.0,6.566666666666666
2026-01-20T23:06:35+00:00,SAT-55663,283.58478057099774,47.146560213571064,2318.249644057571,3.146561337978853,-110205.88799728229,10.5,10499889794.112003,47.655,-122.3035,60.0,6.583333333333333
2026-01-20T23:06:36+00:00,SAT-55663,283.8197149495322,47.11571180016294,2321.3878145653152,3.1619254724892922,-110744.00497806241,10.5,10499889255.995022,47.655,-122.3035,60.0,6.6
2026-01-20T23:06:37+00:00,SAT-55663,284.0537451441038,47.08428369076701,2324.5413082365444,3.177223314391326,-111279.80011127872,10.5,10499888720.199888,47.655,-122.3035,60.0,6.616666666666666
2026-01-20T23:06:38+00:00,SAT-55663,284.2868669222122,47.052281635350184,2327.710058955431,3.1924549202574357,-111813.27537833882,10.5,10499888186.72462,47.655,-122.3035,60.0,6.633333333333334
2026-01-20T23:06:39+00:00,SAT-55663,284.51907621888876,47.019711380807024,2330.8940006625676,3.2076203136283628,-112344.43160373905,10.5,10499887655.568396,47.655,-122.3035,60.0,6.65
2026-01-20T23:06:40+00:00,SAT-55663,284.75036913247857,46.986578670162174,2334.0930673220264,3.2227195539490485,-112873.27086949268,10.5,10499887126.72913,47.655,-122.3035,60.0,6.666666666666667
2026-01-20T23:06:41+00:00,SAT-55663,284.9807419256304,46.952889241098724,2337.3071929571647,3.2377526805521453,-113399.7945531956,10.5,10499886600.205446,47.655,-122.3035,60.0,6.683333333333334
2026-01-20T23:06:42+00:00,SAT-55663,285.2101910220137,46.91864882507815,2340.536311630569,3.252719752765704,-113924.00473276713,10.5,10499886075.995268,47.655,-122.3035,60.0,6.7
2026-01-20T23:06:43+00:00,SAT-55663,285.4387130060231,46.88386314607047,2343.7803574639943,3.2676208338656276,-114445.90362439702,10.5,10499885554.096376,47.655,-122.3035,60.0,6.716666666666667
2026-01-20T23:06:44+00:00,SAT-55663,285.666304621214,46.848537919465734,2347.0392646423024,3.2824559800772843,-114965.4931973355,10.5,10499885034.506804,47.655,-122.3035,60.0,6.733333333333333
2026-01-20T23:06:45+00:00,SAT-55663,285.89296276788093,46.81267885113046,2350.312967406433,3.297225256740458,-115482.77574005818,10.5,10499884517.22426,47.655,-122.3035,60.0,6.75
2026-01-20T23:06:46+00:00,SAT-55663,286.11868450188547,46.7762916363127,2353.6014000624887,3.31192872454472,-115997.75337817059,10.5,10499884002.246622,47.655,-122.3035,60.0,6.766666666666667
2026-01-20T23:06:47+00:00,SAT-55663,286.3434670323408,46.739381958719875,2356.9044969771016,3.326566467119666,-116510.42904073489,10.5,10499883489.57096,47.655,-122.3035,60.0,6.783333333333333
2026-01-20T23:06:48+00:00,SAT-55663,286.56730772134847,46.701955489311,2360.222192600309,3.3411385663323863,-117020.8055950829,10.5,10499882979.194405,47.655,-122.3035,60.0,6.8
2026-01-20T23:06:49+00:00,SAT-55663,286.79020408183305,46.66401788538104,2363.5544214637976,3.3556450879800606,-117528.88534571018,10.5,10499882471.114655,47.655,-122.3035,60.0,6.816666666666666
2026-01-20T23:06:50+00:00,SAT-55663,287.0121537744361,46.625574789835305,2366.9011181648766,3.3700861123121153,-118034.6711032911,10.5,10499881965.328897,47.655,-122.3035,60.0,6.833333333333333
2026-01-20T23:06:51+00:00,SAT-55663,287.23315460650304,46.58663183014305,2370.2622173808886,3.3844617569616067,-118538.16698783285,10.5,10499881461.833012,47.655,-122.3035,60.0,6.85
2026-01-20T23:06:52+00:00,SAT-55663,287.4532045326217,46.54719461703597,2373.6376539064986,3.3987720609526964,-119039.37436612669,10.5,10499880960.625633,47.655,-122.3035,60.0,6.866666666666666
2026-01-20T23:06:53+00:00,SAT-55663,287.6723016471489,46.50726874458206,2377.027362575289,3.41301716279611,-119538.2980894041,10.5,10499880461.70191,47.655,-122.3035,60.0,6.883333333333334
2026-01-20T23:06:54+00:00,SAT-55663,287.8904441889449,46.46685978820383,2380.4312783589844,3.4271971506252856,-120034.94124447087,10.5,10499879965.058756,47.655,-122.3035,60.0,6.9
2026-01-20T23:06:55+00:00,SAT-55663,288.10763053580985,46.42597330446471,2383.849336317208,3.441312095332308,-120529.3063142677,10.5,10499879470.693686,47.655,-122.3035,60.0,6.916666666666667
2026-01-20T23:06:56+00:00,SAT-55663,288.32385920127933,46.38461483050536,2387.281471580286,3.455362128355005,-121021.39790230332,10.5,10499878978.602098,47.655,-122.3035,60.0,6.933333333333334
2026-01-20T23:06:57+00:00,SAT-55663,288.53912883651424,46.34278988256526,2390.727619409632,3.4693473469361495,-121511.21941443093,10.5,10499878488.780586,47.655,-122.3035,60.0,6.95
2026-01-20T23:06:58+00:00,SAT-55663,288.7534382259137,46.30050395565592,2394.187715163643,3.48326785701415,-121998.77456106177,10.5,10499878001.22544,47.655,-122.3035,60.0,6.966666666666667
2026-01-20T23:06:59+00:00,SAT-55663,288.9667862855289,46.25776252274685,2397.661694306372,3.4971237821285936,-122484.06766907469,10.5,10499877515.932331,47.655,-122.3035,60.0,6.983333333333333
2026-01-20T23:07:00+00:00,SAT-55663,289.17917206207346,46.214571033857325,2401.1494924250815,3.510915222450105,-122967.10224686874,10.5,10499877032.897753,47.655,-122.3035,60.0,7.0
2026-01-20T23:07:01+00:00,SAT-55663,289.3905947292634,46.17093491567541,2404.651045206938,3.5246422984486223,-123447.8825138107,10.5,10499876552.117487,47.655,-122.3035,60.0,7.016666666666667
2026-01-20T23:07:02+00:00,SAT-55663,289.6010535869691,46.12685957066101,2408.166288459258,3.538305130512768,-123926.41268641943,10.5,10499876073.587313,47.655,-122.3035,60.0,7.033333333333333
2026-01-20T23:07:03+00:00,SAT-55663,289.8105480590373,46.08235037641748,2411.695158109422,3.551903859690808,-124402.69770480179,10.5,10499875597.302296,47.655,-122.3035,60.0,7.05
2026-01-20T23:07:04+00:00,SAT-55663,290.0190776924115,46.03741268482307,2415.2375902254876,3.5654385911735624,-124876.74125318525,10.5,10499875123.258747,47.655,-122.3035,60.0,7.066666666666666
2026-01-20T23:07:05+00:00,SAT-55663,290.2266421527459,45.99205182189699,2418.7935209804177,3.5789094473825336,-125348.54761928869,10.5,10499874651.452381,47.655,-122.3035,60.0,7.083333333333333
2026-01-20T23:07:06+00:00,SAT-55663,290.43324122333024,45.94627308701932,2422.362886669274,3.5923165895346876,-125818.12244961219,10.5,10499874181.87755,47.655,-122.3035,60.0,7.1
2026-01-20T23:07:07+00:00,SAT-55663,290.6388748052801,45.90008175188433,2425.9456237479035,3.6056601152382046,-126285.46916280712,10.5,10499873714.530838,47.655,-122.3035,60.0,7.116666666666666
2026-01-20T23:07:08+00:00,SAT-55663,290.8435429115214,45.853483060793,2429.5416687695006,3.6189401909142225,-126750.59358764568,10.5,10499873249.406412,47.655,-122.3035,60.0,7.133333333333334
2026-01-20T23:07:09+00:00,SAT-55663,291.04724566878815,45.80648222925743,2433.1509584532396,3.63215693708401,-127213.49994529251,10.5,10499872786.500055,47.655,-122.3035,60.0,7.15
2026-01-20T23:07:10+00:00,SAT-55663,291.24998331271286,45.75908444410757,2436.773429638491,3.6453105101145926,-127674.19371238224,10.5,10499872325.806288,47.655,-122.3035,60.0,7.166666666666667
2026-01-20T23:07:11+00:00,SAT-55663,291.4517561878158,45.71129486255472,2440.409019320579,3.658401035113414,-128132.67927070681,10.5,10499871867.32073,47.655,-122.3035,60.0,7.183333333333334
2026-01-20T23:07:12+00:00,SAT-55663,291.6525647435336,45.66311861215304,2444.0576646195987,3.6714286731835992,-128588.9622627791,10.5,10499871411.037737,47.655,-122.3035,60.0,7.2
2026-01-20T23:07:13+00:00,SAT-55663,291.8524095341952,45.614560789893865,2447.71930281632,3.684393556976606,-129043.0473346143,10.5,10499870956.952665,47.655,-122.3035,60.0,7.216666666666667
2026-01-20T23:07:14+00:00,SAT-55663,292.05129121525886,45.56562646216985,2451.3938713238113,3.6972958583301803,-129494.94050469705,10.5,10499870505.059496,47.655,-122.3035,60.0,7.233333333333333
2026-01-20T23:07:15+00:00,SAT-55663,292.24921054342883,45.51632066385778,2455.0813077265198,3.710135708006217,-129944.64635286215,10.5,10499870055.353647,47.655,-122.3035,60.0,7.25
2026-01-20T23:07:16+00:00,SAT-55663,292.44616837223646,45.46664839849102,2458.7815497393044,3.722913269824277,-130392.1706167635,10.5,10499869607.829384,47.655,-122.3035,60.0,7.266666666666667
2026-01-20T23:07:17+00:00,SAT-55663,292.64216565183693,45.416614637457116,2462.494535240409,3.7356287066550733,-130837.51900082245,10.5,10499869162.480999,47.655,-122.3035,60.0,7.283333333333333
2026-01-20T23:07:18+00:00,SAT-55663,292.837203426835,45.366224319667324,2466.220202270513,3.7482821709421756,-131280.69684425765,10.5,10499868719.303156,47.655,-122.3035,60.0,7.3
2026-01-20T23:07:19+00:00,SAT-55663,293.03128283368113,45.315482351372225,2469.9584890223327,3.76087381691707,-131721.7095489081,10.5,10499868278.290451,47.655,-122.3035,60.0,7.316666666666666
2026-01-20T23:07:20+00:00,SAT-55663,293.2244050987153,45.26439360582999,2473.7093338424047,3.7734038166619523,-132160.56314182025,10.5,10499867839.43686,47.655,-122.3035,60.0,7.333333333333333
2026-01-20T23:07:21+00:00,SAT-55663,293.41657153711344,45.21296292277119,2477.4726752488887,3.7858723313450016,-132597.26326778546,10.5,10499867402.736732,47.655,-122.3035,60.0,7.35
2026-01-20T23:07:22+00:00,SAT-55663,293.6077835502566,45.161195108271315,2481.2484519206837,3.798279530587106,-133031.81586764473,10.5,10499866968.184132,47.655,-122.3035,60.0,7.366666666666666
2026-01-20T23:07:23+00:00,SAT-55663,293.7980426242145,45.10909493437435,2485.036602705856,3.8106255695274323,-133464.22637502788,10.5,10499866535.773624,47.655,-122.3035,60.0,7.383333333333334
2026-01-20T23:07:24+00:00,SAT-55663,293.9873503269635,45.05666713904906,2488.837066607198,3.822910637352822,-133894.50141605843,10.5,10499866105.498585,47.655,-122.3035,60.0,7.4
2026-01-20T23:07:25+00:00,SAT-55663,294.1757083082453,45.00391642548806,2492.649782816184,3.8351348959175495,-134322.64665955762,10.5,10499865677.35334,47.655,-122.3035,60.0,7.416666666666667
2026-01-20T23:07:26+00:00,SAT-55663,294.36311829613567,44.9508474622727,2496.4746906857126,3.847298512070165,-134748.66794926752,10.5,10499865251.33205,47.655,-122.3035,60.0,7.433333333333334
2026-01-20T23:07:27+00:00,SAT-55663,294.5495820954398,44.89746488310313,2500.3117297350846,3.8594016669645863,-135172.5716299646,10.5,10499864827.42837,47.655,-122.3035,60.0,7.45
2026-01-20T23:07:28+00:00,SAT-55663,294.735101586465,44.843773286417,2504.16083966427,3.8714445404420044,-135594.36400044808,10.5,10499864405.636,47.655,-122.3035,60.0,7.466666666666667
2026-01-20T23:07:29+00:00,SAT-55663,294.9196787230872,44.78977723523259,2508.0219603526043,3.8834273136720934,-136014.05140604632,10.5,10499863985.948593,47.655,-122.3035,60.0,7.483333333333333
2026-01-20T23:07:30+00:00,SAT-55663,295.1033155309065,44.7354812569749,2511.8950318601064,3.895350149858959,-136431.63956285742,10.5,10499863568.360437,47.655,-122.3035,60.0,7.5
2026-01-20T23:07:31+00:00,SAT-55663,295.2860141045431,44.68088984358345,2515.779994409566,3.9072132429514626,-136847.13526379093,10.5,10499863152.864737,47.655,-122.3035,60.0,7.516666666666667
2026-01-20T23:07:32+00:00,SAT-55663,295.4677766072923,44.6260074509507,2519.6767884172027,3.9190167721555174,-137260.54478539593,10.5,10499862739.455215,47.655,-122.3035,60.0,7.533333333333333
2026-01-20T23:07:33+00:00,SAT-55663,295.6486052686205,44.57083849901006,2523.585354477966,3.930760921097532,-137671.87455904606,10.5,10499862328.12544,47.655,-122.3035,60.0,7.55
2026-01-20T23:07:34+00:00,SAT-55663,295.8285023825466,44.51538737157048,2527.505633369941,3.942445874931625,-138081.1310696217,10.5,10499861918.86893,47.655,-122.3035,60.0,7.566666666666666
2026-01-20T23:07:35+00:00,SAT-55663,296.0074703059863,44.45965841620095,2531.4375660558726,3.9540718166865387,-138488.32072756367,10.5,10499861511.679272,47.655,-122.3035,60.0,7.583333333333333
2026-01-20T23:07:36+00:00,SAT-55663,296.18551145687456,44.403655944181,2535.381093681048,3.965638950707278,-138893.45068989834,10.5,10499861106.54931,47.655,-122.3035,60.0,7.6
2026-01-20T23:07:37+00:00,SAT-55663,296.36262831345584,44.34738423012789,2539.3361575945532,3.977147432407448,-139296.5263998676,10.5,10499860703.4736,47.655,-122.3035,60.0,7.616666666666666
2026-01-20T23:07:38+00:00,SAT-55663,296.5388234102842,44.29084751263792,2543.302699300474,3.988597485438813,-139697.55569070234,10.5,10499860302.44431,47.655,-122.3035,60.0,7.633333333333334
2026-01-20T23:07:39+00:00,SAT-55663,296.7140993397368,44.23404999326521,2547.280660525952,3.999989280758881,-140096.54455005753,10.5,10499859903.45545,47.655,-122.3035,60.0,7.65
2026-01-20T23:07:40+00:00,SAT-55663,296.8884587478834,44.17699583724133,2551.2699831686286,4.01132302767034,-140493.5003085987,10.5,10499859506.499691,47.655,-122.3035,60.0,7.666666666666667
2026-01-20T23:07:41+00:00,SAT-55663,297.06190433463604,44.11968917290039,2555.270609334892,4.02259890257678,-140888.42914472581,10.5,10499859111.570856,47.655,-122.3035,60.0,7.683333333333334
2026-01-20T23:07:42+00:00,SAT-55663,297.2344388506074,44.062134092138336,2559.282481307062,4.033817100001857,-141281.33787148006,10.5,10499858718.662128,47.655,-122.3035,60.0,7.7
2026-01-20T23:07:43+00:00,SAT-55663,297.4060650963923,44.00433465014831,2563.305541561464,4.044977828851341,-141672.2338056252,10.5,10499858327.766195,47.655,-122.3035,60.0,7.716666666666667
2026-01-20T23:07:44+00:00,SAT-55663,297.57678592158646,43.94629486522116,2567.3397327827715,4.056081285754444,-142061.12383394802,10.5,10499857938.876165,47.655,-122.3035,60.0,7.733333333333333
2026-01-20T23:07:45+00:00,SAT-55663,297.7466042227256,43.88801871893457,2571.3849978517637,4.067127647448657,-142448.01414654296,10.5,10499857551.985853,47.655,-122.3035,60.0,7.75
2026-01-20T23:07:46+00:00,SAT-55663,297.9155229408762,43.829510156468885,2575.4412798254857,4.078117132800852,-142832.91240905382,10.5,10499857167.087591,47.655,-122.3035,60.0,7.766666666666667
2026-01-20T23:07:47+00:00,SAT-55663,298.08354506199237,43.77077308603047,2579.508521979266,4.089049940881733,-143215.8255937786,10.5,10499856784.174406,47.655,-122.3035,60.0,7.783333333333333
2026-01-20T23:07:48+00:00,SAT-55663,298.25067361454865,43.711811379181974,2583.586667786972,4.099926254583838,-143596.7601063877,10.5,10499856403.239893,47.655,-122.3035,60.0,7.8
2026-01-20T23:07:49+00:00,SAT-55663,298.4169116674369,43.65262887112629,2587.675660904877,4.110746291775901,-143975.72357756566,10.5,10499856024.276423,47.655,-122.3035,60.0,7.816666666666666
2026-01-20T23:07:50+00:00,SAT-55663,298.58226232998766,43.59322936026245,2591.7754452065415,4.121510236778558,-144352.72246300094,10.5,10499855647.277536,47.655,-122.3035,60.0,7.833333333333333
2026-01-20T23:07:51+00:00,SAT-55663,298.7467287491873,43.53361660873738,2595.8859647493555,4.132218312688599,-144727.76457648675,10.5,10499855272.235424,47.655,-122.3035,60.0,7.85
2026-01-20T23:07:52+00:00,SAT-55663,298.91031410988495,43.47379434195982,2600.00716381321,4.142870705071292,-145100.85641730373,10.5,10499854899.143583,47.655,-122.3035,60.0,7.866666666666666
2026-01-20T23:07:53+00:00,SAT-55663,299.0730216318941,43.41376624922848,2604.1389868630677,4.153467628044705,-145472.0054847724,10.5,10499854527.994514,47.655,-122.3035,60.0,7.883333333333334
2026-01-20T23:07:54+00:00,SAT-55663,299.23485456981723,43.35353598340819,2608.281378577438,4.164009289535269,-145841.21906135586,10.5,10499854158.78094,47.655,-122.3035,60.0,7.9
2026-01-20T23:07:55+00:00,SAT-55663,299.3958162114924,43.29310716111588,2612.434283842201,4.17449587326189,-146208.5035816673,10.5,10499853791.496418,47.655,-122.3035,60.0,7.916666666666667
2026-01-20T23:07:56+00:00,SAT-55663,299.555909875712,43.23248336317976,2616.597647726467,4.184927612997528,-146573.8672334247,10.5,10499853426.132767,47.655,-122.3035,60.0,7.933333333333334
2026-01-20T23:07:57+00:00,SAT-55663,299.71513891298133,43.171668134019505,2620.771415532497,4.195304686515937,-146937.3162430168,10.5,10499853062.683758,47.655,-122.3035,60.0,7.95
2026-01-20T23:07:58+00:00,SAT-55663,299.87350670202727,43.110664982581476,2624.955532739849,4.205627325183653,-147298.8587138785,10.5,10499852701.141287,47.655,-122.3035,60.0,7.966666666666667
2026-01-20T23:07:59+00:00,SAT-55663,300.03101665071244,43.04947738167988,2629.149945058832,4.2158957254794585,-147658.50152752778,10.5,10499852341.498472,47.655,-122.3035,60.0,7.983333333333333
2026-01-20T23:08:00+00:00,SAT-55663,300.18767219343795,42.988108768635605,2633.35459839571,4.226110084255673,-148016.2515785656,10.5,10499851983.74842,47.655,-122.3035,60.0,8.0
2026-01-20T23:08:01+00:00,SAT-55663,300.34347679001905,42.926562545406924,2637.569438853074,4.236270627321454,-148372.11677578383,10.5,10499851627.883224,47.655,-122.3035,60.0,8.016666666666667
2026-01-20T23:08:02+00:00,SAT-55663,300.498433925621,42.864842078307674,2641.7944127587234,4.246377563168372,-148726.10442143914,10.5,10499851273.895578,47.655,-122.3035,60.0,8.033333333333333
2026-01-20T23:08:03+00:00,SAT-55663,300.6525471089709,42.80295069840566,2646.0294666483896,4.256431075510758,-149078.22094998453,10.5,10499850921.77905,47.655,-122.3035,60.0,8.05
2026-01-20T23:08:04+00:00,SAT-55663,300.80581987030894,42.74089170203716,2650.2745472410325,4.266431413074415,-149428.47507284977,10.5,10499850571.524927,47.655,-122.3035,60.0,8.066666666666666
2026-01-20T23:08:05+00:00,SAT-55663,300.95825576274945,42.67866835001221,2654.529601503672,4.276378745581878,-149776.8727344359,10.5,10499850223.127266,47.655,-122.3035,60.0,8.083333333333334
2026-01-20T23:08:06+00:00,SAT-55663,301.10985835824283,42.61628386893362,2658.794576572599,4.286273315616605,-150123.42243104178,10.5,10499849876.577568,47.655,-122.3035,60.0,8.1
2026-01-20T23:08:07+00:00,SAT-55663,301.26063124926924,42.55374145029292,2663.0694198260403,4.296115307718276,-150468.13062602762,10.5,10499849531.869373,47.655,-122.3035,60.0,8.116666666666667
2026-01-20T23:08:08+00:00,SAT-55663,301.41057804563286,42.491044251493726,2667.3540788262717,4.305904943203895,-150811.00507085107,10.5,10499849188.994928,47.655,-122.3035,60.0,8.133333333333333
2026-01-20T23:08:09+00:00,SAT-55663,301.5597023748473,42.42819539548557,2671.6485013562938,4.315642439938129,-151152.05339605428,10.5,10499848847.946604,47.655,-122.3035,60.0,8.15
2026-01-20T23:08:10+00:00,SAT-55663,301.7080078809884,42.36519797099406,2675.952635416392,4.325327997975592,-151491.28260839608,10.5,10499848508.717392,47.655,-122.3035,60.0,8.166666666666666
2026-01-20T23:08:11+00:00,SAT-55663,301.85549822312146,42.30205503296168,2680.2664292063732,4.334961824352309,-151828.69995915392,10.5,10499848171.300041,47.655,-122.3035,60.0,8.183333333333334
2026-01-20T23:08:12+00:00,SAT-55663,302.002177074582,42.23876960263558,2684.589831132527,4.344544152554103,-152164.3136259888,10.5,10499847835.686375,47.655,-122.3035,60.0,8.2
2026-01-20T23:08:13+00:00,SAT-55663,302.1480481230217,42.17534466736473,2688.9227898340077,4.354075171611786,-152498.13022955952,10.5,10499847501.86977,47.655,-122.3035,60.0,8.216666666666667
2026-01-20T23:08:14+00:00,SAT-55663,302.2931150679055,42.11178318144823,2693.2652541384955,4.363555104264874,-152830.15757114603,10.5,10499847169.842428,47.655,-122.3035,60.0,8.233333333333333
2026-01-20T23:08:15+00:00,SAT-55663,302.4373816208411,42.048088065833745,2697.6171730958154,4.372984143249612,-153160.40240118693,10.5,10499846839.597599,47.655,-122.3035,60.0,8.25
2026-01-20T23:08:16+00:00,SAT-55663,302.58085150366037,41.98426220875918,2701.978495948016,4.38236253755049,-153488.8734401722,10.5,10499846511.12656,47.655,-122.3035,60.0,8.266666666666667
2026-01-20T23:08:17+00:00,SAT-55663,302.72352844952695,41.92030846512698,2706.3491721854666,4.391690461526529,-153815.57679489237,10.5,10499846184.423204,47.655,-122.3035,60.0,8.283333333333333
2026-01-20T23:08:18+00:00,SAT-55663,302.8654161995295,41.856229657805464,2710.7291514724293,4.400968145563913,-154140.52053444614,10.5,10499845859.479465,47.655,-122.3035,60.0,8.3
2026-01-20T23:08:19+00:00,SAT-55663,303.00651850382087,41.79202857701225,2715.118383702938,4.410195793882626,-154463.7118114812,10.5,10499845536.288189,47.655,-122.3035,60.0,8.316666666666666
2026-01-20T23:08:20+00:00,SAT-55663,303.1468391199173,41.727707980908406,2719.5168189747037,4.419373625642278,-154785.15830189406,10.5,10499845214.841698,47.655,-122.3035,60.0,8.333333333333334
2026-01-20T23:08:21+00:00,SAT-55663,303.2863818124503,41.66327059559102,2723.924407604011,4.428501852575358,-155104.86742145213,10.5,10499844895.132578,47.655,-122.3035,60.0,8.35
2026-01-20T23:08:22+00:00,SAT-55663,303.42515035215115,41.59871911541655,2728.341100118313,4.437580678981128,-155422.84632557983,10.5,10499844577.153675,47.655,-122.3035,60.0,8.366666666666667
2026-01-20T23:08:23+00:00,SAT-55663,303.5631485148911,41.534056203323225,2732.7668472488167,4.446610319997656,-155739.10254932227,10.5,10499844260.897451,47.655,-122.3035,60.0,8.383333333333333
2026-01-20T23:08:24+00:00,SAT-55663,303.7003800813099,41.469284490893145,2737.2015999412943,4.45559098346091,-156053.6433719742,10.5,10499843946.356628,47.655,-122.3035,60.0,8.4
2026-01-20T23:08:25+00:00,SAT-55663,303.83684883589774,41.404406578676564,2741.6453093487994,4.464522892060593,-156366.476593071,10.5,10499843633.523407,47.655,-122.3035,60.0,8.416666666666666
2026-01-20T23:08:26+00:00,SAT-55663,303.97255856676935,41.339425036196836,2746.0979268464807,4.473406242023408,-156677.6090853019,10.5,10499843322.390915,47.655,-122.3035,60.0,8.433333333333334
2026-01-20T23:08:27+00:00,SAT-55663,304.1075130641822,41.274342402558595,2750.5594040051924,4.482241259522398,-156987.04877020352,10.5,10499843012.95123,47.655,-122.3035,60.0,8.45
2026-01-20T23:08:28+00:00,SAT-55663,304.24171612081176,41.20916118623615,2755.029692621356,4.49102814054083,-157294.80251193882,10.5,10499842705.197489,47.655,-122.3035,60.0,8.466666666666667
2026-01-20T23:08:29+00:00,SAT-55663,304.37517153020104,41.14388386573779,2759.5087446868556,4.499767114894663,-157600.87835963492,10.5,10499842399.121641,47.655,-122.3035,60.0,8.483333333333333
2026-01-20T23:08:30+00:00,SAT-55663,304.50788308717443,41.078512889339216,2763.9965124227774,4.50845836647204,-157905.2827538324,10.5,10499842094.717247,47.655,-122.3035,60.0,8.5
2026-01-20T23:08:31+00:00,SAT-55663,304.639854585841,41.01305067598139,2768.492948233605,4.517102124707764,-158208.02373030852,10.5,10499841791.976269,47.655,-122.3035,60.0,8.516666666666667
2026-01-20T23:08:32+00:00,SAT-55663,304.7710898204031,40.94749961483414,2772.998004752647,4.525698611643044,-158509.10906588574,10.5,10499841490.890934,47.655,-122.3035,60.0,8.533333333333333
2026-01-20T23:08:33+00:00,SAT-55663,304.90159258435784,40.881862065633314,2777.511634834659,4.534248006242903,-158808.54502867608,10.5,10499841191.454971,47.655,-122.3035,60.0,8.55
2026-01-20T23:08:34+00:00,SAT-55663,305.03136666863855,40.81614035953936,2782.0337915128853,4.5427505338108185,-159106.33950976044,10.5,10499840893.66049,47.655,-122.3035,60.0,8.566666666666666
2026-01-20T23:08:35+00:00,SAT-55663,305.1604158624973,40.750336798691386,2786.564428045273,4.5512064114460795,-159402.50011287417,10.5,10499840597.499887,47.655,-122.3035,60.0,8.583333333333334
2026-01-20T23:08:36+00:00,SAT-55663,305.28874395270316,40.68445365655934,2791.1034979062883,4.559615836821779,-159697.03376136528,10.5,10499840302.966238,47.655,-122.3035,60.0,8.6
2026-01-20T23:08:37+00:00,SAT-55663,305.4163547224836,40.61849317845791,2795.650954767545,4.567979018711552,-159989.94776736942,10.5,10499840010.052233,47.655,-122.3035,60.0,8.616666666666667
2026-01-20T23:08:38+00:00,SAT-55663,305.5432519513412,40.55245758161704,2800.2067525088737,4.576296177475419,-160281.24984882676,10.5,10499839718.75015,47.655,-122.3035,60.0,8.633333333333333
2026-01-20T23:08:39+00:00,SAT-55663,305.66943941492747,40.48634905524605,2804.7708452298757,4.584567505718005,-160570.9467515659,10.5,10499839429.05325,47.655,-122.3035,60.0,8.65
2026-01-20T23:08:40+00:00,SAT-55663,305.7949208837578,40.42016976116929,2809.343187222245,4.592793227109877,-160859.04630947625,10.5,10499839140.95369,47.655,-122.3035,60.0,8.666666666666666
2026-01-20T23:08:41+00:00,SAT-55663,305.91970012366215,40.35392183360793,2813.923733000749,4.600973529385893,-161145.55509782664,10.5,10499838854.444902,47.655,-122.3035,60.0,8.683333333333334
2026-01-20T23:08:42+00:00,SAT-55663,306.04378089431225,40.28760737993414,2818.51243726739,4.6091086475702525,-161430.4813481587,10.5,10499838569.518652,47.655,-122.3035,60.0,8.7
2026-01-20T23:08:43+00:00,SAT-55663,306.16716695014924,40.22122848021793,2823.109254958567,4.617198764721174,-161713.83147194557,10.5,10499838286.168528,47.655,-122.3035,60.0,8.716666666666667
2026-01-20T23:08:44+00:00,SAT-55663,306.2898620384793,40.154787188213675,2827.714141193249,4.625244099217135,-161995.6131177253,10.5,10499838004.386883,47.655,-122.3035,60.0,8.733333333333333
2026-01-20T23:08:45+00:00,SAT-55663,306.4118699000928,40.088285531080054,2832.327051308201,4.633244837300859,-162275.8328085059,10.5,10499837724.16719,47.655,-122.3035,60.0,8.75
2026-01-20T23:08:46+00:00,SAT-55663,306.53319426796253,40.02172551007682,2836.947940825936,4.641201216231697,-162554.49885411334,10.5,10499837445.501146,47.655,-122.3035,60.0,8.766666666666667
