satellites_20260120_184412/SAT-55669.csv

timestamp,satellite,azimuth_deg,elevation_deg,distance_km,relative_velocity_kms,doppler_shift_hz,tx_freq_ghz,rx_freq_hz,ue_lat,ue_lon,ue_alt_m,time_minutes
2026-01-20T23:09:44+00:00,SAT-55669,237.69319924528355,40.01211419741874,2116.369288890196,-0.4519780725084648,15830.183964597534,10.5,10500015830.183964,47.655,-122.3035,60.0,9.733333333333333
2026-01-20T23:09:45+00:00,SAT-55669,237.91193585730628,40.11663548492103,2115.9185160925476,-0.43024151690517665,15068.877841831347,10.5,10500015068.877842,47.655,-122.3035,60.0,9.75
2026-01-20T23:09:46+00:00,SAT-55669,238.13156734178335,40.22061093071142,2115.489421886354,-0.40849171651535476,14307.107830615356,10.5,10500014307.10783,47.655,-122.3035,60.0,9.766666666666667
2026-01-20T23:09:47+00:00,SAT-55669,238.35209098511015,40.32403431330507,2115.082019481083,-0.38672935144402937,13544.89775110456,10.5,10500013544.89775,47.655,-122.3035,60.0,9.783333333333333
2026-01-20T23:09:48+00:00,SAT-55669,238.57350393310819,40.426899428778285,2114.6963214079096,-0.36495510645330276,12782.271586564324,10.5,10500012782.271587,47.655,-122.3035,60.0,9.8
2026-01-20T23:09:49+00:00,SAT-55669,238.79580319071056,40.52920009263784,2114.3323395150733,-0.34316966883087496,12019.25340871713,10.5,10500012019.253408,47.655,-122.3035,60.0,9.816666666666666
2026-01-20T23:09:50+00:00,SAT-55669,239.0189856205932,40.63093014118614,2113.9900849653595,-0.3213737242854078,11255.867233980855,10.5,10500011255.867233,47.655,-122.3035,60.0,9.833333333333334
2026-01-20T23:09:51+00:00,SAT-55669,239.24304794081715,40.73208343240842,2113.669568237672,-0.2995679657971709,10492.137333455847,10.5,10500010492.137333,47.655,-122.3035,60.0,9.85
2026-01-20T23:09:52+00:00,SAT-55669,239.46798672546737,40.83265384825312,2113.3707991197834,-0.2777530823655489,9728.087838815021,10.5,10500009728.08784,47.655,-122.3035,60.0,9.866666666666667
2026-01-20T23:09:53+00:00,SAT-55669,239.69379840138632,40.93263529509473,2113.0937867123043,-0.2559297677237393,8963.743047529444,10.5,10500008963.743048,47.655,-122.3035,60.0,9.883333333333333
2026-01-20T23:09:54+00:00,SAT-55669,239.92047924811456,41.032021705663226,2112.8385394239613,-0.2340987146314446,8199.127222974263,10.5,10500008199.127222,47.655,-122.3035,60.0,9.9
2026-01-20T23:09:55+00:00,SAT-55669,240.1480253956688,41.13080703998988,2112.605064972569,-0.21226061957336426,7434.264758989783,10.5,10500007434.26476,47.655,-122.3035,60.0,9.916666666666666
2026-01-20T23:09:56+00:00,SAT-55669,240.3764328245646,41.22898528733001,2112.3933703813145,-0.19041617829880353,6669.180023659691,10.5,10500006669.180023,47.655,-122.3035,60.0,9.933333333333334
2026-01-20T23:09:57+00:00,SAT-55669,240.60569736387293,41.32655046721308,2112.203461979491,-0.16856608834828826,5903.897447803796,10.5,10500005903.897448,47.655,-122.3035,60.0,9.95
2026-01-20T23:09:58+00:00,SAT-55669,240.83581469035033,41.42349663094702,2112.0353454007113,-0.14671104747401803,5138.441469655615,10.5,10500005138.44147,47.655,-122.3035,60.0,9.966666666666667
2026-01-20T23:09:59+00:00,SAT-55669,241.06678032716815,41.51981786293915,2111.8890255826977,-0.1248517556602934,4372.836605626285,10.5,10500004372.836605,47.655,-122.3035,60.0,9.983333333333333
2026-01-20T23:10:00+00:00,SAT-55669,241.29858964373767,41.61550828246224,2111.7645067650524,-0.10298891161451289,3607.1073274044315,10.5,10500003607.107327,47.655,-122.3035,60.0,10.0
2026-01-20T23:10:01+00:00,SAT-55669,241.53123785353327,41.7105620445632,2111.6617924905354,-0.08112321585511617,2841.278170109002,10.5,10500002841.27817,47.655,-122.3035,60.0,10.016666666666667
2026-01-20T23:10:02+00:00,SAT-55669,241.76472001382123,41.80497334175668,2111.580885603256,-0.05925536963873208,2075.3736947134503,10.5,10500002075.373695,47.655,-122.3035,60.0,10.033333333333333
2026-01-20T23:10:03+00:00,SAT-55669,241.99903102558682,41.89873640576718,2111.5217882479365,-0.037386073226895175,1309.4184273388203,10.5,10500001309.418427,47.655,-122.3035,60.0,10.05
2026-01-20T23:10:04+00:00,SAT-55669,242.23416563075767,41.991845508160644,2111.4845018709048,-0.015516028240119667,543.4369417033716,10.5,10500000543.436941,47.655,-122.3035,60.0,10.066666666666666
2026-01-20T23:10:05+00:00,SAT-55669,242.47011841324075,42.0842949624987,2111.46902721874,0.006354063276208519,-222.54617359383155,10.5,10499999777.453827,47.655,-122.3035,60.0,10.083333333333334
2026-01-20T23:10:06+00:00,SAT-55669,242.70688379828533,42.176079125780625,2111.475364337847,0.028223500932991665,-988.5063879639443,10.5,10499999011.493612,47.655,-122.3035,60.0,10.1
2026-01-20T23:10:07+00:00,SAT-55669,242.94445604978512,42.267192399071355,2111.503512576111,0.05009158214358978,-1754.4190938508957,10.5,10499998245.580906,47.655,-122.3035,60.0,10.116666666666667
2026-01-20T23:10:08+00:00,SAT-55669,243.18282927280617,42.35762923014359,2111.553470580702,0.07195760678699106,-2520.259770055344,10.5,10499997479.74023,47.655,-122.3035,60.0,10.133333333333333
2026-01-20T23:10:09+00:00,SAT-55669,243.42199740998,42.44738411370756,2111.625236300538,0.0938208731715306,-3286.0038403670287,10.5,10499996713.99616,47.655,-122.3035,60.0,10.15
2026-01-20T23:10:10+00:00,SAT-55669,243.6619542433565,42.53645159373346,2111.7188069847143,0.11568068099806553,-4051.6267773477075,10.5,10499995948.373222,47.655,-122.3035,60.0,10.166666666666666
2026-01-20T23:10:11+00:00,SAT-55669,243.90269339275972,42.6248262643994,2111.834179183896,0.13753633015600253,-4817.104060162936,10.5,10499995182.89594,47.655,-122.3035,60.0,10.183333333333334
2026-01-20T23:10:12+00:00,SAT-55669,244.1442083167501,42.712502771984234,2111.971348750505,0.15938712168866137,-5582.41120839319,10.5,10499994417.58879,47.655,-122.3035,60.0,10.2
2026-01-20T23:10:13+00:00,SAT-55669,244.38649231026477,42.79947581552006,2112.1303108398697,0.1812323562650579,-6347.523728509234,10.5,10499993652.47627,47.655,-122.3035,60.0,10.216666666666667
2026-01-20T23:10:14+00:00,SAT-55669,244.62953850615173,42.88574014884652,2112.3110599098513,0.2030713369901053,-7112.417212297267,10.5,10499992887.582788,47.655,-122.3035,60.0,10.233333333333333
2026-01-20T23:10:15+00:00,SAT-55669,244.8733398762885,42.971290582441526,2112.513589723276,0.22490336572993103,-7877.06720815597,10.5,10499992122.932793,47.655,-122.3035,60.0,10.25
2026-01-20T23:10:16+00:00,SAT-55669,245.11788922611115,43.05612198291481,2112.737893346697,0.246727747919636,-8641.44938948457,10.5,10499991358.55061,47.655,-122.3035,60.0,10.266666666666667
2026-01-20T23:10:17+00:00,SAT-55669,245.3631792026421,43.140229277224535,2112.9839631539553,0.2685437880396302,-9405.539396244976,10.5,10499990594.460604,47.655,-122.3035,60.0,10.283333333333333
2026-01-20T23:10:18+00:00,SAT-55669,245.6092022876477,43.22360745162747,2113.251790825227,0.29035079352689214,-10169.31297195064,10.5,10499989830.687029,47.655,-122.3035,60.0,10.3
2026-01-20T23:10:19+00:00,SAT-55669,245.85595080225949,43.3062515546113,2113.5413673499716,0.31214807106801373,-10932.745833833298,10.5,10499989067.254166,47.655,-122.3035,60.0,10.316666666666666
2026-01-20T23:10:20+00:00,SAT-55669,246.10341690342494,43.38815669696894,2113.8526830261835,0.33393493140924657,-11695.813841311143,10.5,10499988304.18616,47.655,-122.3035,60.0,10.333333333333334
2026-01-20T23:10:21+00:00,SAT-55669,246.35159258827474,43.46931805453089,2114.185727464442,0.355710685256947,-12458.492852405057,10.5,10499987541.507147,47.655,-122.3035,60.0,10.35
2026-01-20T23:10:22+00:00,SAT-55669,246.60046969245664,43.54973086881044,2114.540489587872,0.37747464468636116,-13220.758773080248,10.5,10499986779.241226,47.655,-122.3035,60.0,10.366666666666667
2026-01-20T23:10:23+00:00,SAT-55669,246.85003988971965,43.629390448059475,2114.9169576335057,0.3992261247712318,-13982.587614321952,10.5,10499986017.412386,47.655,-122.3035,60.0,10.383333333333333
2026-01-20T23:10:24+00:00,SAT-55669,247.10029469446778,43.70829216924472,2115.3151191552774,0.4209644416426532,-14743.955424148324,10.5,10499985256.044577,47.655,-122.3035,60.0,10.4
2026-01-20T23:10:25+00:00,SAT-55669,247.3512254611016,43.78643147894257,2115.7349610250753,0.44268891475827177,-15504.838367087452,10.5,10499984495.161633,47.655,-122.3035,60.0,10.416666666666666
2026-01-20T23:10:26+00:00,SAT-55669,247.60282338630094,43.86380389512979,2116.1764694360613,0.46439886224826415,-16265.212561173816,10.5,10499983734.78744,47.655,-122.3035,60.0,10.433333333333334
2026-01-20T23:10:27+00:00,SAT-55669,247.85507950656762,43.9404050074522,2116.6396299013436,0.48609360889743647,-17025.054357515168,10.5,10499982974.945642,47.655,-122.3035,60.0,10.45
2026-01-20T23:10:28+00:00,SAT-55669,248.10798470329524,44.016230479797194,2117.1244272606173,0.5077724791150205,-17784.34009406506,10.5,10499982215.659906,47.655,-122.3035,60.0,10.466666666666667
2026-01-20T23:10:29+00:00,SAT-55669,248.3615297011179,44.09127605073016,2117.630845679788,0.529434800783422,-18543.046230422286,10.5,10499981456.95377,47.655,-122.3035,60.0,10.483333333333333
2026-01-20T23:10:30+00:00,SAT-55669,248.6157050701189,44.165537535082656,2118.158868654436,0.5510799023146116,-19301.14924473324,10.5,10499980698.850756,47.655,-122.3035,60.0,10.5
2026-01-20T23:10:31+00:00,SAT-55669,248.8705012254137,44.23901082471252,2118.7084790103445,0.5727071165222514,-20058.625769310176,10.5,10499979941.374231,47.655,-122.3035,60.0,10.516666666666667
2026-01-20T23:10:32+00:00,SAT-55669,249.1259084299715,44.31169189018136,2119.2796589078894,0.5943157806204241,-20815.452590586694,10.5,10499979184.54741,47.655,-122.3035,60.0,10.533333333333333
2026-01-20T23:10:33+00:00,SAT-55669,249.38191679659303,44.38357678211345,2119.8723898464277,0.6159052301763269,-21571.606437315488,10.5,10499978428.393562,47.655,-122.3035,60.0,10.55
2026-01-20T23:10:34+00:00,SAT-55669,249.63851628691555,44.45466163167545,2120.486652662657,0.6374748070550157,-22327.0642588269,10.5,10499977672.935741,47.655,-122.3035,60.0,10.566666666666666
2026-01-20T23:10:35+00:00,SAT-55669,249.89569671466367,44.52494265221772,2121.122427536893,0.6590238545346517,-23081.803053944215,10.5,10499976918.196945,47.655,-122.3035,60.0,10.583333333333334
2026-01-20T23:10:36+00:00,SAT-55669,250.15344774684436,44.59441614029496,2121.7796939944824,0.6805517198984222,-23835.79996176366,10.5,10499976164.200039,47.655,-122.3035,60.0,10.6
2026-01-20T23:10:37+00:00,SAT-55669,250.41175890536974,44.66307847674172,2122.458430909795,0.7020577529258897,-24589.032208815075,10.5,10499975410.96779,47.655,-122.3035,60.0,10.616666666666667
2026-01-20T23:10:38+00:00,SAT-55669,250.67061956887147,44.730926127770545,2123.1586165087124,0.7235413065018396,-25341.477130386367,10.5,10499974658.52287,47.655,-122.3035,60.0,10.633333333333333
2026-01-20T23:10:39+00:00,SAT-55669,250.9300189742898,44.797955645956485,2123.8802283717305,0.745001738579533,-26093.112239284874,10.5,10499973906.88776,47.655,-122.3035,60.0,10.65
2026-01-20T23:10:40+00:00,SAT-55669,251.18994621974406,44.8641636715095,2124.623243439007,0.7664384078275505,-26843.91507337146,10.5,10499973156.084927,47.655,-122.3035,60.0,10.666666666666666
2026-01-20T23:10:41+00:00,SAT-55669,251.45039026517287,44.929546932918605,2125.3876380110805,0.7878506786837831,-27593.863372572643,10.5,10499972406.136627,47.655,-122.3035,60.0,10.683333333333334
2026-01-20T23:10:42+00:00,SAT-55669,251.71133993559812,44.99410224822859,2126.1733877546208,0.8092379155675725,-28342.934876165265,10.5,10499971657.065125,47.655,-122.3035,60.0,10.7
2026-01-20T23:10:43+00:00,SAT-55669,251.97278392170745,45.057826525587075,2126.980467702414,0.8305994936605755,-29091.107700367975,10.5,10499970908.8923,47.655,-122.3035,60.0,10.716666666666667
2026-01-20T23:10:44+00:00,SAT-55669,252.2347107850944,45.120716764907364,2127.8088522640915,0.8519347867315984,-29838.359911915406,10.5,10499970161.640089,47.655,-122.3035,60.0,10.733333333333333
2026-01-20T23:10:45+00:00,SAT-55669,252.49710895833795,45.18277005818252,2128.658515224725,0.8732431680760409,-30584.6695609615,10.5,10499969415.330439,47.655,-122.3035,60.0,10.75
2026-01-20T23:10:46+00:00,SAT-55669,252.7599667460937,45.24398359004793,2129.529429744353,0.8945240256694845,-31330.015211822265,10.5,10499968669.984789,47.655,-122.3035,60.0,10.766666666666667
2026-01-20T23:10:47+00:00,SAT-55669,253.02327233145536,45.30435463953203,2130.4215683726206,0.9157767439436943,-32074.37530469426,10.5,10499967925.624695,47.655,-122.3035,60.0,10.783333333333333
2026-01-20T23:10:48+00:00,SAT-55669,253.28701377586077,45.36388058021236,2131.334903045247,0.9370007154469596,-32817.72856404905,10.5,10499967182.271437,47.655,-122.3035,60.0,10.8
2026-01-20T23:10:49+00:00,SAT-55669,253.55117902311628,45.42255888130456,2132.2694050921195,0.958195327840782,-33560.053543202244,10.5,10499966439.946457,47.655,-122.3035,60.0,10.816666666666666
2026-01-20T23:10:50+00:00,SAT-55669,253.81575589919788,45.48038710773855,2133.2250452324192,0.979359989756065,-34301.329529906594,10.5,10499965698.67047,47.655,-122.3035,60.0,10.833333333333334
2026-01-20T23:10:51+00:00,SAT-55669,254.08073212057326,45.53736292209753,2134.201793595536,1.0004940950538292,-35041.53529461107,10.5,10499964958.464705,47.655,-122.3035,60.0,10.85
2026-01-20T23:10:52+00:00,SAT-55669,254.34609529092893,45.59348408392205,2135.1996197063363,1.021597060108723,-35780.65039628713,10.5,10499964219.349604,47.655,-122.3035,60.0,10.866666666666667
2026-01-20T23:10:53+00:00,SAT-55669,254.6118329098971,45.648748451608746,2136.2184925076185,1.0426682885881216,-36518.65394884376,10.5,10499963481.34605,47.655,-122.3035,60.0,10.883333333333333
2026-01-20T23:10:54+00:00,SAT-55669,254.87793237082946,45.70315398188348,2137.2583803474367,1.0637072023208876,-37255.52570228207,10.5,10499962744.474298,47.655,-122.3035,60.0,10.9
2026-01-20T23:10:55+00:00,SAT-55669,255.14438096805787,45.75669873125915,2138.319250997218,1.0847132225369467,-37991.24538562588,10.5,10499962008.754614,47.655,-122.3035,60.0,10.916666666666666
2026-01-20T23:10:56+00:00,SAT-55669,255.41116589850105,45.809380856228856,2139.4010716511616,1.1056857701600225,-38725.79271717448,10.5,10499961274.207283,47.655,-122.3035,60.0,10.933333333333334
2026-01-20T23:10:57+00:00,SAT-55669,255.67827426351258,45.86119861349679,2140.5038089259347,1.1266242812953788,-39459.14794694894,10.5,10499960540.852053,47.655,-122.3035,60.0,10.95
2026-01-20T23:10:58+00:00,SAT-55669,255.94569307525478,45.91215036105509,2141.627428875813,1.1475281871736904,-40191.29115424161,10.5,10499959808.708845,47.655,-122.3035,60.0,10.966666666666667
2026-01-20T23:10:59+00:00,SAT-55669,256.21340925727833,45.96223455805985,2142.771896987821,1.1683969312500955,-40922.20284649724,10.5,10499959077.797153,47.655,-122.3035,60.0,10.983333333333333
2026-01-20T23:11:00+00:00,SAT-55669,256.4814096500969,46.011449765639426,2143.937178193921,1.1892299569494937,-41651.863530101495,10.5,10499958348.13647,47.655,-122.3035,60.0,11.0
2026-01-20T23:11:01+00:00,SAT-55669,256.7496810132865,46.05979464698221,2145.1232368709857,1.2100267112881196,-42380.2538372238,10.5,10499957619.746162,47.655,-122.3035,60.0,11.016666666666667
2026-01-20T23:11:02+00:00,SAT-55669,257.01821002884293,46.10726796763245,2146.330036844377,1.2307866542034402,-43107.3548525898,10.5,10499956892.645147,47.655,-122.3035,60.0,11.033333333333333
2026-01-20T23:11:03+00:00,SAT-55669,257.2869833066339,46.15386859609809,2147.557541400836,1.2515092456270807,-43833.1476607205,10.5,10499956166.852339,47.655,-122.3035,60.0,11.05
2026-01-20T23:11:04+00:00,SAT-55669,257.55598738696705,46.19959550389915,2148.805713288474,1.2721939461942935,-44557.61337078093,10.5,10499955442.38663,47.655,-122.3035,60.0,11.066666666666666
2026-01-20T23:11:05+00:00,SAT-55669,257.8252087431001,46.24444776556683,2150.074514717479,1.2928402270114383,-45280.73345867862,10.5,10499954719.26654,47.655,-122.3035,60.0,11.083333333333334
2026-01-20T23:11:06+00:00,SAT-55669,258.0946337864574,46.288424559073434,2151.3639073705517,1.3134475720062435,-46002.48984937959,10.5,10499953997.51015,47.655,-122.3035,60.0,11.1
2026-01-20T23:11:07+00:00,SAT-55669,258.36424887204817,46.33152516621893,2152.673852415699,1.3340154528713004,-46722.86403932368,10.5,10499953277.135962,47.655,-122.3035,60.0,11.116666666666667
2026-01-20T23:11:08+00:00,SAT-55669,258.6340402984053,46.37374897207873,2154.0043104940296,1.3545433582173279,-47441.83811749508,10.5,10499952558.161882,47.655,-122.3035,60.0,11.133333333333333
2026-01-20T23:11:09+00:00,SAT-55669,258.90399431399646,46.4150954654736,2155.355241736625,1.3750307826388242,-48159.394382455255,10.5,10499951840.605618,47.655,-122.3035,60.0,11.15
2026-01-20T23:11:10+00:00,SAT-55669,259.1740971214537,46.455564239033976,2156.72660577051,1.395477220269587,-48875.515116630006,10.5,10499951124.484884,47.655,-122.3035,60.0,11.166666666666666
2026-01-20T23:11:11+00:00,SAT-55669,259.4443348801043,46.49515498894559,2158.1183617181923,1.41588217470545,-49590.1829338456,10.5,10499950409.817066,47.655,-122.3035,60.0,11.183333333333334
2026-01-20T23:11:12+00:00,SAT-55669,259.7146937109346,46.53386751504389,2159.5304682070987,1.4362451528738798,-50303.380564616265,10.5,10499949696.619436,47.655,-122.3035,60.0,11.2
2026-01-20T23:11:13+00:00,SAT-55669,259.98515970014,46.57170172064341,2160.9628833728984,1.4565656718857987,-51015.091096123855,10.5,10499948984.908903,47.655,-122.3035,60.0,11.216666666666667
2026-01-20T23:11:14+00:00,SAT-55669,260.25571890413187,46.60865761253167,2162.415564869659,1.4768432477126985,-51725.297575642595,10.5,10499948274.702425,47.655,-122.3035,60.0,11.233333333333333
2026-01-20T23:11:15+00:00,SAT-55669,260.52635735218774,46.64473530059028,2163.8884698687107,1.49707740506237,-52433.98335642882,10.5,10499947566.016644,47.655,-122.3035,60.0,11.25
2026-01-20T23:11:16+00:00,SAT-55669,260.7970610512882,46.679934997689045,2165.38155506736,1.5172676769558087,-53141.13208290247,10.5,10499946858.867918,47.655,-122.3035,60.0,11.266666666666667
2026-01-20T23:11:17+00:00,SAT-55669,261.0678159906669,46.71425701948647,2166.894776697177,1.5374135996201144,-53846.727511774836,10.5,10499946153.272488,47.655,-122.3035,60.0,11.283333333333333
2026-01-20T23:11:18+00:00,SAT-55669,261.33860814550485,46.747701784078416,2168.4280905271985,1.5575147140083216,-54550.75356527941,10.5,10499945449.246435,47.655,-122.3035,60.0,11.3
2026-01-20T23:11:19+00:00,SAT-55669,261.6094234808029,46.78026981163127,2169.9814518686358,1.5775705626753753,-55253.19422175537,10.5,10499944746.805779,47.655,-122.3035,60.0,11.316666666666666
2026-01-20T23:11:20+00:00,SAT-55669,261.88024795485103,46.811961723943625,2171.5548155764773,1.5975807105381432,-55954.03424275104,10.5,10499944045.965757,47.655,-122.3035,60.0,11.333333333333334
2026-01-20T23:11:21+00:00,SAT-55669,262.15106752641316,46.842778244400264,2173.148136071787,1.6175447068438071,-56653.25784099603,10.5,10499943346.742159,47.655,-122.3035,60.0,11.35
2026-01-20T23:11:22+00:00,SAT-55669,262.4218681549047,46.87272019705258,2174.76136732608,1.637462121930923,-57350.84996792913,10.5,10499942649.150032,47.655,-122.3035,60.0,11.366666666666667
2026-01-20T23:11:23+00:00,SAT-55669,262.6926358073385,46.90178850647206,2176.394462882352,1.657332525465928,-58046.7955514486,10.5,10499941953.204449,47.655,-122.3035,60.0,11.383333333333333
2026-01-20T23:11:24+00:00,SAT-55669,262.9633564613313,46.92998419710112,2178.0473758544167,1.6771554960576374,-58741.07983265273,10.5,10499941258.920168,47.655,-122.3035,60.0,11.4
2026-01-20T23:11:25+00:00,SAT-55669,263.2340161096557,46.95730839273943,2179.720058935818,1.6969306135254483,-59433.688095039426,10.5,10499940566.311905,47.655,-122.3035,60.0,11.416666666666666
2026-01-20T23:11:26+00:00,SAT-55669,263.5046007637383,46.98376231590018,2181.4124644010412,1.7166574668865178,-60124.60594425107,10.5,10499939875.394056,47.655,-122.3035,60.0,11.433333333333334
2026-01-20T23:11:27+00:00,SAT-55669,263.7750964581743,47.009347287221786,2183.1245441146825,1.7363356549392017,-60813.81932850898,10.5,10499939186.180672,47.655,-122.3035,60.0,11.45
2026-01-20T23:11:28+00:00,SAT-55669,264.0454892555544,47.03406472488148,2184.8562495412084,1.7559647728363947,-61501.31406835507,10.5,10499938498.685932,47.655,-122.3035,60.0,11.466666666666667
2026-01-20T23:11:29+00:00,SAT-55669,264.3157652489109,47.05791614374402,2186.6075317413174,1.7755444343519093,-62187.076636514474,10.5,10499937812.923363,47.655,-122.3035,60.0,11.483333333333333
2026-01-20T23:11:30+00:00,SAT-55669,264.5859105678513,47.080903154828405,2188.378341390511,1.7950742421780814,-62871.09311759222,10.5,10499937128.906883,47.655,-122.3035,60.0,11.5
2026-01-20T23:11:31+00:00,SAT-55669,264.855911379801,47.10302746429577,2190.168628768043,1.8145538235951721,-63553.35045736644,10.5,10499936446.649542,47.655,-122.3035,60.0,11.516666666666667
2026-01-20T23:11:32+00:00,SAT-55669,265.12575389701794,47.124290872923424,2191.978343781442,1.8339828003519794,-64233.835407880026,10.5,10499935766.164593,47.655,-122.3035,60.0,11.533333333333333
2026-01-20T23:11:33+00:00,SAT-55669,265.395424378722,47.14469527511775,2193.807435960993,1.8533608033033286,-64912.535040107476,10.5,10499935087.46496,47.655,-122.3035,60.0,11.55
2026-01-20T23:11:34+00:00,SAT-55669,265.6649091354532,47.164242658089194,2195.655854468821,1.8726874720789672,-65589.43673235821,10.5,10499934410.563267,47.655,-122.3035,60.0,11.566666666666666
2026-01-20T23:11:35+00:00,SAT-55669,265.93419453346996,47.182935101006336,2197.523548107641,1.8919624406590185,-66264.52766506786,10.5,10499933735.472336,47.655,-122.3035,60.0,11.583333333333334
2026-01-20T23:11:36+00:00,SAT-55669,266.20326699668686,47.20077477392951,2199.410465315125,1.9111853681238173,-66937.79589778767,10.5,10499933062.204102,47.655,-122.3035,60.0,11.6
2026-01-20T23:11:37+00:00,SAT-55669,266.4721130135938,47.21776393709789,2201.316554188934,1.930355902010503,-67609.22908577733,10.5,10499932390.770914,47.655,-122.3035,60.0,11.616666666666667
2026-01-20T23:11:38+00:00,SAT-55669,266.74071913813503,47.23390493973395,2203.2417624752056,1.9494737075658943,-68278.81550456447,10.5,10499931721.184496,47.655,-122.3035,60.0,11.633333333333333
2026-01-20T23:11:39+00:00,SAT-55669,267.0090719953797,47.24920021918315,2205.1860375862184,1.9685384488224205,-68946.54338714357,10.5,10499931053.456614,47.655,-122.3035,60.0,11.65
2026-01-20T23:11:40+00:00,SAT-55669,267.2771582839469,47.263652299788305,2207.149326599177,1.9875498050601184,-69612.40150054489,10.5,10499930387.5985,47.655,-122.3035,60.0,11.666666666666666
2026-01-20T23:11:41+00:00,SAT-55669,267.54496478107586,47.277263791921364,2209.1315762714235,2.006507447429543,-70276.37832706985,10.5,10499929723.621674,47.655,-122.3035,60.0,11.683333333333334
2026-01-20T23:11:42+00:00,SAT-55669,267.81247834404985,47.29003739077067,2211.1327330323265,2.025411062443715,-70938.4628870784,10.5,10499929061.537113,47.655,-122.3035,60.0,11.7
2026-01-20T23:11:43+00:00,SAT-55669,268.07968591512486,47.30197587531799,2213.1527429986036,2.0442603462479467,-71598.64453829403,10.5,10499928401.355461,47.655,-122.3035,60.0,11.716666666666667
2026-01-20T23:11:44+00:00,SAT-55669,268.34657452540944,47.313082107213596,2215.191551983928,2.0630549908511475,-72256.91249356595,10.5,10499927743.087507,47.655,-122.3035,60.0,11.733333333333333
2026-01-20T23:11:45+00:00,SAT-55669,268.6131312968962,47.3233590295573,2217.249105494804,2.081794701250799,-72913.25642065817,10.5,10499927086.74358,47.655,-122.3035,60.0,11.75
2026-01-20T23:11:46+00:00,SAT-55669,268.8793434466429,47.332809665751036,2219.325348743518,2.10047918306543,-73567.66600908624,10.5,10499926432.33399,47.655,-122.3035,60.0,11.766666666666667
2026-01-20T23:11:47+00:00,SAT-55669,269.14519828938813,47.341437118274285,2221.420226648762,2.1191081599901818,-74220.13158148532,10.5,10499925779.868418,47.655,-122.3035,60.0,11.783333333333333
2026-01-20T23:11:48+00:00,SAT-55669,269.4106832423189,47.3492445675153,2223.5336838536587,2.1376813498144287,-74870.64325364551,10.5,10499925129.356747,47.655,-122.3035,60.0,11.8
2026-01-20T23:11:49+00:00,SAT-55669,269.675785826592,47.35623527046221,2225.6656647198743,2.1561984709618036,-75519.19116357136,10.5,10499924480.808836,47.655,-122.3035,60.0,11.816666666666666
2026-01-20T23:11:50+00:00,SAT-55669,269.9404936696542,47.36241255942441,2227.8161133282465,2.1746592668448512,-76165.76632448485,10.5,10499923834.233675,47.655,-122.3035,60.0,11.833333333333334
2026-01-20T23:11:51+00:00,SAT-55669,270.20479451078677,47.36777984082823,2229.984973503713,2.1930634730487686,-76810.35947546108,10.5,10499923189.640524,47.655,-122.3035,60.0,11.85
2026-01-20T23:11:52+00:00,SAT-55669,270.4686762021306,47.3723405938572,2232.1721888075003,2.2114108362874956,-77452.96174535085,10.5,10499922547.038254,47.655,-122.3035,60.0,11.866666666666667
2026-01-20T23:11:53+00:00,SAT-55669,270.73212671221086,47.37609836915365,2234.3777025482245,2.2297011038576464,-78093.56428341266,10.5,10499921906.435717,47.655,-122.3035,60.0,11.883333333333333
2026-01-20T23:11:54+00:00,SAT-55669,270.9951341279781,47.379056787471036,2236.6014577824717,2.24793403236566,-78732.1585649744,10.5,10499921267.841434,47.655,-122.3035,60.0,11.9
2026-01-20T23:11:55+00:00,SAT-55669,271.257686657958,47.38121953834106,2238.8433973240844,2.2661093881361514,-79368.73640573569,10.5,10499920631.263594,47.655,-122.3035,60.0,11.916666666666666
2026-01-20T23:11:56+00:00,SAT-55669,271.5197726352621,47.38259037871248,2241.103463753852,2.284226935858286,-80003.28956411572,10.5,10499919996.710436,47.655,-122.3035,60.0,11.933333333333334
2026-01-20T23:11:57+00:00,SAT-55669,271.78138051921417,47.38317313156782,2243.3815994178817,2.302286459275659,-80635.81046590045,10.5,10499919364.189533,47.655,-122.3035,60.0,11.95
2026-01-20T23:11:58+00:00,SAT-55669,272.0424988993322,47.38297168454421,2245.677746446599,2.3202877195872347,-81266.29074726744,10.5,10499918733.709253,47.655,-122.3035,60.0,11.966666666666667
2026-01-20T23:11:59+00:00,SAT-55669,272.30311649429075,47.38198998852293,2247.9918467322677,2.3382305234989955,-81894.7236382426,10.5,10499918105.276361,47.655,-122.3035,60.0,11.983333333333333
2026-01-20T23:12:00+00:00,SAT-55669,272.5632221589269,47.38023205623597,2250.3238419743707,2.3561146473673062,-82521.1013058798,10.5,10499917478.898695,47.655,-122.3035,60.0,12.0
2026-01-20T23:12:01+00:00,SAT-55669,272.8228048821183,47.37770196084133,2252.6736736493444,2.373939898183259,-83145.41699019064,10.5,10499916854.58301,47.655,-122.3035,60.0,12.016666666666667
2026-01-20T23:12:02+00:00,SAT-55669,273.08185379180395,47.374403834493826,2255.0412830411333,2.391706069240406,-83767.66345144101,10.5,10499916232.336548,47.655,-122.3035,60.0,12.033333333333333
2026-01-20T23:12:03+00:00,SAT-55669,273.3403581547469,47.37034186692456,2257.4266112275222,2.409412983000049,-84387.83447147463,10.5,10499915612.16553,47.655,-122.3035,60.0,12.05
2026-01-20T23:12:04+00:00,SAT-55669,273.5983073811375,47.36552030397456,2259.829599109234,2.4270604420193154,-85005.92313500699,10.5,10499914994.076864,47.655,-122.3035,60.0,12.066666666666666
2026-01-20T23:12:05+00:00,SAT-55669,273.8556910235292,47.359943446180914,2262.2501873900746,2.4446482683028714,-85621.92320788854,10.5,10499914378.076792,47.655,-122.3035,60.0,12.083333333333334
2026-01-20T23:12:06+00:00,SAT-55669,274.11249878011137,47.35361564730688,2264.6883165963286,2.46217629129013,-86235.82871636606,10.5,10499913764.171284,47.655,-122.3035,60.0,12.1
2026-01-20T23:12:07+00:00,SAT-55669,274.36872049666397,47.34654131288608,2267.1439270841756,2.479644342288975,-86847.63375212807,10.5,10499913152.366247,47.655,-122.3035,60.0,12.116666666666667
2026-01-20T23:12:08+00:00,SAT-55669,274.6243461676081,47.33872489876162,2269.6169590415516,2.4970522538402284,-87457.33245004583,10.5,10499912542.66755,47.655,-122.3035,60.0,12.133333333333333
2026-01-20T23:12:09+00:00,SAT-55669,274.87936593710555,47.330170909644416,2272.1073524893814,2.514399865968506,-88064.91920710463,10.5,10499911935.080793,47.655,-122.3035,60.0,12.15
2026-01-20T23:12:10+00:00,SAT-55669,275.13377010065426,47.32088389764707,2274.615047289041,2.5316870386750154,-88670.38911995466,10.5,10499911329.61088,47.655,-122.3035,60.0,12.166666666666666
2026-01-20T23:12:11+00:00,SAT-55669,275.3875491079832,47.310868460771765,2277.1399831622793,2.54891361262854,-89273.73660814266,10.5,10499910726.263391,47.655,-122.3035,60.0,12.183333333333334
2026-01-20T23:12:12+00:00,SAT-55669,275.6406935615864,47.30012924152666,2279.6820996719407,2.5660794439538424,-89874.95663254925,10.5,10499910125.043367,47.655,-122.3035,60.0,12.2
2026-01-20T23:12:13+00:00,SAT-55669,275.8931942190181,47.288670925441664,2282.2413362373777,2.5831844155202406,-90474.04509076252,10.5,10499909525.954908,47.655,-122.3035,60.0,12.216666666666667
2026-01-20T23:12:14+00:00,SAT-55669,276.1450419961178,47.27649823951002,2284.817632161123,2.6002283752122235,-91070.99665505376,10.5,10499908929.003345,47.655,-122.3035,60.0,12.233333333333333
2026-01-20T23:12:15+00:00,SAT-55669,276.3962279638306,47.26361595090279,2287.4109265940015,2.617211207961973,-91665.8072952613,10.5,10499908334.192705,47.655,-122.3035,60.0,12.25
2026-01-20T23:12:16+00:00,SAT-55669,276.6467433523817,47.2500288653796,2290.0211585720754,2.6341327912504098,-92258.4727202487,10.5,10499907741.527279,47.655,-122.3035,60.0,12.266666666666667
2026-01-20T23:12:17+00:00,SAT-55669,276.89657955078263,47.23574182589322,2292.648267009216,2.650993012089606,-92848.98897270078,10.5,10499907151.011026,47.655,-122.3035,60.0,12.283333333333333
2026-01-20T23:12:18+00:00,SAT-55669,277.1457281079687,47.2207597111208,2295.2921907066066,2.66779175383601,-93437.35196726698,10.5,10499906562.648033,47.655,-122.3035,60.0,12.3
2026-01-20T23:12:19+00:00,SAT-55669,277.3941807325936,47.20508743407443,2297.952868349099,2.684528920392378,-94023.55833821533,10.5,10499905976.441662,47.655,-122.3035,60.0,12.316666666666666
2026-01-20T23:12:20+00:00,SAT-55669,277.64192929509625,47.188729940580465,2300.6302385257036,2.7012044029915487,-94607.60427605975,10.5,10499905392.395723,47.655,-122.3035,60.0,12.333333333333334
2026-01-20T23:12:21+00:00,SAT-55669,277.88896582648425,47.1716922079558,2303.3242397169543,2.7178181113167708,-95189.48661752556,10.5,10499904810.513382,47.655,-122.3035,60.0,12.35
2026-01-20T23:12:22+00:00,SAT-55669,278.1352825199756,47.15397924350762,2306.0348103133074,2.7343699645616084,-95769.20253242957,10.5,10499904230.797468,47.655,-122.3035,60.0,12.366666666666667
2026-01-20T23:12:23+00:00,SAT-55669,278.3808717318241,47.13559608309231,2308.76188862463,2.7508598553219463,-96346.74825902538,10.5,10499903653.251741,47.655,-122.3035,60.0,12.383333333333333
2026-01-20T23:12:24+00:00,SAT-55669,278.6257259784886,47.116547789915685,2311.5054128536713,2.767287728585534,-96922.12187055123,10.5,10499903077.87813,47.655,-122.3035,60.0,12.4
2026-01-20T23:12:25+00:00,SAT-55669,278.8698379413686,47.09683945283049,2314.2653211483134,2.783653493406446,-97495.32018169611,10.5,10499902504.67982,47.655,-122.3035,60.0,12.416666666666666
2026-01-20T23:12:26+00:00,SAT-55669,279.11320046300034,47.076476185223605,2317.041551565738,2.799957079403358,-98066.34072740836,10.5,10499901933.659273,47.655,-122.3035,60.0,12.433333333333334
2026-01-20T23:12:27+00:00,SAT-55669,279.3558065486218,47.055463123542296,2319.8340420929294,2.81619843512156,-98635.18170552637,10.5,10499901364.818295,47.655,-122.3035,60.0,12.45
2026-01-20T23:12:28+00:00,SAT-55669,279.597649367356,47.033805425824205,2322.642730665557,2.832377481160353,-99201.84033510178,10.5,10499900798.159664,47.655,-122.3035,60.0,12.466666666666667
2026-01-20T23:12:29+00:00,SAT-55669,279.8387222491682,47.011508270592806,2325.4675551401015,2.848494182699059,-99766.31539656717,10.5,10499900233.684603,47.655,-122.3035,60.0,12.483333333333333
2026-01-20T23:12:30+00:00,SAT-55669,280.07901868821585,46.988576855214404,2328.308453338313,2.8645484599913904,-100328.60409687023,10.5,10499899671.395903,47.655,-122.3035,60.0,12.5
2026-01-20T23:12:31+00:00,SAT-55669,280.31853233821687,46.96501639496334,2331.165363002411,2.8805402995136182,-100888.70596235277,10.5,10499899111.294037,47.655,-122.3035,60.0,12.516666666666667
2026-01-20T23:12:32+00:00,SAT-55669,280.55725701755136,46.94083212121863,2334.0382218611257,2.896469630478353,-101446.61851374095,10.5,10499898553.381487,47.655,-122.3035,60.0,12.533333333333333
2026-01-20T23:12:33+00:00,SAT-55669,280.7951867034541,46.91602928066625,2336.92696757259,2.9123364368146683,-102002.34118816296,10.5,10499897997.658812,47.655,-122.3035,60.0,12.55
2026-01-20T23:12:34+00:00,SAT-55669,281.0323155359134,46.890613133601384,2339.8315377789067,2.9281406684141285,-102555.87223060944,10.5,10499897444.12777,47.655,-122.3035,60.0,12.566666666666666
2026-01-20T23:12:35+00:00,SAT-55669,281.26863781385504,46.86458895298453,2342.751870072205,2.9438823061829167,-103107.21097233416,10.5,10499896892.789028,47.655,-122.3035,60.0,12.583333333333334
2026-01-20T23:12:36+00:00,SAT-55669,281.5041479968302,46.83796202295994,2345.687902025571,2.9595613232661924,-103656.35647276697,10.5,10499896343.643528,47.655,-122.3035,60.0,12.6
2026-01-20T23:12:37+00:00,SAT-55669,281.7388407033495,46.81073763772,2348.6395711853083,2.975177699626882,-104203.30803012483,10.5,10499895796.69197,47.655,-122.3035,60.0,12.616666666666667
2026-01-20T23:12:38+00:00,SAT-55669,281.97271071038386,46.78292110026232,2351.6068150777364,2.9907314219328573,-104748.0651774602,10.5,10499895251.934822,47.655,-122.3035,60.0,12.633333333333333
2026-01-20T23:12:39+00:00,SAT-55669,282.2057529528392,46.75451772115764,2354.589571215877,3.006222471167551,-105290.62724873247,10.5,10499894709.372751,47.655,-122.3035,60.0,12.65
2026-01-20T23:12:40+00:00,SAT-55669,282.4379625219058,46.72553281745434,2357.5877770937886,3.021650849950327,-105830.99433568283,10.5,10499894169.005665,47.655,-122.3035,60.0,12.666666666666666
2026-01-20T23:12:41+00:00,SAT-55669,282.66933466565075,46.69597171133819,2360.601370208139,3.037016544986157,-106369.16597266316,10.5,10499893630.834028,47.655,-122.3035,60.0,12.683333333333334
2026-01-20T23:12:42+00:00,SAT-55669,282.89986478646387,46.66583972916717,2363.6302880423386,3.0523195621388806,-106905.1423650499,10.5,10499893094.857635,47.655,-122.3035,60.0,12.7
2026-01-20T23:12:43+00:00,SAT-55669,283.12954844133384,46.635142200186635,2366.6744680856455,3.0675599140169214,-107438.92395444342,10.5,10499892561.076046,47.655,-122.3035,60.0,12.716666666666667
2026-01-20T23:12:44+00:00,SAT-55669,283.35838134100334,46.603884455376296,2369.7338478398915,3.0827375942024804,-107970.51051606525,10.5,10499892029.489485,47.655,-122.3035,60.0,12.733333333333333
2026-01-20T23:12:45+00:00,SAT-55669,283.5863593471452,46.57207182657779,2372.808364800509,3.097852625747899,-108499.90285730583,10.5,10499891500.097143,47.655,-122.3035,60.0,12.75
2026-01-20T23:12:46+00:00,SAT-55669,283.81347847323514,46.539709645150886,2375.897956485922,3.112905020250751,-109027.10138436133,10.5,10499890972.898615,47.655,-122.3035,60.0,12.766666666666667
2026-01-20T23:12:47+00:00,SAT-55669,284.03973488223215,46.506803241060894,2379.002560426118,3.1278948061068,-109552.10709177147,10.5,10499890447.892908,47.655,-122.3035,60.0,12.783333333333333
2026-01-20T23:12:48+00:00,SAT-55669,284.26512488636035,46.473357941692065,2382.122114179409,3.1428220025689355,-110074.92065385389,10.5,10499889925.079346,47.655,-122.3035,60.0,12.8
2026-01-20T23:12:49+00:00,SAT-55669,284.48964494493293,46.439379070951944,2385.2565553233044,3.1576866324979,-110595.54287128846,10.5,10499889404.457129,47.655,-122.3035,60.0,12.816666666666666
2026-01-20T23:12:50+00:00,SAT-55669,284.71329166302814,46.404871948262176,2388.4058214581155,3.172488732975439,-111113.97504283482,10.5,10499888886.024958,47.655,-122.3035,60.0,12.833333333333334
2026-01-20T23:12:51+00:00,SAT-55669,284.93606179105257,46.369841887450924,2391.5698502211367,3.1872283421876624,-111630.21850593203,10.5,10499888369.781494,47.655,-122.3035,60.0,12.85
2026-01-20T23:12:52+00:00,SAT-55669,285.1579522231244,46.3342941958019,2394.748579287745,3.2019055046922293,-112144.27482117782,10.5,10499887855.72518,47.655,-122.3035,60.0,12.866666666666667
2026-01-20T23:12:53+00:00,SAT-55669,285.3789599959632,46.29823417306509,2397.941946377758,3.2165202390635574,-112656.14463912681,10.5,10499887343.85536,47.655,-122.3035,60.0,12.883333333333333
2026-01-20T23:12:54+00:00,SAT-55669,285.59908228531003,46.261667110854276,2401.1498892295176,3.231072621006061,-113165.83061126788,10.5,10499886834.169388,47.655,-122.3035,60.0,12.9
2026-01-20T23:12:55+00:00,SAT-55669,285.8183164083999,46.22459829112155,2404.3723456568678,3.245562675944961,-113673.33362809978,10.5,10499886326.666372,47.655,-122.3035,60.0,12.916666666666666
2026-01-20T23:12:56+00:00,SAT-55669,286.0366598186063,46.18703298586889,2407.6092534990103,3.2599904813756395,-114178.65640383858,10.5,10499885821.343596,47.655,-122.3035,60.0,12.933333333333334
2026-01-20T23:12:57+00:00,SAT-55669,286.25411010744034,46.14897645570814,2410.8605506724352,3.2743560610411073,-114681.79977006502,10.5,10499885318.20023,47.655,-122.3035,60.0,12.95
2026-01-20T23:12:58+00:00,SAT-55669,286.4706649989895,46.11043394966528,2414.1261751173133,3.288659513003894,-115182.76716134363,10.5,10499884817.23284,47.655,-122.3035,60.0,12.966666666666667
2026-01-20T23:12:59+00:00,SAT-55669,286.68632235336565,46.0714107035051,2417.4060648716163,3.3029008729267972,-115681.55982673644,10.5,10499884318.440174,47.655,-122.3035,60.0,12.983333333333333
2026-01-20T23:13:00+00:00,SAT-55669,286.90108016053654,46.03191193968221,2420.7001580088818,3.3170802069546195,-116178.18008291424,10.5,10499883821.819918,47.655,-122.3035,60.0,13.0
2026-01-20T23:13:01+00:00,SAT-55669,287.1149365407043,45.991942866218864,2424.008392668618,3.3311976123402953,-116672.63133608617,10.5,10499883327.368664,47.655,-122.3035,60.0,13.016666666666667
2026-01-20T23:13:02+00:00,SAT-55669,287.3278897445066,45.951508675579056,2427.330707087325,3.3452531226725783,-117164.91476267249,10.5,10499882835.085238,47.655,-122.3035,60.0,13.033333333333333
2026-01-20T23:13:03+00:00,SAT-55669,287.5399381469367,45.9106145447149,2430.6670395350043,3.359246849943792,-117655.03428511805,10.5,10499882344.965715,47.655,-122.3035,60.0,13.05
2026-01-20T23:13:04+00:00,SAT-55669,287.75108025073644,45.869265633401646,2434.017328393348,3.3731788334764254,-118142.9912806628,10.5,10499881857.008718,47.655,-122.3035,60.0,13.066666666666666
2026-01-20T23:13:05+00:00,SAT-55669,287.96131467972486,45.8274670844414,2437.3815120832687,3.38704920009418,-118628.79019120918,10.5,10499881371.209808,47.655,-122.3035,60.0,13.083333333333334
2026-01-20T23:13:06+00:00,SAT-55669,288.1706401826675,45.78522402190962,2440.7595291521625,3.40085800334919,-119112.4328923795,10.5,10499880887.567108,47.655,-122.3035,60.0,13.1
2026-01-20T23:13:07+00:00,SAT-55669,288.37905562661905,45.74254155140991,2444.151318200836,3.4146053392197753,-119593.92274574046,10.5,10499880406.077253,47.655,-122.3035,60.0,13.116666666666667
2026-01-20T23:13:08+00:00,SAT-55669,288.5865599977925,45.69942475891451,2447.556817925818,3.4282913009749336,-120073.26301796694,10.5,10499879926.736982,47.655,-122.3035,60.0,13.133333333333333
2026-01-20T23:13:09+00:00,SAT-55669,288.7931523995094,45.65587871017906,2450.9759671166566,3.441915973066563,-120550.4566669216,10.5,10499879449.543333,47.655,-122.3035,60.0,13.15
2026-01-20T23:13:10+00:00,SAT-55669,288.9988320497084,45.611908450259214,2454.4087046471286,3.4554794600908654,-121025.50735600588,10.5,10499878974.492643,47.655,-122.3035,60.0,13.166666666666666
2026-01-20T23:13:11+00:00,SAT-55669,289.2035982803711,45.56751900267155,2457.854969495326,3.468981857747655,-121498.41843703212,10.5,10499878501.581562,47.655,-122.3035,60.0,13.183333333333334
2026-01-20T23:13:12+00:00,SAT-55669,289.4074505350065,45.52271536894771,2461.314700734786,3.48242326732005,-121969.19345736351,10.5,10499878030.806543,47.655,-122.3035,60.0,13.2
2026-01-20T23:13:13+00:00,SAT-55669,289.61038836712646,45.47750252801648,2464.78783754006,3.495803789756758,-122437.83595265081,10.5,10499877562.164047,47.655,-122.3035,60.0,13.216666666666667
2026-01-20T23:13:14+00:00,SAT-55669,289.8124114383172,45.431885435683185,2468.2743191863774,3.5091235433235717,-122904.35006506235,10.5,10499877095.649935,47.655,-122.3035,60.0,13.233333333333333
2026-01-20T23:13:15+00:00,SAT-55669,290.01351951739014,45.38586902389274,2471.774085066919,3.522382619274397,-123368.7389906959,10.5,10499876631.26101,47.655,-122.3035,60.0,13.25
2026-01-20T23:13:16+00:00,SAT-55669,290.21371247682373,45.339458200593995,2475.287074665875,3.535581134954129,-123831.00683946609,10.5,10499876168.99316,47.655,-122.3035,60.0,13.266666666666667
2026-01-20T23:13:17+00:00,SAT-55669,290.41299029248466,45.292657848921344,2478.8132275844696,3.5487192250750588,-124291.15832956717,10.5,10499875708.841671,47.655,-122.3035,60.0,13.283333333333333
2026-01-20T23:13:18+00:00,SAT-55669,290.611353042687,45.24547282650437,2482.3524835582775,3.561796967273346,-124749.19618014584,10.5,10499875250.80382,47.655,-122.3035,60.0,13.3
2026-01-20T23:13:19+00:00,SAT-55669,290.8088009030048,45.19790796578729,2485.904782400305,3.5748145159578444,-125205.12579925332,10.5,10499874794.8742,47.655,-122.3035,60.0,13.316666666666666
2026-01-20T23:13:20+00:00,SAT-55669,291.0053341488272,45.14996807257992,2489.470064077553,3.587771965082635,-125658.95047755894,10.5,10499874341.049522,47.655,-122.3035,60.0,13.333333333333334
2026-01-20T23:13:21+00:00,SAT-55669,291.20095315000003,45.10165792645825,2493.0482686507294,3.600669458915555,-126110.67526793262,10.5,10499873889.324732,47.655,-122.3035,60.0,13.35
2026-01-20T23:13:22+00:00,SAT-55669,291.39565837182204,45.052982279696316,2496.639336324421,3.61350711082773,-126560.30414111073,10.5,10499873439.695858,47.655,-122.3035,60.0,13.366666666666667
2026-01-20T23:13:23+00:00,SAT-55669,291.58945037143155,45.00394585730469,2500.2432074162866,3.6262850452867537,-127007.84145647491,10.5,10499872992.158543,47.655,-122.3035,60.0,13.383333333333333
2026-01-20T23:13:24+00:00,SAT-55669,291.78232979656553,44.95455335652259,2503.8598223681192,3.639003413406185,-127453.29250666121,10.5,10499872546.707493,47.655,-122.3035,60.0,13.4
2026-01-20T23:13:25+00:00,SAT-55669,291.9742973852043,44.90480944610618,2507.489121772423,3.651662319496098,-127896.66094504963,10.5,10499872103.339054,47.655,-122.3035,60.0,13.416666666666666
2026-01-20T23:13:26+00:00,SAT-55669,292.1653539611212,44.854718766639614,2511.1310463257337,3.6642619126905354,-128337.95199494518,10.5,10499871662.048004,47.655,-122.3035,60.0,13.433333333333334
2026-01-20T23:13:27+00:00,SAT-55669,292.35550043455294,44.80428592960597,2514.785536873324,3.676802325760893,-128777.1703065638,10.5,10499871222.829693,47.655,-122.3035,60.0,13.45
2026-01-20T23:13:28+00:00,SAT-55669,292.5447377994486,44.75351551731124,2518.4525343928826,3.6892836965551785,-129214.3207079258,10.5,10499870785.679293,47.655,-122.3035,60.0,13.466666666666667
2026-01-20T23:13:29+00:00,SAT-55669,292.7330671319687,44.70241208252801,2522.1319799995804,3.7017061647723315,-129649.40809187897,10.5,10499870350.591908,47.655,-122.3035,60.0,13.483333333333333
2026-01-20T23:13:30+00:00,SAT-55669,292.9204895887658,44.65098014819867,2525.8238149479134,3.714069868940358,-130082.43731026001,10.5,10499869917.562689,47.655,-122.3035,60.0,13.5
2026-01-20T23:13:31+00:00,SAT-55669,293.1070064051594,44.59922420719496,2529.5279806305366,3.726374964986162,-130513.41382428874,10.5,10499869486.586176,47.655,-122.3035,60.0,13.516666666666667
2026-01-20T23:13:32+00:00,SAT-55669,293.29261889426095,44.547148721829664,2533.244418595616,3.738621576331933,-130942.34195673227,10.5,10499869057.658043,47.655,-122.3035,60.0,13.533333333333333
2026-01-20T23:13:33+00:00,SAT-55669,293.47732844355346,44.494758124082956,2536.973070514411,3.7508098750181933,-131369.22773317742,10.5,10499868630.772266,47.655,-122.3035,60.0,13.55
2026-01-20T23:13:34+00:00,SAT-55669,293.66113651563177,44.442056814703385,2540.7138782297625,3.7629399846155307,-131794.0754815889,10.5,10499868205.924519,47.655,-122.3035,60.0,13.566666666666666
2026-01-20T23:13:35+00:00,SAT-55669,293.8440446440193,44.38904916368679,2544.4667837077523,3.775012077659982,-132216.89124490853,10.5,10499867783.108755,47.655,-122.3035,60.0,13.583333333333334
2026-01-20T23:13:36+00:00,SAT-55669,294.0260544339349,44.335739509393306,2548.231729086539,3.7870262903879874,-132637.67979471275,10.5,10499867362.320206,47.655,-122.3035,60.0,13.6
2026-01-20T23:13:37+00:00,SAT-55669,294.20716755877595,44.28213215888419,2552.0086566401524,3.798982795603417,-133056.447183324,10.5,10499866943.552816,47.655,-122.3035,60.0,13.616666666666667
2026-01-20T23:13:38+00:00,SAT-55669,294.38738576024946,44.22823138723626,2555.7975088149674,3.8108817100900905,-133473.1975010057,10.5,10499866526.8025,47.655,-122.3035,60.0,13.633333333333333
2026-01-20T23:13:39+00:00,SAT-55669,294.56671084395566,44.17404143818737,2559.5982281738306,3.8227232387642522,-133887.93792479145,10.5,10499866112.062075,47.655,-122.3035,60.0,13.65
2026-01-20T23:13:40+00:00,SAT-55669,294.74514468208827,44.11956652273671,2563.410757483958,3.8345075206870276,-134300.67332519015,10.5,10499865699.326675,47.655,-122.3035,60.0,13.666666666666666
2026-01-20T23:13:41+00:00,SAT-55669,294.9226892085328,44.06481081995472,2567.2350396512566,3.846234696132662,-134711.40861519924,10.5,10499865288.591385,47.655,-122.3035,60.0,13.683333333333334
2026-01-20T23:13:42+00:00,SAT-55669,295.0993464173779,44.00977847684935,2571.071017721533,3.8579049455750805,-135120.1501157789,10.5,10499864879.849884,47.655,-122.3035,60.0,13.7
2026-01-20T23:13:43+00:00,SAT-55669,295.27511836323504,43.95447360768302,2574.9186349205866,3.869518431607505,-135526.90352163164,10.5,10499864473.096478,47.655,-122.3035,60.0,13.716666666666667
2026-01-20T23:13:44+00:00,SAT-55669,295.4500071588148,43.89890029413058,2578.777834636376,3.8810753214134057,-135931.6746882297,10.5,10499864068.325312,47.655,-122.3035,60.0,13.733333333333333
2026-01-20T23:13:45+00:00,SAT-55669,295.62401497356853,43.84306258512823,2582.6485604235995,3.8925757637588703,-136334.46882599074,10.5,10499863665.531174,47.655,-122.3035,60.0,13.75
2026-01-20T23:13:46+00:00,SAT-55669,295.7971440312993,43.78696449706545,2586.5307559853213,3.9040199348838445,-136735.2921075832,10.5,10499863264.707891,47.655,-122.3035,60.0,13.766666666666667
2026-01-20T23:13:47+00:00,SAT-55669,295.96939660993263,43.73061001332237,2590.424365200379,3.9154080091442984,-137134.15063969066,10.5,10499862865.84936,47.655,-122.3035,60.0,13.783333333333333
2026-01-20T23:13:48+00:00,SAT-55669,296.1407750399223,43.6740030842412,2594.3293321214987,3.9267401455073108,-137531.04999001263,10.5,10499862468.95001,47.655,-122.3035,60.0,13.8
2026-01-20T23:13:49+00:00,SAT-55669,296.31128170204425,43.61714762730519,2598.2456009599514,3.9380165173906816,-137925.99623237405,10.5,10499862074.003767,47.655,-122.3035,60.0,13.816666666666666
2026-01-20T23:13:50+00:00,SAT-55669,296.48091902662634,43.56004752689307,2602.1731160999625,3.949237292585198,-138318.99524351803,10.5,10499861681.004757,47.655,-122.3035,60.0,13.833333333333334
2026-01-20T23:13:51+00:00,SAT-55669,296.64968949182304,43.502706634334224,2606.1118220931007,3.9604026569122706,-138710.0535316964,10.5,10499861289.946468,47.655,-122.3035,60.0,13.85
2026-01-20T23:13:52+00:00,SAT-55669,296.81759562302307,43.44512876762808,2610.0616636762616,3.9715127602103357,-139099.17634488497,10.5,10499860900.823654,47.655,-122.3035,60.0,13.866666666666667
2026-01-20T23:13:53+00:00,SAT-55669,296.98463998982015,43.387317711962275,2614.0225857357777,3.9825678004645333,-139486.3706173609,10.5,10499860513.629383,47.655,-122.3035,60.0,13.883333333333333
2026-01-20T23:13:54+00:00,SAT-55669,297.1508252067865,43.32927721900794,2617.994533355441,3.9935679362597623,-139871.64190343808,10.5,10499860128.358097,47.655,-122.3035,60.0,13.9
2026-01-20T23:13:55+00:00,SAT-55669,297.31615393035236,43.27101100750505,2621.9774517772044,4.004513354185351,-140254.9967382641,10.5,10499859745.003262,47.655,-122.3035,60.0,13.916666666666666
2026-01-20T23:13:56+00:00,SAT-55669,297.4806288587048,43.21252276286946,2625.971286429112,4.015404231573915,-140636.44133277732,10.5,10499859363.558668,47.655,-122.3035,60.0,13.933333333333334
2026-01-20T23:13:57+00:00,SAT-55669,297.6442527300345,43.15381613735186,2629.9759829160685,4.026240740012139,-141015.98169666916,10.5,10499858984.018303,47.655,-122.3035,60.0,13.95
2026-01-20T23:13:58+00:00,SAT-55669,297.80702832101576,43.09489475015574,2633.991487014107,4.0370230619727705,-141393.62422090716,10.5,10499858606.375778,47.655,-122.3035,60.0,13.966666666666667
2026-01-20T23:13:59+00:00,SAT-55669,297.9689584459611,43.035762187317204,2638.0177446812477,4.047751377564833,-141769.37521367113,10.5,10499858230.624786,47.655,-122.3035,60.0,13.983333333333333
2026-01-20T23:14:00+00:00,SAT-55669,298.13004595548114,42.976422001786034,2642.054702055139,4.058425867548374,-142143.2410059426,10.5,10499857856.758993,47.655,-122.3035,60.0,14.0
2026-01-20T23:14:01+00:00,SAT-55669,298.2902937352393,42.91687771347139,2646.1023054537077,4.0690467102165435,-142515.22784230186,10.5,10499857484.772158,47.655,-122.3035,60.0,14.016666666666667
2026-01-20T23:14:02+00:00,SAT-55669,298.4497047046546,42.85713280933874,2650.160501372696,4.079614094750594,-142885.34234867658,10.5,10499857114.657652,47.655,-122.3035,60.0,14.033333333333333
2026-01-20T23:14:03+00:00,SAT-55669,298.6082818161196,42.797190743317294,2654.229236496528,4.090128208000067,-143253.59106932805,10.5,10499856746.40893,47.655,-122.3035,60.0,14.05
2026-01-20T23:14:04+00:00,SAT-55669,298.76602805373045,42.73705493640745,2658.308457695973,4.1005892127853585,-143619.97970691533,10.5,10499856380.020292,47.655,-122.3035,60.0,14.066666666666666
2026-01-20T23:14:05+00:00,SAT-55669,298.92294643114246,42.67672877711891,2662.3981120041913,4.110997318158098,-143984.51558331074,10.5,10499856015.484417,47.655,-122.3035,60.0,14.083333333333334
2026-01-20T23:14:06+00:00,SAT-55669,299.0790399923047,42.6162156208711,2666.498146662834,4.121352688251925,-144347.20444716862,10.5,10499855652.795553,47.655,-122.3035,60.0,14.1
2026-01-20T23:14:07+00:00,SAT-55669,299.2343118085096,42.55551879075241,2670.608509077251,4.1316555404466655,-144708.05391205,10.5,10499855291.946089,47.655,-122.3035,60.0,14.116666666666667
2026-01-20T23:14:08+00:00,SAT-55669,299.3887649794161,42.49464157682869,2674.7291468695894,4.141906015633035,-145067.0689125437,10.5,10499854932.931087,47.655,-122.3035,60.0,14.133333333333333
2026-01-20T23:14:09+00:00,SAT-55669,299.54240262894484,42.43358723738047,2678.8600078025142,4.152104335847169,-145424.25722529442,10.5,10499854575.742775,47.655,-122.3035,60.0,14.15
2026-01-20T23:14:10+00:00,SAT-55669,299.6952279074025,42.37235899780937,2683.0010398601326,4.162250685186597,-145779.62529817634,10.5,10499854220.374702,47.655,-122.3035,60.0,14.166666666666666
2026-01-20T23:14:11+00:00,SAT-55669,299.8472439889198,42.31096005131565,2687.1521912101584,4.172345227073958,-146133.1788549416,10.5,10499853866.821146,47.655,-122.3035,60.0,14.183333333333334
2026-01-20T23:14:12+00:00,SAT-55669,299.9984540696752,42.24939355932181,2691.313410183294,4.182388185224546,-146484.92573104604,10.5,10499853515.074268,47.655,-122.3035,60.0,14.2
2026-01-20T23:14:13+00:00,SAT-55669,300.14886136914566,42.187662650705,2695.4846453333575,4.192379717061976,-146834.87144013058,10.5,10499853165.12856,47.655,-122.3035,60.0,14.216666666666667
2026-01-20T23:14:14+00:00,SAT-55669,300.29846912663703,42.12577042290658,2699.6658453711743,4.20232004382041,-147183.02373075142,10.5,10499852816.976269,47.655,-122.3035,60.0,14.233333333333333
2026-01-20T23:14:15+00:00,SAT-55669,300.44728060267164,42.06371994112052,2703.856959228211,4.212209319922933,-147529.38801145824,10.5,10499852470.611988,47.655,-122.3035,60.0,14.25
2026-01-20T23:14:16+00:00,SAT-55669,300.5952990755845,42.00151423941989,2708.0579359899475,4.222047764227782,-147873.9719475922,10.5,10499852126.028053,47.655,-122.3035,60.0,14.266666666666667
2026-01-20T23:14:17+00:00,SAT-55669,300.742527842945,41.93915631994375,2712.268724960137,4.231835549548483,-148216.78159181398,10.5,10499851783.218409,47.655,-122.3035,60.0,14.283333333333333
2026-01-20T23:14:18+00:00,SAT-55669,300.88897021896685,41.876649153724884,2716.489275614887,4.241572881098079,-148557.82413155245,10.5,10499851442.175869,47.655,-122.3035,60.0,14.3
2026-01-20T23:14:19+00:00,SAT-55669,301.0346295347644,41.813995680359476,2720.7195376349687,4.251259939669653,-148897.10589894612,10.5,10499851102.8941,47.655,-122.3035,60.0,14.316666666666666
2026-01-20T23:14:20+00:00,SAT-55669,301.17950913661764,41.75119880852031,2724.959460881466,4.260896916798532,-149234.6336023723,10.5,10499850765.366398,47.655,-122.3035,60.0,14.333333333333334
2026-01-20T23:14:21+00:00,SAT-55669,301.32361238547776,41.688261415955566,2729.2089954064863,4.270484015296421,-149570.4143451548,10.5,10499850429.585655,47.655,-122.3035,60.0,14.35
2026-01-20T23:14:22+00:00,SAT-55669,301.466942656526,41.625186349479826,2733.4680914644086,4.280021416657238,-149904.4544839784,10.5,10499850095.545517,47.655,-122.3035,60.0,14.366666666666667
2026-01-20T23:14:23+00:00,SAT-55669,301.60950333759206,41.56197642545387,2737.7366994906215,4.289509313194394,-150236.76075447214,10.5,10499849763.239246,47.655,-122.3035,60.0,14.383333333333333
2026-01-20T23:14:24+00:00,SAT-55669,301.75129782873194,41.49863442978995,2742.014770112314,4.298947908503269,-150567.3402874075,10.5,10499849432.659712,47.655,-122.3035,60.0,14.4
2026-01-20T23:14:25+00:00,SAT-55669,301.8923295418063,41.4351631179539,2746.302254159728,4.308337388287366,-150896.19958690667,10.5,10499849103.800413,47.655,-122.3035,60.0,14.416666666666666
2026-01-20T23:14:26+00:00,SAT-55669,302.03260189910645,41.37156521540091,2750.599102648313,4.317677934510199,-151223.34502610166,10.5,10499848776.654974,47.655,-122.3035,60.0,14.433333333333334
2026-01-20T23:14:27+00:00,SAT-55669,302.1721183324547,41.307843417806495,2754.905266774998,4.326969755057031,-151548.78388601364,10.5,10499848451.216114,47.655,-122.3035,60.0,14.45
2026-01-20T23:14:28+00:00,SAT-55669,302.31088228336154,41.24400039085775,2759.2206979440416,4.336213054406529,-151872.52332835054,10.5,10499848127.476671,47.655,-122.3035,60.0,14.466666666666667
2026-01-20T23:14:29+00:00,SAT-55669,302.4488972021449,41.18003877048429,2763.5453477636365,4.345407992849681,-152194.56896718082,10.5,10499847805.431032,47.655,-122.3035,60.0,14.483333333333333
2026-01-20T23:14:30+00:00,SAT-55669,302.5861665457768,41.115961163694045,2767.8791680018385,4.354554793413146,-152514.9286138414,10.5,10499847485.071386,47.655,-122.3035,60.0,14.5
2026-01-20T23:14:31+00:00,SAT-55669,302.722693779255,41.051770147827156,2772.222110649136,4.363653627668867,-152833.60827750748,10.5,10499847166.391722,47.655,-122.3035,60.0,14.516666666666667
2026-01-20T23:14:32+00:00,SAT-55669,302.85848237324126,40.98746827150399,2776.574127867131,4.372704715185063,-153150.61564838688,10.5,10499846849.384352,47.655,-122.3035,60.0,14.533333333333333
2026-01-20T23:14:33+00:00,SAT-55669,302.9935358049437,40.923058054102256,2780.935172036409,4.381708227573827,-153465.956737061,10.5,10499846534.043262,47.655,-122.3035,60.0,14.55
2026-01-20T23:14:34+00:00,SAT-55669,303.1278575559351,40.85854198665603,2785.305195708709,4.390664362154025,-153779.63845447128,10.5,10499846220.361546,47.655,-122.3035,60.0,14.566666666666666
2026-01-20T23:14:35+00:00,SAT-55669,303.2614511123335,40.793922531666034,2789.684151632564,4.399573324196131,-154091.6679900579,10.5,10499845908.33201,47.655,-122.3035,60.0,14.583333333333334
2026-01-20T23:14:36+00:00,SAT-55669,303.3943199644553,40.72920212317527,2794.071992761229,4.408435292198109,-154402.05159557462,10.5,10499845597.948404,47.655,-122.3035,60.0,14.6
2026-01-20T23:14:37+00:00,SAT-55669,303.5264676053367,40.66438316735888,2798.4686722259817,4.417250479004428,-154710.79672573518,10.5,10499845289.203274,47.655,-122.3035,60.0,14.616666666666667
2026-01-20T23:14:38+00:00,SAT-55669,303.6578975312515,40.59946804221176,2802.874143370375,4.426019044241331,-155017.90897132564,10.5,10499844982.091028,47.655,-122.3035,60.0,14.633333333333333
2026-01-20T23:14:39+00:00,SAT-55669,303.78861323946137,40.534459098531336,2807.288359697165,4.434741234399975,-155323.39696550916,10.5,10499844676.603035,47.655,-122.3035,60.0,14.65
2026-01-20T23:14:40+00:00,SAT-55669,303.9186182303484,40.46935865883403,2811.71127495494,4.443417190256223,-155627.26563885188,10.5,10499844372.734362,47.655,-122.3035,60.0,14.666666666666666
2026-01-20T23:14:41+00:00,SAT-55669,304.0479160036117,40.40416901911264,2816.1428430326887,4.452047143190336,-155929.52309526922,10.5,10499844070.476904,47.655,-122.3035,60.0,14.683333333333334
2026-01-20T23:14:42+00:00,SAT-55669,304.176510060518,40.33889244770147,2820.583018050164,4.4606312561640005,-156230.17504236885,10.5,10499843769.824957,47.655,-122.3035,60.0,14.7
2026-01-20T23:14:43+00:00,SAT-55669,304.304403901287,40.27353118648479,2825.0317542896446,4.469169741476877,-156529.22891578282,10.5,10499843470.771084,47.655,-122.3035,60.0,14.716666666666667
2026-01-20T23:14:44+00:00,SAT-55669,304.43160102609806,40.20808745037194,2829.4890062451445,4.477662803642189,-156826.69187842938,10.5,10499843173.30812,47.655,-122.3035,60.0,14.733333333333333
2026-01-20T23:14:45+00:00,SAT-55669,304.5581049343251,40.142563427615876,2833.9547286146435,4.486110601464386,-157122.56949231206,10.5,10499842877.430508,47.655,-122.3035,60.0,14.75
2026-01-20T23:14:46+00:00,SAT-55669,304.68391912273614,40.076961280685715,2838.4288762545043,4.494513350437797,-157416.86930495384,10.5,10499842583.130695,47.655,-122.3035,60.0,14.766666666666667
2026-01-20T23:14:47+00:00,SAT-55669,304.80904708668163,40.01128314563977,2842.9114042360075,4.50287124733495,-157709.59820816095,10.5,10499842290.401793,47.655,-122.3035,60.0,14.783333333333333
