satellites_20260120_184412/SAT-52485.csv

timestamp,satellite,azimuth_deg,elevation_deg,distance_km,relative_velocity_kms,doppler_shift_hz,tx_freq_ghz,rx_freq_hz,ue_lat,ue_lon,ue_alt_m,time_minutes
2026-01-20T23:08:58+00:00,SAT-52485,201.17220253049138,40.10709202516575,1123.3894853458883,-4.641047000794788,162549.0975771821,10.5,10500162549.097578,47.655,-122.3035,60.0,8.966666666666667
2026-01-20T23:08:59+00:00,SAT-52485,201.23045935024783,40.39114770954863,1118.7608144704288,-4.617179546827321,161713.15838001127,10.5,10500161713.15838,47.655,-122.3035,60.0,8.983333333333333
2026-01-20T23:09:00+00:00,SAT-52485,201.2900470850689,40.67728743130235,1114.155947402393,-4.593009933892274,160866.63629766455,10.5,10500160866.636297,47.655,-122.3035,60.0,9.0
2026-01-20T23:09:01+00:00,SAT-52485,201.3509995728909,40.96552411255416,1109.575185494991,-4.5685347710683235,160009.4125657337,10.5,10500160009.412565,47.655,-122.3035,60.0,9.016666666666667
2026-01-20T23:09:02+00:00,SAT-52485,201.41335179985663,41.2558704515521,1105.0188334833124,-4.543750645607378,159141.3676553447,10.5,10500159141.367655,47.655,-122.3035,60.0,9.033333333333333
2026-01-20T23:09:03+00:00,SAT-52485,201.47713994865344,41.54833890556301,1100.4871995060932,-4.518654182548888,158262.38336110284,10.5,10500158262.383362,47.655,-122.3035,60.0,9.05
2026-01-20T23:09:04+00:00,SAT-52485,201.54240145010465,41.842941676840866,1095.9805950680313,-4.493241968220177,157372.34012175136,10.5,10500157372.340122,47.655,-122.3035,60.0,9.066666666666666
2026-01-20T23:09:05+00:00,SAT-52485,201.60917503631714,42.13969069301308,1091.499335078393,-4.467510610793644,156471.11914114017,10.5,10500156471.11914,47.655,-122.3035,60.0,9.083333333333334
2026-01-20T23:09:06+00:00,SAT-52485,201.6775007973709,42.438597590533895,1087.043737829228,-4.441456713115157,155558.60143656164,10.5,10500155558.601437,47.655,-122.3035,60.0,9.1
2026-01-20T23:09:07+00:00,SAT-52485,201.74742024051588,42.73967369556251,1082.6141250006813,-4.415076922013959,154634.669565792,10.5,10500154634.669565,47.655,-122.3035,60.0,9.116666666666667
2026-01-20T23:09:08+00:00,SAT-52485,201.81897635324424,43.04293000737874,1078.210821617126,-4.38836781804934,153699.20376555328,10.5,10500153699.203766,47.655,-122.3035,60.0,9.133333333333333
2026-01-20T23:09:09+00:00,SAT-52485,201.8922136678353,43.34837717346411,1073.8341561132581,-4.361326066585442,152752.08724279227,10.5,10500152752.087242,47.655,-122.3035,60.0,9.15
2026-01-20T23:09:10+00:00,SAT-52485,201.9671783317532,43.65602547388943,1069.4844602495168,-4.333948324730508,151793.20291529928,10.5,10500151793.202915,47.655,-122.3035,60.0,9.166666666666666
2026-01-20T23:09:11+00:00,SAT-52485,202.04391818027545,43.96588479855855,1065.1620691203188,-4.306231255025392,150822.4338911375,10.5,10500150822.433891,47.655,-122.3035,60.0,9.183333333333334
2026-01-20T23:09:12+00:00,SAT-52485,202.12248281318497,44.27796462437695,1060.8673211486403,-4.278171540911362,149839.66401039116,10.5,10500149839.664011,47.655,-122.3035,60.0,9.2
2026-01-20T23:09:13+00:00,SAT-52485,202.20292367586623,44.59227399246997,1056.6005580651713,-4.249765907337391,148844.7785669198,10.5,10500148844.778566,47.655,-122.3035,60.0,9.216666666666667
2026-01-20T23:09:14+00:00,SAT-52485,202.28529414517126,44.908821485918835,1052.36212486692,-4.221011090239273,147837.66323938797,10.5,10500147837.663239,47.655,-122.3035,60.0,9.233333333333333
2026-01-20T23:09:15+00:00,SAT-52485,202.36964961945264,45.22761520425846,1048.152369806255,-4.191903858366393,146818.204855731,10.5,10500146818.204855,47.655,-122.3035,60.0,9.25
2026-01-20T23:09:16+00:00,SAT-52485,202.45604761393886,45.54866273844515,1043.9716443581774,-4.162441013163948,145786.29138902974,10.5,10500145786.29139,47.655,-122.3035,60.0,9.266666666666667
2026-01-20T23:09:17+00:00,SAT-52485,202.5445478614189,45.87197114469587,1039.8203031877151,-4.132619388237917,144741.81193877177,10.5,10500144741.81194,47.655,-122.3035,60.0,9.283333333333333
2026-01-20T23:09:18+00:00,SAT-52485,202.63521241858246,46.197546917111005,1035.6987041178459,-4.102435877309181,143684.65770992276,10.5,10500143684.65771,47.655,-122.3035,60.0,9.3
2026-01-20T23:09:19+00:00,SAT-52485,202.7281057789696,46.525395961285724,1031.607208069543,-4.071887364209931,142614.71956110475,10.5,10500142614.71956,47.655,-122.3035,60.0,9.316666666666666
2026-01-20T23:09:20+00:00,SAT-52485,202.82329499078818,46.85552356112249,1027.5461790716377,-4.040970845945791,141531.89231475198,10.5,10500141531.892315,47.655,-122.3035,60.0,9.333333333333334
2026-01-20T23:09:21+00:00,SAT-52485,202.92084978433076,47.187934354071274,1023.5159841479476,-4.009683334681435,140436.07132423282,10.5,10500140436.071323,47.655,-122.3035,60.0,9.35
2026-01-20T23:09:22+00:00,SAT-52485,203.02084270452838,47.52263229729652,1019.5169933021587,-3.9780218858387895,139327.15345796754,10.5,10500139327.153458,47.655,-122.3035,60.0,9.366666666666667
2026-01-20T23:09:23+00:00,SAT-52485,203.1233492518813,47.859620634578235,1015.5495794746821,-3.94598362770884,138205.0381365592,10.5,10500138205.038137,47.655,-122.3035,60.0,9.383333333333333
2026-01-20T23:09:24+00:00,SAT-52485,203.22844803244251,48.19890186416165,1011.6141184699806,-3.9135657709184937,137069.627664363,10.5,10500137069.627665,47.655,-122.3035,60.0,9.4
2026-01-20T23:09:25+00:00,SAT-52485,203.33622091706033,48.54047770602143,1007.7109888744511,-3.8807655443786264,135920.82498611615,10.5,10500135920.824986,47.655,-122.3035,60.0,9.416666666666666
2026-01-20T23:09:26+00:00,SAT-52485,203.44675320844033,48.88434906204714,1003.8405720381909,-3.847580302926682,134758.5374570369,10.5,10500134758.537457,47.655,-122.3035,60.0,9.433333333333334
2026-01-20T23:09:27+00:00,SAT-52485,203.56013382127583,49.23051598379313,1000.0032519494054,-3.8140074224339227,133582.67316903677,10.5,10500133582.673168,47.655,-122.3035,60.0,9.45
2026-01-20T23:09:28+00:00,SAT-52485,203.67645547047212,49.57897762943086,996.1994152134313,-3.7800444114967573,132393.14486262345,10.5,10500132393.144863,47.655,-122.3035,60.0,9.466666666666667
2026-01-20T23:09:29+00:00,SAT-52485,203.79581487425708,49.9297322287638,992.4294509203652,-3.745688821026741,131189.86676035987,10.5,10500131189.86676,47.655,-122.3035,60.0,9.483333333333333
2026-01-20T23:09:30+00:00,SAT-52485,203.9183129671967,50.282777038283285,988.6937506028612,-3.7109382969134423,129972.75641134087,10.5,10500129972.75641,47.655,-122.3035,60.0,9.5
2026-01-20T23:09:31+00:00,SAT-52485,204.04405512823507,50.638108298962294,984.9927081414062,-3.675790612872846,128741.73584168313,10.5,10500128741.735842,47.655,-122.3035,60.0,9.516666666666667
2026-01-20T23:09:32+00:00,SAT-52485,204.17315142430144,50.995721195143624,981.3267196368342,-3.640243611162764,127496.7294781279,10.5,10500127496.729479,47.655,-122.3035,60.0,9.533333333333333
2026-01-20T23:09:33+00:00,SAT-52485,204.3057168675958,51.3556098057973,977.696183341968,-3.604295241987774,126237.6655281689,10.5,10500126237.665527,47.655,-122.3035,60.0,9.55
2026-01-20T23:09:34+00:00,SAT-52485,204.44187169077605,51.7177670571325,974.1014995539588,-3.5679435645973556,124964.47601851357,10.5,10500124964.476019,47.655,-122.3035,60.0,9.566666666666666
2026-01-20T23:09:35+00:00,SAT-52485,204.5817416401557,52.08218467298584,970.5430705055337,-3.5311867530433916,123677.09699673502,10.5,10500123677.096996,47.655,-122.3035,60.0,9.583333333333334
2026-01-20T23:09:36+00:00,SAT-52485,204.72545828843792,52.448853123275555,967.0213002504985,-3.4940231159572757,122375.46922395025,10.5,10500122375.469223,47.655,-122.3035,60.0,9.6
2026-01-20T23:09:37+00:00,SAT-52485,204.8731593690366,52.81776157190712,963.536594529517,-3.456451077779718,121059.53751740826,10.5,10500121059.537518,47.655,-122.3035,60.0,9.616666666666667
2026-01-20T23:09:38+00:00,SAT-52485,205.0249891321035,53.18889782001729,960.0893606546114,-3.4184691661932187,119729.25031032234,10.5,10500119729.25031,47.655,-122.3035,60.0,9.633333333333333
2026-01-20T23:09:39+00:00,SAT-52485,205.18109872398688,53.562248244827835,956.6800074061947,-3.3800760899132465,118384.56237644606,10.5,10500118384.562376,47.655,-122.3035,60.0,9.65
2026-01-20T23:09:40+00:00,SAT-52485,205.34164659613867,53.937797743663985,953.3089448525212,-3.341270668761256,117025.43238093464,10.5,10500117025.43238,47.655,-122.3035,60.0,9.666666666666666
2026-01-20T23:09:41+00:00,SAT-52485,205.50679893906184,54.31552966730406,949.9765842388767,-3.30205189317113,115651.82496451215,10.5,10500115651.824965,47.655,-122.3035,60.0,9.683333333333334
2026-01-20T23:09:42+00:00,SAT-52485,205.67673014928485,54.69542575626074,946.6833378174207,-3.2624188621547257,114263.7085707627,10.5,10500114263.70857,47.655,-122.3035,60.0,9.7
2026-01-20T23:09:43+00:00,SAT-52485,205.85162332603306,55.07746606639716,943.4296187388983,-3.2223708908668476,112861.05921351064,10.5,10500112861.059214,47.655,-122.3035,60.0,9.716666666666667
2026-01-20T23:09:44+00:00,SAT-52485,206.0316708086901,55.46162890274004,940.2158408370739,-3.181907414331904,111443.85710492087,10.5,10500111443.857105,47.655,-122.3035,60.0,9.733333333333333
2026-01-20T23:09:45+00:00,SAT-52485,206.2170747476816,55.847890738154824,937.04241850918,-3.141028057338736,110012.08910351149,10.5,10500110012.089104,47.655,-122.3035,60.0,9.75
2026-01-20T23:09:46+00:00,SAT-52485,206.40804772037947,56.23622613546009,933.909766526661,-3.099732604910635,108565.74767988882,10.5,10500108565.74768,47.655,-122.3035,60.0,9.766666666666667
2026-01-20T23:09:47+00:00,SAT-52485,206.60481339024807,56.62660766125795,930.8182998753634,-3.0580210366700227,107104.83212034387,10.5,10500107104.83212,47.655,-122.3035,60.0,9.783333333333333
2026-01-20T23:09:48+00:00,SAT-52485,206.80760721656273,57.019005798651634,927.7684335614579,-3.0158935225465298,105629.34837653108,10.5,10500105629.348377,47.655,-122.3035,60.0,9.8
2026-01-20T23:09:49+00:00,SAT-52485,207.01667721667167,57.413388853977025,924.7605824216381,-2.9733503901823264,104139.30792386521,10.5,10500104139.307924,47.655,-122.3035,60.0,9.816666666666666
2026-01-20T23:09:50+00:00,SAT-52485,207.2322847829834,57.809722853137735,921.7951609658296,-2.9303922000978235,102634.73039414203,10.5,10500102634.730394,47.655,-122.3035,60.0,9.833333333333334
2026-01-20T23:09:51+00:00,SAT-52485,207.45470556697774,58.20797144106787,918.872583144932,-2.887019717815818,101115.64259920803,10.5,10500101115.6426,47.655,-122.3035,60.0,9.85
2026-01-20T23:09:52+00:00,SAT-52485,207.68423042873442,58.60809577068166,915.9932621463637,-2.843233871801988,99582.07705785873,10.5,10500099582.077059,47.655,-122.3035,60.0,9.866666666666667
2026-01-20T23:09:53+00:00,SAT-52485,207.92116645606652,59.01005437831656,913.1576102315532,-2.7990358448359474,98034.07519603928,10.5,10500098034.075195,47.655,-122.3035,60.0,9.883333333333333
2026-01-20T23:09:54+00:00,SAT-52485,208.16583806975012,59.41380306308216,910.3660384823035,-2.754427026206694,96471.6856725271,10.5,10500096471.685673,47.655,-122.3035,60.0,9.9
2026-01-20T23:09:55+00:00,SAT-52485,208.41858821140428,59.819294750804666,907.6189565948334,-2.709409023137263,94894.96477907148,10.5,10500094894.964779,47.655,-122.3035,60.0,9.916666666666666
2026-01-20T23:09:56+00:00,SAT-52485,208.67977962571717,60.22647934950046,904.9167726624245,-2.6639836721215913,93303.97683745835,10.5,10500093303.976837,47.655,-122.3035,60.0,9.933333333333334
2026-01-20T23:09:57+00:00,SAT-52485,208.94979624535904,60.6353035956476,902.259892946762,-2.6181530418739607,91698.79430281262,10.5,10500091698.794302,47.655,-122.3035,60.0,9.95
2026-01-20T23:09:58+00:00,SAT-52485,209.229044686779,61.04571088902176,899.6487216463329,-2.5719194369230114,90079.49788947531,10.5,10500090079.497889,47.655,-122.3035,60.0,9.966666666666667
2026-01-20T23:09:59+00:00,SAT-52485,209.51795586661572,61.457641115119586,897.0836606612418,-2.525285407001984,88446.17689988996,10.5,10500088446.176899,47.655,-122.3035,60.0,9.983333333333333
2026-01-20T23:10:00+00:00,SAT-52485,209.8169867498664,61.87103045477742,894.5651093486583,-2.478253726157842,86798.9284929154,10.5,10500086798.928493,47.655,-122.3035,60.0,10.0
2026-01-20T23:10:01+00:00,SAT-52485,210.1266222377288,62.28581117474977,892.0934642991036,-2.4308274522557993,85137.85976792616,10.5,10500085137.859768,47.655,-122.3035,60.0,10.016666666666667
2026-01-20T23:10:02+00:00,SAT-52485,210.44737721696148,62.70191141068329,889.6691190533872,-2.3830098678522735,83463.0856939332,10.5,10500083463.085693,47.655,-122.3035,60.0,10.033333333333333
2026-01-20T23:10:03+00:00,SAT-52485,210.77979877030637,63.119254921615365,887.2924638785158,-2.3348045076675925,81774.73007179427,10.5,10500081774.730072,47.655,-122.3035,60.0,10.05
2026-01-20T23:10:04+00:00,SAT-52485,211.12446857210253,63.537760827750105,884.9638855162019,-2.2862151847881518,80072.92645192426,10.5,10500080072.926453,47.655,-122.3035,60.0,10.066666666666666
2026-01-20T23:10:05+00:00,SAT-52485,211.48200548573254,63.95734332985405,882.68376690524,-2.237245966704621,78357.8172950519,10.5,10500078357.817295,47.655,-122.3035,60.0,10.083333333333334
2026-01-20T23:10:06+00:00,SAT-52485,211.85306837264991,64.3779113990665,880.4524869277799,-2.187901166187996,76629.55365266046,10.5,10500076629.553652,47.655,-122.3035,60.0,10.1
2026-01-20T23:10:07+00:00,SAT-52485,212.23835913195515,64.79936843659311,878.2704201647018,-2.138185390966939,74888.29690689837,10.5,10500074888.296907,47.655,-122.3035,60.0,10.116666666666667
2026-01-20T23:10:08+00:00,SAT-52485,212.63862599951233,65.22161191133195,876.137936601444,-2.088103488133747,73134.21682344105,10.5,10500073134.216824,47.655,-122.3035,60.0,10.133333333333333
2026-01-20T23:10:09+00:00,SAT-52485,213.05466710930148,65.64453295253742,874.0554013892787,-2.0376605874173572,71367.4930670946,10.5,10500071367.493067,47.655,-122.3035,60.0,10.15
2026-01-20T23:10:10+00:00,SAT-52485,213.48733435423728,66.0680159121584,872.0231745634277,-1.9868620890351172,69588.31477631345,10.5,10500069588.314775,47.655,-122.3035,60.0,10.166666666666666
2026-01-20T23:10:11+00:00,SAT-52485,213.9375375591953,66.49193788248323,870.0416107732967,-1.9357136611031485,67796.88047250027,10.5,10500067796.880472,47.655,-122.3035,60.0,10.183333333333334
2026-01-20T23:10:12+00:00,SAT-52485,214.40624898943176,66.91616816601822,868.1110590152899,-1.8842212284040591,65993.3976666038,10.5,10500065993.397667,47.655,-122.3035,60.0,10.2
2026-01-20T23:10:13+00:00,SAT-52485,214.89450821377807,67.34056769039599,866.2318623768282,-1.832391014890629,64178.08434777771,10.5,10500064178.084349,47.655,-122.3035,60.0,10.216666666666667
2026-01-20T23:10:14+00:00,SAT-52485,215.4034273574255,67.76498837440067,864.4043577379773,-1.780229484555077,62351.16691237212,10.5,10500062351.166912,47.655,-122.3035,60.0,10.233333333333333
2026-01-20T23:10:15+00:00,SAT-52485,215.93419673936972,68.1892724166976,862.6288755320477,-1.7277433825233295,60512.88160322886,10.5,10500060512.881603,47.655,-122.3035,60.0,10.25
2026-01-20T23:10:16+00:00,SAT-52485,216.48809093574943,68.6132515218843,860.905739465211,-1.6749397303550055,58663.47434506694,10.5,10500058663.474344,47.655,-122.3035,60.0,10.266666666666667
2026-01-20T23:10:17+00:00,SAT-52485,217.06647527258323,69.03674604681252,859.2352662408036,-1.621825786375719,56803.19935515205,10.5,10500056803.199356,47.655,-122.3035,60.0,10.283333333333333
2026-01-20T23:10:18+00:00,SAT-52485,217.67081274131195,69.45956404943948,857.6177653231916,-1.5684091106744478,54932.32141977935,10.5,10500054932.32142,47.655,-122.3035,60.0,10.3
2026-01-20T23:10:19+00:00,SAT-52485,218.30267137066525,69.88150025709253,856.0535386368124,-1.514697481441414,53051.11296407213,10.5,10500053051.112965,47.655,-122.3035,60.0,10.316666666666666
2026-01-20T23:10:20+00:00,SAT-52485,218.96373198926247,70.30233490689682,854.5428803486546,-1.4606989652236206,51159.85651262787,10.5,10500051159.856512,47.655,-122.3035,60.0,10.333333333333334
2026-01-20T23:10:21+00:00,SAT-52485,219.65579640391192,70.72183248698963,853.0860765806717,-1.406421859679486,49258.842684543466,10.5,10500049258.842684,47.655,-122.3035,60.0,10.35
2026-01-20T23:10:22+00:00,SAT-52485,220.38079589269165,71.13974033411715,851.6834051792847,-1.3518747328766825,47348.37156979168,10.5,10500047348.37157,47.655,-122.3035,60.0,10.366666666666667
2026-01-20T23:10:23+00:00,SAT-52485,221.14079997171956,71.5557871020664,850.3351354456958,-1.2970663667106328,45428.75074749761,10.5,10500045428.750748,47.655,-122.3035,60.0,10.383333333333333
2026-01-20T23:10:24+00:00,SAT-52485,221.93802526994642,71.96968106164071,849.0415279226296,-1.2420058065382686,43500.297024322805,10.5,10500043500.297024,47.655,-122.3035,60.0,10.4
2026-01-20T23:10:25+00:00,SAT-52485,222.77484439716915,72.38110825145664,847.8028341315754,-1.1867023183400593,41563.334934098384,10.5,10500041563.334934,47.655,-122.3035,60.0,10.416666666666666
2026-01-20T23:10:26+00:00,SAT-52485,223.65379452580086,72.78973044125662,846.619296352751,-1.1311653966505277,39618.19701558517,10.5,10500039618.197016,47.655,-122.3035,60.0,10.433333333333334
2026-01-20T23:10:27+00:00,SAT-52485,224.57758540166543,73.19518291311317,845.4911473971582,-1.0754047520256773,37665.22337353,10.5,10500037665.223373,47.655,-122.3035,60.0,10.45
2026-01-20T23:10:28+00:00,SAT-52485,225.54910636012298,73.59707204693376,844.4186103911379,-1.0194303128936737,35704.761743484465,10.5,10500035704.761744,47.655,-122.3035,60.0,10.466666666666667
2026-01-20T23:10:29+00:00,SAT-52485,226.57143182344635,73.9949727120264,843.4018985590785,-0.9632522092279058,33737.16691996638,10.5,10500033737.16692,47.655,-122.3035,60.0,10.483333333333333
2026-01-20T23:10:30+00:00,SAT-52485,227.6478245769617,74.38842546070511,842.4412150224086,-0.9068807657668225,31762.80051898983,10.5,10500031762.80052,47.655,-122.3035,60.0,10.5
2026-01-20T23:10:31+00:00,SAT-52485,228.78173595782982,74.7769335376823,841.5367526053506,-0.8503264967242576,29782.03079279835,10.5,10500029782.030792,47.655,-122.3035,60.0,10.516666666666667
2026-01-20T23:10:32+00:00,SAT-52485,229.97680186709127,75.15995972778441,840.6886936459508,-0.7936000996942214,27795.23241638495,10.5,10500027795.232416,47.655,-122.3035,60.0,10.533333333333333
2026-01-20T23:10:33+00:00,SAT-52485,231.2368332604085,75.53692307928887,839.8972098131892,-0.7367124372815506,25802.785844119804,10.5,10500025802.785845,47.655,-122.3035,60.0,10.55
2026-01-20T23:10:34+00:00,SAT-52485,232.56579946375712,75.90719555453533,839.162461942407,-0.679674527609508,23805.07697728618,10.5,10500023805.076977,47.655,-122.3035,60.0,10.566666666666666
2026-01-20T23:10:35+00:00,SAT-52485,233.9678023695165,76.27009869430233,838.4845998802045,-0.6224975529450338,21802.497466173267,10.5,10500021802.497467,47.655,-122.3035,60.0,10.583333333333334
2026-01-20T23:10:36+00:00,SAT-52485,235.44703927677028,76.62490042188539,837.8637623207339,-0.56519282362772,19795.443446716265,10.5,10500019795.443447,47.655,-122.3035,60.0,10.6
2026-01-20T23:10:37+00:00,SAT-52485,237.00775171344364,76.97081212186829,837.3000766779693,-0.5077717824424071,17784.315693643213,10.5,10500017784.315693,47.655,-122.3035,60.0,10.616666666666667
2026-01-20T23:10:38+00:00,SAT-52485,238.65415748371257,77.30698621846027,836.7936589536133,-0.45024599076028377,15769.519135077706,10.5,10500015769.519135,47.655,-122.3035,60.0,10.633333333333333
2026-01-20T23:10:39+00:00,SAT-52485,240.39036297474095,77.63251450734906,836.3446136188285,-0.3926271179184932,13751.462480567734,10.5,10500013751.46248,47.655,-122.3035,60.0,10.65
2026-01-20T23:10:40+00:00,SAT-52485,242.22025290156395,77.94642756757344,835.9530335065577,-0.3349269256759756,11730.55767666358,10.5,10500011730.557676,47.655,-122.3035,60.0,10.666666666666666
2026-01-20T23:10:41+00:00,SAT-52485,244.14735509287775,78.24769564009401,835.6189997193502,-0.2771572623558553,9707.219701759412,10.5,10500009707.219702,47.655,-122.3035,60.0,10.683333333333334
2026-01-20T23:10:42+00:00,SAT-52485,246.17467891638177,78.53523143174033,835.3425815430273,-0.21933004526624555,7681.865950395517,10.5,10500007681.86595,47.655,-122.3035,60.0,10.7
2026-01-20T23:10:43+00:00,SAT-52485,248.30452742820432,78.80789533592944,835.1238363778818,-0.16145725336549377,5654.91597636417,10.5,10500005654.915976,47.655,-122.3035,60.0,10.716666666666667
2026-01-20T23:10:44+00:00,SAT-52485,250.5382857860683,79.06450359990775,834.9628096771919,-0.1035509110894853,3626.7909262733874,10.5,10500003626.790926,47.655,-122.3035,60.0,10.733333333333333
2026-01-20T23:10:45+00:00,SAT-52485,252.87619155914774,79.30383992914192,834.8595349018655,-0.045623078595856445,1597.9131978580085,10.5,10500001597.913198,47.655,-122.3035,60.0,10.75
2026-01-20T23:10:46+00:00,SAT-52485,255.3170966675499,79.52467094687465,834.8140334848125,0.01231416154844101,-431.2940262781081,10.5,10499999568.705975,47.655,-122.3035,60.0,10.766666666666667
2026-01-20T23:10:47+00:00,SAT-52485,257.85823518455777,79.7257657491924,834.8263148085967,0.07024871771756501,-2460.4072462504464,10.5,10499997539.592754,47.655,-122.3035,60.0,10.783333333333333
2026-01-20T23:10:48+00:00,SAT-52485,260.4950157800831,79.90591952833094,834.8963761964004,0.128168500227073,-4489.003030170514,10.5,10499995510.99697,47.655,-122.3035,60.0,10.8
2026-01-20T23:10:49+00:00,SAT-52485,263.22086143079156,80.06398087847052,835.0242029139602,0.1860614353789564,-6516.658506062357,10.5,10499993483.341494,47.655,-122.3035,60.0,10.816666666666666
2026-01-20T23:10:50+00:00,SAT-52485,266.0271209354769,80.19888194938531,835.2097681855115,0.24391547668008373,-8542.9517547799,10.5,10499991457.048244,47.655,-122.3035,60.0,10.833333333333334
2026-01-20T23:10:51+00:00,SAT-52485,268.9030755694465,80.30967012340184,835.4530332209204,0.30171861791806015,-10567.46226797884,10.5,10499989432.537731,47.655,-122.3035,60.0,10.85
2026-01-20T23:10:52+00:00,SAT-52485,271.8360593991914,80.39553945029937,835.7539472558574,0.3594589064016227,-12589.771411851323,10.5,10499987410.228588,47.655,-122.3035,60.0,10.866666666666667
2026-01-20T23:10:53+00:00,SAT-52485,274.81170247362513,80.45585973337792,836.1124476051752,0.417124452410606,-14609.462758103682,10.5,10499985390.537241,47.655,-122.3035,60.0,10.883333333333333
2026-01-20T23:10:54+00:00,SAT-52485,277.814293409603,80.49020103910355,836.5284597257128,0.47470344540345144,-16626.122651612004,10.5,10499983373.877348,47.655,-122.3035,60.0,10.9
2026-01-20T23:10:55+00:00,SAT-52485,280.8272434771411,80.49835155702046,837.0018972952619,0.5321841608352302,-18639.3404492181,10.5,10499981360.659552,47.655,-122.3035,60.0,10.916666666666666
2026-01-20T23:10:56+00:00,SAT-52485,283.8336204411115,80.48032718315542,837.5326622983348,0.5895549776684816,-20648.709133033153,10.5,10499979351.290867,47.655,-122.3035,60.0,10.933333333333334
2026-01-20T23:10:57+00:00,SAT-52485,286.8167104961998,80.43637190734233,838.1206451293962,0.6468043831474302,-22653.825477650997,10.5,10499977346.174522,47.655,-122.3035,60.0,10.95
2026-01-20T23:10:58+00:00,SAT-52485,289.76056227628203,80.36694894131868,838.7657247008552,0.7039209914049273,-24654.29070184193,10.5,10499975345.7093,47.655,-122.3035,60.0,10.966666666666667
2026-01-20T23:10:59+00:00,SAT-52485,292.6504697645858,80.27272339422998,839.4677685696164,0.7608935467794752,-26649.710584728884,10.5,10499973350.289415,47.655,-122.3035,60.0,10.983333333333333
2026-01-20T23:11:00+00:00,SAT-52485,295.47335969277344,80.15453804185171,840.2266330669378,0.8177109393916543,-28639.696011339853,10.5,10499971360.30399,47.655,-122.3035,60.0,11.0
2026-01-20T23:11:01+00:00,SAT-52485,298.2180622921568,80.01338422905515,841.0421634438244,0.8743622163214005,-30623.86336408338,10.5,10499969376.136637,47.655,-122.3035,60.0,11.016666666666667
2026-01-20T23:11:02+00:00,SAT-52485,300.8754587383239,79.85037014571793,841.9141940275689,0.9308365833420513,-32601.834583482214,10.5,10499967398.165417,47.655,-122.3035,60.0,11.033333333333333
2026-01-20T23:11:03+00:00,SAT-52485,303.4385119291761,79.66668863242968,842.8425483800221,0.9871234311212344,-34573.23808583924,10.5,10499965426.761913,47.655,-122.3035,60.0,11.05
2026-01-20T23:11:04+00:00,SAT-52485,305.90219740831617,79.4635863560041,843.8270394819937,1.043212316540361,-36537.70810896715,10.5,10499963462.291891,47.655,-122.3035,60.0,11.066666666666666
2026-01-20T23:11:05+00:00,SAT-52485,308.2633569706661,79.24233576342084,844.8674698990231,1.0990930026283756,-38494.88611083719,10.5,10499961505.11389,47.655,-122.3035,60.0,11.083333333333334
2026-01-20T23:11:06+00:00,SAT-52485,310.52049967985965,79.00421071190848,845.9636319869779,1.1547554519072525,-40444.42053651047,10.5,10499959555.579464,47.655,-122.3035,60.0,11.1
2026-01-20T23:11:07+00:00,SAT-52485,312.67357338923836,78.75046623307128,847.1153080910135,1.210189825458651,-42385.96678544807,10.5,10499957614.033215,47.655,-122.3035,60.0,11.116666666666667
2026-01-20T23:11:08+00:00,SAT-52485,314.7237265665419,78.48232249459096,848.3222707436041,1.2653865057493356,-44319.18801095398,10.5,10499955680.811989,47.655,-122.3035,60.0,11.133333333333333
2026-01-20T23:11:09+00:00,SAT-52485,316.67307575322684,78.20095273324846,849.5842828853382,1.3203360991682085,-46243.7552090326,10.5,10499953756.244791,47.655,-122.3035,60.0,11.15
2026-01-20T23:11:10+00:00,SAT-52485,318.5244892902273,77.90747475724027,850.901098088242,1.3750294388287614,-48159.347316542546,10.5,10499951840.652683,47.655,-122.3035,60.0,11.166666666666666
2026-01-20T23:11:11+00:00,SAT-52485,320.2813938360119,77.60294551321311,852.2724607819006,1.4294575914870893,-50065.65145349466,10.5,10499949934.348547,47.655,-122.3035,60.0,11.183333333333334
2026-01-20T23:11:12+00:00,SAT-52485,321.94760681434605,77.28835818214303,853.698106486477,1.4836118614469245,-51962.3630598229,10.5,10499948037.63694,47.655,-122.3035,60.0,11.2
2026-01-20T23:11:13+00:00,SAT-52485,323.5271953775035,76.96464128734202,855.1777620496267,1.537483806996226,-53849.18647106316,10.5,10499946150.813528,47.655,-122.3035,60.0,11.216666666666667
2026-01-20T23:11:14+00:00,SAT-52485,325.02436074930677,76.63265934164521,856.7111458998044,1.5910652359902417,-55725.83476365352,10.5,10499944274.165236,47.655,-122.3035,60.0,11.233333333333333
2026-01-20T23:11:15+00:00,SAT-52485,326.44334570837697,76.29321463064106,858.2979682951652,1.6443481954073382,-57592.0293891351,10.5,10499942407.970612,47.655,-122.3035,60.0,11.25
2026-01-20T23:11:16+00:00,SAT-52485,327.78836245127957,75.94704979241936,859.9379315620514,1.6973250056948734,-59447.50137708992,10.5,10499940552.498623,47.655,-122.3035,60.0,11.266666666666667
2026-01-20T23:11:17+00:00,SAT-52485,329.06353793796376,75.59485090876645,861.6307303677312,1.7499882476839357,-61291.99087683962,10.5,10499938708.009123,47.655,-122.3035,60.0,11.283333333333333
2026-01-20T23:11:18+00:00,SAT-52485,330.27287380870456,75.23725090174698,863.3760519800879,1.802330750636141,-63125.24673879381,10.5,10499936874.753262,47.655,-122.3035,60.0,11.3
2026-01-20T23:11:19+00:00,SAT-52485,331.4202182368874,74.87483306996074,865.1735765153891,1.8543456291191713,-64947.02780598736,10.5,10499935052.972195,47.655,-122.3035,60.0,11.316666666666666
2026-01-20T23:11:20+00:00,SAT-52485,332.50924740306255,74.50813463202016,867.0229772228305,1.9060262547589022,-66757.10192472044,10.5,10499933242.898075,47.655,-122.3035,60.0,11.333333333333334
2026-01-20T23:11:21+00:00,SAT-52485,333.54345451965594,74.13765020303764,868.9239207409101,1.9573662662604814,-68555.24629553908,10.5,10499931444.753704,47.655,-122.3035,60.0,11.35
2026-01-20T23:11:22+00:00,SAT-52485,334.52614473049385,73.76383513583576,870.8760673637938,2.0083595766734565,-70341.24772769064,10.5,10499929658.752272,47.655,-122.3035,60.0,11.366666666666667
2026-01-20T23:11:23+00:00,SAT-52485,335.4604344713163,73.38710868867078,872.8790713149295,2.059000366002132,-72114.90238030734,10.5,10499927885.09762,47.655,-122.3035,60.0,11.383333333333333
2026-01-20T23:11:24+00:00,SAT-52485,336.3492541377494,73.00785699939445,874.932581013289,2.109283091113315,-73876.0161094173,10.5,10499926123.98389,47.655,-122.3035,60.0,11.4
2026-01-20T23:11:25+00:00,SAT-52485,337.1953531505545,72.62643585183193,877.0362393494927,2.159202466777558,-75624.40380392878,10.5,10499924375.596195,47.655,-122.3035,60.0,11.416666666666666
2026-01-20T23:11:26+00:00,SAT-52485,338.0013066791906,72.24317323731586,879.1896839430256,2.208753492536069,-77359.89032662298,10.5,10499922640.109673,47.655,-122.3035,60.0,11.433333333333334
2026-01-20T23:11:27+00:00,SAT-52485,338.76952347515555,71.85837170673682,881.392547426248,2.2579314135568613,-79082.30914317079,10.5,10499920917.690857,47.655,-122.3035,60.0,11.45
2026-01-20T23:11:28+00:00,SAT-52485,339.50225435232875,71.47231053267647,883.6444576893689,2.3067317698698173,-80791.50404655303,10.5,10499919208.495953,47.655,-122.3035,60.0,11.466666666666667
2026-01-20T23:11:29+00:00,SAT-52485,340.2016010146267,71.08524767635694,885.9450381745189,2.3551503367725823,-82487.3270698228,10.5,10499917512.67293,47.655,-122.3035,60.0,11.483333333333333
2026-01-20T23:11:30+00:00,SAT-52485,340.8695249449313,70.69742159022283,888.2939081103935,2.403183169199676,-84169.64004009933,10.5,10499915830.35996,47.655,-122.3035,60.0,11.5
2026-01-20T23:11:31+00:00,SAT-52485,341.5078562088682,70.30905285065455,890.6906827911421,2.4508265904847346,-85838.3141849743,10.5,10499914161.685816,47.655,-122.3035,60.0,11.516666666666667
2026-01-20T23:11:32+00:00,SAT-52485,342.1183020236929,69.92034564331594,893.1349738440522,2.4980771475927055,-87493.22856455384,10.5,10499912506.771435,47.655,-122.3035,60.0,11.533333333333333
2026-01-20T23:11:33+00:00,SAT-52485,342.702454996645,69.5314891185167,895.6263894525846,2.544931678502925,-89134.27243149896,10.5,10499910865.727568,47.655,-122.3035,60.0,11.55
2026-01-20T23:11:34+00:00,SAT-52485,343.2618010025354,69.14265861064092,898.1645346466115,2.591387246514217,-90761.34293011228,10.5,10499909238.65707,47.655,-122.3035,60.0,11.566666666666666
2026-01-20T23:11:35+00:00,SAT-52485,343.79772663150226,68.75401675416337,900.749011527135,2.6374411716546575,-92374.34619644067,10.5,10499907625.653803,47.655,-122.3035,60.0,11.583333333333334
2026-01-20T23:11:36+00:00,SAT-52485,344.31152621396467,68.3657144913286,903.3794195223319,2.683091010668634,-93973.19665733773,10.5,10499906026.803343,47.655,-122.3035,60.0,11.6
2026-01-20T23:11:37+00:00,SAT-52485,344.8044084059997,67.97789198926895,906.0553556236388,2.7283345813382205,-95557.81788230082,10.5,10499904442.182117,47.655,-122.3035,60.0,11.616666666666667
2026-01-20T23:11:38+00:00,SAT-52485,345.2775023489617,67.59067946896812,908.7764146460934,2.7731698876960915,-97128.13996411131,10.5,10499902871.860035,47.655,-122.3035,60.0,11.633333333333333
2026-01-20T23:11:39+00:00,SAT-52485,345.7318633972724,67.20419796843281,911.542189414089,2.8175952164729283,-98684.10289683053,10.5,10499901315.897102,47.655,-122.3035,60.0,11.65
2026-01-20T23:11:40+00:00,SAT-52485,346.16847846131066,66.81856002297324,914.352271043318,2.861609052232345,-100225.65360346598,10.5,10499899774.346397,47.655,-122.3035,60.0,11.666666666666666
2026-01-20T23:11:41+00:00,SAT-52485,346.58827095217254,66.43387029529273,917.2062491380777,2.905210099140988,-101752.74669845222,10.5,10499898247.253302,47.655,-122.3035,60.0,11.683333333333334
2026-01-20T23:11:42+00:00,SAT-52485,346.9921053687132,66.0502261460789,920.1037120102877,2.9483972842625605,-103265.34460302161,10.5,10499896734.655397,47.655,-122.3035,60.0,11.7
2026-01-20T23:11:43+00:00,SAT-52485,347.3807915447282,65.66771815341984,923.0442469017922,2.991169739556428,-104763.41691471936,10.5,10499895236.583086,47.655,-122.3035,60.0,11.716666666666667
2026-01-20T23:11:44+00:00,SAT-52485,347.7550885751853,65.28643058879781,926.0274401887098,3.0335268156092057,-106246.94088834169,10.5,10499893753.059113,47.655,-122.3035,60.0,11.733333333333333
2026-01-20T23:11:45+00:00,SAT-52485,348.11570844760917,64.90644184993786,929.0528775994774,3.07546803865868,-107715.89993073189,10.5,10499892284.100069,47.655,-122.3035,60.0,11.75
2026-01-20T23:11:46+00:00,SAT-52485,348.4633193924058,64.52782486172718,932.1201443900329,3.1169931425519386,-109170.28472008911,10.5,10499890829.71528,47.655,-122.3035,60.0,11.766666666666667
2026-01-20T23:11:47+00:00,SAT-52485,348.79854898193975,64.1506474391847,935.2288255508714,3.158102060725276,-110610.09292507083,10.5,10499889389.907076,47.655,-122.3035,60.0,11.783333333333333
2026-01-20T23:11:48+00:00,SAT-52485,349.1219869918375,63.774972620989594,938.3785060061015,3.198794899852879,-112035.32828185834,10.5,10499887964.671719,47.655,-122.3035,60.0,11.8
2026-01-20T23:11:49+00:00,SAT-52485,349.43418804109564,63.400858978513824,941.5687707862214,3.239071930149481,-113446.00025451458,10.5,10499886553.999746,47.655,-122.3035,60.0,11.816666666666666
2026-01-20T23:11:50+00:00,SAT-52485,349.73567403009366,63.028360900747195,944.7992051912238,3.278933616303033,-114842.12511837723,10.5,10499885157.874882,47.655,-122.3035,60.0,11.833333333333334
2026-01-20T23:11:51+00:00,SAT-52485,350.0269363960581,62.65752885281576,948.0693949845501,3.318380587183531,-116223.72489913365,10.5,10499883776.2751,47.655,-122.3035,60.0,11.85
2026-01-20T23:11:52+00:00,SAT-52485,350.3084381943395,62.28840961742702,951.3789265568344,3.357413618693146,-117590.82677215993,10.5,10499882409.173227,47.655,-122.3035,60.0,11.866666666666667
2026-01-20T23:11:53+00:00,SAT-52485,350.58061602099815,61.92104651934325,954.7273870725443,3.3960336533432254,-118943.46374819032,10.5,10499881056.536251,47.655,-122.3035,60.0,11.883333333333333
2026-01-20T23:11:54+00:00,SAT-52485,350.84388179236265,61.55547963048592,958.1143646361453,3.434241778117006,-120281.67389797565,10.5,10499879718.326101,47.655,-122.3035,60.0,11.9
2026-01-20T23:11:55+00:00,SAT-52485,351.09862438946703,61.19174596188555,961.5394484361874,3.4720392359558847,-121605.50075458133,10.5,10499878394.499245,47.655,-122.3035,60.0,11.916666666666666
2026-01-20T23:11:56+00:00,SAT-52485,351.3452111808313,60.82987964014514,965.0022289008474,3.5094273973649304,-122914.99231889207,10.5,10499877085.00768,47.655,-122.3035,60.0,11.933333333333334
2026-01-20T23:11:57+00:00,SAT-52485,351.583989430402,60.469912073892594,968.5022978251526,3.546407750365759,-124210.20070771917,10.5,10499875789.799292,47.655,-122.3035,60.0,11.95
2026-01-20T23:11:58+00:00,SAT-52485,351.81528760130243,60.11187210921641,972.0392484881841,3.582981953894674,-125491.18402402931,10.5,10499874508.815975,47.655,-122.3035,60.0,11.966666666666667
2026-01-20T23:11:59+00:00,SAT-52485,352.0394165678028,59.75578616876752,975.612675823535,3.619151765271449,-126758.00381659438,10.5,10499873241.996183,47.655,-122.3035,60.0,11.983333333333333
2026-01-20T23:12:00+00:00,SAT-52485,352.2566707344176,59.401678388297405,979.2221765174324,3.654919027844633,-128010.72464727795,10.5,10499871989.275352,47.655,-122.3035,60.0,12.0
2026-01-20T23:12:01+00:00,SAT-52485,352.46732907389037,59.0495707449414,982.8673490945362,3.6902857687238604,-129249.4175140341,10.5,10499870750.582485,47.655,-122.3035,60.0,12.016666666666667
2026-01-20T23:12:02+00:00,SAT-52485,352.671656096589,58.69948316755454,986.5477941012101,3.7252540596146706,-130474.15497675409,10.5,10499869525.845024,47.655,-122.3035,60.0,12.033333333333333
2026-01-20T23:12:03+00:00,SAT-52485,352.8699027429764,58.35143365278019,990.2631141499991,3.7598260923986646,-131685.01380440322,10.5,10499868314.986197,47.655,-122.3035,60.0,12.05
2026-01-20T23:12:04+00:00,SAT-52485,353.06230721759107,58.00543836646914,994.0129140394847,3.794004162502262,-132882.0743925244,10.5,10499867117.925608,47.655,-122.3035,60.0,12.066666666666666
2026-01-20T23:12:05+00:00,SAT-52485,353.2490957637626,57.661511740096905,997.7968008575536,3.8277906733745066,-134065.4209200697,10.5,10499865934.57908,47.655,-122.3035,60.0,12.083333333333334
2026-01-20T23:12:06+00:00,SAT-52485,353.43048338470965,57.31966656068243,1001.6143840891325,3.8611880639574925,-135235.13880910797,10.5,10499864764.86119,47.655,-122.3035,60.0,12.1
2026-01-20T23:12:07+00:00,SAT-52485,353.6066745116263,56.9799140614527,1005.4652756515861,3.8941989172470652,-136391.31852707977,10.5,10499863608.681473,47.655,-122.3035,60.0,12.116666666666667
2026-01-20T23:12:08+00:00,SAT-52485,353.7778636313014,56.64226399746293,1009.3490900383872,3.926825841615241,-137534.05143020654,10.5,10499862465.94857,47.655,-122.3035,60.0,12.133333333333333
2026-01-20T23:12:09+00:00,SAT-52485,353.9442358658277,56.306724726828996,1013.2654443444247,3.9590715516762414,-138663.43259576106,10.5,10499861336.567404,47.655,-122.3035,60.0,12.15
2026-01-20T23:12:10+00:00,SAT-52485,354.1059675170384,55.973303280222986,1017.2139583719633,3.990938835287137,-139779.55966629068,10.5,10499860220.440334,47.655,-122.3035,60.0,12.166666666666666
2026-01-20T23:12:11+00:00,SAT-52485,354.2632265732198,55.642005429058045,1021.1942547036896,4.022430495988793,-140882.53083365536,10.5,10499859117.469166,47.655,-122.3035,60.0,12.183333333333334
2026-01-20T23:12:12+00:00,SAT-52485,354.41617318015426,55.31283575438742,1025.2059587183558,4.0535494672780565,-141972.4488413234,10.5,10499858027.551159,47.655,-122.3035,60.0,12.2
2026-01-20T23:12:13+00:00,SAT-52485,354.5649600858517,54.98579770258441,1029.2486987203877,4.084298690322084,-143049.41670140976,10.5,10499856950.583298,47.655,-122.3035,60.0,12.216666666666667
2026-01-20T23:12:14+00:00,SAT-52485,354.70973305166837,54.66089364767272,1033.3221059475356,4.114681162011536,-144113.53937770217,10.5,10499855886.460623,47.655,-122.3035,60.0,12.233333333333333
2026-01-20T23:12:15+00:00,SAT-52485,354.8506312389285,54.33812494631312,1037.4258146264485,4.144699956105944,-145164.92452626146,10.5,10499854835.075474,47.655,-122.3035,60.0,12.25
2026-01-20T23:12:16+00:00,SAT-52485,354.9877875715388,54.017491988130416,1041.5594620493382,4.174358173665393,-146203.68075932926,10.5,10499853796.31924,47.655,-122.3035,60.0,12.266666666666667
2026-01-20T23:12:17+00:00,SAT-52485,355.12132907398166,53.69899424709387,1045.7226886012072,4.203658934862969,-147229.91735856538,10.5,10499852770.082642,47.655,-122.3035,60.0,12.283333333333333
2026-01-20T23:12:18+00:00,SAT-52485,355.25137718791393,53.38263033069524,1049.9151377789103,4.2326054447760955,-148243.74657933856,10.5,10499851756.25342,47.655,-122.3035,60.0,12.3
2026-01-20T23:12:19+00:00,SAT-52485,355.37804807118863,53.068398021589125,1054.1364562758338,4.261200906281222,-149245.28059993035,10.5,10499850754.7194,47.655,-122.3035,60.0,12.316666666666666
2026-01-20T23:12:20+00:00,SAT-52485,355.5014528756986,52.756294323457475,1058.3862939796984,4.289448561085714,-150234.63295864497,10.5,10499849765.36704,47.655,-122.3035,60.0,12.333333333333334
2026-01-20T23:12:21+00:00,SAT-52485,355.62169800955627,52.44631550144324,1062.6643040112876,4.317351677341385,-151211.9181199833,10.5,10499848788.08188,47.655,-122.3035,60.0,12.35
2026-01-20T23:12:22+00:00,SAT-52485,355.7388853830052,52.13845712136971,1066.970142750823,4.344913575575024,-152177.2523828393,10.5,10499847822.747618,47.655,-122.3035,60.0,12.366666666666667
2026-01-20T23:12:23+00:00,SAT-52485,355.8531126402785,51.83271408511972,1071.3034698901963,4.372137544408649,-153130.75092866682,10.5,10499846869.249071,47.655,-122.3035,60.0,12.383333333333333
2026-01-20T23:12:24+00:00,SAT-52485,355.9644733753434,51.52908067006187,1075.6639484011532,4.399026944734656,-154072.5314701342,10.5,10499845927.46853,47.655,-122.3035,60.0,12.4
2026-01-20T23:12:25+00:00,SAT-52485,356.07305733772523,51.227550559285774,1080.0512446073687,4.425585126863415,-155002.71134928238,10.5,10499844997.28865,47.655,-122.3035,60.0,12.416666666666666
2026-01-20T23:12:26+00:00,SAT-52485,356.178950624057,50.928116875969316,1084.4650281738936,4.451815458831622,-155921.40852900318,10.5,10499844078.59147,47.655,-122.3035,60.0,12.433333333333334
2026-01-20T23:12:27+00:00,SAT-52485,356.28223585928544,50.63077221409839,1088.9049721248352,4.477721299654305,-156828.7406562116,10.5,10499843171.259344,47.655,-122.3035,60.0,12.45
2026-01-20T23:12:28+00:00,SAT-52485,356.3829923667892,50.335508669408576,1093.370752834357,4.503306056349635,-157724.82705909558,10.5,10499842275.172941,47.655,-122.3035,60.0,12.466666666666667
2026-01-20T23:12:29+00:00,SAT-52485,356.4812963301138,50.04231786507956,1097.8620500745565,4.528573129535894,-158609.78684169194,10.5,10499841390.213158,47.655,-122.3035,60.0,12.483333333333333
2026-01-20T23:12:30+00:00,SAT-52485,356.5772209442625,49.75119097969331,1102.3785470090802,4.553525893522224,-159483.73818658025,10.5,10499840516.261814,47.655,-122.3035,60.0,12.5
2026-01-20T23:12:31+00:00,SAT-52485,356.6708365581016,49.462118775056865,1106.9199301668864,4.578167754990224,-160346.80041016024,10.5,10499839653.19959,47.655,-122.3035,60.0,12.516666666666667
2026-01-20T23:12:32+00:00,SAT-52485,356.76221081008595,49.175091618963336,1111.48588947453,4.602502136865213,-161199.0933977556,10.5,10499838800.906603,47.655,-122.3035,60.0,12.533333333333333
2026-01-20T23:12:33+00:00,SAT-52485,356.8514087561183,48.89009950788672,1116.0761182723634,4.626532407946089,-162040.7351389538,10.5,10499837959.26486,47.655,-122.3035,60.0,12.55
2026-01-20T23:12:34+00:00,SAT-52485,356.93849298896515,48.60713209286858,1120.690313260555,4.650261952757592,-162871.84417412768,10.5,10499837128.155827,47.655,-122.3035,60.0,12.566666666666666
2026-01-20T23:12:35+00:00,SAT-52485,357.0235237526394,48.32617869988878,1125.328174514772,4.673694190026258,-163692.54024154175,10.5,10499836307.459759,47.655,-122.3035,60.0,12.583333333333334
2026-01-20T23:12:36+00:00,SAT-52485,357.1065590508722,48.047228348191084,1129.9894055202915,4.696832482984836,-164502.9411358333,10.5,10499835497.058865,47.655,-122.3035,60.0,12.6
2026-01-20T23:12:37+00:00,SAT-52485,357.1876547481229,47.77026977302883,1134.673713116655,4.71968019321372,-165303.16459376726,10.5,10499834696.835405,47.655,-122.3035,60.0,12.616666666666667
2026-01-20T23:12:38+00:00,SAT-52485,357.2668646662432,47.495291444142076,1139.38080749602,4.742240688187896,-166093.32855856203,10.5,10499833906.671442,47.655,-122.3035,60.0,12.633333333333333
2026-01-20T23:12:39+00:00,SAT-52485,357.34424067616277,47.22228158292689,1144.1104022090396,4.764517322996907,-166873.5505396454,10.5,10499833126.449461,47.655,-122.3035,60.0,12.65
2026-01-20T23:12:40+00:00,SAT-52485,357.4198327844361,46.95122817983852,1148.8622141525084,4.78651341875593,-167643.9468565192,10.5,10499832356.053143,47.655,-122.3035,60.0,12.666666666666666
2026-01-20T23:12:41+00:00,SAT-52485,357.4936892149856,46.68211901216511,1153.635963535481,4.808232306548999,-168404.63417783676,10.5,10499831595.365822,47.655,-122.3035,60.0,12.683333333333334
2026-01-20T23:12:42+00:00,SAT-52485,357.56585648731334,46.414941658505576,1158.4313738892126,4.829677259599839,-169155.72714573864,10.5,10499830844.272854,47.655,-122.3035,60.0,12.7
2026-01-20T23:12:43+00:00,SAT-52485,357.6363794896944,46.14968351627922,1163.2481720094536,4.850851596063627,-169897.34197605497,10.5,10499830102.658024,47.655,-122.3035,60.0,12.716666666666667
2026-01-20T23:12:44+00:00,SAT-52485,357.7053015501943,45.88633181281747,1168.086088001261,4.871758583112461,-170629.59309897263,10.5,10499829370.4069,47.655,-122.3035,60.0,12.733333333333333
2026-01-20T23:12:45+00:00,SAT-52485,357.772664502681,45.62487362110252,1172.944855228152,4.892401429747855,-171352.5929072988,10.5,10499828647.407093,47.655,-122.3035,60.0,12.75
2026-01-20T23:12:46+00:00,SAT-52485,357.83850874946046,45.365295875091945,1177.8242102540871,4.912783409470003,-172066.4560528572,10.5,10499827933.543947,47.655,-122.3035,60.0,12.766666666666667
2026-01-20T23:12:47+00:00,SAT-52485,357.9028733225457,45.10758537789207,1182.7238929077985,4.93290769351283,-172771.2936056741,10.5,10499827228.706394,47.655,-122.3035,60.0,12.783333333333333
2026-01-20T23:12:48+00:00,SAT-52485,357.9657959395807,44.851728818200044,1187.6436461807953,4.9527774828225715,-173467.21767642666,10.5,10499826532.782324,47.655,-122.3035,60.0,12.8
2026-01-20T23:12:49+00:00,SAT-52485,358.0273130588446,44.597712779170486,1192.5832162569968,4.972395932519281,-174154.33877076535,10.5,10499825845.66123,47.655,-122.3035,60.0,12.816666666666666
2026-01-20T23:12:50+00:00,SAT-52485,358.08745993056704,44.34552375069559,1197.5423524670296,4.991766180076096,-174832.76677627096,10.5,10499825167.233223,47.655,-122.3035,60.0,12.833333333333334
2026-01-20T23:12:51+00:00,SAT-52485,358.1462706461607,44.09514813968191,1202.5208072706255,5.0108913366988235,-175502.61066053118,10.5,10499824497.38934,47.655,-122.3035,60.0,12.85
2026-01-20T23:12:52+00:00,SAT-52485,358.2037781849733,43.84657228024879,1207.5183362304263,5.029774494479626,-176163.9787216931,10.5,10499823836.021278,47.655,-122.3035,60.0,12.866666666666667
2026-01-20T23:12:53+00:00,SAT-52485,358.2600144589262,43.59978244309458,1212.5346979929207,5.048418701246251,-176816.97770757673,10.5,10499823183.022293,47.655,-122.3035,60.0,12.883333333333333
2026-01-20T23:12:54+00:00,SAT-52485,358.3150103547399,43.35476484561091,1217.569654244297,5.066827001269161,-177461.71424141093,10.5,10499822538.285759,47.655,-122.3035,60.0,12.9
2026-01-20T23:12:55+00:00,SAT-52485,358.36879577466846,43.11150565956384,1222.622969706896,5.085002415724044,-178098.29413754784,10.5,10499821901.705862,47.655,-122.3035,60.0,12.916666666666666
2026-01-20T23:12:56+00:00,SAT-52485,358.42139967510366,42.86999101932562,1227.694412116178,5.102947899802633,-178726.8208993024,10.5,10499821273.1791,47.655,-122.3035,60.0,12.933333333333334
2026-01-20T23:12:57+00:00,SAT-52485,358.4728501029442,42.630207031708196,1232.7837521549147,5.120666424437246,-179347.3985812915,10.5,10499820652.60142,47.655,-122.3035,60.0,12.95
2026-01-20T23:12:58+00:00,SAT-52485,358.5231742311691,42.39213978151572,1237.8907634688867,5.138160915600794,-179960.1296634632,10.5,10499820039.870337,47.655,-122.3035,60.0,12.966666666666667
2026-01-20T23:12:59+00:00,SAT-52485,358.5723983921652,42.15577533962032,1243.015222622046,5.155434256835428,-180565.11513966104,10.5,10499819434.884861,47.655,-122.3035,60.0,12.983333333333333
2026-01-20T23:13:00+00:00,SAT-52485,358.6205481095589,41.92109977050563,1248.1569090541964,5.172489335343239,-181162.45613191513,10.5,10499818837.543869,47.655,-122.3035,60.0,13.0
2026-01-20T23:13:01+00:00,SAT-52485,358.66764812910606,41.68809913737436,1253.3156050846455,5.189328972456722,-181752.25145522368,10.5,10499818247.748545,47.655,-122.3035,60.0,13.016666666666667
2026-01-20T23:13:02+00:00,SAT-52485,358.71372244749654,41.4567595100766,1258.4910958465089,5.205955987739256,-182334.5998626229,10.5,10499817665.400137,47.655,-122.3035,60.0,13.033333333333333
2026-01-20T23:13:03+00:00,SAT-52485,358.7587943405351,41.227066969823134,1263.6831692849478,5.222373180712828,-182909.59940521483,10.5,10499817090.400595,47.655,-122.3035,60.0,13.05
2026-01-20T23:13:04+00:00,SAT-52485,358.80288638986275,40.999007614458314,1268.8916161371785,5.238583262643759,-183477.34504301465,10.5,10499816522.654957,47.655,-122.3035,60.0,13.066666666666666
2026-01-20T23:13:05+00:00,SAT-52485,358.8460205079334,40.77256756638737,1274.1162298444551,5.254588982422643,-184037.93305379865,10.5,10499815962.066946,47.655,-122.3035,60.0,13.083333333333334
2026-01-20T23:13:06+00:00,SAT-52485,358.888217963019,40.54773297473034,1279.3568065895913,5.2703930463006845,-184591.45822193162,10.5,10499815408.541779,47.655,-122.3035,60.0,13.1
2026-01-20T23:13:07+00:00,SAT-52485,358.92949940241823,40.324490020760564,1284.6131452544353,5.285998075562882,-185138.01235590212,10.5,10499814861.987644,47.655,-122.3035,60.0,13.116666666666667
2026-01-20T23:13:08+00:00,SAT-52485,358.96988487432793,40.10282492480609,1289.88504733513,5.301406730350171,-185677.68862509806,10.5,10499814322.311375,47.655,-122.3035,60.0,13.133333333333333
