satellites_20260120_184412/SAT-56470.csv

timestamp,satellite,azimuth_deg,elevation_deg,distance_km,relative_velocity_kms,doppler_shift_hz,tx_freq_ghz,rx_freq_hz,ue_lat,ue_lon,ue_alt_m,time_minutes
2026-01-20T23:02:28+00:00,SAT-56470,265.2890462585401,40.044933063854785,2836.555537642031,-2.632905907300039,92215.50205459275,10.5,10500092215.502054,47.655,-122.3035,60.0,2.466666666666667
2026-01-20T23:02:29+00:00,SAT-56470,265.45219479323396,40.10117223004337,2833.9296528171503,-2.619973638866928,91762.55931062395,10.5,10500091762.55931,47.655,-122.3035,60.0,2.4833333333333334
2026-01-20T23:02:30+00:00,SAT-56470,265.6159637054283,40.15713736943428,2831.3166657746538,-2.6070025772946845,91308.25786682795,10.5,10500091308.257866,47.655,-122.3035,60.0,2.5
2026-01-20T23:02:31+00:00,SAT-56470,265.78035286890406,40.21282552599221,2828.716615204232,-2.5939927831768284,90852.59984544606,10.5,10500090852.599846,47.655,-122.3035,60.0,2.5166666666666666
2026-01-20T23:02:32+00:00,SAT-56470,265.94536210948615,40.26823373424651,2826.1295397351437,-2.580944309826629,90395.58711373454,10.5,10500090395.587114,47.655,-122.3035,60.0,2.533333333333333
2026-01-20T23:02:33+00:00,SAT-56470,266.11099120379475,40.32335901935389,2823.5554779434765,-2.567857208274941,89937.22145900976,10.5,10500089937.221458,47.655,-122.3035,60.0,2.55
2026-01-20T23:02:34+00:00,SAT-56470,266.2772398783095,40.3781983972727,2820.9944683544236,-2.5547315381018945,89477.50496801987,10.5,10500089477.504969,47.655,-122.3035,60.0,2.566666666666667
2026-01-20T23:02:35+00:00,SAT-56470,266.4441078091352,40.432748875173,2818.4465494337564,-2.5415673569075903,89016.43965816412,10.5,10500089016.439657,47.655,-122.3035,60.0,2.5833333333333335
2026-01-20T23:02:36+00:00,SAT-56470,266.6115946210835,40.48700745162834,2815.9117595898006,-2.5283647281620736,88554.0277524319,10.5,10500088554.027752,47.655,-122.3035,60.0,2.6
2026-01-20T23:02:37+00:00,SAT-56470,266.779699887271,40.54097111698095,2813.3901371675806,-2.515123724525524,88090.27179569007,10.5,10500088090.271795,47.655,-122.3035,60.0,2.6166666666666667
2026-01-20T23:02:38+00:00,SAT-56470,266.94842312896634,40.59463685378046,2810.8817204396532,-2.5018443919044153,87625.17339577756,10.5,10500087625.173395,47.655,-122.3035,60.0,2.6333333333333333
2026-01-20T23:02:39+00:00,SAT-56470,267.117763812976,40.648001636470426,2808.386547632794,-2.4885268136818577,87158.73547312355,10.5,10500087158.735474,47.655,-122.3035,60.0,2.65
2026-01-20T23:02:40+00:00,SAT-56470,267.2877213534064,40.701062432437254,2805.9046568906156,-2.475171055171207,86690.96031527809,10.5,10500086690.960316,47.655,-122.3035,60.0,2.6666666666666665
2026-01-20T23:02:41+00:00,SAT-56470,267.4582951096529,40.75381620189294,2803.4360862915914,-2.4617771909308432,86221.85053359099,10.5,10500086221.850534,47.655,-122.3035,60.0,2.683333333333333
2026-01-20T23:02:42+00:00,SAT-56470,267.62948438624466,40.806259898336705,2800.9808738398365,-2.448345290767801,85751.40857299989,10.5,10500085751.408573,47.655,-122.3035,60.0,2.7
2026-01-20T23:02:43+00:00,SAT-56470,267.80128843173793,40.85839046873121,2798.539057469844,-2.4348754310314287,85279.63710758195,10.5,10500085279.637108,47.655,-122.3035,60.0,2.716666666666667
2026-01-20T23:02:44+00:00,SAT-56470,267.9737064383802,40.91020485392095,2796.1106750399617,-2.421367696774845,84806.53911625713,10.5,10500084806.539116,47.655,-122.3035,60.0,2.7333333333333334
2026-01-20T23:02:45+00:00,SAT-56470,268.1467375419688,40.96169998910209,2793.695764323712,-2.407822160203374,84332.11712796133,10.5,10500084332.117128,47.655,-122.3035,60.0,2.75
2026-01-20T23:02:46+00:00,SAT-56470,268.32038082013673,41.012872803843095,2791.2943630226023,-2.3942389105822603,83856.374269141,10.5,10500083856.37427,47.655,-122.3035,60.0,2.7666666666666666
2026-01-20T23:02:47+00:00,SAT-56470,268.49463529282684,41.06372022274347,2788.906508749115,-2.3806180308306084,83379.31344397392,10.5,10500083379.313444,47.655,-122.3035,60.0,2.783333333333333
2026-01-20T23:02:48+00:00,SAT-56470,268.66949992105305,41.11423916560345,2786.532239033033,-2.366959608403892,82900.93771552073,10.5,10500082900.937716,47.655,-122.3035,60.0,2.8
2026-01-20T23:02:49+00:00,SAT-56470,268.84497360646685,41.1644265478289,2784.1715913169182,-2.3532637346444503,82421.25028297651,10.5,10500082421.250282,47.655,-122.3035,60.0,2.816666666666667
2026-01-20T23:02:50+00:00,SAT-56470,269.02105519089184,41.21427928082923,2781.824602952233,-2.339530493323673,81940.25408036972,10.5,10500081940.25408,47.655,-122.3035,60.0,2.8333333333333335
2026-01-20T23:02:51+00:00,SAT-56470,269.19774345498513,41.263794272179595,2779.4913112068916,-2.3257599924463914,81457.95289048637,10.5,10500081457.95289,47.655,-122.3035,60.0,2.85
2026-01-20T23:02:52+00:00,SAT-56470,269.37503711932357,41.312968426457566,2777.1717532410917,-2.3119523161966704,80974.3496618085,10.5,10500080974.34966,47.655,-122.3035,60.0,2.8666666666666667
2026-01-20T23:02:53+00:00,SAT-56470,269.55293484184847,41.361798645074906,2774.8659661310717,-2.2981075630339576,80489.44784280247,10.5,10500080489.447844,47.655,-122.3035,60.0,2.8833333333333333
2026-01-20T23:02:54+00:00,SAT-56470,269.7314352181867,41.41028182691692,2772.573986854872,-2.284225849540818,80003.25151668287,10.5,10500080003.251516,47.655,-122.3035,60.0,2.9
2026-01-20T23:02:55+00:00,SAT-56470,269.9105367823741,41.458414869067084,2770.295852274264,-2.270307252988003,79515.76338979826,10.5,10500079515.76339,47.655,-122.3035,60.0,2.9166666666666665
2026-01-20T23:02:56+00:00,SAT-56470,270.0902380029929,41.50619466633254,2768.03159917395,-2.2563518964759957,79026.98777364824,10.5,10500079026.987774,47.655,-122.3035,60.0,2.933333333333333
2026-01-20T23:02:57+00:00,SAT-56470,270.2705372860829,41.5536181125611,2765.7812642158647,-2.2423598854365117,78536.92836089751,10.5,10500078536.92836,47.655,-122.3035,60.0,2.95
2026-01-20T23:02:58+00:00,SAT-56470,270.4514329730327,41.600682100632355,2763.5448839567894,-2.2283313316326687,78045.58906596317,10.5,10500078045.589066,47.655,-122.3035,60.0,2.966666666666667
2026-01-20T23:02:59+00:00,SAT-56470,270.6329233403855,41.64738352295703,2761.322494842041,-2.214266339399445,77552.97354309751,10.5,10500077552.973543,47.655,-122.3035,60.0,2.9833333333333334
2026-01-20T23:03:00+00:00,SAT-56470,270.8150065985022,41.69371927169526,2759.11413321288,-2.200165025302125,77059.08587490987,10.5,10500077059.085875,47.655,-122.3035,60.0,3.0
2026-01-20T23:03:01+00:00,SAT-56470,270.997680891881,41.73968623938957,2756.919835294312,-2.1860275097293327,76563.93027791912,10.5,10500076563.930279,47.655,-122.3035,60.0,3.0166666666666666
2026-01-20T23:03:02+00:00,SAT-56470,271.1809442987841,41.785281319429345,2754.7396371912755,-2.171853909931435,76067.51085872905,10.5,10500076067.510859,47.655,-122.3035,60.0,3.033333333333333
2026-01-20T23:03:03+00:00,SAT-56470,271.36479483031417,41.830501406374204,2752.573574891771,-2.157644347259623,75569.83186757169,10.5,10500075569.831867,47.655,-122.3035,60.0,3.05
2026-01-20T23:03:04+00:00,SAT-56470,271.54923043007057,41.87534339643392,2750.42168426277,-2.143398943623622,75070.89757424129,10.5,10500075070.897573,47.655,-122.3035,60.0,3.066666666666667
2026-01-20T23:03:05+00:00,SAT-56470,271.73424897354954,41.919804187880274,2748.284001049663,-2.1291178341672006,74570.7127120443,10.5,10500074570.712711,47.655,-122.3035,60.0,3.0833333333333335
2026-01-20T23:03:06+00:00,SAT-56470,271.91984826864814,41.96388068172662,2746.1605608630534,-2.1148011291430455,74069.28114249618,10.5,10500074069.281143,47.655,-122.3035,60.0,3.1
2026-01-20T23:03:07+00:00,SAT-56470,272.1060260528195,42.00756978162351,2744.051399203588,-2.1004489810999285,73566.6082085002,10.5,10500073566.608208,47.655,-122.3035,60.0,3.1166666666666667
2026-01-20T23:03:08+00:00,SAT-56470,272.2927799962025,42.05086839514811,2741.956551419771,-2.0860614996684763,73062.69774978462,10.5,10500073062.69775,47.655,-122.3035,60.0,3.1333333333333333
2026-01-20T23:03:09+00:00,SAT-56470,272.48010769715904,42.09377343334087,2739.8760527507684,-2.071638843676006,72557.55532915397,10.5,10500072557.555328,47.655,-122.3035,60.0,3.15
2026-01-20T23:03:10+00:00,SAT-56470,272.66800668610364,42.13628181214276,2737.8099382773426,-2.057181140169329,72051.18539632493,10.5,10500072051.185396,47.655,-122.3035,60.0,3.1666666666666665
2026-01-20T23:03:11+00:00,SAT-56470,272.85647442204925,42.17839045217261,2735.758242953547,-2.0426885223116797,71543.5926152373,10.5,10500071543.592615,47.655,-122.3035,60.0,3.183333333333333
2026-01-20T23:03:12+00:00,SAT-56470,273.0455082925287,42.22009627929077,2733.721001600628,-2.0281611398723753,71034.78223144606,10.5,10500071034.782232,47.655,-122.3035,60.0,3.2
2026-01-20T23:03:13+00:00,SAT-56470,273.2351056145889,42.261396225377716,2731.698248890462,-2.013599144678006,70524.75956256065,10.5,10500070524.759563,47.655,-122.3035,60.0,3.216666666666667
2026-01-20T23:03:14+00:00,SAT-56470,273.4252636344472,42.30228722882004,2729.6900193435026,-1.999002675396843,70013.52946533049,10.5,10500070013.529465,47.655,-122.3035,60.0,3.2333333333333334
2026-01-20T23:03:15+00:00,SAT-56470,273.6159795256968,42.34276623469305,2727.6963473419073,-1.984371881688936,69501.09718148356,10.5,10500069501.097181,47.655,-122.3035,60.0,3.25
2026-01-20T23:03:16+00:00,SAT-56470,273.8072503898095,42.38283019543842,2725.7172671185695,-1.9697069124408237,68987.46792565625,10.5,10500068987.467926,47.655,-122.3035,60.0,3.2666666666666666
2026-01-20T23:03:17+00:00,SAT-56470,273.99907325553966,42.42247607130828,2723.7528127578953,-1.9550079389632253,68472.64769787459,10.5,10500068472.647697,47.655,-122.3035,60.0,3.283333333333333
2026-01-20T23:03:18+00:00,SAT-56470,274.1914450806482,42.46170083127783,2721.8030181734357,-1.9402750963241842,67956.6412287928,10.5,10500067956.64123,47.655,-122.3035,60.0,3.3
2026-01-20T23:03:19+00:00,SAT-56470,274.3843627478221,42.50050145278467,2719.867917144035,-1.9255085539113166,67439.4544510817,10.5,10500067439.45445,47.655,-122.3035,60.0,3.316666666666667
2026-01-20T23:03:20+00:00,SAT-56470,274.577823067595,42.53887492288917,2717.9475432796007,-1.9107084816499342,66921.0933162445,10.5,10500066921.093317,47.655,-122.3035,60.0,3.3333333333333335
2026-01-20T23:03:21+00:00,SAT-56470,274.7718227780158,42.57681823875793,2716.041930020569,-1.8958750287157533,66401.56304904578,10.5,10500066401.56305,47.655,-122.3035,60.0,3.35
2026-01-20T23:03:22+00:00,SAT-56470,274.9663585420455,42.614328407730426,2714.1511106585963,-1.8810083699007991,65880.86977144165,10.5,10500065880.869772,47.655,-122.3035,60.0,3.3666666666666667
2026-01-20T23:03:23+00:00,SAT-56470,275.16142694978595,42.65140244831027,2712.275118311015,-1.8661086723824387,65359.019338690654,10.5,10500065359.019339,47.655,-122.3035,60.0,3.3833333333333333
2026-01-20T23:03:24+00:00,SAT-56470,275.3570245172827,42.68803739049998,2710.4139859284255,-1.851176107479016,64836.01775108588,10.5,10500064836.017752,47.655,-122.3035,60.0,3.4
2026-01-20T23:03:25+00:00,SAT-56470,275.5531476865764,42.7242302763728,2708.567746290567,-1.836210850387606,64311.87114476997,10.5,10500064311.871145,47.655,-122.3035,60.0,3.4166666666666665
2026-01-20T23:03:26+00:00,SAT-56470,275.74979282574793,42.759978160640195,2706.7364320024467,-1.8212130709832088,63786.585469483995,10.5,10500063786.58547,47.655,-122.3035,60.0,3.433333333333333
2026-01-20T23:03:27+00:00,SAT-56470,275.94695622798275,42.79527811104548,2704.9200754996527,-1.8061829570520107,63260.167302294554,10.5,10500063260.167303,47.655,-122.3035,60.0,3.45
2026-01-20T23:03:28+00:00,SAT-56470,276.14463411319025,42.83012720921021,2703.118709030486,-1.7911206832640656,62732.62276088576,10.5,10500062732.62276,47.655,-122.3035,60.0,3.466666666666667
2026-01-20T23:03:29+00:00,SAT-56470,276.3428226262663,42.86452255088143,2701.3323646690446,-1.7760264358961475,62203.9583694582,10.5,10500062203.95837,47.655,-122.3035,60.0,3.4833333333333334
2026-01-20T23:03:30+00:00,SAT-56470,276.5415178380639,42.898461246659785,2699.5610743036436,-1.7609003946085187,61674.18042047424,10.5,10500061674.18042,47.655,-122.3035,60.0,3.5
2026-01-20T23:03:31+00:00,SAT-56470,276.74071574437767,42.93194042238104,2697.8048696434207,-1.7457427564222288,61143.29581444441,10.5,10500061143.295815,47.655,-122.3035,60.0,3.5166666666666666
2026-01-20T23:03:32+00:00,SAT-56470,276.9404122676659,42.96495721995575,2696.063782201016,-1.7305537043939725,60611.3109627885,10.5,10500060611.310963,47.655,-122.3035,60.0,3.533333333333333
2026-01-20T23:03:33+00:00,SAT-56470,277.14060325521064,42.99750879761471,2694.3378433065004,-1.7153334385377057,60078.232870841304,10.5,10500060078.23287,47.655,-122.3035,60.0,3.55
2026-01-20T23:03:34+00:00,SAT-56470,277.3412844808803,43.02959233074414,2692.6270840904654,-1.7000821425072814,59544.06797093759,10.5,10500059544.06797,47.655,-122.3035,60.0,3.566666666666667
2026-01-20T23:03:35+00:00,SAT-56470,277.5424516429882,43.061205012092586,2690.9315355003378,-1.6848000297102779,59008.8237375135,10.5,10500059008.823738,47.655,-122.3035,60.0,3.5833333333333335
2026-01-20T23:03:36+00:00,SAT-56470,277.74410036768006,43.09234405284505,2689.251228270707,-1.6694872843296067,58472.50662143365,10.5,10500058472.506622,47.655,-122.3035,60.0,3.6
2026-01-20T23:03:37+00:00,SAT-56470,277.94622620525956,43.12300668259698,2687.586192952469,-1.6541441214032149,57935.12415423659,10.5,10500057935.124155,47.655,-122.3035,60.0,3.6166666666666667
2026-01-20T23:03:38+00:00,SAT-56470,278.148824633802,43.15319015044543,2685.936459882056,-1.6387707344164677,57396.68311259822,10.5,10500057396.683113,47.655,-122.3035,60.0,3.6333333333333333
2026-01-20T23:03:39+00:00,SAT-56470,278.3518910564011,43.18289172511367,2684.3020592029316,-1.623367340134752,56857.191088559324,10.5,10500056857.191088,47.655,-122.3035,60.0,3.65
2026-01-20T23:03:40+00:00,SAT-56470,278.5554208039696,43.21210869589853,2682.6830208423708,-1.6079341437426515,56316.65526855195,10.5,10500056316.655268,47.655,-122.3035,60.0,3.6666666666666665
2026-01-20T23:03:41+00:00,SAT-56470,278.75940913374524,43.240838372981145,2681.079374523011,-1.5924713542196272,55775.082971920805,10.5,10500055775.082972,47.655,-122.3035,60.0,3.683333333333333
2026-01-20T23:03:42+00:00,SAT-56470,278.96385122968957,43.26907808802006,2679.4911497590697,-1.5769791871067638,55232.48174782642,10.5,10500055232.481749,47.655,-122.3035,60.0,3.7
2026-01-20T23:03:43+00:00,SAT-56470,279.1687422033217,43.296825194793236,2677.918375849795,-1.561457865411405,54688.85940692928,10.5,10500054688.859407,47.655,-122.3035,60.0,3.716666666666667
2026-01-20T23:03:44+00:00,SAT-56470,279.3740770947306,43.324077069851484,2676.3610818720244,-1.5459075998135143,54144.223328132895,10.5,10500054144.223328,47.655,-122.3035,60.0,3.7333333333333334
2026-01-20T23:03:45+00:00,SAT-56470,279.57985087095534,43.35083111282412,2674.819296692477,-1.5303286140385488,53598.581347249106,10.5,10500053598.581347,47.655,-122.3035,60.0,3.75
2026-01-20T23:03:46+00:00,SAT-56470,279.7860584277595,43.377084747174024,2673.293048954743,-1.5147211314241937,53051.9412865084,10.5,10500053051.941286,47.655,-122.3035,60.0,3.7666666666666666
2026-01-20T23:03:47+00:00,SAT-56470,279.99269458967285,43.40283542071068,2671.7823670796693,-1.4990853750738458,52504.31095993543,10.5,10500052504.31096,47.655,-122.3035,60.0,3.783333333333333
2026-01-20T23:03:48+00:00,SAT-56470,280.1997541100221,43.428080606110484,2670.2872792655958,-1.483421581770652,51955.6986606776,10.5,10500051955.69866,47.655,-122.3035,60.0,3.8
2026-01-20T23:03:49+00:00,SAT-56470,280.4072316730114,43.45281780166811,2668.8078134747097,-1.467729969072315,51406.112008525924,10.5,10500051406.11201,47.655,-122.3035,60.0,3.816666666666667
2026-01-20T23:03:50+00:00,SAT-56470,280.6151218911032,43.477044531493505,2667.343997452221,-1.4520107795948198,50855.55950091849,10.5,10500050855.559502,47.655,-122.3035,60.0,3.8333333333333335
2026-01-20T23:03:51+00:00,SAT-56470,280.8234193087809,43.500758346450525,2665.895858701372,-1.4362642442193583,50304.04922429123,10.5,10500050304.049225,47.655,-122.3035,60.0,3.85
2026-01-20T23:03:52+00:00,SAT-56470,281.0321184010509,43.523956824477665,2664.463424495137,-1.4204905975793085,49751.58939649756,10.5,10500049751.589397,47.655,-122.3035,60.0,3.8666666666666667
2026-01-20T23:03:53+00:00,SAT-56470,281.2412135741857,43.54663757116658,2663.046721872485,-1.404690081375861,49198.18848293555,10.5,10500049198.188482,47.655,-122.3035,60.0,3.8833333333333333
2026-01-20T23:03:54+00:00,SAT-56470,281.45069916699936,43.56879822039054,2661.645777631326,-1.3888629382626092,48643.85498236049,10.5,10500048643.854982,47.655,-122.3035,60.0,3.9
2026-01-20T23:03:55+00:00,SAT-56470,281.6605694512948,43.59043643482968,2660.2606183275657,-1.373009413001752,48088.59746737991,10.5,10500048088.597467,47.655,-122.3035,60.0,3.9166666666666665
2026-01-20T23:03:56+00:00,SAT-56470,281.87081863245487,43.61154990651085,2658.8912702729986,-1.3571297445485677,47532.42430721843,10.5,10500047532.424307,47.655,-122.3035,60.0,3.933333333333333
2026-01-20T23:03:57+00:00,SAT-56470,282.08144084883963,43.632136357226415,2657.537759541102,-1.341224187964328,46975.34443520072,10.5,10500046975.344435,47.655,-122.3035,60.0,3.95
2026-01-20T23:03:58+00:00,SAT-56470,282.29243017463864,43.652193539285896,2656.2001119509723,-1.325292992286884,46417.36657368572,10.5,10500046417.366573,47.655,-122.3035,60.0,3.966666666666667
2026-01-20T23:03:59+00:00,SAT-56470,282.5037806193082,43.6717192359206,2654.8783530733317,-1.3093364065942354,45858.49944643862,10.5,10500045858.499447,47.655,-122.3035,60.0,3.9833333333333334
2026-01-20T23:04:00+00:00,SAT-56470,282.71548612791986,43.69071126178388,2653.5725082304884,-1.293354691003933,45298.75216387631,10.5,10500045298.752163,47.655,-122.3035,60.0,4.0
2026-01-20T23:04:01+00:00,SAT-56470,282.92754058340216,43.70916746360657,2652.282602485327,-1.2773480945863531,44738.13344949695,10.5,10500044738.13345,47.655,-122.3035,60.0,4.016666666666667
2026-01-20T23:04:02+00:00,SAT-56470,283.13993780509566,43.7270857205252,2651.008660652326,-1.26131688169455,44176.6525620627,10.5,10500044176.652561,47.655,-122.3035,60.0,4.033333333333333
2026-01-20T23:04:03+00:00,SAT-56470,283.3526715517972,43.744463944788855,2649.750707282316,-1.2452613173742797,43614.318784597104,10.5,10500043614.318785,47.655,-122.3035,60.0,4.05
2026-01-20T23:04:04+00:00,SAT-56470,283.5657355223852,43.7613000822434,2648.508766661788,-1.2291816520970826,43051.14088967297,10.5,10500043051.14089,47.655,-122.3035,60.0,4.066666666666666
2026-01-20T23:04:05+00:00,SAT-56470,283.7791233537498,43.77759211261122,2647.28286282743,-1.2130781614928996,42487.12853101677,10.5,10500042487.12853,47.655,-122.3035,60.0,4.083333333333333
2026-01-20T23:04:06+00:00,SAT-56470,283.9928286257185,43.79333805030615,2646.0730195410347,-1.1969511096037542,41922.29095649705,10.5,10500041922.290956,47.655,-122.3035,60.0,4.1
2026-01-20T23:04:07+00:00,SAT-56470,284.2068448595934,43.808535944741266,2644.879260301056,-1.180800766642474,41356.63763011002,10.5,10500041356.63763,47.655,-122.3035,60.0,4.116666666666666
2026-01-20T23:04:08+00:00,SAT-56470,284.421165519805,43.82318388087192,2643.701608336458,-1.1646274018730398,40790.17798261929,10.5,10500040790.177982,47.655,-122.3035,60.0,4.133333333333334
2026-01-20T23:04:09+00:00,SAT-56470,284.6357840143314,43.83727997964079,2642.540086607657,-1.1484312886404382,40222.921587722536,10.5,10500040222.921587,47.655,-122.3035,60.0,4.15
2026-01-20T23:04:10+00:00,SAT-56470,284.8506936960432,43.85082239848048,2641.3947178024528,-1.1322127050943642,39654.87818739865,10.5,10500039654.878187,47.655,-122.3035,60.0,4.166666666666667
2026-01-20T23:04:11+00:00,SAT-56470,285.0658878642971,43.86380933181446,2640.265524331239,-1.1159719246479056,39086.05735773049,10.5,10500039086.057358,47.655,-122.3035,60.0,4.183333333333334
2026-01-20T23:04:12+00:00,SAT-56470,285.28135976463057,43.87623901144005,2639.1525283317233,-1.0997092293691328,38516.468977935045,10.5,10500038516.468979,47.655,-122.3035,60.0,4.2
2026-01-20T23:04:13+00:00,SAT-56470,285.49710259116875,43.88810970706181,2638.055751660299,-1.0834249003396608,37946.122892679436,10.5,10500037946.122892,47.655,-122.3035,60.0,4.216666666666667
2026-01-20T23:04:14+00:00,SAT-56470,285.71310948710993,43.899419726702995,2636.975215893027,-1.067119219671775,37375.028982729236,10.5,10500037375.028982,47.655,-122.3035,60.0,4.233333333333333
2026-01-20T23:04:15+00:00,SAT-56470,285.9293735456754,43.91016741713748,2635.9109423246077,-1.0507924688394361,36803.197106493186,10.5,10500036803.197107,47.655,-122.3035,60.0,4.25
2026-01-20T23:04:16+00:00,SAT-56470,286.1458878106351,43.920351164299056,2634.862951969018,-1.034444942633997,36230.63758881142,10.5,10500036230.637589,47.655,-122.3035,60.0,4.266666666666667
2026-01-20T23:04:17+00:00,SAT-56470,286.3626452799591,43.929969393816414,2633.831265546231,-1.0180769218687324,35657.36026495266,10.5,10500035657.360266,47.655,-122.3035,60.0,4.283333333333333
2026-01-20T23:04:18+00:00,SAT-56470,286.57963890353676,43.939020571275435,2632.815903496154,-1.0016887047664942,35083.37557994267,10.5,10500035083.37558,47.655,-122.3035,60.0,4.3
2026-01-20T23:04:19+00:00,SAT-56470,286.796861587822,43.94750320277092,2631.816885961267,-0.9852805744326295,34508.69344932823,10.5,10500034508.693449,47.655,-122.3035,60.0,4.316666666666666
2026-01-20T23:04:20+00:00,SAT-56470,287.01430619322684,43.95541583515756,2630.8342328016997,-0.9688528333636095,33933.324467815335,10.5,10500033933.324469,47.655,-122.3035,60.0,4.333333333333333
2026-01-20T23:04:21+00:00,SAT-56470,287.23196553936185,43.962757056587684,2629.8679635758917,-0.9524057740968324,33357.27888130108,10.5,10500033357.278881,47.655,-122.3035,60.0,4.35
2026-01-20T23:04:22+00:00,SAT-56470,287.4498324036163,43.96952549679332,2628.918097550526,-0.9359396935398765,32780.567088744785,10.5,10500032780.56709,47.655,-122.3035,60.0,4.366666666666666
2026-01-20T23:04:23+00:00,SAT-56470,287.6678995230259,43.97571982748161,2627.9846536961686,-0.9194548918961264,32203.199604538837,10.5,10500032203.199604,47.655,-122.3035,60.0,4.383333333333334
2026-01-20T23:04:24+00:00,SAT-56470,287.8861595959196,43.981338762707765,2627.067650683984,-0.9029516687875628,31625.18692271241,10.5,10500031625.186922,47.655,-122.3035,60.0,4.4
2026-01-20T23:04:25+00:00,SAT-56470,288.10460528269476,43.9863810592124,2626.1671068863134,-0.886430330753038,31046.539779552753,10.5,10500031046.53978,47.655,-122.3035,60.0,4.416666666666667
2026-01-20T23:04:26+00:00,SAT-56470,288.32322920844024,43.9908455167933,2625.283040369776,-0.869891181337989,30467.268806505082,10.5,10500030467.268806,47.655,-122.3035,60.0,4.433333333333334
2026-01-20T23:04:27+00:00,SAT-56470,288.5420239631802,43.99473097860671,2624.4154688982544,-0.853334520238597,29887.384500197364,10.5,10500029887.3845,47.655,-122.3035,60.0,4.45
2026-01-20T23:04:28+00:00,SAT-56470,288.7609821016878,43.99803633147349,2623.564409936737,-0.8367606637276473,29306.89793784038,10.5,10500029306.897938,47.655,-122.3035,60.0,4.466666666666667
2026-01-20T23:04:29+00:00,SAT-56470,288.9800961488867,44.00076050625159,2622.729880634779,-0.8201699174480002,28725.81982433995,10.5,10500028725.819824,47.655,-122.3035,60.0,4.483333333333333
2026-01-20T23:04:30+00:00,SAT-56470,289.1993585979958,44.0029024780835,2621.9118978371107,-0.8035625902559896,28144.160977151372,10.5,10500028144.160976,47.655,-122.3035,60.0,4.5
2026-01-20T23:04:31+00:00,SAT-56470,289.4187619123325,44.00446126670078,2621.1104780804285,-0.786938999837252,27561.93252296943,10.5,10500027561.932524,47.655,-122.3035,60.0,4.516666666666667
2026-01-20T23:04:32+00:00,SAT-56470,289.63829852881076,44.00543593671483,2620.3256375845913,-0.7702994522386823,26979.14518085096,10.5,10500026979.145182,47.655,-122.3035,60.0,4.533333333333333
2026-01-20T23:04:33+00:00,SAT-56470,289.85796085560474,44.00582559786724,2619.557392264225,-0.7536442717873324,26395.81031010123,10.5,10500026395.81031,47.655,-122.3035,60.0,4.55
2026-01-20T23:04:34+00:00,SAT-56470,290.0777412785277,44.005629405299416,2618.805757710496,-0.7369737689170508,25811.938783426747,10.5,10500025811.938784,47.655,-122.3035,60.0,4.566666666666666
2026-01-20T23:04:35+00:00,SAT-56470,290.29763215793923,44.00484655979159,2618.0707492049623,-0.7202882620371784,25227.541752869492,10.5,10500025227.541754,47.655,-122.3035,60.0,4.583333333333333
2026-01-20T23:04:36+00:00,SAT-56470,290.5176258321168,44.00347630800403,2617.3523817116243,-0.7035880760582037,24642.630598169148,10.5,10500024642.630598,47.655,-122.3035,60.0,4.6
2026-01-20T23:04:37+00:00,SAT-56470,290.73771462047284,44.00151794268004,2616.6506698704356,-0.6868735272640926,24057.216396928077,10.5,10500024057.216396,47.655,-122.3035,60.0,4.616666666666666
2026-01-20T23:04:38+00:00,SAT-56470,290.9578908217822,43.99897080288066,2615.9656280059107,-0.6701449380770893,23471.31044173712,10.5,10500023471.310442,47.655,-122.3035,60.0,4.633333333333334
2026-01-20T23:04:39+00:00,SAT-56470,291.1781467172557,43.99583427417544,2615.297270121002,-0.6534026328887897,22884.924094162143,10.5,10500022884.924093,47.655,-122.3035,60.0,4.65
2026-01-20T23:04:40+00:00,SAT-56470,291.39847457219577,43.99210778882801,2614.6456098951344,-0.636646938692367,22298.06880688724,10.5,10500022298.068808,47.655,-122.3035,60.0,4.666666666666667
2026-01-20T23:04:41+00:00,SAT-56470,291.6188666381527,43.98779082595302,2614.010660681612,-0.619878180094394,21710.755949007686,10.5,10500021710.755949,47.655,-122.3035,60.0,4.683333333333334
2026-01-20T23:04:42+00:00,SAT-56470,291.83931515306637,43.98288291170294,2613.3924355099975,-0.6030966831351315,21122.996939832563,10.5,10500021122.99694,47.655,-122.3035,60.0,4.7
2026-01-20T23:04:43+00:00,SAT-56470,292.0598123428301,43.97738361942536,2612.790947084684,-0.5863027794620292,20534.803395058414,10.5,10500020534.803394,47.655,-122.3035,60.0,4.716666666666667
2026-01-20T23:04:44+00:00,SAT-56470,292.280350424541,43.97129256975717,2612.2062077793003,-0.5694967973316942,19946.186811620155,10.5,10500019946.186811,47.655,-122.3035,60.0,4.733333333333333
2026-01-20T23:04:45+00:00,SAT-56470,292.5009216063486,43.96460943078879,2611.6382296400952,-0.5526790665309836,19357.15874004852,10.5,10500019357.158741,47.655,-122.3035,60.0,4.75
2026-01-20T23:04:46+00:00,SAT-56470,292.721518088968,43.957333918187736,2611.0870243844083,-0.5358499221764552,18767.730917542896,10.5,10500018767.730917,47.655,-122.3035,60.0,4.766666666666667
2026-01-20T23:04:47+00:00,SAT-56470,292.94213206920205,43.9494657952303,2610.552603395358,-0.5190096945072815,18177.91491047602,10.5,10500018177.914911,47.655,-122.3035,60.0,4.783333333333333
2026-01-20T23:04:48+00:00,SAT-56470,293.16275573875504,43.9410048729841,2610.034977726702,-0.5021587193967595,17587.722482551493,10.5,10500017587.722483,47.655,-122.3035,60.0,4.8
2026-01-20T23:04:49+00:00,SAT-56470,293.38338128797017,43.93195101030475,2609.534158097224,-0.48529733213983195,16997.165377216512,10.5,10500016997.165377,47.655,-122.3035,60.0,4.816666666666666
2026-01-20T23:04:50+00:00,SAT-56470,293.6040009065574,43.92230411392815,2609.0501548913035,-0.4684258678266292,16406.255330744865,10.5,10500016406.255331,47.655,-122.3035,60.0,4.833333333333333
2026-01-20T23:04:51+00:00,SAT-56470,293.8246067846311,43.912064138544046,2608.582978159124,-0.45154466486239897,15815.004195519787,10.5,10500015815.004196,47.655,-122.3035,60.0,4.85
2026-01-20T23:04:52+00:00,SAT-56470,294.04519111538764,43.90123108678326,2608.132637613368,-0.4346540607137075,15223.4237910479,10.5,10500015223.423792,47.655,-122.3035,60.0,4.866666666666666
2026-01-20T23:04:53+00:00,SAT-56470,294.2657460957201,43.88980500928629,2607.6991426301497,-0.4177543953846617,14631.526025711253,10.5,10500014631.526026,47.655,-122.3035,60.0,4.883333333333334
2026-01-20T23:04:54+00:00,SAT-56470,294.48626392874405,43.87778600466201,2607.282502246486,-0.4008460078431088,14039.322771597683,10.5,10500014039.322771,47.655,-122.3035,60.0,4.9
2026-01-20T23:04:55+00:00,SAT-56470,294.70673682417737,43.86517421954976,2606.88272516133,-0.38392923973064014,13446.825994440866,10.5,10500013446.825994,47.655,-122.3035,60.0,4.916666666666667
2026-01-20T23:04:56+00:00,SAT-56470,294.92715700106857,43.85196984853989,2606.499819732906,-0.3670044306696899,12854.047589255044,10.5,10500012854.047588,47.655,-122.3035,60.0,4.933333333333334
2026-01-20T23:04:57+00:00,SAT-56470,295.147516687398,43.838173134262924,2606.1337939807177,-0.3500719255397175,12260.999635177726,10.5,10500012260.999636,47.655,-122.3035,60.0,4.95
2026-01-20T23:04:58+00:00,SAT-56470,295.3678081247177,43.82378436716025,2605.784655580313,-0.33313206580240445,11667.69409164138,10.5,10500011667.694092,47.655,-122.3035,60.0,4.966666666666667
2026-01-20T23:04:59+00:00,SAT-56470,295.5880235667838,43.80880388561078,2605.452411866686,-0.3161851964546091,11074.14304189532,10.5,10500011074.143042,47.655,-122.3035,60.0,4.983333333333333
2026-01-20T23:05:00+00:00,SAT-56470,295.8081552832138,43.79323207572606,2605.137069830755,-0.29923166076371766,10480.358508615434,10.5,10500010480.35851,47.655,-122.3035,60.0,5.0
2026-01-20T23:05:01+00:00,SAT-56470,296.0281955590795,43.77706937140428,2604.838636121087,-0.282271804123508,9886.352588952836,10.5,10500009886.352589,47.655,-122.3035,60.0,5.016666666666667
2026-01-20T23:05:02+00:00,SAT-56470,296.24813669758265,43.76031625416272,2604.5571170417743,-0.2653059723694011,9292.137395526846,10.5,10500009292.137396,47.655,-122.3035,60.0,5.033333333333333
2026-01-20T23:05:03+00:00,SAT-56470,296.46797102134724,43.74297325304722,2604.292518551998,-0.248334512778129,8697.725091437605,10.5,10500008697.725092,47.655,-122.3035,60.0,5.05
2026-01-20T23:05:04+00:00,SAT-56470,296.68769087509327,43.72504094441902,2604.0448462645872,-0.23135777062810364,8103.127769795625,10.5,10500008103.12777,47.655,-122.3035,60.0,5.066666666666666
2026-01-20T23:05:05+00:00,SAT-56470,296.90728862421275,43.70651995206116,2603.8141054480143,-0.2143760940956062,7508.357625207053,10.5,10500007508.357626,47.655,-122.3035,60.0,5.083333333333333
2026-01-20T23:05:06+00:00,SAT-56470,297.1267566589638,43.687410946819135,2603.6003010235027,-0.1973898309086679,6913.426836578434,10.5,10500006913.426836,47.655,-122.3035,60.0,5.1
2026-01-20T23:05:07+00:00,SAT-56470,297.34608739474504,43.66771464654312,2603.4034375654765,-0.1803993292247657,6318.347597857314,10.5,10500006318.347597,47.655,-122.3035,60.0,5.116666666666666
2026-01-20T23:05:08+00:00,SAT-56470,297.565273273774,43.647431815904724,2603.2235193011297,-0.16340493783309376,5723.132125116651,10.5,10500005723.132126,47.655,-122.3035,60.0,5.133333333333334
2026-01-20T23:05:09+00:00,SAT-56470,297.7843067664895,43.62656326622201,2603.060550109797,-0.146407005702756,5127.792640730601,10.5,10500005127.79264,47.655,-122.3035,60.0,5.15
2026-01-20T23:05:10+00:00,SAT-56470,298.0031803729984,43.6051098552678,2602.9145335227763,-0.1294058822246788,4532.341381847329,10.5,10500004532.341381,47.655,-122.3035,60.0,5.166666666666667
2026-01-20T23:05:11+00:00,SAT-56470,298.2218866242768,43.583072487090206,2602.785472722904,-0.11240191732392744,3936.790604322802,10.5,10500003936.790604,47.655,-122.3035,60.0,5.183333333333334
2026-01-20T23:05:12+00:00,SAT-56470,298.44041808472406,43.560452111679446,2602.6733705440265,-0.09539546051492574,3341.152549630586,10.5,10500003341.15255,47.655,-122.3035,60.0,5.2
2026-01-20T23:05:13+00:00,SAT-56470,298.65876735065643,43.53724972504138,2602.5782294714063,-0.07838686234124242,2745.439495289256,10.5,10500002745.439495,47.655,-122.3035,60.0,5.216666666666667
2026-01-20T23:05:14+00:00,SAT-56470,298.8769270553288,43.51346636858179,2602.500051640698,-0.061376473211259816,2149.6637140825874,10.5,10500002149.663713,47.655,-122.3035,60.0,5.233333333333333
2026-01-20T23:05:15+00:00,SAT-56470,299.0948898683186,43.48910312905863,2602.438838838082,-0.044364643590280854,1553.8374807879557,10.5,10500001553.83748,47.655,-122.3035,60.0,5.25
2026-01-20T23:05:16+00:00,SAT-56470,299.31264849595357,43.46416113842954,2602.394592500208,-0.02735172425870477,957.9730812187413,10.5,10500000957.973082,47.655,-122.3035,60.0,5.266666666666667
2026-01-20T23:05:17+00:00,SAT-56470,299.5301956850579,43.43864157330724,2602.367313713881,-0.010338066028440347,362.08280229192303,10.5,10500000362.082802,47.655,-122.3035,60.0,5.283333333333333
2026-01-20T23:05:18+00:00,SAT-56470,299.74752422198486,43.412545654935116,2602.3570032160283,0.006675980226092555,-233.82106688611836,10.5,10499999766.178932,47.655,-122.3035,60.0,5.3
2026-01-20T23:05:19+00:00,SAT-56470,299.9646269355717,43.385874648699506,2602.3636613936405,0.023690063670115225,-829.7262385974028,10.5,10499999170.273762,47.655,-122.3035,60.0,5.316666666666666
2026-01-20T23:05:20+00:00,SAT-56470,300.1814966971018,43.35862986397918,2602.3872882838077,0.0407038330917499,-1425.6204119163463,10.5,10499998574.379587,47.655,-122.3035,60.0,5.333333333333333
2026-01-20T23:05:21+00:00,SAT-56470,300.39812642204987,43.33081265377539,2602.4278835733444,0.05771693818273351,-2021.491317565774,10.5,10499997978.508682,47.655,-122.3035,60.0,5.35
2026-01-20T23:05:22+00:00,SAT-56470,300.6145090721067,43.30242441427894,2602.4854465996923,0.07472902728751246,-2617.3266390806966,10.5,10499997382.67336,47.655,-122.3035,60.0,5.366666666666666
2026-01-20T23:05:23+00:00,SAT-56470,300.8306376542382,43.273466584815644,2602.559976349573,0.09173975067007918,-3213.1141272267473,10.5,10499996786.885872,47.655,-122.3035,60.0,5.383333333333334
2026-01-20T23:05:24+00:00,SAT-56470,301.04650522472895,43.243940647123864,2602.6514714609084,0.10874875673688283,-3808.841467710538,10.5,10499996191.158533,47.655,-122.3035,60.0,5.4
2026-01-20T23:05:25+00:00,SAT-56470,301.26210488727565,43.2138481254095,2602.7599302209605,0.1257556961620492,-4404.496425662304,10.5,10499995595.503574,47.655,-122.3035,60.0,5.416666666666667
2026-01-20T23:05:26+00:00,SAT-56470,301.4774297971454,43.183190585569974,2602.8853505685997,0.14276021760867844,-5000.066695777662,10.5,10499994999.933304,47.655,-122.3035,60.0,5.433333333333334
2026-01-20T23:05:27+00:00,SAT-56470,301.6924731592618,43.15196963524115,2603.0277300922944,0.15976197204159806,-5595.540053368452,10.5,10499994404.459946,47.655,-122.3035,60.0,5.45
2026-01-20T23:05:28+00:00,SAT-56470,301.9072282319083,43.120186923045004,2603.1870660324107,0.1767606096511086,-6190.904246619308,10.5,10499993809.095753,47.655,-122.3035,60.0,5.466666666666667
2026-01-20T23:05:29+00:00,SAT-56470,302.1216883264652,43.087844138384945,2603.3633552804363,0.19375578076117245,-6786.147028396261,10.5,10499993213.852972,47.655,-122.3035,60.0,5.483333333333333
2026-01-20T23:05:30+00:00,SAT-56470,302.33584680826806,43.05494301107531,2603.5565943791153,0.21074713644791718,-7381.256177909353,10.5,10499992618.743822,47.655,-122.3035,60.0,5.5
2026-01-20T23:05:31+00:00,SAT-56470,302.54969709815,43.021485310853365,2603.7667795231996,0.2277343278642117,-7976.219477056433,10.5,10499992023.780523,47.655,-122.3035,60.0,5.516666666666667
2026-01-20T23:05:32+00:00,SAT-56470,302.76323267307737,42.987472847018346,2603.9939065595227,0.2447170072891397,-8571.024747180154,10.5,10499991428.975252,47.655,-122.3035,60.0,5.533333333333333
2026-01-20T23:05:33+00:00,SAT-56470,302.97644706764356,42.952907467918735,2604.2379709881257,0.26169482726758403,-9165.659818932576,10.5,10499990834.340181,47.655,-122.3035,60.0,5.55
2026-01-20T23:05:34+00:00,SAT-56470,303.18933387482724,42.917791060547444,2604.49896796252,0.27866743898189017,-9760.112475243946,10.5,10499990239.887526,47.655,-122.3035,60.0,5.566666666666666
2026-01-20T23:05:35+00:00,SAT-56470,303.40188674576547,42.8821255502883,2604.776892288332,0.29563449665000036,-10354.370605363942,10.5,10499989645.629395,47.655,-122.3035,60.0,5.583333333333333
2026-01-20T23:05:36+00:00,SAT-56470,303.6140993921507,42.84591290022128,2605.071738426324,0.31259565411987283,-10948.422085583838,10.5,10499989051.577915,47.655,-122.3035,60.0,5.6
2026-01-20T23:05:37+00:00,SAT-56470,303.8259655866781,42.80915511073262,2605.3835004920325,0.3295505665542304,-11542.254838243525,10.5,10499988457.745161,47.655,-122.3035,60.0,5.616666666666666
2026-01-20T23:05:38+00:00,SAT-56470,304.03747916408344,42.77185421901319,2605.7121722570764,0.3464988854982875,-12135.856658982459,10.5,10499987864.143341,47.655,-122.3035,60.0,5.633333333333334
2026-01-20T23:05:39+00:00,SAT-56470,304.24863401972215,42.7340122989834,2606.0577471455467,0.3634402710556796,-12729.215643192183,10.5,10499987270.784357,47.655,-122.3035,60.0,5.65
2026-01-20T23:05:40+00:00,SAT-56470,304.45942411459856,42.69563146006861,2606.420218242546,0.38037437651481476,-13322.319647566166,10.5,10499986677.680353,47.655,-122.3035,60.0,5.666666666666667
2026-01-20T23:05:41+00:00,SAT-56470,304.66984347221586,42.656713847407424,2606.79957828739,0.39730085941485155,-13915.156677677132,10.5,10499986084.843323,47.655,-122.3035,60.0,5.683333333333334
2026-01-20T23:05:42+00:00,SAT-56470,304.87988618100644,42.61726164106313,2607.1958196778464,0.41421937838152223,-14507.714777154211,10.5,10499985492.285223,47.655,-122.3035,60.0,5.7
2026-01-20T23:05:43+00:00,SAT-56470,305.0895463953391,42.5772770554683,2607.6089344712195,0.43112958971240434,-15099.98190808471,10.5,10499984900.018091,47.655,-122.3035,60.0,5.716666666666667
2026-01-20T23:05:44+00:00,SAT-56470,305.2988183345991,42.536762339227074,2608.0389143820257,0.4480311575260693,-15691.946306480224,10.5,10499984308.053694,47.655,-122.3035,60.0,5.733333333333333
2026-01-20T23:05:45+00:00,SAT-56470,305.5076962870614,42.495719773990466,2608.485750789798,0.4649237353889217,-16283.595838770827,10.5,10499983716.404161,47.655,-122.3035,60.0,5.75
2026-01-20T23:05:46+00:00,SAT-56470,305.71617460546446,42.45415167492228,2608.9494347285595,0.48180698880392375,-16874.918789455336,10.5,10499983125.081211,47.655,-122.3035,60.0,5.766666666666667
2026-01-20T23:05:47+00:00,SAT-56470,305.9242477124442,42.41206038924419,2609.4299568987267,0.4986805785455608,-17465.903277421305,10.5,10499982534.096722,47.655,-122.3035,60.0,5.783333333333333
2026-01-20T23:05:48+00:00,SAT-56470,306.13191009866244,42.369448296192196,2609.9273076623963,0.5155441683558136,-18056.53752549053,10.5,10499981943.462475,47.655,-122.3035,60.0,5.8
2026-01-20T23:05:49+00:00,SAT-56470,306.33915632411,42.32631780633485,2610.441477046303,0.532397419146387,-18646.80965735657,10.5,10499981353.190342,47.655,-122.3035,60.0,5.816666666666666
2026-01-20T23:05:50+00:00,SAT-56470,306.5459810172813,42.2826713613276,2610.9724547389983,0.5492399985557825,-19236.708032313865,10.5,10499980763.291967,47.655,-122.3035,60.0,5.833333333333333
2026-01-20T23:05:51+00:00,SAT-56470,306.75237887776996,42.23851143294144,2611.520230097558,0.566071571140149,-19826.22090169982,10.5,10499980173.779099,47.655,-122.3035,60.0,5.85
2026-01-20T23:05:52+00:00,SAT-56470,306.9583446751452,42.19384052285498,2612.084792144508,0.582891806294904,-20415.336686343497,10.5,10499979584.663313,47.655,-122.3035,60.0,5.866666666666666
2026-01-20T23:05:53+00:00,SAT-56470,307.16387325077443,42.14866116181807,2612.666129572653,0.5997003671836737,-21004.043588810277,10.5,10499978995.956411,47.655,-122.3035,60.0,5.883333333333334
2026-01-20T23:05:54+00:00,SAT-56470,307.3689595157526,42.1029759096468,2613.264230738858,0.6164969272650929,-21592.330172240272,10.5,10499978407.669828,47.655,-122.3035,60.0,5.9
2026-01-20T23:05:55+00:00,SAT-56470,307.5735984543078,42.05678735401818,2613.879083674317,0.633281154595928,-22180.184810577335,10.5,10499977819.81519,47.655,-122.3035,60.0,5.916666666666667
2026-01-20T23:05:56+00:00,SAT-56470,307.777785122022,42.010098110389,2614.510676079167,0.6500527204611573,-22767.595990830934,10.5,10499977232.404009,47.655,-122.3035,60.0,5.933333333333334
2026-01-20T23:05:57+00:00,SAT-56470,307.98151464685293,41.96291082129219,2615.158995325707,0.6668112995980964,-23354.552320926006,10.5,10499976645.44768,47.655,-122.3035,60.0,5.95
2026-01-20T23:05:58+00:00,SAT-56470,308.18478223000125,41.915228155651995,2615.8240284618396,0.6835565623179748,-23941.042253767224,10.5,10499976058.957747,47.655,-122.3035,60.0,5.966666666666667
2026-01-20T23:05:59+00:00,SAT-56470,308.387583144717,41.86705280857023,2616.505762206658,0.7002881892361774,-24527.05460315437,10.5,10499975472.945396,47.655,-122.3035,60.0,5.983333333333333
2026-01-20T23:06:00+00:00,SAT-56470,308.5899127389022,41.81838750021472,2617.2041829607224,0.7170058500926949,-25112.57780198492,10.5,10499974887.422197,47.655,-122.3035,60.0,6.0
2026-01-20T23:06:01+00:00,SAT-56470,308.7917664321184,41.76923497602231,2617.9192767952154,0.7337092266189631,-25697.600703147484,10.5,10499974302.399298,47.655,-122.3035,60.0,6.016666666666667
2026-01-20T23:06:02+00:00,SAT-56470,308.9931397186394,41.71959800546213,2618.6510294638965,0.7503979992397846,-26282.112113766845,10.5,10499973717.887886,47.655,-122.3035,60.0,6.033333333333333
2026-01-20T23:06:03+00:00,SAT-56470,309.19402816688785,41.66947938164272,2619.399426401805,0.7670718452610175,-26866.10073172916,10.5,10499973133.89927,47.655,-122.3035,60.0,6.05
2026-01-20T23:06:04+00:00,SAT-56470,309.39442741839804,41.61888192104134,2620.164452722145,0.7837304460558029,-27449.55539737404,10.5,10499972550.444603,47.655,-122.3035,60.0,6.066666666666666
2026-01-20T23:06:05+00:00,SAT-56470,309.5943331887738,41.56780846274372,2620.946093220345,0.800373489707307,-28032.46518605456,10.5,10499971967.534815,47.655,-122.3035,60.0,6.083333333333333
2026-01-20T23:06:06+00:00,SAT-56470,309.79374126888587,41.51626186759526,2621.7443323807465,0.8170006554856577,-28614.818864453908,10.5,10499971385.181135,47.655,-122.3035,60.0,6.1
2026-01-20T23:06:07+00:00,SAT-56470,309.9926475226387,41.46424501822536,2622.5591543678174,0.8336116337203525,-29196.605586601185,10.5,10499970803.394413,47.655,-122.3035,60.0,6.116666666666666
2026-01-20T23:06:08+00:00,SAT-56470,310.1910478891609,41.41176081793658,2623.390543037181,0.8502061096032958,-29777.814326585245,10.5,10499970222.185673,47.655,-122.3035,60.0,6.133333333333334
2026-01-20T23:06:09+00:00,SAT-56470,310.38893838140433,41.358812190509084,2624.2384819304925,0.8667837716679367,-30358.43417552998,10.5,10499969641.565825,47.655,-122.3035,60.0,6.15
2026-01-20T23:06:10+00:00,SAT-56470,310.58631508653986,41.305402079541935,2625.102954278769,0.8833443156420837,-30938.45447653616,10.5,10499969061.545523,47.655,-122.3035,60.0,6.166666666666667
2026-01-20T23:06:11+00:00,SAT-56470,310.7831741671276,41.251533447564206,2625.9839430095694,0.899887428311926,-31517.86425953125,10.5,10499968482.13574,47.655,-122.3035,60.0,6.183333333333334
2026-01-20T23:06:12+00:00,SAT-56470,310.9795118588554,41.197209276074254,2626.8814307380726,0.9164128077420668,-32096.652949460462,10.5,10499967903.34705,47.655,-122.3035,60.0,6.2
2026-01-20T23:06:13+00:00,SAT-56470,311.175324472537,41.14243256442013,2627.7953997783275,0.9329201454893543,-32674.80974333991,10.5,10499967325.190256,47.655,-122.3035,60.0,6.216666666666667
2026-01-20T23:06:14+00:00,SAT-56470,311.3706083923371,41.087206329704465,2628.7258321367617,0.9494091448123977,-33252.32424803087,10.5,10499966747.675753,47.655,-122.3035,60.0,6.233333333333333
2026-01-20T23:06:15+00:00,SAT-56470,311.5653600776945,41.0315336056578,2629.672709523855,0.9658794996211026,-33829.185742963484,10.5,10499966170.814257,47.655,-122.3035,60.0,6.25
2026-01-20T23:06:16+00:00,SAT-56470,311.75957606101747,40.97541744269545,2630.63601334481,0.9823309105948633,-34405.383744663995,10.5,10499965594.616255,47.655,-122.3035,60.0,6.266666666666667
2026-01-20T23:06:17+00:00,SAT-56470,311.9532529485487,40.91886090707655,2631.61572470631,0.9987630855957423,-34980.90802122612,10.5,10499965019.091978,47.655,-122.3035,60.0,6.283333333333333
2026-01-20T23:06:18+00:00,SAT-56470,312.1463874212271,40.86186708005371,2632.6118244236777,1.01517572334293,-35555.74802052146,10.5,10499964444.25198,47.655,-122.3035,60.0,6.3
2026-01-20T23:06:19+00:00,SAT-56470,312.33897623246753,40.804439057905526,2633.6242930117583,1.0315685308548448,-36129.89348109574,10.5,10499963870.10652,47.655,-122.3035,60.0,6.316666666666666
2026-01-20T23:06:20+00:00,SAT-56470,312.5310162091716,40.74657995103963,2634.6531106931975,1.0479412184523174,-36703.334257159106,10.5,10499963296.665743,47.655,-122.3035,60.0,6.333333333333333
2026-01-20T23:06:21+00:00,SAT-56470,312.72250425180795,40.688292883349305,2635.6982574017343,1.064293490255389,-37276.05998574382,10.5,10499962723.940014,47.655,-122.3035,60.0,6.35
2026-01-20T23:06:22+00:00,SAT-56470,312.91343733271225,40.629580992107314,2636.7597127760155,1.080625068227697,-37848.06092884037,10.5,10499962151.939072,47.655,-122.3035,60.0,6.366666666666666
2026-01-20T23:06:23+00:00,SAT-56470,313.1038124986246,40.57044742656971,2637.8374561773944,1.0969356522014326,-38419.326573302395,10.5,10499961580.673428,47.655,-122.3035,60.0,6.383333333333334
2026-01-20T23:06:24+00:00,SAT-56470,313.2936268663071,40.51089534869527,2638.931466667857,1.1132249678375319,-38989.84731061542,10.5,10499961010.152689,47.655,-122.3035,60.0,6.4
2026-01-20T23:06:25+00:00,SAT-56470,313.4828776263545,40.45092793134504,2640.0417230357803,1.1294927286875789,-39559.61310814423,10.5,10499960440.386892,47.655,-122.3035,60.0,6.416666666666667
2026-01-20T23:06:26+00:00,SAT-56470,313.6715620404527,40.390548358495444,2641.1682037838577,1.1457386512269452,-40128.61403565704,10.5,10499959871.385963,47.655,-122.3035,60.0,6.433333333333334
2026-01-20T23:06:27+00:00,SAT-56470,313.8596774413425,40.32975982462375,2642.310887132015,1.1619624609803643,-40696.840479868995,10.5,10499959303.15952,47.655,-122.3035,60.0,6.45
2026-01-20T23:06:28+00:00,SAT-56470,314.04722123351587,40.268565533846115,2643.4697510264323,1.1781638739851228,-41264.282495204694,10.5,10499958735.717505,47.655,-122.3035,60.0,6.466666666666667
2026-01-20T23:06:29+00:00,SAT-56470,314.23419089118175,40.20696869993597,2644.6447731300873,1.1943426263796157,-41830.93084011461,10.5,10499958169.06916,47.655,-122.3035,60.0,6.483333333333333
2026-01-20T23:06:30+00:00,SAT-56470,314.4205839605414,40.14497254493377,2645.835930842796,1.210498433867229,-42396.77555732875,10.5,10499957603.224443,47.655,-122.3035,60.0,6.5
2026-01-20T23:06:31+00:00,SAT-56470,314.6063980561236,40.08258029970772,2647.0432012808396,1.226631032012578,-42961.80738520136,10.5,10499957038.192616,47.655,-122.3035,60.0,6.516666666666667
2026-01-20T23:06:32+00:00,SAT-56470,314.7916308630067,40.019795202575786,2648.266561296767,1.2427401471072987,-43526.01673730777,10.5,10499956473.983263,47.655,-122.3035,60.0,6.533333333333333
