satellites_20260120_184412/SAT-48692.csv

timestamp,satellite,azimuth_deg,elevation_deg,distance_km,relative_velocity_kms,doppler_shift_hz,tx_freq_ghz,rx_freq_hz,ue_lat,ue_lon,ue_alt_m,time_minutes
2026-01-20T23:04:37+00:00,SAT-48692,103.92698646253581,40.0912954716631,557.1930667853148,-0.20954621586240732,7339.194859115758,10.5,10500007339.194859,47.655,-122.3035,60.0,4.616666666666666
2026-01-20T23:04:38+00:00,SAT-48692,103.0544869063329,40.4414008359376,556.9840793593614,-0.12149697112261114,4255.337860392128,10.5,10500004255.33786,47.655,-122.3035,60.0,4.633333333333334
2026-01-20T23:04:39+00:00,SAT-48692,102.17237760219041,40.78498253059188,556.8629063801618,-0.03339042266355011,1169.473843025351,10.5,10500001169.473843,47.655,-122.3035,60.0,4.65
2026-01-20T23:04:40+00:00,SAT-48692,101.28088973460619,41.12177677497328,556.8296049986253,0.05473165573664659,-1916.934098571583,10.5,10499998083.0659,47.655,-122.3035,60.0,4.666666666666667
2026-01-20T23:04:41+00:00,SAT-48692,100.38027686163068,41.45152662798554,556.8841907032801,0.14282745347672293,-5002.421580284021,10.5,10499994997.57842,47.655,-122.3035,60.0,4.683333333333334
2026-01-20T23:04:42+00:00,SAT-48692,99.47081508524988,41.773982829685124,557.0266372835474,0.23085522226862992,-8085.526400469402,10.5,10499991914.4736,47.655,-122.3035,60.0,4.7
2026-01-20T23:04:43+00:00,SAT-48692,98.55280310554635,42.08890463312013,557.2568768918901,0.31877337467269884,-11164.79199107583,10.5,10499988835.20801,47.655,-122.3035,60.0,4.716666666666667
2026-01-20T23:04:44+00:00,SAT-48692,97.62656215923577,42.39606061813236,557.5748002042302,0.4065405794608242,-14238.770757664139,10.5,10499985761.229242,47.655,-122.3035,60.0,4.733333333333333
2026-01-20T23:04:45+00:00,SAT-48692,96.69243583659886,42.695229481408504,557.9802566754793,0.494115862004099,-17306.027595407486,10.5,10499982693.972404,47.655,-122.3035,60.0,4.75
2026-01-20T23:04:46+00:00,SAT-48692,95.75078975564392,42.98620080212923,558.4730548951845,0.581458694799587,-20365.14305972188,10.5,10499979634.856941,47.655,-122.3035,60.0,4.766666666666667
2026-01-20T23:04:47+00:00,SAT-48692,94.80201111195204,43.26877576992489,559.0529630334647,0.6685290936539636,-23414.71673502413,10.5,10499976585.283264,47.655,-122.3035,60.0,4.783333333333333
2026-01-20T23:04:48+00:00,SAT-48692,93.84650808044391,43.54276787638976,559.7197093828689,0.7552876965725651,-26453.36999776003,10.5,10499973546.630003,47.655,-122.3035,60.0,4.8
2026-01-20T23:04:49+00:00,SAT-48692,92.88470909136635,43.8080035574575,560.4729829789173,0.8416958709585012,-29479.74977097076,10.5,10499970520.250229,47.655,-122.3035,60.0,4.816666666666666
2026-01-20T23:04:50+00:00,SAT-48692,91.91706193604507,44.06432279386892,561.3124343275532,0.927715763548742,-32492.530273265886,10.5,10499967507.469727,47.655,-122.3035,60.0,4.833333333333333
2026-01-20T23:04:51+00:00,SAT-48692,90.94403277411364,44.31157964590592,562.2376761823992,1.013310409316466,-35490.41683304419,10.5,10499964509.583166,47.655,-122.3035,60.0,4.85
2026-01-20T23:04:52+00:00,SAT-48692,89.96610496539053,44.54964273902641,563.2482844306243,1.0984437805639464,-38472.147607934276,10.5,10499961527.852392,47.655,-122.3035,60.0,4.866666666666666
2026-01-20T23:04:53+00:00,SAT-48692,88.98377779788063,44.77839567926765,564.3437990277733,1.1830808798392913,-41436.49683913182,10.5,10499958563.50316,47.655,-122.3035,60.0,4.883333333333334
2026-01-20T23:04:54+00:00,SAT-48692,87.9975650670548,44.997737407197654,565.5237250252663,1.2671877749942062,-44382.27607927069,10.5,10499955617.72392,47.655,-122.3035,60.0,4.9
2026-01-20T23:04:55+00:00,SAT-48692,87.00799356470363,45.20758247639553,566.7875336328606,1.3507316765482544,-47308.336902046656,10.5,10499952691.663097,47.655,-122.3035,60.0,4.916666666666667
2026-01-20T23:04:56+00:00,SAT-48692,86.01560144355946,45.407861263622415,568.1346633582714,1.4336809836378994,-50213.572511547114,10.5,10499949786.427488,47.655,-122.3035,60.0,4.933333333333334
2026-01-20T23:04:57+00:00,SAT-48692,85.02093649360847,45.59852010368238,569.5645211926196,1.5160053403596503,-53096.91971562649,10.5,10499946903.080284,47.655,-122.3035,60.0,4.95
2026-01-20T23:04:58+00:00,SAT-48692,84.02455433105966,45.779521350191416,571.0764838520715,1.597675657781697,-55957.35969684674,10.5,10499944042.640303,47.655,-122.3035,60.0,4.966666666666667
2026-01-20T23:04:59+00:00,SAT-48692,83.02701653365473,45.950843358666944,572.6698990414326,1.678664167159858,-58793.91987632494,10.5,10499941206.080124,47.655,-122.3035,60.0,4.983333333333333
2026-01-20T23:05:00+00:00,SAT-48692,82.02888871252014,46.112480396641224,574.3440867708133,1.7589444422968317,-61605.674696848895,10.5,10499938394.325304,47.655,-122.3035,60.0,5.0
2026-01-20T23:05:01+00:00,SAT-48692,81.03073855439563,46.26444247882653,576.0983406945974,1.8384914284175975,-64391.74663421577,10.5,10499935608.253366,47.655,-122.3035,60.0,5.016666666666667
2026-01-20T23:05:02+00:00,SAT-48692,80.03313384317013,46.406755130353616,577.9319294792059,1.9172814444887984,-67151.30627846676,10.5,10499932848.693722,47.655,-122.3035,60.0,5.033333333333333
2026-01-20T23:05:03+00:00,SAT-48692,79.03664048925222,46.539459079113705,579.8440981731759,1.9952922272753004,-69883.57387693407,10.5,10499930116.426123,47.655,-122.3035,60.0,5.05
2026-01-20T23:05:04+00:00,SAT-48692,78.04182055872695,46.66260988341234,581.8340696211785,2.072502915491864,-72587.81877916546,10.5,10499927412.181221,47.655,-122.3035,60.0,5.066666666666666
2026-01-20T23:05:05+00:00,SAT-48692,77.04923034898377,46.776277494857574,583.9010458622291,2.1488940537602743,-75263.35957551967,10.5,10499924736.640425,47.655,-122.3035,60.0,5.083333333333333
2026-01-20T23:05:06+00:00,SAT-48692,76.05941851275838,46.88054576260275,586.044209531846,2.224447596311082,-77909.56422681708,10.5,10499922090.435774,47.655,-122.3035,60.0,5.1
2026-01-20T23:05:07+00:00,SAT-48692,75.07292424430061,46.97551188395024,588.2627252679002,2.2991468994146897,-80525.84979924426,10.5,10499919474.1502,47.655,-122.3035,60.0,5.116666666666666
2026-01-20T23:05:08+00:00,SAT-48692,74.09027554588535,47.061285805756064,590.5557411089164,2.372976721856792,-83111.68248100596,10.5,10499916888.317518,47.655,-122.3035,60.0,5.133333333333334
2026-01-20T23:05:09+00:00,SAT-48692,73.11198758271932,47.137989582659216,592.9223898928483,2.4459231824092713,-85666.57609277598,10.5,10499914333.423906,47.655,-122.3035,60.0,5.15
2026-01-20T23:05:10+00:00,SAT-48692,72.13856115441686,47.20575669650118,595.3617906134378,2.517973761194771,-88190.09213549025,10.5,10499911809.907864,47.655,-122.3035,60.0,5.166666666666667
2026-01-20T23:05:11+00:00,SAT-48692,71.17048127276387,47.26473134459472,597.8730497779361,2.589117262518421,-90681.8384885567,10.5,10499909318.161512,47.655,-122.3035,60.0,5.183333333333334
2026-01-20T23:05:12+00:00,SAT-48692,70.20821586910445,47.31506770159412,600.4552627277545,2.659343826335949,-93141.46981151696,10.5,10499906858.530188,47.655,-122.3035,60.0,5.2
2026-01-20T23:05:13+00:00,SAT-48692,69.25221461880352,47.35692916192904,603.1075149705536,2.728644834988105,-95568.6842774914,10.5,10499904431.315723,47.655,-122.3035,60.0,5.216666666666667
2026-01-20T23:05:14+00:00,SAT-48692,68.30290792547835,47.390487567092336,605.8288834193149,2.797012933021108,-97963.2242673751,10.5,10499902036.775732,47.655,-122.3035,60.0,5.233333333333333
2026-01-20T23:05:15+00:00,SAT-48692,67.36070602509874,47.41592242560196,608.6184376511814,2.8644419795297353,-100324.87470069117,10.5,10499899675.1253,47.655,-122.3035,60.0,5.25
2026-01-20T23:05:16+00:00,SAT-48692,66.42599823649371,47.433420129733754,611.4752411187657,2.9309270057997447,-102653.46155204918,10.5,10499897346.538448,47.655,-122.3035,60.0,5.266666666666667
2026-01-20T23:05:17+00:00,SAT-48692,65.49915235465087,47.44317317493455,614.3983523192167,2.996464161228463,-104948.8499570555,10.5,10499895051.150043,47.655,-122.3035,60.0,5.283333333333333
2026-01-20T23:05:18+00:00,SAT-48692,64.58051418779343,47.445379386912286,617.3868259093485,3.061050724208696,-107210.94459351379,10.5,10499892789.055407,47.655,-122.3035,60.0,5.3
2026-01-20T23:05:19+00:00,SAT-48692,63.67040721484937,47.44024116094164,620.439713831626,3.124684994995997,-109439.68592918362,10.5,10499890560.314072,47.655,-122.3035,60.0,5.316666666666666
2026-01-20T23:05:20+00:00,SAT-48692,62.769132394944414,47.42796471778393,623.5560663333019,3.1873663255875453,-111635.05126826515,10.5,10499888364.948732,47.655,-122.3035,60.0,5.333333333333333
2026-01-20T23:05:21+00:00,SAT-48692,61.87696808150632,47.40875937980919,626.7349330153547,3.2490949755282545,-113797.04970111913,10.5,10499886202.950298,47.655,-122.3035,60.0,5.35
2026-01-20T23:05:22+00:00,SAT-48692,60.994170084723706,47.382836871617414,629.9753637376148,3.3098722066097763,-115925.7254210266,10.5,10499884074.274578,47.655,-122.3035,60.0,5.366666666666666
2026-01-20T23:05:23+00:00,SAT-48692,60.120971807467264,47.35041064635191,633.2764096183403,3.3697000990851422,-118021.15128724817,10.5,10499881978.848713,47.655,-122.3035,60.0,5.383333333333334
2026-01-20T23:05:24+00:00,SAT-48692,59.25758452380673,47.311695242719935,636.6371238504945,3.428581616169482,-120083.43108411208,10.5,10499879916.568916,47.655,-122.3035,60.0,5.4
2026-01-20T23:05:25+00:00,SAT-48692,58.40419772371008,47.2669056723605,640.0565625823543,3.4865204587191476,-122112.69443126234,10.5,10499877887.305569,47.655,-122.3035,60.0,5.416666666666667
2026-01-20T23:05:26+00:00,SAT-48692,57.560979570159375,47.216256841852925,643.5337856531835,3.543521164635691,-124109.10026520667,10.5,10499875890.899734,47.655,-122.3035,60.0,5.433333333333334
2026-01-20T23:05:27+00:00,SAT-48692,56.72807739862672,47.15996300680255,647.0678574280468,3.5995888848212516,-126072.82899232622,10.5,10499873927.171007,47.655,-122.3035,60.0,5.45
2026-01-20T23:05:28+00:00,SAT-48692,55.90561832851944,47.098237264490905,650.6578474091752,3.6547294975506057,-128004.08649466878,10.5,10499871995.913506,47.655,-122.3035,60.0,5.466666666666667
2026-01-20T23:05:29+00:00,SAT-48692,55.093709896236234,47.03129107960576,654.302830961399,3.7089494625611583,-129903.09901956294,10.5,10499870096.90098,47.655,-122.3035,60.0,5.483333333333333
2026-01-20T23:05:30+00:00,SAT-48692,54.292440762837174,46.95933384800321,658.0018898920599,3.762255874044121,-131770.1150355933,10.5,10499868229.884964,47.655,-122.3035,60.0,5.5
2026-01-20T23:05:31+00:00,SAT-48692,53.50188144270413,46.88257249447482,661.7541130837733,3.8146562855882142,-133605.3991013885,10.5,10499866394.600899,47.655,-122.3035,60.0,5.516666666666667
2026-01-20T23:05:32+00:00,SAT-48692,52.722085094420756,46.80121110909774,665.5585969525999,3.866158835870039,-135409.2362678297,10.5,10499864590.763733,47.655,-122.3035,60.0,5.533333333333333
2026-01-20T23:05:33+00:00,SAT-48692,51.9530883026909,46.715450614716175,669.4144460315744,3.9167720565050796,-137181.92534817982,10.5,10499862818.074652,47.655,-122.3035,60.0,5.55
2026-01-20T23:05:34+00:00,SAT-48692,51.194911910420544,46.6254884721526,673.3207733625954,3.9665049606626748,-138923.78202175483,10.5,10499861076.217978,47.655,-122.3035,60.0,5.566666666666666
2026-01-20T23:05:35+00:00,SAT-48692,50.44756183710528,46.53151841536778,677.2767009766964,4.015366900631847,-140635.13384527634,10.5,10499859364.866156,47.655,-122.3035,60.0,5.583333333333333
2026-01-20T23:05:36+00:00,SAT-48692,49.71102992334329,46.43373022107369,681.2813602322599,4.063367619385138,-142316.32205885564,10.5,10499857683.67794,47.655,-122.3035,60.0,5.6
2026-01-20T23:05:37+00:00,SAT-48692,48.98529475843568,46.33230950673813,685.33389220466,4.110517160807324,-143967.69844182304,10.5,10499856032.301558,47.655,-122.3035,60.0,5.616666666666666
2026-01-20T23:05:38+00:00,SAT-48692,48.27032251312602,46.2274375590154,689.4334479863718,4.156825875072361,-145589.62550105175,10.5,10499854410.374498,47.655,-122.3035,60.0,5.633333333333334
2026-01-20T23:05:39+00:00,SAT-48692,47.566067755479466,46.11929118877703,693.579188992444,4.202304352754612,-147182.47416325405,10.5,10499852817.525837,47.655,-122.3035,60.0,5.65
2026-01-20T23:05:40+00:00,SAT-48692,46.872474258759716,46.00804261308859,697.7702872002578,4.246963411709911,-148746.6233155007,10.5,10499851253.376684,47.655,-122.3035,60.0,5.666666666666667
2026-01-20T23:05:41+00:00,SAT-48692,46.189475788608064,45.89385936120948,702.0059253762032,4.29081408972505,-150282.45954777495,10.5,10499849717.540453,47.655,-122.3035,60.0,5.683333333333334
2026-01-20T23:05:42+00:00,SAT-48692,45.51699686651214,45.77690420264498,706.2852972950224,4.333867586008982,-151790.37510374698,10.5,10499848209.624897,47.655,-122.3035,60.0,5.7
2026-01-20T23:05:43+00:00,SAT-48692,44.8549535151761,45.65733509744739,710.6076079008019,4.376135241600572,-153270.76719457033,10.5,10499846729.232805,47.655,-122.3035,60.0,5.716666666666667
2026-01-20T23:05:44+00:00,SAT-48692,44.20325397763846,45.53530516580499,714.9720734484249,4.4176285235164485,-154724.03744367283,10.5,10499845275.962557,47.655,-122.3035,60.0,5.733333333333333
2026-01-20T23:05:45+00:00,SAT-48692,43.56179940805917,45.41096267556045,719.377921629212,4.4583590284174415,-156150.5920151705,10.5,10499843849.407986,47.655,-122.3035,60.0,5.75
2026-01-20T23:05:46+00:00,SAT-48692,42.930484530884016,45.28445104526009,723.8243917002204,4.498338389032222,-157550.8383364278,10.5,10499842449.161663,47.655,-122.3035,60.0,5.766666666666667
2026-01-20T23:05:47+00:00,SAT-48692,42.30919828100016,45.15590886456753,728.3107345202152,4.537578304745413,-158925.18616938265,10.5,10499841074.813831,47.655,-122.3035,60.0,5.783333333333333
2026-01-20T23:05:48+00:00,SAT-48692,41.69782440672705,45.02546992665007,732.8362126161479,4.576090558318897,-160274.04819619717,10.5,10499839725.951803,47.655,-122.3035,60.0,5.8
2026-01-20T23:05:49+00:00,SAT-48692,41.096242038299984,44.89326327170796,737.4001002663114,4.613886903589613,-161597.83608595963,10.5,10499838402.163914,47.655,-122.3035,60.0,5.816666666666666
2026-01-20T23:05:50+00:00,SAT-48692,40.504326238819125,44.75941324435676,742.0016834714913,4.650979134593031,-162896.96291568095,10.5,10499837103.037085,47.655,-122.3035,60.0,5.833333333333333
2026-01-20T23:05:51+00:00,SAT-48692,39.92194851374835,44.624039558102496,746.6402599950587,4.687378979263906,-164171.83944724526,10.5,10499835828.160553,47.655,-122.3035,60.0,5.85
2026-01-20T23:05:52+00:00,SAT-48692,39.34897730221211,44.48725737111053,751.3151392970447,4.723098227808398,-165422.87862354488,10.5,10499834577.121376,47.655,-122.3035,60.0,5.866666666666666
2026-01-20T23:05:53+00:00,SAT-48692,38.78527842151807,44.34917736508843,756.0256425962455,4.758148563941187,-166650.48965769002,10.5,10499833349.510342,47.655,-122.3035,60.0,5.883333333333334
2026-01-20T23:05:54+00:00,SAT-48692,38.23071550224432,44.209905835342155,760.7711027640163,4.79254163916103,-167855.08063445284,10.5,10499832144.919365,47.655,-122.3035,60.0,5.9
2026-01-20T23:05:55+00:00,SAT-48692,37.68515038475687,44.069544783692685,765.5508642921395,4.8262890252752815,-169037.05684747564,10.5,10499830962.943153,47.655,-122.3035,60.0,5.916666666666667
2026-01-20T23:05:56+00:00,SAT-48692,37.14844349302165,43.928192017074466,770.3642832133474,4.859402273860973,-170196.82288184922,10.5,10499829803.177118,47.655,-122.3035,60.0,5.933333333333334
2026-01-20T23:05:57+00:00,SAT-48692,36.620454174717196,43.785941247784734,775.2107270811447,4.8918927863773085,-171334.77806490296,10.5,10499828665.221935,47.655,-122.3035,60.0,5.95
2026-01-20T23:05:58+00:00,SAT-48692,36.101041029516665,43.642882200466566,780.0895748200917,4.9237719112807445,-172451.31986758593,10.5,10499827548.680132,47.655,-122.3035,60.0,5.966666666666667
2026-01-20T23:05:59+00:00,SAT-48692,35.59006220161057,43.499100718250176,785.0002166729424,4.955050867417593,-173546.8412213516,10.5,10499826453.15878,47.655,-122.3035,60.0,5.983333333333333
2026-01-20T23:06:00+00:00,SAT-48692,35.08737565670678,43.35467887261905,789.9420540713802,4.985740806086802,-174621.7326918592,10.5,10499825378.267307,47.655,-122.3035,60.0,6.0
2026-01-20T23:06:01+00:00,SAT-48692,34.5928394299528,43.20969507241087,794.9144995686507,5.015852720369107,-175676.37930329662,10.5,10499824323.620697,47.655,-122.3035,60.0,6.016666666666667
2026-01-20T23:06:02+00:00,SAT-48692,34.10631186156271,43.06422417599156,799.9169766817655,5.045397501758588,-176711.16252185762,10.5,10499823288.837479,47.655,-122.3035,60.0,6.033333333333333
2026-01-20T23:06:03+00:00,SAT-48692,33.627651806330746,42.91833760172858,804.9489197901861,5.074385906375846,-177726.4590723839,10.5,10499822273.540928,47.655,-122.3035,60.0,6.05
2026-01-20T23:06:04+00:00,SAT-48692,33.156718827366745,42.77210343904543,810.0097740008116,5.102828568937558,-178722.64142763845,10.5,10499821277.358572,47.655,-122.3035,60.0,6.066666666666666
2026-01-20T23:06:05+00:00,SAT-48692,32.69337337035363,42.62558655840586,815.0989950268987,5.130735989031374,-179700.0773275938,10.5,10499820299.922672,47.655,-122.3035,60.0,6.083333333333333
2026-01-20T23:06:06+00:00,SAT-48692,32.237476922299166,42.47884872053864,820.2160490532926,5.15811846988204,-180659.12763476328,10.5,10499819340.872366,47.655,-122.3035,60.0,6.1
2026-01-20T23:06:07+00:00,SAT-48692,31.788892159392393,42.33194868628865,825.3604125405883,5.184986278703114,-181600.151950396,10.5,10499818399.84805,47.655,-122.3035,60.0,6.116666666666666
2026-01-20T23:06:08+00:00,SAT-48692,31.34748306633439,42.18494231997144,830.5315721892149,5.211349422338538,-182523.50075649552,10.5,10499817476.499243,47.655,-122.3035,60.0,6.133333333333334
2026-01-20T23:06:09+00:00,SAT-48692,30.913115060843133,42.03788269779298,835.7290246797605,5.237217839297903,-183429.52214170774,10.5,10499816570.477858,47.655,-122.3035,60.0,6.15
2026-01-20T23:06:10+00:00,SAT-48692,30.48565508899211,41.890820208485266,840.9522766048203,5.2626012436224565,-184318.5563328474,10.5,10499815681.443666,47.655,-122.3035,60.0,6.166666666666667
2026-01-20T23:06:11+00:00,SAT-48692,30.06497172129432,41.743802656528096,846.2008442451265,5.287509291146782,-185190.94151808586,10.5,10499814809.058481,47.655,-122.3035,60.0,6.183333333333334
2026-01-20T23:06:12+00:00,SAT-48692,29.65093522433885,41.59687535823833,851.4742535114968,5.31195139162723,-186047.00726689366,10.5,10499813952.992733,47.655,-122.3035,60.0,6.2
2026-01-20T23:06:13+00:00,SAT-48692,29.243417636835765,41.45008124106589,856.772039699413,5.335936854161508,-186887.07962325,10.5,10499813112.920376,47.655,-122.3035,60.0,6.216666666666667
2026-01-20T23:06:14+00:00,SAT-48692,28.84229282468742,41.303460936195954,862.0937473886302,5.359474775384779,-187711.477189797,10.5,10499812288.52281,47.655,-122.3035,60.0,6.233333333333333
2026-01-20T23:06:15+00:00,SAT-48692,28.447436535584238,41.15705287196205,867.4389302312806,5.3825741926595505,-188520.51649319768,10.5,10499811479.483507,47.655,-122.3035,60.0,6.25
2026-01-20T23:06:16+00:00,SAT-48692,28.058726434333284,41.01089336032297,872.8071508927596,5.405243879781492,-189314.50482888953,10.5,10499810685.49517,47.655,-122.3035,60.0,6.266666666666667
2026-01-20T23:06:17+00:00,SAT-48692,27.676042145380627,40.865016686659644,878.1979807888617,5.427492508877419,-190093.74593143666,10.5,10499809906.254068,47.655,-122.3035,60.0,6.283333333333333
2026-01-20T23:06:18+00:00,SAT-48692,27.29926527674386,40.71945519238433,883.6109999843821,5.449328591000239,-190858.53789391366,10.5,10499809141.462107,47.655,-122.3035,60.0,6.3
2026-01-20T23:06:19+00:00,SAT-48692,26.92827944194013,40.57423935668684,889.045797032473,5.470760491406812,-191609.17370300068,10.5,10499808390.826298,47.655,-122.3035,60.0,6.316666666666666
2026-01-20T23:06:20+00:00,SAT-48692,26.56297027516408,40.429397875275995,894.5019688292361,5.49179638114988,-192345.93954352825,10.5,10499807654.060457,47.655,-122.3035,60.0,6.333333333333333
2026-01-20T23:06:21+00:00,SAT-48692,26.203225444242317,40.28495773796731,899.9791204200362,5.512444306682704,-193069.11723632616,10.5,10499806930.882763,47.655,-122.3035,60.0,6.35
2026-01-20T23:06:22+00:00,SAT-48692,25.848934654291348,40.14094430173874,905.4768648752345,5.532712160085906,-193778.98319544122,10.5,10499806221.016804,47.655,-122.3035,60.0,6.366666666666666
