satellites_20260120_184412/SAT-55786.csv

timestamp,satellite,azimuth_deg,elevation_deg,distance_km,relative_velocity_kms,doppler_shift_hz,tx_freq_ghz,rx_freq_hz,ue_lat,ue_lon,ue_alt_m,time_minutes
2026-01-20T23:04:45+00:00,SAT-55786,64.17568364296703,40.277382917111936,664.9355475806201,1.6288727720591294,-57050.014602504976,10.5,10499942949.985397,47.655,-122.3035,60.0,4.75
2026-01-20T23:04:46+00:00,SAT-55786,63.52416140774648,40.65724667644663,666.5600766919537,1.7006070396783481,-59562.45209018119,10.5,10499940437.54791,47.655,-122.3035,60.0,4.766666666666667
2026-01-20T23:04:47+00:00,SAT-55786,62.86811670610692,41.03139223646882,668.2561487795263,1.7717944187932613,-62055.73522910054,10.5,10499937944.26477,47.655,-122.3035,60.0,4.783333333333333
2026-01-20T23:04:48+00:00,SAT-55786,62.20766388240268,41.39971795816419,670.0232184132027,1.842417910560282,-64529.26864785558,10.5,10499935470.731352,47.655,-122.3035,60.0,4.8
2026-01-20T23:04:49+00:00,SAT-55786,61.542923349631536,41.762127671615104,671.8607232093348,1.9124613013325713,-66982.48447595036,10.5,10499933017.515524,47.655,-122.3035,60.0,4.816666666666666
2026-01-20T23:04:50+00:00,SAT-55786,60.87402156294243,42.11853077344996,673.7680846138638,1.9819092150594004,-69414.84417904771,10.5,10499930585.15582,47.655,-122.3035,60.0,4.833333333333333
2026-01-20T23:04:51+00:00,SAT-55786,60.20109095906291,42.46884231962137,675.744708737683,2.0507470976835505,-71825.83801250023,10.5,10499928174.161987,47.655,-122.3035,60.0,4.85
2026-01-20T23:04:52+00:00,SAT-55786,59.524269883991785,42.8129831020036,677.7899871764395,2.118961230745085,-74214.98549781193,10.5,10499925785.014502,47.655,-122.3035,60.0,4.866666666666666
2026-01-20T23:04:53+00:00,SAT-55786,58.84370249798293,43.15087971389002,679.9032978439026,2.1865387236607288,-76581.83515222938,10.5,10499923418.164848,47.655,-122.3035,60.0,4.883333333333334
2026-01-20T23:04:54+00:00,SAT-55786,58.15953866378489,43.48246460120756,682.0840057976336,2.2534675100045916,-78925.964358477,10.5,10499921074.03564,47.655,-122.3035,60.0,4.9
2026-01-20T23:04:55+00:00,SAT-55786,57.471933815445645,43.807676101103866,684.3314640609448,2.319736352552371,-81246.97954142628,10.5,10499918753.020458,47.655,-122.3035,60.0,4.916666666666667
2026-01-20T23:04:56+00:00,SAT-55786,56.781048804793855,44.12645846878019,686.6450144498904,2.385334839693072,-83544.5160424191,10.5,10499916455.483957,47.655,-122.3035,60.0,4.933333333333334
2026-01-20T23:04:57+00:00,SAT-55786,56.08704972761101,44.43876189189644,689.0239883966775,2.450253355018021,-85818.23705414638,10.5,10499914181.762945,47.655,-122.3035,60.0,4.95
2026-01-20T23:04:58+00:00,SAT-55786,55.390107736715876,44.74454248966146,691.4677077427489,2.514483109896487,-88067.834761584,10.5,10499911932.16524,47.655,-122.3035,60.0,4.966666666666667
2026-01-20T23:04:59+00:00,SAT-55786,54.690398823837214,45.04376230458333,693.9754855643522,2.5780160789614976,-90293.02808243336,10.5,10499909706.971918,47.655,-122.3035,60.0,4.983333333333333
2026-01-20T23:05:00+00:00,SAT-55786,53.988103597481434,45.33638927587004,696.5466269337699,2.6408450302515933,-92493.56372281296,10.5,10499907506.436277,47.655,-122.3035,60.0,5.0
2026-01-20T23:05:01+00:00,SAT-55786,53.28340703049615,45.62239720585793,699.1804297106075,2.702963499132421,-94669.21526388239,10.5,10499905330.784737,47.655,-122.3035,60.0,5.016666666666667
2026-01-20T23:05:02+00:00,SAT-55786,52.57649819346869,45.90176571322222,701.8761853070755,2.764365765412864,-96819.78236035234,10.5,10499903180.21764,47.655,-122.3035,60.0,5.033333333333333
2026-01-20T23:05:03+00:00,SAT-55786,51.86756997308321,46.174480174183145,704.6331794304473,2.8250468343109447,-98945.09007383007,10.5,10499901054.909925,47.655,-122.3035,60.0,5.05
2026-01-20T23:05:04+00:00,SAT-55786,51.15681877505706,46.440531652504106,707.4506928065334,2.8850024425649123,-101044.98908685548,10.5,10499898955.010914,47.655,-122.3035,60.0,5.066666666666666
2026-01-20T23:05:05+00:00,SAT-55786,50.44444420616104,46.69991682103174,710.3280019092515,2.9442290064793335,-103119.35388325546,10.5,10499896880.646116,47.655,-122.3035,60.0,5.083333333333333
2026-01-20T23:05:06+00:00,SAT-55786,49.73064875085524,46.952637869879396,713.2643796383802,3.0027236230567707,-105168.0827877801,10.5,10499894831.917212,47.655,-122.3035,60.0,5.1
2026-01-20T23:05:07+00:00,SAT-55786,49.01563743010177,47.198702406828055,716.2590959984421,3.0604840653835272,-107191.09780449192,10.5,10499892808.902195,47.655,-122.3035,60.0,5.116666666666666
2026-01-20T23:05:08+00:00,SAT-55786,48.29961744580312,47.43812334905746,719.3114187729847,3.1175087095567933,-109188.34205744538,10.5,10499890811.657942,47.655,-122.3035,60.0,5.133333333333334
2026-01-20T23:05:09+00:00,SAT-55786,47.582797827418226,47.670918802439736,722.4206141259826,3.173796564924993,-111159.78084983186,10.5,10499888840.21915,47.655,-122.3035,60.0,5.15
2026-01-20T23:05:10+00:00,SAT-55786,46.86538905860779,47.8971119359478,725.5859472334012,3.2293472358749926,-113105.40032560601,10.5,10499886894.599674,47.655,-122.3035,60.0,5.166666666666667
2026-01-20T23:05:11+00:00,SAT-55786,46.147602701191516,48.1167308469978,728.8066828766472,3.2841608892422562,-115025.20632805143,10.5,10499884974.793673,47.655,-122.3035,60.0,5.183333333333334
2026-01-20T23:05:12+00:00,SAT-55786,45.429651016586206,48.3298084186165,732.082086003518,3.3382382477850467,-116919.22417121979,10.5,10499883080.77583,47.655,-122.3035,60.0,5.2
2026-01-20T23:05:13+00:00,SAT-55786,44.71174658051868,48.53638217087789,735.4114222826424,3.391580539893034,-118787.4968785134,10.5,10499881212.503122,47.655,-122.3035,60.0,5.216666666666667
2026-01-20T23:05:14+00:00,SAT-55786,43.994101902295554,48.73649410430216,738.7939586077623,3.444189512524025,-120630.08563578429,10.5,10499879369.914364,47.655,-122.3035,60.0,5.233333333333333
2026-01-20T23:05:15+00:00,SAT-55786,43.27692903662396,48.93019053984506,742.2289636149197,3.496067415513064,-122447.0692417725,10.5,10499877552.930758,47.655,-122.3035,60.0,5.25
2026-01-20T23:05:16+00:00,SAT-55786,42.560439196665634,49.117521953481805,745.7157081839914,3.5472169009140404,-124238.5405826234,10.5,10499875761.459417,47.655,-122.3035,60.0,5.266666666666667
2026-01-20T23:05:17+00:00,SAT-55786,41.84484238631517,49.29854280278408,749.2534658398363,3.5976411079844546,-126004.60960841374,10.5,10499873995.390392,47.655,-122.3035,60.0,5.283333333333333
2026-01-20T23:05:18+00:00,SAT-55786,41.130347016432374,49.47331135456855,752.8415132381995,3.6473435445845825,-127745.39917924859,10.5,10499872254.60082,47.655,-122.3035,60.0,5.3
2026-01-20T23:05:19+00:00,SAT-55786,40.417159547226156,49.641889504871784,756.4791305333317,3.696328148029047,-129461.04719654085,10.5,10499870538.952803,47.655,-122.3035,60.0,5.316666666666666
2026-01-20T23:05:20+00:00,SAT-55786,39.70548412330124,49.80434259955941,760.1656018062994,3.7445992177352427,-131151.70424407424,10.5,10499868848.295755,47.655,-122.3035,60.0,5.333333333333333
2026-01-20T23:05:21+00:00,SAT-55786,38.99552222771079,49.960739251004775,763.9002154261208,3.7921613662970186,-132817.53187439658,10.5,10499867182.468126,47.655,-122.3035,60.0,5.35
2026-01-20T23:05:22+00:00,SAT-55786,38.28747235278031,50.111151152004766,767.6822643621076,3.8390195640522538,-134458.70416976488,10.5,10499865541.29583,47.655,-122.3035,60.0,5.366666666666666
2026-01-20T23:05:23+00:00,SAT-55786,37.58152967141587,50.25565289145688,771.5110465406558,3.8851791131646602,-136075.4068343805,10.5,10499863924.593166,47.655,-122.3035,60.0,5.383333333333334
2026-01-20T23:05:24+00:00,SAT-55786,36.87788572433108,50.39432176878246,775.3858651761852,3.9306455306211734,-137667.83309646277,10.5,10499862332.166904,47.655,-122.3035,60.0,5.4
2026-01-20T23:05:25+00:00,SAT-55786,36.17672813949673,50.527237605773166,779.3060289853914,3.9754246576573915,-139236.18754079068,10.5,10499860763.81246,47.655,-122.3035,60.0,5.416666666666667
2026-01-20T23:05:26+00:00,SAT-55786,35.478240345042146,50.654482563018874,783.2708525106284,4.019522570334269,-140780.68297672062,10.5,10499859219.317024,47.655,-122.3035,60.0,5.433333333333334
2026-01-20T23:05:27+00:00,SAT-55786,34.782601311983555,50.77614095524073,787.2796563541085,4.062945574212864,-142301.54025167332,10.5,10499857698.45975,47.655,-122.3035,60.0,5.45
2026-01-20T23:05:28+00:00,SAT-55786,34.08998531254989,50.892299068745665,791.3317674067902,4.105700161172942,-143798.98673873875,10.5,10499856201.013262,47.655,-122.3035,60.0,5.466666666666667
2026-01-20T23:05:29+00:00,SAT-55786,33.40056170116393,51.00304498049622,795.4265190342,4.147793060345224,-145273.25812053902,10.5,10499854726.741879,47.655,-122.3035,60.0,5.483333333333333
2026-01-20T23:05:30+00:00,SAT-55786,32.7144947033111,51.10846838127081,799.563251313051,4.189231145894292,-146724.59515939545,10.5,10499853275.40484,47.655,-122.3035,60.0,5.5
2026-01-20T23:05:31+00:00,SAT-55786,32.03194323623877,51.20866040018094,803.7413111758895,4.230021490238458,-148153.24556131364,10.5,10499851846.754438,47.655,-122.3035,60.0,5.516666666666667
2026-01-20T23:05:32+00:00,SAT-55786,31.353060738224574,51.3037134339713,807.9600526088207,4.270171226747341,-149559.4591670718,10.5,10499850440.540833,47.655,-122.3035,60.0,5.533333333333333
2026-01-20T23:05:33+00:00,SAT-55786,30.677995036635682,51.393720977934436,812.2188367122967,4.309687741404883,-150943.49466507015,10.5,10499849056.505335,47.655,-122.3035,60.0,5.55
2026-01-20T23:05:34+00:00,SAT-55786,30.006888203609282,51.47877746461213,816.5170319530579,4.348578440230569,-152305.6114454386,10.5,10499847694.388554,47.655,-122.3035,60.0,5.566666666666666
2026-01-20T23:05:35+00:00,SAT-55786,29.339876465257205,51.558978103126876,820.8540141841144,4.386850869987731,-153646.07382775174,10.5,10499846353.926172,47.655,-122.3035,60.0,5.583333333333333
2026-01-20T23:05:36+00:00,SAT-55786,28.67709010952232,51.63441872544085,825.2291667851155,4.424512669853361,-154965.14936830165,10.5,10499845034.850632,47.655,-122.3035,60.0,5.6
2026-01-20T23:05:37+00:00,SAT-55786,28.018653418469622,51.705195637142225,829.641880754516,4.461571549433806,-156263.10809011402,10.5,10499843736.89191,47.655,-122.3035,60.0,5.616666666666666
2026-01-20T23:05:38+00:00,SAT-55786,27.364684620750527,51.77140547309743,834.0915547798179,4.498035271410201,-157540.22187511838,10.5,10499842459.778126,47.655,-122.3035,60.0,5.633333333333334
2026-01-20T23:05:39+00:00,SAT-55786,26.715295862729082,51.83314505857649,838.5775952905044,4.533911679655723,-158796.76544893297,10.5,10499841203.23455,47.655,-122.3035,60.0,5.65
2026-01-20T23:05:40+00:00,SAT-55786,26.070593191628884,51.8905112762503,843.0994165390143,4.569208632701881,-160033.01405057276,10.5,10499839966.985949,47.655,-122.3035,60.0,5.666666666666667
2026-01-20T23:05:41+00:00,SAT-55786,25.430676563231124,51.94360093838931,847.6564406153624,4.603934034571697,-161249.244512358,10.5,10499838750.755487,47.655,-122.3035,60.0,5.683333333333334
2026-01-20T23:05:42+00:00,SAT-55786,24.79563986009384,51.99251066503321,852.2480974925085,4.638095818729238,-162445.7346977588,10.5,10499837554.265303,47.655,-122.3035,60.0,5.7
2026-01-20T23:05:43+00:00,SAT-55786,24.165570925796487,52.03733676813785,856.8738250557211,4.671701921651805,-163622.76257578155,10.5,10499836377.237425,47.655,-122.3035,60.0,5.716666666666667
2026-01-20T23:05:44+00:00,SAT-55786,23.540551616238023,52.078175141227675,861.5330691055818,4.704760295370766,-164780.60666020174,10.5,10499835219.39334,47.655,-122.3035,60.0,5.733333333333333
2026-01-20T23:05:45+00:00,SAT-55786,22.920657861467955,52.115121155332666,866.2252833734983,4.737278853158235,-165919.54410728192,10.5,10499834080.455893,47.655,-122.3035,60.0,5.75
2026-01-20T23:05:46+00:00,SAT-55786,22.305959746387014,52.14826956036046,870.9499294830482,4.76926556970481,-167039.85422441983,10.5,10499832960.145775,47.655,-122.3035,60.0,5.766666666666667
2026-01-20T23:05:47+00:00,SAT-55786,21.696521589360827,52.177714392994474,875.7064770112337,4.800728311222473,-168141.81251963307,10.5,10499831858.18748,47.655,-122.3035,60.0,5.783333333333333
2026-01-20T23:05:48+00:00,SAT-55786,21.092402052386717,52.20354888966538,880.494403380293,4.8316749931164615,-169225.69622389515,10.5,10499830774.303776,47.655,-122.3035,60.0,5.8
2026-01-20T23:05:49+00:00,SAT-55786,20.493654240582497,52.225865405847614,885.3131939067612,4.862113461956443,-170291.78015726682,10.5,10499829708.219843,47.655,-122.3035,60.0,5.816666666666666
2026-01-20T23:05:50+00:00,SAT-55786,19.900325824664463,52.24475534068379,890.162341732819,4.892051543028348,-171340.3383943623,10.5,10499828659.661606,47.655,-122.3035,60.0,5.833333333333333
2026-01-20T23:05:51+00:00,SAT-55786,19.312459164903395,52.260309067346746,895.0413478050659,4.921496985339658,-172371.64233820187,10.5,10499827628.357662,47.655,-122.3035,60.0,5.85
2026-01-20T23:05:52+00:00,SAT-55786,18.730091448256424,52.27261586871101,899.9497207984447,4.950457543696004,-173385.9635948815,10.5,10499826614.036406,47.655,-122.3035,60.0,5.866666666666666
2026-01-20T23:05:53+00:00,SAT-55786,18.15325482157078,52.28176387849411,904.8869771220242,4.978940869541918,-174383.5701503543,10.5,10499825616.42985,47.655,-122.3035,60.0,5.883333333333334
2026-01-20T23:05:54+00:00,SAT-55786,17.58197654252356,52.28784002742484,909.8526408159139,5.006954594760553,-175364.72930545107,10.5,10499824635.270695,47.655,-122.3035,60.0,5.9
2026-01-20T23:05:55+00:00,SAT-55786,17.016279125043052,52.290929994490455,914.8462435317551,5.034506251045504,-176329.70485194057,10.5,10499823670.295149,47.655,-122.3035,60.0,5.916666666666667
2026-01-20T23:05:56+00:00,SAT-55786,16.456180497249253,52.291118163079275,919.8673244327979,5.061603360896927,-177278.76025959844,10.5,10499822721.23974,47.655,-122.3035,60.0,5.933333333333334
2026-01-20T23:05:57+00:00,SAT-55786,15.90169415211516,52.28848758163739,924.9154301847324,5.0882532999516625,-178212.1538544257,10.5,10499821787.846146,47.655,-122.3035,60.0,5.95
2026-01-20T23:05:58+00:00,SAT-55786,15.352829315059786,52.283119929147794,929.9901148092175,5.11446345365697,-179130.14430602582,10.5,10499820869.855694,47.655,-122.3035,60.0,5.966666666666667
2026-01-20T23:05:59+00:00,SAT-55786,14.809591096047797,52.27509548458511,935.0909396936648,5.1402410591986785,-180032.98509125976,10.5,10499819967.014908,47.655,-122.3035,60.0,5.983333333333333
2026-01-20T23:06:00+00:00,SAT-55786,14.271980659353012,52.26449310084871,940.2174734433723,5.165593337113468,-180920.92910386497,10.5,10499819079.070896,47.655,-122.3035,60.0,6.0
2026-01-20T23:06:01+00:00,SAT-55786,13.739995379630862,52.25139018231305,945.3692918649201,5.190527393231037,-181794.22522005503,10.5,10499818205.77478,47.655,-122.3035,60.0,6.016666666666667
2026-01-20T23:06:02+00:00,SAT-55786,13.213629007905595,52.23586266643709,950.5459778517692,5.215050264130169,-182653.11989058368,10.5,10499817346.88011,47.655,-122.3035,60.0,6.033333333333333
2026-01-20T23:06:03+00:00,SAT-55786,12.692871831942384,52.21798500883163,955.747121315195,5.239168890028892,-183497.85619124337,10.5,10499816502.143808,47.655,-122.3035,60.0,6.05
2026-01-20T23:06:04+00:00,SAT-55786,12.177710838159943,52.19783017174871,960.9723190881838,5.262890133048753,-184328.6744625574,10.5,10499815671.325537,47.655,-122.3035,60.0,6.066666666666666
2026-01-20T23:06:05+00:00,SAT-55786,11.668129869814793,52.17546961584485,966.2211748475444,5.286220779164735,-185145.81237807428,10.5,10499814854.187622,47.655,-122.3035,60.0,6.083333333333333
2026-01-20T23:06:06+00:00,SAT-55786,11.164109783277638,52.15097329471459,971.4932990379647,5.309167515608524,-185949.5041529347,10.5,10499814050.495848,47.655,-122.3035,60.0,6.1
2026-01-20T23:06:07+00:00,SAT-55786,10.665628603707274,52.12440965262506,976.7883087735315,5.331736932509949,-186739.98060136143,10.5,10499813260.019398,47.655,-122.3035,60.0,6.116666666666666
2026-01-20T23:06:08+00:00,SAT-55786,10.172661678020754,52.09584562472309,982.1058277408882,5.3539355422850425,-187517.46981571146,10.5,10499812482.530184,47.655,-122.3035,60.0,6.133333333333334
2026-01-20T23:06:09+00:00,SAT-55786,9.685181822858246,52.06534663976431,987.4454861217272,5.375769762702544,-188282.19657339316,10.5,10499811717.803427,47.655,-122.3035,60.0,6.15
2026-01-20T23:06:10+00:00,SAT-55786,9.203159471048998,52.03297662514133,992.8069204983958,5.397245910524296,-189034.38211412614,10.5,10499810965.617886,47.655,-122.3035,60.0,6.166666666666667
2026-01-20T23:06:11+00:00,SAT-55786,8.72656281500039,51.998798014200084,998.1897737531588,5.41837024795043,-189774.24576664806,10.5,10499810225.754232,47.655,-122.3035,60.0,6.183333333333334
2026-01-20T23:06:12+00:00,SAT-55786,8.255357942571074,51.962871755133854,1003.5936950137813,5.4391488887727695,-190502.00166180992,10.5,10499809497.998339,47.655,-122.3035,60.0,6.2
2026-01-20T23:06:13+00:00,SAT-55786,7.789508977052215,51.92525732255308,1009.0183395055172,5.459587896869097,-191217.86218226183,10.5,10499808782.137817,47.655,-122.3035,60.0,6.216666666666667
2026-01-20T23:06:14+00:00,SAT-55786,7.328978204966205,51.88601272985066,1014.4633685013281,5.479693205548551,-191922.0351375877,10.5,10499808077.964863,47.655,-122.3035,60.0,6.233333333333333
2026-01-20T23:06:15+00:00,SAT-55786,6.873726206446876,51.845194543910154,1019.9284491916619,5.4994707223317985,-192614.72743415006,10.5,10499807385.272566,47.655,-122.3035,60.0,6.25
2026-01-20T23:06:16+00:00,SAT-55786,6.423711973202772,51.80285790018618,1025.413254658734,5.518926186865752,-193296.1400986625,10.5,10499806703.859901,47.655,-122.3035,60.0,6.266666666666667
2026-01-20T23:06:17+00:00,SAT-55786,5.97889303362313,51.75905652045459,1030.9174637091016,5.538065284413105,-193966.47225307318,10.5,10499806033.527746,47.655,-122.3035,60.0,6.283333333333333
2026-01-20T23:06:18+00:00,SAT-55786,5.539225564630409,51.713842730664005,1036.4407608194228,5.556893618305432,-194625.92014975587,10.5,10499805374.079851,47.655,-122.3035,60.0,6.3
2026-01-20T23:06:19+00:00,SAT-55786,5.1046645016312,51.667267480062996,1041.9828360547463,5.575416667705411,-195274.6756921644,10.5,10499804725.324308,47.655,-122.3035,60.0,6.316666666666666
2026-01-20T23:06:20+00:00,SAT-55786,4.6751636475007485,51.61938036167688,1047.543384944671,5.593639863380115,-195912.92908873383,10.5,10499804087.070911,47.655,-122.3035,60.0,6.333333333333333
2026-01-20T23:06:21+00:00,SAT-55786,4.25067577157133,51.57022963290943,1053.122108435082,5.611568484482591,-196540.86523773457,10.5,10499803459.134762,47.655,-122.3035,60.0,6.35
2026-01-20T23:06:22+00:00,SAT-55786,3.8311527122639233,51.51986223784479,1058.7187127369396,5.629207806717104,-197158.6689166463,10.5,10499802841.331083,47.655,-122.3035,60.0,6.366666666666666
2026-01-20T23:06:23+00:00,SAT-55786,3.4165454646799227,51.468323828715306,1064.3329093228385,5.646562940723604,-197766.51912169796,10.5,10499802233.480879,47.655,-122.3035,60.0,6.383333333333334
2026-01-20T23:06:24+00:00,SAT-55786,3.0068042759998486,51.41565878954102,1069.9644147623872,5.663638926875317,-198364.59238808075,10.5,10499801635.407612,47.655,-122.3035,60.0,6.4
2026-01-20T23:06:25+00:00,SAT-55786,2.601878729765755,51.36191025935719,1075.6129506521238,5.68044075414921,-198953.0634508714,10.5,10499801046.936548,47.655,-122.3035,60.0,6.416666666666667
2026-01-20T23:06:26+00:00,SAT-55786,2.2017178253872243,51.30712015541838,1081.278243564262,5.696973294515446,-199532.1029470734,10.5,10499800467.897053,47.655,-122.3035,60.0,6.433333333333334
2026-01-20T23:06:27+00:00,SAT-55786,1.8062700580634334,51.25132919762178,1086.9600249299922,5.71324133581158,-200101.87856701046,10.5,10499799898.121433,47.655,-122.3035,60.0,6.45
2026-01-20T23:06:28+00:00,SAT-55786,1.4154834929095517,51.19457693264785,1092.658030955575,5.729249569908409,-200662.55463984451,10.5,10499799337.44536,47.655,-122.3035,60.0,6.466666666666667
2026-01-20T23:06:29+00:00,SAT-55786,1.0293058359490888,51.13690175857241,1098.3720025266302,5.745002646184859,-201214.2940064924,10.5,10499798785.705994,47.655,-122.3035,60.0,6.483333333333333
2026-01-20T23:06:30+00:00,SAT-55786,0.64768449837993,51.07834094879772,1104.1016851657587,5.760505095505674,-201757.25535700293,10.5,10499798242.744642,47.655,-122.3035,60.0,6.5
2026-01-20T23:06:31+00:00,SAT-55786,0.2705666620872452,51.018930677099675,1109.846828914343,5.775761382790269,-202291.59507174065,10.5,10499797708.404928,47.655,-122.3035,60.0,6.516666666666667
2026-01-20T23:06:32+00:00,SAT-55786,359.8978993385784,50.958706041950606,1115.607188266779,5.790775877010487,-202817.4661705803,10.5,10499797182.533829,47.655,-122.3035,60.0,6.533333333333333
2026-01-20T23:06:33+00:00,SAT-55786,359.5296294264468,50.89770109123062,1121.3825220747842,5.805552878118371,-203335.0192560311,10.5,10499796664.980743,47.655,-122.3035,60.0,6.55
2026-01-20T23:06:34+00:00,SAT-55786,359.16570376413665,50.83594884648667,1127.1725934785609,5.8200966219410795,-203844.40268467774,10.5,10499796155.597315,47.655,-122.3035,60.0,6.566666666666666
2026-01-20T23:06:35+00:00,SAT-55786,358.8060691793081,50.77348132707161,1132.9771698428435,5.83441124294337,-204345.76126296475,10.5,10499795654.238737,47.655,-122.3035,60.0,6.583333333333333
2026-01-20T23:06:36+00:00,SAT-55786,358.45067253766825,50.71032957450564,1138.7960226558057,5.848500787970755,-204839.23672854013,10.5,10499795160.763271,47.655,-122.3035,60.0,6.6
2026-01-20T23:06:37+00:00,SAT-55786,358.09946078789403,50.64652367659222,1144.6289274416752,5.862369290136644,-205324.97033809556,10.5,10499794675.029661,47.655,-122.3035,60.0,6.616666666666666
2026-01-20T23:06:38+00:00,SAT-55786,357.75238099986285,50.582092790290126,1150.4756637470382,5.876020647554635,-205803.09862005824,10.5,10499794196.90138,47.655,-122.3035,60.0,6.633333333333334
2026-01-20T23:06:39+00:00,SAT-55786,357.40938040712456,50.517065165930035,1156.3360150061992,5.889458700888149,-206273.75609070715,10.5,10499793726.24391,47.655,-122.3035,60.0,6.65
2026-01-20T23:06:40+00:00,SAT-55786,357.0704064424741,50.45146817014892,1162.209768483885,5.902687228823583,-206737.07509562373,10.5,10499793262.924904,47.655,-122.3035,60.0,6.666666666666667
2026-01-20T23:06:41+00:00,SAT-55786,356.73540677138647,50.385328308629106,1168.0967152134317,5.915709929122234,-207193.18514605012,10.5,10499792806.814854,47.655,-122.3035,60.0,6.683333333333334
2026-01-20T23:06:42+00:00,SAT-55786,356.4043293242558,50.318671248757376,1173.9966499160764,5.928530456200092,-207642.21423509248,10.5,10499792357.785765,47.655,-122.3035,60.0,6.7
2026-01-20T23:06:43+00:00,SAT-55786,356.0771223244825,50.25152184144578,1179.9093709577267,5.941152334164332,-208084.28579189104,10.5,10499791915.714209,47.655,-122.3035,60.0,6.716666666666667
2026-01-20T23:06:44+00:00,SAT-55786,355.75373431898504,50.18390414378559,1185.8346802189997,5.953579116830623,-208519.52428610311,10.5,10499791480.475714,47.655,-122.3035,60.0,6.733333333333333
2026-01-20T23:06:45+00:00,SAT-55786,355.43411419838725,50.115841439281915,1191.7723831248522,5.965814175016131,-208948.0477780044,10.5,10499791051.952223,47.655,-122.3035,60.0,6.75
2026-01-20T23:06:46+00:00,SAT-55786,355.1182112264184,50.0473562604005,1197.7222884620685,5.977860936352161,-209369.97631774208,10.5,10499790630.023682,47.655,-122.3035,60.0,6.766666666666667
2026-01-20T23:06:47+00:00,SAT-55786,354.805975055082,49.978470407766316,1203.6842084359237,5.989722647508209,-209785.42361741533,10.5,10499790214.576382,47.655,-122.3035,60.0,6.783333333333333
2026-01-20T23:06:48+00:00,SAT-55786,354.4973557503039,49.90920497192961,1209.6579584897052,6.001402589349334,-210194.50458679654,10.5,10499789805.495413,47.655,-122.3035,60.0,6.8
2026-01-20T23:06:49+00:00,SAT-55786,354.192303805077,49.83958035206515,1215.6433573388163,6.012903919508742,-210597.32981955734,10.5,10499789402.670181,47.655,-122.3035,60.0,6.816666666666666
2026-01-20T23:06:50+00:00,SAT-55786,353.8907701589459,49.76961627626093,1221.6402268478728,6.024229755292138,-210994.00849692975,10.5,10499789005.991503,47.655,-122.3035,60.0,6.833333333333333
2026-01-20T23:06:51+00:00,SAT-55786,353.5927062118748,49.699331820370084,1227.6483919904842,6.035383170451564,-211384.64827471218,10.5,10499788615.351725,47.655,-122.3035,60.0,6.85
2026-01-20T23:06:52+00:00,SAT-55786,353.29806383705164,49.628745426478936,1233.6676808058144,6.04636714350045,-211769.35347304406,10.5,10499788230.646526,47.655,-122.3035,60.0,6.866666666666666
2026-01-20T23:06:53+00:00,SAT-55786,353.00679539466825,49.557874921684196,1239.697924303599,6.057184642470195,-212148.2280449398,10.5,10499787851.771955,47.655,-122.3035,60.0,6.883333333333334
2026-01-20T23:06:54+00:00,SAT-55786,352.71885374064664,49.48673753534494,1245.7389564536893,6.067838521836334,-212521.37196620708,10.5,10499787478.628035,47.655,-122.3035,60.0,6.9
2026-01-20T23:06:55+00:00,SAT-55786,352.4341922388497,49.415349917284416,1251.7906140728005,6.078331632700338,-212888.88509447942,10.5,10499787111.114906,47.655,-122.3035,60.0,6.916666666666667
2026-01-20T23:06:56+00:00,SAT-55786,352.15276476722937,49.343728154166804,1257.8527368211471,6.088666740364736,-213250.8642823487,10.5,10499786749.135717,47.655,-122.3035,60.0,6.933333333333334
2026-01-20T23:06:57+00:00,SAT-55786,351.8745257266244,49.271887786559184,1263.9251671168709,6.098846588672735,-213607.4056308105,10.5,10499786392.59437,47.655,-122.3035,60.0,6.95
2026-01-20T23:06:58+00:00,SAT-55786,351.5994300458183,49.19984382473985,1270.0077501146404,6.108873816184994,-213958.60155342013,10.5,10499786041.398447,47.655,-122.3035,60.0,6.966666666666667
2026-01-20T23:06:59+00:00,SAT-55786,351.3274331891842,49.127610765245024,1276.100333600649,6.118751052381803,-214304.54414570009,10.5,10499785695.455854,47.655,-122.3035,60.0,6.983333333333333
2026-01-20T23:07:00+00:00,SAT-55786,351.05849115944125,49.05520260574889,1282.2027679835578,6.128480887226066,-214645.32411910672,10.5,10499785354.67588,47.655,-122.3035,60.0,7.0
2026-01-20T23:07:01+00:00,SAT-55786,350.79256050093034,48.98263285996249,1288.3149062550845,6.138065829156895,-214981.02932978855,10.5,10499785018.97067,47.655,-122.3035,60.0,7.016666666666667
2026-01-20T23:07:02+00:00,SAT-55786,350.5295983038286,48.90991457273698,1294.4366039086972,6.14750832251927,-215311.74538904623,10.5,10499784688.25461,47.655,-122.3035,60.0,7.033333333333333
2026-01-20T23:07:03+00:00,SAT-55786,350.2695622068903,48.83706033453133,1300.5677188756897,6.156810827428229,-215637.55846051473,10.5,10499784362.44154,47.655,-122.3035,60.0,7.05
2026-01-20T23:07:04+00:00,SAT-55786,350.0124103963831,48.76408229449848,1306.7081115409114,6.165975699509843,-215958.55104818332,10.5,10499784041.448952,47.655,-122.3035,60.0,7.066666666666666
2026-01-20T23:07:05+00:00,SAT-55786,349.7581016092107,48.690992174757774,1312.8576446385557,6.175005280197636,-216274.80515895828,10.5,10499783725.194841,47.655,-122.3035,60.0,7.083333333333333
2026-01-20T23:07:06+00:00,SAT-55786,349.5065951318462,48.61780128316351,1319.0161832380065,6.183901834417475,-216586.40012012408,10.5,10499783413.59988,47.655,-122.3035,60.0,7.1
2026-01-20T23:07:07+00:00,SAT-55786,349.25785080119397,48.54452052651454,1325.183594667532,6.19266763087689,-216893.41539141504,10.5,10499783106.584608,47.655,-122.3035,60.0,7.116666666666666
2026-01-20T23:07:08+00:00,SAT-55786,349.01182900185177,48.471160422397375,1331.3597485180599,6.201304868775465,-217195.92799810323,10.5,10499782804.072002,47.655,-122.3035,60.0,7.133333333333334
2026-01-20T23:07:09+00:00,SAT-55786,348.76849066576875,48.39773111163618,1337.544516573852,6.2098156781799005,-217494.01254413466,10.5,10499782505.987455,47.655,-122.3035,60.0,7.15
2026-01-20T23:07:10+00:00,SAT-55786,348.5277972713386,48.32424237041938,1343.7377727435567,6.218202185389467,-217787.74350150398,10.5,10499782212.256498,47.655,-122.3035,60.0,7.166666666666667
2026-01-20T23:07:11+00:00,SAT-55786,348.2897108397577,48.25070362123797,1349.9393930564518,6.226466486525343,-218077.19428524148,10.5,10499781922.805716,47.655,-122.3035,60.0,7.183333333333334
2026-01-20T23:07:12+00:00,SAT-55786,348.0541939319958,48.17712394388455,1356.1492556323465,6.234610606192783,-218362.43580558727,10.5,10499781637.564194,47.655,-122.3035,60.0,7.2
2026-01-20T23:07:13+00:00,SAT-55786,347.8212096469432,48.103512086647534,1362.3672406102562,6.24263651397463,-218643.53704566383,10.5,10499781356.462954,47.655,-122.3035,60.0,7.216666666666667
2026-01-20T23:07:14+00:00,SAT-55786,347.59072161857057,48.02987647699828,1368.5932300935267,6.250546210282593,-218920.5680683509,10.5,10499781079.431932,47.655,-122.3035,60.0,7.233333333333333
2026-01-20T23:07:15+00:00,SAT-55786,347.3626940098518,47.956225230911976,1374.8271081805817,6.258341572925186,-219193.59464244582,10.5,10499780806.405357,47.655,-122.3035,60.0,7.25
2026-01-20T23:07:16+00:00,SAT-55786,347.13709151177216,47.88256616382073,1381.068760842646,6.266024523518711,-219462.68407107983,10.5,10499780537.31593,47.655,-122.3035,60.0,7.266666666666667
2026-01-20T23:07:17+00:00,SAT-55786,346.9138793363959,47.80890679918509,1387.3180759674353,6.273596888196404,-219727.90031316344,10.5,10499780272.099688,47.655,-122.3035,60.0,7.283333333333333
2026-01-20T23:07:18+00:00,SAT-55786,346.69302321439915,47.73525437857916,1393.5749432639298,6.2810604852123175,-219989.30705164484,10.5,10499780010.69295,47.655,-122.3035,60.0,7.3
2026-01-20T23:07:19+00:00,SAT-55786,346.474489389541,47.66161587036438,1399.839254254515,6.288417081755347,-220246.96618095424,10.5,10499779753.03382,47.655,-122.3035,60.0,7.316666666666666
2026-01-20T23:07:20+00:00,SAT-55786,346.25824461431745,47.58799797867972,1406.1109022240523,6.295668460326795,-220500.9401318273,10.5,10499779499.059868,47.655,-122.3035,60.0,7.333333333333333
2026-01-20T23:07:21+00:00,SAT-55786,346.0442561434119,47.51440715131272,1412.3897822351516,6.302816277440279,-220751.2869223779,10.5,10499779248.713078,47.655,-122.3035,60.0,7.35
2026-01-20T23:07:22+00:00,SAT-55786,345.83249173141314,47.440849589151526,1418.6757910025187,6.309862261207168,-220998.06707837613,10.5,10499779001.932922,47.655,-122.3035,60.0,7.366666666666666
2026-01-20T23:07:23+00:00,SAT-55786,345.62291962428435,47.36733125283436,1424.9688269643625,6.31680801449569,-221241.3367390475,10.5,10499778758.663261,47.655,-122.3035,60.0,7.383333333333334
2026-01-20T23:07:24+00:00,SAT-55786,345.41550855674797,47.293857871728534,1431.2687901574861,6.3236551916684265,-221481.1538471674,10.5,10499778518.846153,47.655,-122.3035,60.0,7.4
2026-01-20T23:07:25+00:00,SAT-55786,345.21022774427644,47.220434950373445,1437.5755822686438,6.330405355528863,-221717.57313872472,10.5,10499778282.42686,47.655,-122.3035,60.0,7.416666666666667
2026-01-20T23:07:26+00:00,SAT-55786,345.00704687921683,47.147067776585075,1443.8891065432242,6.337060067441968,-221950.64929932513,10.5,10499778049.3507,47.655,-122.3035,60.0,7.433333333333334
2026-01-20T23:07:27+00:00,SAT-55786,344.8059361242842,47.07376142812695,1450.20926778382,6.343620847215835,-222180.4355590769,10.5,10499777819.564442,47.655,-122.3035,60.0,7.45
2026-01-20T23:07:28+00:00,SAT-55786,344.60686610703146,47.0005207797602,1456.5359723087763,6.350089203648738,-222406.98476247778,10.5,10499777593.015238,47.655,-122.3035,60.0,7.466666666666667
2026-01-20T23:07:29+00:00,SAT-55786,344.40980791355287,46.92735050962586,1462.8691279412153,6.356466605210699,-222630.34834155947,10.5,10499777369.651659,47.655,-122.3035,60.0,7.483333333333333
2026-01-20T23:07:30+00:00,SAT-55786,344.2147330828594,46.854255105875254,1469.208643968812,6.3627544829550695,-222850.57641786383,10.5,10499777149.423582,47.655,-122.3035,60.0,7.5
2026-01-20T23:07:31+00:00,SAT-55786,344.0216136012697,46.781238872998365,1475.5544311064793,6.368954256444358,-223067.71871047455,10.5,10499776932.28129,47.655,-122.3035,60.0,7.516666666666667
2026-01-20T23:07:32+00:00,SAT-55786,343.8304218959222,46.70830593770231,1481.9064014849066,6.375067308814165,-223281.82366265106,10.5,10499776718.176338,47.655,-122.3035,60.0,7.533333333333333
2026-01-20T23:07:33+00:00,SAT-55786,343.6411308291267,46.63546025486466,1488.2644686142307,6.381095018040642,-223492.93953694703,10.5,10499776507.060463,47.655,-122.3035,60.0,7.55
2026-01-20T23:07:34+00:00,SAT-55786,343.4537136916982,46.56270561298666,1494.6285473788898,6.387038704757252,-223701.11258753264,10.5,10499776298.887413,47.655,-122.3035,60.0,7.566666666666666
2026-01-20T23:07:35+00:00,SAT-55786,343.26814419788457,46.49004564005556,1500.9985539804343,6.39289968069167,-223906.38875665958,10.5,10499776093.611244,47.655,-122.3035,60.0,7.583333333333333
2026-01-20T23:07:36+00:00,SAT-55786,343.08439647885626,46.41748380868815,1507.3744059286441,6.398679255158541,-224108.81390206516,10.5,10499775891.186098,47.655,-122.3035,60.0,7.6
2026-01-20T23:07:37+00:00,SAT-55786,342.90244507614335,46.34502344102191,1513.7560220391224,6.404378658795515,-224308.4311258855,10.5,10499775691.568874,47.655,-122.3035,60.0,7.616666666666666
2026-01-20T23:07:38+00:00,SAT-55786,342.72226493707524,46.2726677143738,1520.143322354828,6.409999159715105,-224505.2848427848,10.5,10499775494.715157,47.655,-122.3035,60.0,7.633333333333334
2026-01-20T23:07:39+00:00,SAT-55786,342.5438314072324,46.20041966532913,1526.5362281834502,6.415541952614163,-224699.41689610053,10.5,10499775300.583103,47.655,-122.3035,60.0,7.65
2026-01-20T23:07:40+00:00,SAT-55786,342.36712022575324,46.128282195064784,1532.9346620241909,6.421008243690817,-224890.8695319933,10.5,10499775109.130468,47.655,-122.3035,60.0,7.666666666666667
2026-01-20T23:07:41+00:00,SAT-55786,342.1921075185875,46.05625807345245,1539.3385475792318,6.426399210832556,-225079.68400506538,10.5,10499774920.315994,47.655,-122.3035,60.0,7.683333333333334
2026-01-20T23:07:42+00:00,SAT-55786,342.018769792719,45.984349943552566,1545.747809725502,6.431716011457556,-225265.9008529972,10.5,10499774734.099148,47.655,-122.3035,60.0,7.7
2026-01-20T23:07:43+00:00,SAT-55786,341.847083930371,45.91256032582888,1552.1623744942624,6.436959747393644,-225449.55866646004,10.5,10499774550.441334,47.655,-122.3035,60.0,7.716666666666667
2026-01-20T23:07:44+00:00,SAT-55786,341.67702718394685,45.84089162271272,1558.5821690156629,6.442131539662835,-225630.69670838676,10.5,10499774369.303291,47.655,-122.3035,60.0,7.733333333333333
2026-01-20T23:07:45+00:00,SAT-55786,341.5085771693559,45.76934612208355,1565.0071215378869,6.447232504840482,-225809.35408596924,10.5,10499774190.645914,47.655,-122.3035,60.0,7.75
2026-01-20T23:07:46+00:00,SAT-55786,341.34171185988123,45.69792600096742,1571.4371614227143,6.452263684785238,-225985.56728950463,10.5,10499774014.43271,47.655,-122.3035,60.0,7.766666666666667
2026-01-20T23:07:47+00:00,SAT-55786,341.17640958185893,45.626633329914135,1577.8722190710068,6.457226123224483,-226159.37287474083,10.5,10499773840.627125,47.655,-122.3035,60.0,7.783333333333333
2026-01-20T23:07:48+00:00,SAT-55786,341.0126490084944,45.55547007638123,1584.3122259245695,6.462120862758624,-226330.8073579541,10.5,10499773669.192642,47.655,-122.3035,60.0,7.8
2026-01-20T23:07:49+00:00,SAT-55786,340.8504091539578,45.48443810799327,1590.7571144650274,6.4669489258623045,-226499.90655053168,10.5,10499773500.093449,47.655,-122.3035,60.0,7.816666666666666
2026-01-20T23:07:50+00:00,SAT-55786,340.68966936783823,45.41353919599265,1597.2068181937539,6.4717112902045,-226666.70469457656,10.5,10499773333.295305,47.655,-122.3035,60.0,7.833333333333333
2026-01-20T23:07:51+00:00,SAT-55786,340.5304093303912,45.34277501879813,1603.6612715871847,6.476408936884162,-226831.2361523241,10.5,10499773168.763847,47.655,-122.3035,60.0,7.85
2026-01-20T23:07:52+00:00,SAT-55786,340.37260904660087,45.27214716495569,1610.120410100237,6.48104281867817,-226993.53429405083,10.5,10499773006.465706,47.655,-122.3035,60.0,7.866666666666666
2026-01-20T23:07:53+00:00,SAT-55786,340.21624884113953,45.20165713633022,1616.5841701380655,6.48561389313406,-227153.63265712187,10.5,10499772846.367342,47.655,-122.3035,60.0,7.883333333333334
2026-01-20T23:07:54+00:00,SAT-55786,340.0613093525942,45.13130635083537,1623.0524890608178,6.490123067904643,-227311.56303137803,10.5,10499772688.436968,47.655,-122.3035,60.0,7.9
2026-01-20T23:07:55+00:00,SAT-55786,339.9077715290407,45.06109614568846,1629.5253051338748,6.49457125590712,-227467.35739104135,10.5,10499772532.642609,47.655,-122.3035,60.0,7.916666666666667
2026-01-20T23:07:56+00:00,SAT-55786,339.7556166223969,44.99102777995837,1636.0025575330992,6.498959343110085,-227621.0467664797,10.5,10499772378.953234,47.655,-122.3035,60.0,7.933333333333334
2026-01-20T23:07:57+00:00,SAT-55786,339.6048261836214,44.9211024373794,1642.4841863179613,6.503288221700716,-227772.66240586186,10.5,10499772227.337595,47.655,-122.3035,60.0,7.95
2026-01-20T23:07:58+00:00,SAT-55786,339.4553820572393,44.851321228716635,1648.9701324377374,6.507558740336902,-227922.23403277702,10.5,10499772077.765966,47.655,-122.3035,60.0,7.966666666666667
2026-01-20T23:07:59+00:00,SAT-55786,339.30726637701497,44.78168519461578,1655.4603376881,6.511771732473403,-228069.79083833634,10.5,10499771930.209162,47.655,-122.3035,60.0,7.983333333333333
2026-01-20T23:08:00+00:00,SAT-55786,339.1604615610708,44.71219530804659,1661.9547446959537,6.515928039095263,-228215.36227739343,10.5,10499771784.637722,47.655,-122.3035,60.0,8.0
2026-01-20T23:08:01+00:00,SAT-55786,339.0149503066552,44.64285247641148,1668.4532969269444,6.52002849181545,-228358.9774765522,10.5,10499771641.022524,47.655,-122.3035,60.0,8.016666666666667
2026-01-20T23:08:02+00:00,SAT-55786,338.8707155852897,44.57365754378948,1674.9559386761152,6.524073857748504,-228500.66330340868,10.5,10499771499.336697,47.655,-122.3035,60.0,8.033333333333333
2026-01-20T23:08:03+00:00,SAT-55786,338.7277406391592,44.50461129371096,1681.4626150035763,6.5280649405006725,-228640.44790365294,10.5,10499771359.552095,47.655,-122.3035,60.0,8.05
2026-01-20T23:08:04+00:00,SAT-55786,338.58600897549496,44.43571445072997,1687.973271770902,6.53200251820648,-228778.3585308475,10.5,10499771221.64147,47.655,-122.3035,60.0,8.066666666666666
2026-01-20T23:08:05+00:00,SAT-55786,338.44550436228525,44.36696768264429,1694.4878556157269,6.535887355417008,-228914.42196280527,10.5,10499771085.578037,47.655,-122.3035,60.0,8.083333333333334
2026-01-20T23:08:06+00:00,SAT-55786,338.30621082382817,44.298371602508276,1701.006313938196,6.539720170654888,-229048.66336522825,10.5,10499770951.336636,47.655,-122.3035,60.0,8.1
2026-01-20T23:08:07+00:00,SAT-55786,338.1681126370309,44.22992677092051,1707.5285948550627,6.543501713102891,-229181.108977666,10.5,10499770818.891022,47.655,-122.3035,60.0,8.116666666666667
2026-01-20T23:08:08+00:00,SAT-55786,338.03119432617734,44.16163369744559,1714.0546472302638,6.547232720082954,-229311.78462425168,10.5,10499770688.215376,47.655,-122.3035,60.0,8.133333333333333
2026-01-20T23:08:09+00:00,SAT-55786,337.89544065873827,44.093492842409894,1720.5844206630932,6.5509138597556715,-229440.71370679562,10.5,10499770559.286293,47.655,-122.3035,60.0,8.15
2026-01-20T23:08:10+00:00,SAT-55786,337.76083664222153,44.02550461929722,1727.1178654192229,6.554545867403747,-229567.92197800835,10.5,10499770432.078022,47.655,-122.3035,60.0,8.166666666666666
2026-01-20T23:08:11+00:00,SAT-55786,337.6273675186176,43.95766939556375,1733.654932497647,6.558129397588324,-229693.4323633899,10.5,10499770306.567636,47.655,-122.3035,60.0,8.183333333333334
2026-01-20T23:08:12+00:00,SAT-55786,337.4950187615653,43.88998749506994,1740.195573550175,6.561665150789726,-229817.2693967242,10.5,10499770182.730604,47.655,-122.3035,60.0,8.2
2026-01-20T23:08:13+00:00,SAT-55786,337.36377607139093,43.82245919901428,1746.7397409272294,6.565153747018283,-229939.45479339568,10.5,10499770060.545206,47.655,-122.3035,60.0,8.216666666666667
2026-01-20T23:08:14+00:00,SAT-55786,337.2336253723783,43.75508474825563,1753.2873875975888,6.568595869467475,-230060.0124817299,10.5,10499769939.987518,47.655,-122.3035,60.0,8.233333333333333
2026-01-20T23:08:15+00:00,SAT-55786,337.10455280762903,43.68786434397009,1759.8384672114043,6.571992155108452,-230178.96477115093,10.5,10499769821.035229,47.655,-122.3035,60.0,8.25
2026-01-20T23:08:16+00:00,SAT-55786,336.97654473586266,43.62079814950745,1766.3929340540992,6.575343208920943,-230296.33285060793,10.5,10499769703.667149,47.655,-122.3035,60.0,8.266666666666667
2026-01-20T23:08:17+00:00,SAT-55786,336.84958772813053,43.55388629198552,1772.950743014463,6.578649646369761,-230412.13827628206,10.5,10499769587.861723,47.655,-122.3035,60.0,8.283333333333333
2026-01-20T23:08:18+00:00,SAT-55786,336.7236685637044,43.48712886343979,1779.5118495951092,6.581912101619409,-230526.40325929676,10.5,10499769473.59674,47.655,-122.3035,60.0,8.3
2026-01-20T23:08:19+00:00,SAT-55786,336.5987742260378,43.42052592180382,1786.0762099311241,6.585131147319471,-230639.14785626277,10.5,10499769360.852144,47.655,-122.3035,60.0,8.316666666666666
2026-01-20T23:08:20+00:00,SAT-55786,336.4748919000827,43.354077492732166,1792.6437807287175,6.588307379949193,-230750.39295840636,10.5,10499769249.607042,47.655,-122.3035,60.0,8.333333333333334
2026-01-20T23:08:21+00:00,SAT-55786,336.35200896824995,43.28778357046169,1799.2145192889868,6.591441352280414,-230860.15792613552,10.5,10499769139.842073,47.655,-122.3035,60.0,8.35
2026-01-20T23:08:22+00:00,SAT-55786,336.23011300755377,43.22164411935432,1805.788383464328,6.594533664386511,-230968.46377655826,10.5,10499769031.536224,47.655,-122.3035,60.0,8.366666666666667
2026-01-20T23:08:23+00:00,SAT-55786,336.1091917853259,43.15565907443061,1812.3653317056094,6.597584849313532,-231075.32917920197,10.5,10499768924.67082,47.655,-122.3035,60.0,8.383333333333333
2026-01-20T23:08:24+00:00,SAT-55786,335.98923325684046,43.089828343106284,1818.945322995325,6.6005954655812795,-231180.7736957927,10.5,10499768819.226305,47.655,-122.3035,60.0,8.4
2026-01-20T23:08:25+00:00,SAT-55786,335.8702255615359,43.0241518058806,1825.528316872998,6.603566022418851,-231284.81516168738,10.5,10499768715.18484,47.655,-122.3035,60.0,8.416666666666666
2026-01-20T23:08:26+00:00,SAT-55786,335.7521570204506,42.958629317803926,1832.1142733860236,6.606497094169467,-231387.4736928152,10.5,10499768612.526308,47.655,-122.3035,60.0,8.433333333333334
2026-01-20T23:08:27+00:00,SAT-55786,335.6350161319338,42.893260708697944,1838.7031531546086,6.60938919474547,-231488.7672885601,10.5,10499768511.232712,47.655,-122.3035,60.0,8.45
2026-01-20T23:08:28+00:00,SAT-55786,335.5187915693729,42.8280457846815,1845.2949173115014,6.612242773623788,-231588.71169150554,10.5,10499768411.28831,47.655,-122.3035,60.0,8.466666666666667
2026-01-20T23:08:29+00:00,SAT-55786,335.4034721791039,42.76298432966652,1851.889527437729,6.615058407181039,-231687.32708879857,10.5,10499768312.67291,47.655,-122.3035,60.0,8.483333333333333
2026-01-20T23:08:30+00:00,SAT-55786,335.2890469752552,42.69807610487718,1858.4869456891574,6.617836550288905,-231784.62941196974,10.5,10499768215.370588,47.655,-122.3035,60.0,8.5
2026-01-20T23:08:31+00:00,SAT-55786,335.17550513865723,42.633320850896105,1865.0871346753122,6.620577717545821,-231880.63668443292,10.5,10499768119.363316,47.655,-122.3035,60.0,8.516666666666667
2026-01-20T23:08:32+00:00,SAT-55786,335.0628360128987,42.56871828781697,1871.6900575189445,6.623282353862873,-231975.36448885637,10.5,10499768024.635511,47.655,-122.3035,60.0,8.533333333333333
2026-01-20T23:08:33+00:00,SAT-55786,334.9510291025071,42.50426811668667,1878.2956777865304,6.625950946226408,-232068.82988156186,10.5,10499767931.170118,47.655,-122.3035,60.0,8.55
2026-01-20T23:08:34+00:00,SAT-55786,334.84007406937263,42.439970019807184,1884.9039595302336,6.6285839637512245,-232161.04929293404,10.5,10499767838.950706,47.655,-122.3035,60.0,8.566666666666666
2026-01-20T23:08:35+00:00,SAT-55786,334.72996073025536,42.37582366158845,1891.5148672700816,6.631181867188854,-232252.0388604405,10.5,10499767747.96114,47.655,-122.3035,60.0,8.583333333333334
2026-01-20T23:08:36+00:00,SAT-55786,334.6206790540955,42.31182868931497,1898.1283659856244,6.633745081859785,-232341.8134806038,10.5,10499767658.18652,47.655,-122.3035,60.0,8.6
2026-01-20T23:08:37+00:00,SAT-55786,334.5122191598524,42.247984734140495,1904.7444210805993,6.636274053923288,-232430.38877980888,10.5,10499767569.61122,47.655,-122.3035,60.0,8.616666666666667
2026-01-20T23:08:38+00:00,SAT-55786,334.40457131348717,42.184291411501036,1911.3629984037123,6.638769222814129,-232517.78014892005,10.5,10499767482.21985,47.655,-122.3035,60.0,8.633333333333333
2026-01-20T23:08:39+00:00,SAT-55786,334.29772592547647,42.1207483217771,1917.984064241932,6.6412310262025285,-232604.00291699983,10.5,10499767395.997084,47.655,-122.3035,60.0,8.65
2026-01-20T23:08:40+00:00,SAT-55786,334.1916735482414,42.05735505089886,1924.6075853187315,6.643659861296037,-232689.07099593675,10.5,10499767310.929005,47.655,-122.3035,60.0,8.666666666666666
2026-01-20T23:08:41+00:00,SAT-55786,334.0864048742277,41.99411117130118,1931.2335287537308,6.646056163128741,-232772.99962246476,10.5,10499767227.000378,47.655,-122.3035,60.0,8.683333333333334
2026-01-20T23:08:42+00:00,SAT-55786,333.981910732848,41.93101624210083,1937.8618621004246,6.6484203217303435,-232855.80245707385,10.5,10499767144.197542,47.655,-122.3035,60.0,8.7
2026-01-20T23:08:43+00:00,SAT-55786,333.8781820887519,41.86806981004092,1944.492553301297,6.650752741934992,-232937.49367876834,10.5,10499767062.50632,47.655,-122.3035,60.0,8.716666666666667
2026-01-20T23:08:44+00:00,SAT-55786,333.775210039156,41.805271409871864,1951.1255707025866,6.65305382314015,-233018.0872761368,10.5,10499766981.912724,47.655,-122.3035,60.0,8.733333333333333
2026-01-20T23:08:45+00:00,SAT-55786,333.67298581163544,41.74262056487386,1957.760883048865,6.655323929472831,-233097.59600244756,10.5,10499766902.403997,47.655,-122.3035,60.0,8.75
2026-01-20T23:08:46+00:00,SAT-55786,333.57150076226804,41.68011678768251,1964.3984594478593,6.657563482030212,-233176.03460630495,10.5,10499766823.965393,47.655,-122.3035,60.0,8.766666666666667
2026-01-20T23:08:47+00:00,SAT-55786,333.47074637263347,41.61775958017267,1971.038269427271,6.659772809848255,-233253.41461194027,10.5,10499766746.585388,47.655,-122.3035,60.0,8.783333333333333
2026-01-20T23:08:48+00:00,SAT-55786,333.37071424881634,41.555548434806354,1977.6802828429595,6.661952322276131,-233329.7503564929,10.5,10499766670.249643,47.655,-122.3035,60.0,8.8
2026-01-20T23:08:49+00:00,SAT-55786,333.2713961181839,41.49348283425715,1984.3244699590427,6.664102359288979,-233405.05374733033,10.5,10499766594.946253,47.655,-122.3035,60.0,8.816666666666666
2026-01-20T23:08:50+00:00,SAT-55786,333.17278382814936,41.43156225250511,1990.970801378707,6.666223284371675,-233479.33751523058,10.5,10499766520.662485,47.655,-122.3035,60.0,8.833333333333334
2026-01-20T23:08:51+00:00,SAT-55786,333.0748693437887,41.369786154988866,1997.6192480676536,6.668315449222463,-233552.6139781537,10.5,10499766447.386023,47.655,-122.3035,60.0,8.85
2026-01-20T23:08:52+00:00,SAT-55786,332.97764474592486,41.308153999104874,2004.269781342345,6.670379200314072,-233624.8952710403,10.5,10499766375.104729,47.655,-122.3035,60.0,8.866666666666667
2026-01-20T23:08:53+00:00,SAT-55786,332.88110222919624,41.24666523461764,2010.9223728647914,6.672414884038932,-233696.19352601853,10.5,10499766303.806475,47.655,-122.3035,60.0,8.883333333333333
2026-01-20T23:08:54+00:00,SAT-55786,332.78523410004976,41.1853193040185,2017.576994642473,6.674422819489684,-233766.5199190624,10.5,10499766233.480082,47.655,-122.3035,60.0,8.9
2026-01-20T23:08:55+00:00,SAT-55786,332.6900327752008,41.124115643111935,2024.2336190011108,6.67640334800121,-233835.88640516336,10.5,10499766164.113594,47.655,-122.3035,60.0,8.916666666666666
2026-01-20T23:08:56+00:00,SAT-55786,332.5954907793785,41.06305368114664,2030.8922186068505,6.678356806610378,-233904.3047887781,10.5,10499766095.695211,47.655,-122.3035,60.0,8.933333333333334
2026-01-20T23:08:57+00:00,SAT-55786,332.5016007435628,41.002132841159614,2037.5527664619765,6.680283498268512,-233971.78568054363,10.5,10499766028.21432,47.655,-122.3035,60.0,8.95
2026-01-20T23:08:58+00:00,SAT-55786,332.4083554035467,40.94135254061154,2044.2152358709163,6.6821837442350525,-234038.34033232435,10.5,10499765961.659668,47.655,-122.3035,60.0,8.966666666666667
2026-01-20T23:08:59+00:00,SAT-55786,332.3157475979225,40.880712191498475,2050.8796004585,6.68405784897074,-234103.9794076233,10.5,10499765896.020592,47.655,-122.3035,60.0,8.983333333333333
2026-01-20T23:09:00+00:00,SAT-55786,332.22377026649946,40.820211200800664,2057.545834153207,6.685906135977787,-234168.71423685638,10.5,10499765831.285763,47.655,-122.3035,60.0,9.0
2026-01-20T23:09:01+00:00,SAT-55786,332.13241644837404,40.75984897056106,2064.2139112061554,6.687728888494692,-234232.55474023387,10.5,10499765767.44526,47.655,-122.3035,60.0,9.016666666666667
2026-01-20T23:09:02+00:00,SAT-55786,332.0416792806634,40.69962489854445,2070.8838061509477,6.689526420471931,-234295.5119136295,10.5,10499765704.488087,47.655,-122.3035,60.0,9.033333333333333
2026-01-20T23:09:03+00:00,SAT-55786,331.9515519965097,40.6395383781869,2077.5554938342984,6.6912989836373615,-234357.59457361765,10.5,10499765642.405426,47.655,-122.3035,60.0,9.05
2026-01-20T23:09:04+00:00,SAT-55786,331.8620279241513,40.57958879942634,2084.2289493539793,6.69304691725055,-234418.81460250335,10.5,10499765581.185398,47.655,-122.3035,60.0,9.066666666666666
2026-01-20T23:09:05+00:00,SAT-55786,331.7731004842939,40.519775548113934,2090.904148146117,6.694770475408419,-234479.18089983574,10.5,10499765520.8191,47.655,-122.3035,60.0,9.083333333333334
2026-01-20T23:09:06+00:00,SAT-55786,331.6847631895086,40.46009800704273,2097.5810659002577,6.696469949150136,-234538.70365903745,10.5,10499765461.29634,47.655,-122.3035,60.0,9.1
2026-01-20T23:09:07+00:00,SAT-55786,331.5970096422943,40.40055555580365,2104.25967859621,6.698145595225277,-234597.39187256477,10.5,10499765402.608128,47.655,-122.3035,60.0,9.116666666666667
2026-01-20T23:09:08+00:00,SAT-55786,331.5098335338939,40.34114757133202,2110.9399624698485,6.699797701762181,-234655.25563189085,10.5,10499765344.744368,47.655,-122.3035,60.0,9.133333333333333
2026-01-20T23:09:09+00:00,SAT-55786,331.4232286424811,40.28187342780146,2117.621894044406,6.701426529257781,-234712.30406072026,10.5,10499765287.69594,47.655,-122.3035,60.0,9.15
2026-01-20T23:09:10+00:00,SAT-55786,331.3371888319797,40.22273249708093,2124.3054501029187,6.703032340425108,-234768.5463603745,10.5,10499765231.45364,47.655,-122.3035,60.0,9.166666666666666
2026-01-20T23:09:11+00:00,SAT-55786,331.2517080506284,40.16372414889341,2130.9906076904363,6.704615382097607,-234823.99117600507,10.5,10499765176.008823,47.655,-122.3035,60.0,9.183333333333334
2026-01-20T23:09:12+00:00,SAT-55786,331.1667803297107,40.104847751145044,2137.6773440981815,6.70617595511953,-234878.64904445014,10.5,10499765121.350956,47.655,-122.3035,60.0,9.2
2026-01-20T23:09:13+00:00,SAT-55786,331.08239978159475,40.04610266959871,2144.3656369174205,6.707714241462267,-234932.5263391176,10.5,10499765067.473661,47.655,-122.3035,60.0,9.216666666666667
