satellites_20260120_184412/SAT-56456.csv

timestamp,satellite,azimuth_deg,elevation_deg,distance_km,relative_velocity_kms,doppler_shift_hz,tx_freq_ghz,rx_freq_hz,ue_lat,ue_lon,ue_alt_m,time_minutes
2026-01-20T23:06:55+00:00,SAT-56456,255.97991890775552,40.016246407583985,2640.9685452460344,-1.2142543312308791,42528.322970433874,10.5,10500042528.322971,47.655,-122.3035,60.0,6.916666666666667
2026-01-20T23:06:56+00:00,SAT-56456,256.16546014944385,40.07962243943685,2639.7575289263536,-1.198061659815523,41961.18712253592,10.5,10500041961.187122,47.655,-122.3035,60.0,6.933333333333334
2026-01-20T23:06:57+00:00,SAT-56456,256.3515864378086,40.14260460910039,2638.562662097631,-1.1818458468981259,41393.24076134805,10.5,10500041393.24076,47.655,-122.3035,60.0,6.95
2026-01-20T23:06:58+00:00,SAT-56456,256.5382954625071,40.20518964968138,2637.383967839658,-1.165607168071022,40824.49353927953,10.5,10500040824.49354,47.655,-122.3035,60.0,6.966666666666667
2026-01-20T23:06:59+00:00,SAT-56456,256.7255848431939,40.267374302111,2636.2214689573684,-1.1493459042349006,40254.95529466074,10.5,10500040254.955296,47.655,-122.3035,60.0,6.983333333333333
2026-01-20T23:07:00+00:00,SAT-56456,256.91345212963256,40.32915531582668,2635.0751879755444,-1.133062324653743,39684.63545825526,10.5,10500039684.635458,47.655,-122.3035,60.0,7.0
2026-01-20T23:07:01+00:00,SAT-56456,257.1018947991614,40.390529448605854,2633.9451471504235,-1.116756717229982,39113.54411362413,10.5,10500039113.544113,47.655,-122.3035,60.0,7.016666666666667
2026-01-20T23:07:02+00:00,SAT-56456,257.2909102589371,40.45149346794301,2632.831368451106,-1.100429361449931,38541.69104956027,10.5,10500038541.69105,47.655,-122.3035,60.0,7.033333333333333
2026-01-20T23:07:03+00:00,SAT-56456,257.48049584392436,40.51204415105252,2631.733873567953,-1.0840805458187723,37969.086370735546,10.5,10500037969.08637,47.655,-122.3035,60.0,7.05
2026-01-20T23:07:04+00:00,SAT-56456,257.67064881771665,40.57217828577043,2630.65268390359,-1.067710551841468,37395.73993664448,10.5,10500037395.739937,47.655,-122.3035,60.0,7.066666666666666
2026-01-20T23:07:05+00:00,SAT-56456,257.86136637071206,40.63189267062637,2629.5878205798867,-1.0513196689064852,36821.66188289532,10.5,10500036821.661882,47.655,-122.3035,60.0,7.083333333333333
2026-01-20T23:07:06+00:00,SAT-56456,258.0526456207821,40.69118411569836,2628.539304430097,-1.0349081892747514,36246.86244570198,10.5,10500036246.862446,47.655,-122.3035,60.0,7.1
2026-01-20T23:07:07+00:00,SAT-56456,258.24448361315905,40.75004944320955,2627.507155995994,-1.0184764049800163,35671.351853321714,10.5,10500035671.351852,47.655,-122.3035,60.0,7.116666666666666
2026-01-20T23:07:08+00:00,SAT-56456,258.4368773198049,40.808485487969996,2626.491395528094,-1.0020246072022232,35095.140304107794,10.5,10500035095.140305,47.655,-122.3035,60.0,7.133333333333334
2026-01-20T23:07:09+00:00,SAT-56456,258.62982363866485,40.86648909777928,2625.4920429865106,-0.9855530935314896,34518.23822092496,10.5,10500034518.23822,47.655,-122.3035,60.0,7.15
2026-01-20T23:07:10+00:00,SAT-56456,258.8233193942413,40.92405713423181,2624.509118034562,-0.9690621643521271,33940.65612450242,10.5,10500033940.656124,47.655,-122.3035,60.0,7.166666666666667
2026-01-20T23:07:11+00:00,SAT-56456,259.01736133755503,40.981186473321706,2623.542640035982,-0.9525521125821887,33362.404274069435,10.5,10500033362.404274,47.655,-122.3035,60.0,7.183333333333334
2026-01-20T23:07:12+00:00,SAT-56456,259.21194614424064,41.037874005503355,2622.5926280623667,-0.936023246514393,32783.49346734108,10.5,10500032783.493467,47.655,-122.3035,60.0,7.2
2026-01-20T23:07:13+00:00,SAT-56456,259.4070704169049,41.09411663699494,2621.659100877843,-0.9194758629358707,32203.934099058097,10.5,10500032203.9341,47.655,-122.3035,60.0,7.216666666666667
2026-01-20T23:07:14+00:00,SAT-56456,259.6027306824103,41.14991128960664,2620.742076950541,-0.9029102704808644,31623.736978897166,10.5,10500031623.736979,47.655,-122.3035,60.0,7.233333333333333
2026-01-20T23:07:15+00:00,SAT-56456,259.79892339376624,41.20525490188196,2619.8415744407816,-0.8863267704545786,31042.912659841084,10.5,10500031042.91266,47.655,-122.3035,60.0,7.25
2026-01-20T23:07:16+00:00,SAT-56456,259.9956449281238,41.260144429142805,2618.9576112083814,-0.8697256790901573,30461.472217712202,10.5,10500030461.472218,47.655,-122.3035,60.0,7.266666666666667
2026-01-20T23:07:17+00:00,SAT-56456,260.1928915894246,41.31457684481628,2618.090204797769,-0.8531072975001899,29879.426198747115,10.5,10500029879.426199,47.655,-122.3035,60.0,7.283333333333333
2026-01-20T23:07:18+00:00,SAT-56456,260.39065960486244,41.36854914005023,2617.2393724530625,-0.8364719418156683,29296.78567519039,10.5,10500029296.785675,47.655,-122.3035,60.0,7.3
2026-01-20T23:07:19+00:00,SAT-56456,260.5889451275933,41.422058325044624,2616.405131103091,-0.8198199207231811,28713.561458552107,10.5,10500028713.561459,47.655,-122.3035,60.0,7.316666666666666
2026-01-20T23:07:20+00:00,SAT-56456,260.78774423477984,41.47510142910457,2615.5874973688233,-0.8031515532993618,28129.764724245662,10.5,10500028129.764725,47.655,-122.3035,60.0,7.333333333333333
2026-01-20T23:07:21+00:00,SAT-56456,260.9870529294881,41.5276755017229,2614.7864875529995,-0.7864671519316557,27545.406413400782,10.5,10500027545.406414,47.655,-122.3035,60.0,7.35
2026-01-20T23:07:22+00:00,SAT-56456,261.18686713894255,41.579777612682925,2614.0021176468063,-0.7697670357571744,26960.49770354907,10.5,10500026960.497704,47.655,-122.3035,60.0,7.366666666666666
2026-01-20T23:07:23+00:00,SAT-56456,261.38718271562664,41.63140485291716,2613.2344033231448,-0.7530515210349811,26375.049671420693,10.5,10500026375.049671,47.655,-122.3035,60.0,7.383333333333334
2026-01-20T23:07:24+00:00,SAT-56456,261.5879954364169,41.68255433484126,2612.4833599394988,-0.736320930518171,25789.073621194286,10.5,10500025789.073622,47.655,-122.3035,60.0,7.4
2026-01-20T23:07:25+00:00,SAT-56456,261.7893010037533,41.733223193207344,2611.7490025314623,-0.7195755847724621,25202.580780437285,10.5,10500025202.58078,47.655,-122.3035,60.0,7.416666666666667
2026-01-20T23:07:26+00:00,SAT-56456,261.9910950449909,41.78340858548267,2611.0313458149158,-0.7028158078377619,24615.58249839794,10.5,10500024615.582499,47.655,-122.3035,60.0,7.433333333333334
2026-01-20T23:07:27+00:00,SAT-56456,262.19337311291997,41.83310769252133,2610.330404182566,-0.6860419198818518,24028.08998870627,10.5,10500024028.089989,47.655,-122.3035,60.0,7.45
2026-01-20T23:07:28+00:00,SAT-56456,262.3961306846352,41.88231771882144,2609.6461917078036,-0.6692542560761776,23440.114990484068,10.5,10500023440.11499,47.655,-122.3035,60.0,7.466666666666667
2026-01-20T23:07:29+00:00,SAT-56456,262.59936316527313,41.931035893960214,2608.9787221297433,-0.6524531334431485,22851.668607197113,10.5,10500022851.668608,47.655,-122.3035,60.0,7.483333333333333
2026-01-20T23:07:30+00:00,SAT-56456,262.803065883058,41.97925947191352,2608.328008871323,-0.6356388839036359,22262.762464118354,10.5,10500022262.762465,47.655,-122.3035,60.0,7.5
2026-01-20T23:07:31+00:00,SAT-56456,263.0072340930816,42.02698573248704,2607.694065024443,-0.6188118386741194,21673.408161849937,10.5,10500021673.408161,47.655,-122.3035,60.0,7.516666666666667
2026-01-20T23:07:32+00:00,SAT-56456,263.21186297717185,42.07421198178059,2607.076903350672,-0.6019723281716486,21083.617272994605,10.5,10500021083.617273,47.655,-122.3035,60.0,7.533333333333333
2026-01-20T23:07:33+00:00,SAT-56456,263.41694764349717,42.12093555259192,2606.476536282042,-0.5851206829692962,20493.4013756197,10.5,10500020493.401375,47.655,-122.3035,60.0,7.55
2026-01-20T23:07:34+00:00,SAT-56456,263.62248312663786,42.167153804928624,2605.892975920894,-0.5682572370167475,19902.772166055787,10.5,10500019902.772165,47.655,-122.3035,60.0,7.566666666666666
2026-01-20T23:07:35+00:00,SAT-56456,263.8284643884876,42.21286412669752,2605.3262340365095,-0.551382324063957,19311.74133363805,10.5,10500019311.741333,47.655,-122.3035,60.0,7.583333333333333
2026-01-20T23:07:36+00:00,SAT-56456,264.0348863182161,42.25806393417499,2604.7763220653096,-0.5344962810560576,18720.320679610308,10.5,10500018720.320679,47.655,-122.3035,60.0,7.6
2026-01-20T23:07:37+00:00,SAT-56456,264.24174373338315,42.30275067271621,2604.24325110767,-0.5175994429134337,18128.521934301145,10.5,10500018128.521935,47.655,-122.3035,60.0,7.616666666666666
2026-01-20T23:07:38+00:00,SAT-56456,264.4490313792561,42.34692181707023,2603.7270319299373,-0.500692147903606,17536.356945269996,10.5,10500017536.356945,47.655,-122.3035,60.0,7.633333333333334
2026-01-20T23:07:39+00:00,SAT-56456,264.6567439299747,42.39057487208714,2603.2276749610946,-0.4837747338697309,16943.83754521328,10.5,10500016943.837545,47.655,-122.3035,60.0,7.65
2026-01-20T23:07:40+00:00,SAT-56456,264.86487598862124,42.433707373175096,2602.745190293182,-0.4668475423898726,16350.975697639673,10.5,10500016350.975698,47.655,-122.3035,60.0,7.666666666666667
2026-01-20T23:07:41+00:00,SAT-56456,265.07342208864094,42.47631688703273,2602.2795876775717,-0.44991091137935474,15757.783237773196,10.5,10500015757.783237,47.655,-122.3035,60.0,7.683333333333334
2026-01-20T23:07:42+00:00,SAT-56456,265.28237669268907,42.51840101184184,2601.830876528623,-0.43296518222565894,15164.272122447519,10.5,10500015164.272123,47.655,-122.3035,60.0,7.7
2026-01-20T23:07:43+00:00,SAT-56456,265.49173419393367,42.55995737796051,2601.3990659202163,-0.4160107003378096,14570.454449347759,10.5,10500014570.454449,47.655,-122.3035,60.0,7.716666666666667
2026-01-20T23:07:44+00:00,SAT-56456,265.7014889182135,42.600983648759176,2600.9841645817464,-0.3990478060726186,13976.34213920917,10.5,10500013976.342138,47.655,-122.3035,60.0,7.733333333333333
2026-01-20T23:07:45+00:00,SAT-56456,265.9116351219469,42.64147752060957,2600.5861809031567,-0.3820768445158824,13381.947278396061,10.5,10500013381.947279,47.655,-122.3035,60.0,7.75
2026-01-20T23:07:46+00:00,SAT-56456,266.12216699454035,42.68143672375494,2600.205122930226,-0.36509815864479406,12787.281879420521,10.5,10500012787.28188,47.655,-122.3035,60.0,7.766666666666667
2026-01-20T23:07:47+00:00,SAT-56456,266.33307865758724,42.720859022545284,2599.840998366671,-0.34811209674236077,12192.3581406267,10.5,10500012192.35814,47.655,-122.3035,60.0,7.783333333333333
2026-01-20T23:07:48+00:00,SAT-56456,266.5443641679062,42.75974221638437,2599.493814568853,-0.3311190041352754,11597.188156816113,10.5,10500011597.188156,47.655,-122.3035,60.0,7.8
2026-01-20T23:07:49+00:00,SAT-56456,266.7560175162667,42.798084139857465,2599.1635785487288,-0.3141192257812632,11001.784009867466,10.5,10500011001.78401,47.655,-122.3035,60.0,7.816666666666666
2026-01-20T23:07:50+00:00,SAT-56456,266.96803262768884,42.835882663154955,2598.8502969742167,-0.2971131118625488,10406.157964643537,10.5,10500010406.157965,47.655,-122.3035,60.0,7.833333333333333
2026-01-20T23:07:51+00:00,SAT-56456,267.18040336446484,42.87313569296664,2598.5539761639857,-0.2801010088234002,9810.322155088044,10.5,10500009810.322155,47.655,-122.3035,60.0,7.85
2026-01-20T23:07:52+00:00,SAT-56456,267.3931235246848,42.90984117256058,2598.274622091186,-0.2630832669908847,9214.288851136773,10.5,10500009214.28885,47.655,-122.3035,60.0,7.866666666666666
2026-01-20T23:07:53+00:00,SAT-56456,267.60618684492295,42.945997082583084,2598.012240379573,-0.246060233911599,8618.070225341658,10.5,10500008618.070225,47.655,-122.3035,60.0,7.883333333333334
2026-01-20T23:07:54+00:00,SAT-56456,267.81958699900747,42.98160144117482,2597.7668363062858,-0.22903226020991888,8021.678558051479,10.5,10500008021.678558,47.655,-122.3035,60.0,7.9
2026-01-20T23:07:55+00:00,SAT-56456,268.0333176003932,43.01665230469025,2597.5384147987697,-0.21199969756274317,7425.126166478822,10.5,10500007425.126167,47.655,-122.3035,60.0,7.916666666666667
2026-01-20T23:07:56+00:00,SAT-56456,268.2473722037696,43.05114776826099,2597.3269804337338,-0.1949628946464413,6828.425262745047,10.5,10500006828.425262,47.655,-122.3035,60.0,7.933333333333334
2026-01-20T23:07:57+00:00,SAT-56456,268.46174430319996,43.085085965790974,2597.13253744014,-0.1779222037066099,6231.588183980946,10.5,10500006231.588184,47.655,-122.3035,60.0,7.95
2026-01-20T23:07:58+00:00,SAT-56456,268.6764273354688,43.11846507078792,2596.9550896956425,-0.16087797649536453,5634.627250033513,10.5,10500005634.62725,47.655,-122.3035,60.0,7.966666666666667
2026-01-20T23:07:59+00:00,SAT-56456,268.8914146804975,43.151283296698224,2596.794640727085,-0.14383056509008113,5037.554792141743,10.5,10500005037.554792,47.655,-122.3035,60.0,7.983333333333333
2026-01-20T23:08:00+00:00,SAT-56456,269.1066996623206,43.183538897325455,2596.651193710168,-0.1267803207951335,4440.383114470817,10.5,10500004440.383114,47.655,-122.3035,60.0,8.0
2026-01-20T23:08:01+00:00,SAT-56456,269.3222755488115,43.21523016705152,2596.5247514702287,-0.10972759729844617,3843.124604667956,10.5,10500003843.124605,47.655,-122.3035,60.0,8.016666666666667
2026-01-20T23:08:02+00:00,SAT-56456,269.5381355551277,43.24635544160013,2596.4153164798563,-0.09267274651273191,3245.791588204948,10.5,10500003245.791588,47.655,-122.3035,60.0,8.033333333333333
2026-01-20T23:08:03+00:00,SAT-56456,269.7542728423632,43.276913098076,2596.3228908606675,-0.07561612238866486,2648.396461931611,10.5,10500002648.396461,47.655,-122.3035,60.0,8.05
2026-01-20T23:08:04+00:00,SAT-56456,269.9706805208799,43.30690155567508,2596.247476381272,-0.05855807777204939,2050.9515840005506,10.5,10500002050.951584,47.655,-122.3035,60.0,8.066666666666666
2026-01-20T23:08:05+00:00,SAT-56456,270.18735165010025,43.336319275867226,2596.1890744583743,-0.04149896510668793,1453.4692984845642,10.5,10500001453.4693,47.655,-122.3035,60.0,8.083333333333334
2026-01-20T23:08:06+00:00,SAT-56456,270.4042792381214,43.36516476256538,2596.1476861571746,-0.02443913928244475,855.9620351278812,10.5,10500000855.962034,47.655,-122.3035,60.0,8.1
2026-01-20T23:08:07+00:00,SAT-56456,270.62145624705806,43.39343656304794,2596.12331218893,-0.007378952863062212,258.44214220410186,10.5,10500000258.442142,47.655,-122.3035,60.0,8.116666666666667
2026-01-20T23:08:08+00:00,SAT-56456,270.8388755900212,43.42113326774059,2596.1159529132747,0.00968124015047182,-339.07798167475613,10.5,10499999660.922018,47.655,-122.3035,60.0,8.133333333333333
2026-01-20T23:08:09+00:00,SAT-56456,271.05653013500637,43.44825351090894,2596.1256083367844,0.02674108642293738,-936.5859612146829,10.5,10499999063.41404,47.655,-122.3035,60.0,8.15
2026-01-20T23:08:10+00:00,SAT-56456,271.27441270457103,43.47479597078713,2596.1522781136437,0.04380023217645507,-1534.0694056178631,10.5,10499998465.930593,47.655,-122.3035,60.0,8.166666666666666
2026-01-20T23:08:11+00:00,SAT-56456,271.49251607787494,43.50075936999594,2596.195961545201,0.06085832413577486,-2131.515941690688,10.5,10499997868.484058,47.655,-122.3035,60.0,8.183333333333334
2026-01-20T23:08:12+00:00,SAT-56456,271.71083299131965,43.52614247577225,2596.2566575804726,0.0779150087522245,-2728.9131866631456,10.5,10499997271.086813,47.655,-122.3035,60.0,8.2
2026-01-20T23:08:13+00:00,SAT-56456,271.9293561414144,43.550944100450195,2596.334364815868,0.09496993291877465,-3326.2487732334275,10.5,10499996673.751226,47.655,-122.3035,60.0,8.216666666666667
2026-01-20T23:08:14+00:00,SAT-56456,272.14807818355473,43.5751631014499,2596.4290814956325,0.11202274345978638,-3923.510331696727,10.5,10499996076.489668,47.655,-122.3035,60.0,8.233333333333333
2026-01-20T23:08:15+00:00,SAT-56456,272.36699173567393,43.59879838182041,2596.5408055117764,0.1290730875472431,-4520.685504523441,10.5,10499995479.314495,47.655,-122.3035,60.0,8.25
2026-01-20T23:08:16+00:00,SAT-56456,272.58608937782685,43.62184889030279,2596.6695344044238,0.146120612542694,-5117.761940823365,10.5,10499994882.23806,47.655,-122.3035,60.0,8.266666666666667
2026-01-20T23:08:17+00:00,SAT-56456,272.80536365512444,43.644313621753135,2596.815265361999,0.1631649659662531,-5714.727295259901,10.5,10499994285.272705,47.655,-122.3035,60.0,8.283333333333333
2026-01-20T23:08:18+00:00,SAT-56456,273.0248070775305,43.666191617213435,2596.9779952213894,0.18020579602108164,-6311.569246419659,10.5,10499993688.430754,47.655,-122.3035,60.0,8.3
2026-01-20T23:08:19+00:00,SAT-56456,273.24441212282784,43.68748196430023,2597.1577204686214,0.197242750475813,-6908.275457670241,10.5,10499993091.724543,47.655,-122.3035,60.0,8.316666666666666
2026-01-20T23:08:20+00:00,SAT-56456,273.4641712362735,43.70818379724693,2597.354437238429,0.21427547900642932,-7504.833659182673,10.5,10499992495.16634,47.655,-122.3035,60.0,8.333333333333334
2026-01-20T23:08:21+00:00,SAT-56456,273.68407683453285,43.72829629734547,2597.5681413161583,0.23130362920826097,-8101.231508254755,10.5,10499991898.768492,47.655,-122.3035,60.0,8.35
2026-01-20T23:08:22+00:00,SAT-56456,273.90412130346664,43.74781869279779,2597.798828135689,0.24832685224840706,-8697.456787282734,10.5,10499991302.543213,47.655,-122.3035,60.0,8.366666666666667
2026-01-20T23:08:23+00:00,SAT-56456,274.1242970040109,43.76675025930063,2598.046492782998,0.2653447962985191,-9293.497173749616,10.5,10499990706.502827,47.655,-122.3035,60.0,8.383333333333333
2026-01-20T23:08:24+00:00,SAT-56456,274.3445962690133,43.7850903197972,2598.311129993173,0.282357113716455,-9889.340491757059,10.5,10499990110.659508,47.655,-122.3035,60.0,8.4
2026-01-20T23:08:25+00:00,SAT-56456,274.5650114091539,43.80283824501857,2598.5927341545857,0.2993634543408273,-10484.974477172093,10.5,10499989515.025522,47.655,-122.3035,60.0,8.416666666666666
2026-01-20T23:08:26+00:00,SAT-56456,274.7855347109542,43.81999345332869,2598.891299306382,0.31636346961164885,-11080.386921949561,10.5,10499988919.613077,47.655,-122.3035,60.0,8.433333333333334
2026-01-20T23:08:27+00:00,SAT-56456,275.0061584396558,43.836555410973865,2599.206819140075,0.33335681327370936,-11675.56569876734,10.5,10499988324.434301,47.655,-122.3035,60.0,8.45
2026-01-20T23:08:28+00:00,SAT-56456,275.22687484184553,43.85252363227872,2599.5392870018463,0.3503431364707297,-12270.498589202873,10.5,10499987729.501411,47.655,-122.3035,60.0,8.466666666666667
2026-01-20T23:08:29+00:00,SAT-56456,275.44767614452894,43.867897679567264,2599.888695889953,0.3673220940594843,-12865.17350488045,10.5,10499987134.826494,47.655,-122.3035,60.0,8.483333333333333
2026-01-20T23:08:30+00:00,SAT-56456,275.6685545589272,43.882677163421285,2600.2550384584283,0.3842933389462002,-13459.578289107934,10.5,10499986540.421711,47.655,-122.3035,60.0,8.5
2026-01-20T23:08:31+00:00,SAT-56456,275.8895022801201,43.89686174262506,2600.6383070151373,0.4012565279041486,-14053.700920633435,10.5,10499985946.29908,47.655,-122.3035,60.0,8.516666666666667
2026-01-20T23:08:32+00:00,SAT-56456,276.110511490691,43.91045112437147,2601.0384935256334,0.4182113158322862,-14647.529312558641,10.5,10499985352.470688,47.655,-122.3035,60.0,8.533333333333333
2026-01-20T23:08:33+00:00,SAT-56456,276.3315743605767,43.9234450642023,2601.4555896112906,0.4351573591339003,-15241.05143067326,10.5,10499984758.94857,47.655,-122.3035,60.0,8.55
2026-01-20T23:08:34+00:00,SAT-56456,276.55268304897817,43.93584336607113,2601.8895865508002,0.4520943147504829,-15834.255259617206,10.5,10499984165.74474,47.655,-122.3035,60.0,8.566666666666666
2026-01-20T23:08:35+00:00,SAT-56456,276.77382970596676,43.94764588237895,2602.340475280711,0.4690218428151458,-16427.12889581442,10.5,10499983572.871103,47.655,-122.3035,60.0,8.583333333333334
2026-01-20T23:08:36+00:00,SAT-56456,276.99500647517164,43.958852514043826,2602.8082463986125,0.4859396011923085,-17019.66035622964,10.5,10499982980.339643,47.655,-122.3035,60.0,8.6
2026-01-20T23:08:37+00:00,SAT-56456,277.21620549365423,43.96946321040935,2603.292890160868,0.5028472508378906,-17611.837766105014,10.5,10499982388.162233,47.655,-122.3035,60.0,8.616666666666667
2026-01-20T23:08:38+00:00,SAT-56456,277.43741889460983,43.97947796929269,2603.7943964857036,0.5197444512731079,-18203.649200433298,10.5,10499981796.3508,47.655,-122.3035,60.0,8.633333333333333
2026-01-20T23:08:39+00:00,SAT-56456,277.6586388078237,43.988896836907536,2604.312754951773,0.5366308675394587,-18795.082927550888,10.5,10499981204.917072,47.655,-122.3035,60.0,8.65
2026-01-20T23:08:40+00:00,SAT-56456,277.87985736334315,43.997719907918245,2604.847954803666,0.5535061603433272,-19386.127063960146,10.5,10499980613.872936,47.655,-122.3035,60.0,8.666666666666666
2026-01-20T23:08:41+00:00,SAT-56456,278.1010666905779,44.005947325280275,2605.3999849475817,0.5703699948517422,-19976.769882394085,10.5,10499980023.230118,47.655,-122.3035,60.0,8.683333333333334
2026-01-20T23:08:42+00:00,SAT-56456,278.32225892138894,44.01357928024135,2605.9688339557806,0.5872220353398072,-20566.999624346707,10.5,10499979433.000376,47.655,-122.3035,60.0,8.7
2026-01-20T23:08:43+00:00,SAT-56456,278.54342619095297,44.02061601223986,2606.554490065693,0.6040619507348689,-21156.80469425326,10.5,10499978843.195305,47.655,-122.3035,60.0,8.716666666666667
2026-01-20T23:08:44+00:00,SAT-56456,278.76456064062654,44.02705780885474,2607.156941184559,0.6208894067772283,-21746.17338492517,10.5,10499978253.826614,47.655,-122.3035,60.0,8.733333333333333
2026-01-20T23:08:45+00:00,SAT-56456,278.98565441783825,44.032905005647066,2607.7761748862513,0.6377040733202086,-22335.094133229297,10.5,10499977664.905867,47.655,-122.3035,60.0,8.75
2026-01-20T23:08:46+00:00,SAT-56456,279.2066996787803,44.03815798608158,2608.4121784153763,0.6545056182930135,-22923.555308641688,10.5,10499977076.44469,47.655,-122.3035,60.0,8.766666666666667
2026-01-20T23:08:47+00:00,SAT-56456,279.4276885888518,44.04281718136963,2609.064938685354,0.6712937156004939,-23511.545489930857,10.5,10499976488.45451,47.655,-122.3035,60.0,8.783333333333333
2026-01-20T23:08:48+00:00,SAT-56456,279.64861332592386,44.046883070370306,2609.734442284379,0.688068039000626,-24099.05325072111,10.5,10499975900.946749,47.655,-122.3035,60.0,8.8
2026-01-20T23:08:49+00:00,SAT-56456,279.86946608135366,44.050356179416234,2610.420675475276,0.7048282551332598,-24686.066915329895,10.5,10499975313.933084,47.655,-122.3035,60.0,8.816666666666666
2026-01-20T23:08:50+00:00,SAT-56456,280.0902390586145,44.053237082104275,2611.1236241883958,0.7215740481326935,-25272.575420804224,10.5,10499974727.42458,47.655,-122.3035,60.0,8.833333333333334
2026-01-20T23:08:51+00:00,SAT-56456,280.3109244804448,44.055526399209846,2611.8432740390663,0.738305089516671,-25858.567262305995,10.5,10499974141.432737,47.655,-122.3035,60.0,8.85
2026-01-20T23:08:52+00:00,SAT-56456,280.5315145855558,44.05722479841803,2612.5796103150115,0.7550210596037767,-26444.0312432398,10.5,10499973555.968758,47.655,-122.3035,60.0,8.866666666666667
2026-01-20T23:08:53+00:00,SAT-56456,280.7520016326764,44.05833299415717,2613.332617985123,0.7717216328187712,-27028.95596058356,10.5,10499972971.044039,47.655,-122.3035,60.0,8.883333333333333
2026-01-20T23:08:54+00:00,SAT-56456,280.9723778997354,44.058851747368465,2614.102281693587,0.7884064973759413,-27613.33049428276,10.5,10499972386.669506,47.655,-122.3035,60.0,8.9
2026-01-20T23:08:55+00:00,SAT-56456,281.1926356892575,44.05878186530066,2614.8885857736373,0.8050753306472137,-28197.14354453755,10.5,10499971802.856455,47.655,-122.3035,60.0,8.916666666666666
2026-01-20T23:08:56+00:00,SAT-56456,281.41276732596236,44.05812420125058,2615.6915142367357,0.8217278189832342,-28780.384126020806,10.5,10499971219.615873,47.655,-122.3035,60.0,8.933333333333334
2026-01-20T23:08:57+00:00,SAT-56456,281.63276516059557,44.05687965432247,2616.511050781535,0.8383636422650098,-29363.0410268113,10.5,10499970636.958973,47.655,-122.3035,60.0,8.95
2026-01-20T23:08:58+00:00,SAT-56456,281.85262156907277,44.05504916917439,2617.3471787874205,0.8549824962167917,-29945.103589885213,10.5,10499970054.89641,47.655,-122.3035,60.0,8.966666666666667
2026-01-20T23:08:59+00:00,SAT-56456,282.0723289579792,44.05263373572401,2618.199881330314,0.8715840617248458,-30526.560638529743,10.5,10499969473.439362,47.655,-122.3035,60.0,8.983333333333333
2026-01-20T23:09:00+00:00,SAT-56456,282.29187976139775,44.049634388891384,2619.0691411678745,0.8881680322498123,-31107.401436439835,10.5,10499968892.598564,47.655,-122.3035,60.0,9.0
2026-01-20T23:09:01+00:00,SAT-56456,282.51126644543797,44.04605220828571,2619.954940752038,0.9047340980449561,-31687.615134974607,10.5,10499968312.384865,47.655,-122.3035,60.0,9.016666666666667
2026-01-20T23:09:02+00:00,SAT-56456,282.7304815082592,44.041888317909034,2620.8572622258216,0.9212819546500439,-32267.19107064882,10.5,10499967732.80893,47.655,-122.3035,60.0,9.033333333333333
2026-01-20T23:09:03+00:00,SAT-56456,282.94951748247433,44.037143885826225,2621.7760874285927,0.9378112948248808,-32846.11848261122,10.5,10499967153.881517,47.655,-122.3035,60.0,9.05
2026-01-20T23:09:04+00:00,SAT-56456,283.1683669353514,44.031820123857344,2622.711397893298,0.9543218167784037,-33424.38680086221,10.5,10499966575.6132,47.655,-122.3035,60.0,9.066666666666666
2026-01-20T23:09:05+00:00,SAT-56456,283.3870224711631,44.025918287222545,2623.6631748518985,0.9708132157535795,-34001.98535152136,10.5,10499965998.014648,47.655,-122.3035,60.0,9.083333333333334
2026-01-20T23:09:06+00:00,SAT-56456,283.6054767313558,44.01943967422234,2624.63139923241,0.9872851958358899,-34578.90377041054,10.5,10499965421.09623,47.655,-122.3035,60.0,9.1
2026-01-20T23:09:07+00:00,SAT-56456,283.82372239764356,44.01238562583639,2625.6160516677237,1.0037374582536063,-35155.13159327999,10.5,10499964844.868406,47.655,-122.3035,60.0,9.116666666666667
2026-01-20T23:09:08+00:00,SAT-56456,284.041752192119,44.00475752538165,2626.617112492755,1.0201697059141577,-35730.658414691185,10.5,10499964269.341585,47.655,-122.3035,60.0,9.133333333333333
2026-01-20T23:09:09+00:00,SAT-56456,284.2595588785908,43.996556798139025,2627.6345617461207,1.03658164174276,-36305.47382982857,10.5,10499963694.52617,47.655,-122.3035,60.0,9.15
2026-01-20T23:09:10+00:00,SAT-56456,284.4771352634438,43.98778491098335,2628.668379170152,1.0529729782349169,-36879.56776906852,10.5,10499963120.43223,47.655,-122.3035,60.0,9.166666666666666
2026-01-20T23:09:11+00:00,SAT-56456,284.6944741986299,43.97844337192365,2629.7185442204445,1.0693434211974508,-37452.92992852153,10.5,10499962547.070072,47.655,-122.3035,60.0,9.183333333333334
2026-01-20T23:09:12+00:00,SAT-56456,284.91156858096724,43.96853372976854,2630.7850360591856,1.0856926816794716,-38025.55018790517,10.5,10499961974.449812,47.655,-122.3035,60.0,9.2
2026-01-20T23:09:13+00:00,SAT-56456,285.1284113541425,43.95805757368631,2631.8678335603804,1.10202047540876,-38597.418590803834,10.5,10499961402.58141,47.655,-122.3035,60.0,9.216666666666667
2026-01-20T23:09:14+00:00,SAT-56456,285.34499551043825,43.947016532754645,2632.9669153145214,1.118326514588084,-39168.52505734111,10.5,10499960831.474943,47.655,-122.3035,60.0,9.233333333333333
2026-01-20T23:09:15+00:00,SAT-56456,285.56131409078097,43.93541227558264,2634.082259625071,1.134610516991318,-39738.85970276424,10.5,10499960261.140297,47.655,-122.3035,60.0,9.25
2026-01-20T23:09:16+00:00,SAT-56456,285.777360186626,43.92324650983807,2635.2138445140167,1.150872201428595,-40308.412678614644,10.5,10499959691.587322,47.655,-122.3035,60.0,9.266666666666667
2026-01-20T23:09:17+00:00,SAT-56456,285.9931269408953,43.91052098180853,2636.3616477229084,1.1671112887114183,-40877.17420653022,10.5,10499959122.825794,47.655,-122.3035,60.0,9.283333333333333
2026-01-20T23:09:18+00:00,SAT-56456,286.2086075490844,43.89723747594837,2637.5256467148497,1.183327500617417,-41445.13454198665,10.5,10499958554.865458,47.655,-122.3035,60.0,9.3
2026-01-20T23:09:19+00:00,SAT-56456,286.42379526011536,43.88339781442822,2638.7058186754653,1.1995205649613627,-42012.28415190588,10.5,10499957987.715849,47.655,-122.3035,60.0,9.316666666666666
2026-01-20T23:09:20+00:00,SAT-56456,286.63868337818235,43.86900385661949,2639.9021405189205,1.215690204582555,-42578.61332894782,10.5,10499957421.386671,47.655,-122.3035,60.0,9.333333333333334
2026-01-20T23:09:21+00:00,SAT-56456,286.85326526240846,43.85405749870155,2641.114588882957,1.2318361534675866,-43144.11275619769,10.5,10499956855.887243,47.655,-122.3035,60.0,9.35
2026-01-20T23:09:22+00:00,SAT-56456,287.06753432957424,43.838560673068436,2642.3431401400157,1.2479581353593723,-43708.77275796381,10.5,10499956291.227242,47.655,-122.3035,60.0,9.366666666666667
2026-01-20T23:09:23+00:00,SAT-56456,287.28148405282,43.822515347994006,2643.5877703870137,1.2640558895000051,-44272.584201401274,10.5,10499955727.415798,47.655,-122.3035,60.0,9.383333333333333
2026-01-20T23:09:24+00:00,SAT-56456,287.49510796503796,43.805923526967355,2644.8484554608085,1.2801291500676761,-44835.5377763059,10.5,10499955164.462223,47.655,-122.3035,60.0,9.4
2026-01-20T23:09:25+00:00,SAT-56456,287.70839965847784,43.78878724828082,2646.1251709331427,1.2961776532724394,-45397.624243637954,10.5,10499954602.375757,47.655,-122.3035,60.0,9.416666666666666
2026-01-20T23:09:26+00:00,SAT-56456,287.92135278564734,43.77110858452583,2647.417892112673,1.3122011351820475,-45958.8343593737,10.5,10499954041.16564,47.655,-122.3035,60.0,9.433333333333334
2026-01-20T23:09:27+00:00,SAT-56456,288.13396105980945,43.75288964211323,2648.7265940448283,1.3281993439512425,-46519.15930282691,10.5,10499953480.840696,47.655,-122.3035,60.0,9.45
2026-01-20T23:09:28+00:00,SAT-56456,288.3462182575163,43.734132560617674,2650.051251523862,1.3441720177055598,-47078.5899020461,10.5,10499952921.410097,47.655,-122.3035,60.0,9.466666666666667
2026-01-20T23:09:29+00:00,SAT-56456,288.55811821734324,43.714839512423964,2651.391839082854,1.3601189080348,-47637.117456655295,10.5,10499952362.882544,47.655,-122.3035,60.0,9.483333333333333
2026-01-20T23:09:30+00:00,SAT-56456,288.7696548425868,43.6950127020391,2652.748331007134,1.3760397537846436,-48194.73281992557,10.5,10499951805.26718,47.655,-122.3035,60.0,9.5
2026-01-20T23:09:31+00:00,SAT-56456,288.98082209957516,43.674654365778586,2654.1207013215753,1.3919343168144884,-48751.42765116569,10.5,10499951248.57235,47.655,-122.3035,60.0,9.516666666666667
2026-01-20T23:09:32+00:00,SAT-56456,289.191614021768,43.65376677092233,2655.5089238135447,1.4078023415019894,-49307.19299739984,10.5,10499950692.807003,47.655,-122.3035,60.0,9.533333333333333
2026-01-20T23:09:33+00:00,SAT-56456,289.40202470730696,43.63235221546681,2656.912972015469,1.4236435848860776,-49862.020349103695,10.5,10499950137.97965,47.655,-122.3035,60.0,9.55
2026-01-20T23:09:34+00:00,SAT-56456,289.61204832137594,43.61041302742531,2658.3328192174627,1.439457802689398,-50415.90115065096,10.5,10499949584.09885,47.655,-122.3035,60.0,9.566666666666666
2026-01-20T23:09:35+00:00,SAT-56456,289.82167909628464,43.587951564334844,2659.7684384660115,1.4552447578111651,-50968.827097769194,10.5,10499949031.172903,47.655,-122.3035,60.0,9.583333333333334
2026-01-20T23:09:36+00:00,SAT-56456,290.03091133285704,43.56497021262747,2661.219802571135,1.4710042080475592,-51520.78970745612,10.5,10499948479.210293,47.655,-122.3035,60.0,9.6
2026-01-20T23:09:37+00:00,SAT-56456,290.2397393999048,43.5414713871919,2662.6868841012943,1.4867359158586937,-52071.78066006011,10.5,10499947928.21934,47.655,-122.3035,60.0,9.616666666666667
2026-01-20T23:09:38+00:00,SAT-56456,290.44815773520605,43.51745753078,2664.1696553880442,1.5024396548712864,-52621.792027031275,10.5,10499947378.207973,47.655,-122.3035,60.0,9.633333333333333
2026-01-20T23:09:39+00:00,SAT-56456,290.656160847297,43.492931113303676,2665.6680885371693,1.5181151845703318,-53170.815384516725,10.5,10499946829.184616,47.655,-122.3035,60.0,9.65
2026-01-20T23:09:40+00:00,SAT-56456,290.8637433136476,43.467894631538904,2667.182155414581,1.533762284574459,-53718.84301382866,10.5,10499946281.156986,47.655,-122.3035,60.0,9.666666666666666
2026-01-20T23:09:41+00:00,SAT-56456,291.07089978368106,43.442350608270374,2668.7118276663964,1.549380713560085,-54265.86646279438,10.5,10499945734.133537,47.655,-122.3035,60.0,9.683333333333334
2026-01-20T23:09:42+00:00,SAT-56456,291.2776249760003,43.41630159211316,2670.2570766980534,1.5649702610744203,-54811.878360467,10.5,10499945188.12164,47.655,-122.3035,60.0,9.7
2026-01-20T23:09:43+00:00,SAT-56456,291.48391368279033,43.38975015646716,2671.8178737050985,1.5805307009535687,-55356.87078563021,10.5,10499944643.129215,47.655,-122.3035,60.0,9.716666666666667
2026-01-20T23:09:44+00:00,SAT-56456,291.6897607677189,43.3626988992501,2673.394189657516,1.5960618145186964,-55900.836079226225,10.5,10499944099.163921,47.655,-122.3035,60.0,9.733333333333333
2026-01-20T23:09:45+00:00,SAT-56456,291.8951611670167,43.33515044224,2674.985995307196,1.6115633732467507,-56443.766237411095,10.5,10499943556.233763,47.655,-122.3035,60.0,9.75
2026-01-20T23:09:46+00:00,SAT-56456,292.1001098882664,43.307107430718204,2676.593261178114,1.6270351739255497,-56985.65414283462,10.5,10499943014.345858,47.655,-122.3035,60.0,9.766666666666667
2026-01-20T23:09:47+00:00,SAT-56456,292.3046020137424,43.278572532499304,2678.215957591576,1.6424769981608616,-57526.492146406985,10.5,10499942473.507854,47.655,-122.3035,60.0,9.783333333333333
2026-01-20T23:09:48+00:00,SAT-56456,292.50863269842273,43.24954843766343,2679.854054651075,1.6578886437477947,-58066.27316605758,10.5,10499941933.726833,47.655,-122.3035,60.0,9.8
2026-01-20T23:09:49+00:00,SAT-56456,292.7121971720271,43.220037857739996,2681.5075222584396,1.6732698842332772,-58604.989270441925,10.5,10499941395.010729,47.655,-122.3035,60.0,9.816666666666666
2026-01-20T23:09:50+00:00,SAT-56456,292.91529073592807,43.19004352561071,2683.176330089648,1.6886205319749468,-59142.633887530756,10.5,10499940857.366112,47.655,-122.3035,60.0,9.833333333333334
2026-01-20T23:09:51+00:00,SAT-56456,293.11790876796124,43.15956819428709,2684.860447633538,1.703940373734462,-59679.19954881537,10.5,10499940320.800451,47.655,-122.3035,60.0,9.85
2026-01-20T23:09:52+00:00,SAT-56456,293.3200467191295,43.12861463683971,2686.5598441662755,1.719229219983457,-60214.679616210684,10.5,10499939785.320383,47.655,-122.3035,60.0,9.866666666666667
2026-01-20T23:09:53+00:00,SAT-56456,293.52170011638185,43.097185645440376,2688.274488775006,1.7344868486883378,-60749.06631316104,10.5,10499939250.933687,47.655,-122.3035,60.0,9.883333333333333
2026-01-20T23:09:54+00:00,SAT-56456,293.72286455858875,43.06528403143169,2690.004350325431,1.749713086962396,-61282.35358444261,10.5,10499938717.646416,47.655,-122.3035,60.0,9.9
2026-01-20T23:09:55+00:00,SAT-56456,293.9235357222694,43.03291262390102,2691.749397510828,1.764907730732525,-61814.53428255194,10.5,10499938185.465717,47.655,-122.3035,60.0,9.916666666666666
2026-01-20T23:09:56+00:00,SAT-56456,294.1237093576846,43.00007426972803,2693.509598820945,1.7800705930190808,-62345.601858671,10.5,10499937654.398142,47.655,-122.3035,60.0,9.933333333333334
2026-01-20T23:09:57+00:00,SAT-56456,294.32338129064095,42.966771832748385,2695.28492255905,1.7952014741552225,-62875.54931962243,10.5,10499937124.45068,47.655,-122.3035,60.0,9.95
2026-01-20T23:09:58+00:00,SAT-56456,294.52254742084017,42.93300819347043,2697.075336829274,1.8103002011602203,-63404.37060688936,10.5,10499936595.629393,47.655,-122.3035,60.0,9.966666666666667
2026-01-20T23:09:59+00:00,SAT-56456,294.7212037246709,42.898786248058464,2698.880809563231,1.8253665838221529,-63932.05905844571,10.5,10499936067.94094,47.655,-122.3035,60.0,9.983333333333333
2026-01-20T23:10:00+00:00,SAT-56456,294.9193462529841,42.86410890813816,2700.7013085028298,1.8404004371342868,-64458.6081945731,10.5,10499935541.391806,47.655,-122.3035,60.0,10.0
2026-01-20T23:10:01+00:00,SAT-56456,295.11697113140684,42.82897910018825,2702.536801205465,1.8554015864347013,-64984.01189787224,10.5,10499935015.988102,47.655,-122.3035,60.0,10.016666666666667
2026-01-20T23:10:02+00:00,SAT-56456,295.3140745612036,42.79339976483238,2704.3872550543356,1.8703698515564386,-65508.26385813417,10.5,10499934491.736141,47.655,-122.3035,60.0,10.033333333333333
2026-01-20T23:10:03+00:00,SAT-56456,295.5106528183265,42.75737385643682,2706.2526372529546,1.8853050644469769,-66031.35818944871,10.5,10499933968.641811,47.655,-122.3035,60.0,10.05
2026-01-20T23:10:04+00:00,SAT-56456,295.70670225440364,42.72090434237139,2708.13291483723,1.900207044934276,-66553.28858142889,10.5,10499933446.711418,47.655,-122.3035,60.0,10.066666666666666
2026-01-20T23:10:05+00:00,SAT-56456,295.90221929506026,42.68399420274307,2710.0280546633776,1.9150756249017786,-67074.04914592173,10.5,10499932925.950853,47.655,-122.3035,60.0,10.083333333333334
2026-01-20T23:10:06+00:00,SAT-56456,296.09720044086396,42.646646429664145,2711.9380234199466,1.9299106386520517,-67593.63407950224,10.5,10499932406.365921,47.655,-122.3035,60.0,10.1
2026-01-20T23:10:07+00:00,SAT-56456,296.291642267159,42.608864026710215,2713.862787630229,1.9447119280733516,-68112.03784442833,10.5,10499931887.962156,47.655,-122.3035,60.0,10.116666666666667
2026-01-20T23:10:08+00:00,SAT-56456,296.4855414244284,42.570650008278896,2715.802313659827,1.9594793156856793,-68629.25422459972,10.5,10499931370.745775,47.655,-122.3035,60.0,10.133333333333333
2026-01-20T23:10:09+00:00,SAT-56456,296.67889463589177,42.532007399482026,2717.7565676973377,1.9742126532082935,-69145.27802659759,10.5,10499930854.721973,47.655,-122.3035,60.0,10.15
2026-01-20T23:10:10+00:00,SAT-56456,296.871698700047,42.49293923508891,2719.7255157834707,1.988911779705782,-69660.10361378308,10.5,10499930339.896387,47.655,-122.3035,60.0,10.166666666666666
2026-01-20T23:10:11+00:00,SAT-56456,297.06395048889686,42.45344855929374,2721.7091237984305,2.0035765399891723,-70173.72555078189,10.5,10499929826.274448,47.655,-122.3035,60.0,10.183333333333334
2026-01-20T23:10:12+00:00,SAT-56456,297.25564694807287,42.41353842512576,2723.7073574676465,2.018206781227632,-70686.13848481183,10.5,10499929313.861515,47.655,-122.3035,60.0,10.2
2026-01-20T23:10:13+00:00,SAT-56456,297.44678509655216,42.37321189393124,2725.7201823641244,2.032802353218334,-71197.33715513452,10.5,10499928802.662846,47.655,-122.3035,60.0,10.216666666666667
2026-01-20T23:10:14+00:00,SAT-56456,297.63736202642514,42.33247203485262,2727.747563911067,2.047363109598557,-71707.31643550837,10.5,10499928292.683565,47.655,-122.3035,60.0,10.233333333333333
2026-01-20T23:10:15+00:00,SAT-56456,297.8273749027202,42.2913219242878,2729.7894673857068,2.0618888997141767,-72216.07104938863,10.5,10499927783.928951,47.655,-122.3035,60.0,10.25
2026-01-20T23:10:16+00:00,SAT-56456,298.0168209624803,42.249764645518134,2731.845857915022,2.0763795873770317,-72723.59622688986,10.5,10499927276.403772,47.655,-122.3035,60.0,10.266666666666667
2026-01-20T23:10:17+00:00,SAT-56456,298.20569751556184,42.20780328796269,2733.916700490166,2.0908350212072584,-73229.88666604886,10.5,10499926770.113335,47.655,-122.3035,60.0,10.283333333333333
2026-01-20T23:10:18+00:00,SAT-56456,298.39400194266534,42.165440947035194,2736.0019599513166,2.105255080717637,-73734.93814689358,10.5,10499926265.061853,47.655,-122.3035,60.0,10.3
2026-01-20T23:10:19+00:00,SAT-56456,298.58173169759056,42.12268072307441,2738.101601018486,2.1196396120537826,-74238.7452807926,10.5,10499925761.254719,47.655,-122.3035,60.0,10.316666666666666
2026-01-20T23:10:20+00:00,SAT-56456,298.76888430359963,42.07952572157903,2740.215588258241,2.133988492348991,-74741.30376443427,10.5,10499925258.696236,47.655,-122.3035,60.0,10.333333333333334
2026-01-20T23:10:21+00:00,SAT-56456,298.9554573556269,42.03597905214468,2742.34388611461,2.1483015814337088,-75242.60868848789,10.5,10499924757.391312,47.655,-122.3035,60.0,10.35
2026-01-20T23:10:22+00:00,SAT-56456,299.14144851811864,41.99204382838623,2744.4864588918267,2.1625787613750314,-75742.65592244428,10.5,10499924257.344078,47.655,-122.3035,60.0,10.366666666666667
2026-01-20T23:10:23+00:00,SAT-56456,299.3268555263648,41.94772316705831,2746.643270776505,2.1768198984293354,-76241.44078203604,10.5,10499923758.559217,47.655,-122.3035,60.0,10.383333333333333
2026-01-20T23:10:24+00:00,SAT-56456,299.5116761844746,41.90302018795913,2748.814285821871,2.191024872155652,-76738.95904891091,10.5,10499923261.04095,47.655,-122.3035,60.0,10.4
2026-01-20T23:10:25+00:00,SAT-56456,299.69590836588515,41.857938013242745,2750.999467961035,2.205193557141096,-77235.20633057923,10.5,10499922764.793669,47.655,-122.3035,60.0,10.416666666666666
2026-01-20T23:10:26+00:00,SAT-56456,299.8795500122742,41.81247976711327,2753.198781002023,2.2193258300549603,-77730.17830747792,10.5,10499922269.821693,47.655,-122.3035,60.0,10.433333333333334
2026-01-20T23:10:27+00:00,SAT-56456,300.0625991330845,41.76664857537805,2755.412188629865,2.2334215872138055,-78223.87134817435,10.5,10499921776.128653,47.655,-122.3035,60.0,10.45
2026-01-20T23:10:28+00:00,SAT-56456,300.2450538064961,41.7204475646443,2757.6396544261793,2.247480708240189,-78716.28123654127,10.5,10499921283.718763,47.655,-122.3035,60.0,10.466666666666667
2026-01-20T23:10:29+00:00,SAT-56456,300.42691217730504,41.673879862270596,2759.881141852531,2.2615030730656653,-79207.40376727385,10.5,10499920792.596233,47.655,-122.3035,60.0,10.483333333333333
2026-01-20T23:10:30+00:00,SAT-56456,300.60817245630005,41.62694859597292,2762.1366142507354,2.2754885812055305,-79697.2354209727,10.5,10499920302.76458,47.655,-122.3035,60.0,10.5
2026-01-20T23:10:31+00:00,SAT-56456,300.7888329211436,41.57965689303925,2764.4060348623907,2.2894371152020643,-80185.77208377162,10.5,10499919814.227917,47.655,-122.3035,60.0,10.516666666666667
2026-01-20T23:10:32+00:00,SAT-56456,300.96889191429364,41.53200788030425,2766.6893668119524,2.3033485813075245,-80673.01047222811,10.5,10499919326.989529,47.655,-122.3035,60.0,10.533333333333333
2026-01-20T23:10:33+00:00,SAT-56456,301.1483478441803,41.484004683287694,2768.986573130376,2.3172228686014207,-81158.94670143741,10.5,10499918841.053299,47.655,-122.3035,60.0,10.55
2026-01-20T23:10:34+00:00,SAT-56456,301.3271991831003,41.43565042618602,2771.2976167379948,2.331059880013269,-81643.5773715806,10.5,10499918356.422628,47.655,-122.3035,60.0,10.566666666666666
2026-01-20T23:10:35+00:00,SAT-56456,301.50544446758886,41.38694823122592,2773.622460458328,2.344859507158598,-82126.89868657496,10.5,10499917873.101313,47.655,-122.3035,60.0,10.583333333333334
2026-01-20T23:10:36+00:00,SAT-56456,301.6830822968003,41.33790121854736,2775.961067006801,2.3586216736291066,-82608.90797027863,10.5,10499917391.09203,47.655,-122.3035,60.0,10.6
2026-01-20T23:10:37+00:00,SAT-56456,301.8601113342215,41.28851250518963,2778.313399022634,2.372346265323357,-83089.60122637657,10.5,10499916910.398773,47.655,-122.3035,60.0,10.616666666666667
2026-01-20T23:10:38+00:00,SAT-56456,302.03653030402967,41.2387852055362,2780.6794190312494,2.3860331983723824,-83568.97551742285,10.5,10499916431.024483,47.655,-122.3035,60.0,10.633333333333333
2026-01-20T23:10:39+00:00,SAT-56456,302.2123379926456,41.188722430348726,2783.059089474426,2.399682387450151,-84047.02785493885,10.5,10499915952.972145,47.655,-122.3035,60.0,10.65
2026-01-20T23:10:40+00:00,SAT-56456,302.38753324785466,41.13832728646788,2785.452372708843,2.413293741047625,-84523.75503389101,10.5,10499915476.244967,47.655,-122.3035,60.0,10.666666666666666
2026-01-20T23:10:41+00:00,SAT-56456,302.56211497756027,41.087602876618455,2787.8592309999144,2.4268671699422515,-84999.15392932814,10.5,10499915000.846071,47.655,-122.3035,60.0,10.683333333333334
2026-01-20T23:10:42+00:00,SAT-56456,302.73608214920995,41.036552299044644,2790.2796265240704,2.440402595268995,-85473.22177906308,10.5,10499914526.778221,47.655,-122.3035,60.0,10.7
2026-01-20T23:10:43+00:00,SAT-56456,302.9094337897705,40.985178646981254,2792.7135213790853,2.453899938517558,-85945.95583333306,10.5,10499914054.044167,47.655,-122.3035,60.0,10.716666666666667
2026-01-20T23:10:44+00:00,SAT-56456,303.0821689849668,40.933485008340504,2795.160877584434,2.467359125378078,-86417.35348949245,10.5,10499913582.646511,47.655,-122.3035,60.0,10.733333333333333
2026-01-20T23:10:45+00:00,SAT-56456,303.2542868787931,40.88147446532328,2797.621657085477,2.4807800604831165,-86887.4114073701,10.5,10499913112.588593,47.655,-122.3035,60.0,10.75
2026-01-20T23:10:46+00:00,SAT-56456,303.4257866712471,40.829150094568604,2800.0958217324655,2.494162688652711,-87356.12765433034,10.5,10499912643.872345,47.655,-122.3035,60.0,10.766666666666667
2026-01-20T23:10:47+00:00,SAT-56456,303.59666762038194,40.77651496602029,2802.5833333206156,2.5075069315839174,-87823.49948787282,10.5,10499912176.500513,47.655,-122.3035,60.0,10.783333333333333
2026-01-20T23:10:48+00:00,SAT-56456,303.76692903988453,40.72357214313231,2805.0841535670484,2.52081272591342,-88289.52468874621,10.5,10499911710.475311,47.655,-122.3035,60.0,10.8
2026-01-20T23:10:49+00:00,SAT-56456,303.9365702993073,40.67032468227685,2807.5982441256924,2.5340799843620965,-88754.20020006647,10.5,10499911245.7998,47.655,-122.3035,60.0,10.816666666666666
2026-01-20T23:10:50+00:00,SAT-56456,304.1055908216615,40.61677563297868,2810.12556656343,2.54730865858046,-89217.52432843,10.5,10499910782.475672,47.655,-122.3035,60.0,10.833333333333334
2026-01-20T23:10:51+00:00,SAT-56456,304.27399008527567,40.56292803683051,2812.666082398921,2.560498687401211,-89679.4949314993,10.5,10499910320.505068,47.655,-122.3035,60.0,10.85
2026-01-20T23:10:52+00:00,SAT-56456,304.44176762210407,40.50878492750606,2815.2197530898225,2.5736500006071825,-90140.10954997211,10.5,10499909859.89045,47.655,-122.3035,60.0,10.866666666666667
2026-01-20T23:10:53+00:00,SAT-56456,304.6089230163339,40.45434933069562,2817.7865400237615,2.5867625366448284,-90599.36602798292,10.5,10499909400.633972,47.655,-122.3035,60.0,10.883333333333333
2026-01-20T23:10:54+00:00,SAT-56456,304.7754559041845,40.39962426367893,2820.366404526975,2.5998362403773863,-91057.26243440906,10.5,10499908942.737566,47.655,-122.3035,60.0,10.9
2026-01-20T23:10:55+00:00,SAT-56456,304.94136597352167,40.34461273494815,2822.959307870711,2.612871070135409,-91513.79730981024,10.5,10499908486.20269,47.655,-122.3035,60.0,10.916666666666666
2026-01-20T23:10:56+00:00,SAT-56456,305.10665296393483,40.28931774369018,2825.5652112846597,2.625866950229219,-91968.96800321374,10.5,10499908031.031998,47.655,-122.3035,60.0,10.933333333333334
2026-01-20T23:10:57+00:00,SAT-56456,305.2713166637351,40.23374228027172,2828.1840759230217,2.638823847638761,-92422.77335811761,10.5,10499907577.226643,47.655,-122.3035,60.0,10.95
2026-01-20T23:10:58+00:00,SAT-56456,305.4353569119192,40.17788932511939,2830.8158629070667,2.6517417018477656,-92875.21125498606,10.5,10499907124.788746,47.655,-122.3035,60.0,10.966666666666667
2026-01-20T23:10:59+00:00,SAT-56456,305.5987735956014,40.12176184907931,2833.46053329771,2.6646204749643836,-93326.2803666863,10.5,10499906673.719633,47.655,-122.3035,60.0,10.983333333333333
2026-01-20T23:11:00+00:00,SAT-56456,305.7615666506654,40.06536281272918,2836.118048118074,2.6774601149662236,-93775.9788711741,10.5,10499906224.02113,47.655,-122.3035,60.0,11.0
2026-01-20T23:11:01+00:00,SAT-56456,305.9237360600748,40.00869516646864,2838.7883683394,2.6902605811896048,-94224.30534423534,10.5,10499905775.694656,47.655,-122.3035,60.0,11.016666666666667
