satellites_20260120_184412/SAT-66229.csv

timestamp,satellite,azimuth_deg,elevation_deg,distance_km,relative_velocity_kms,doppler_shift_hz,tx_freq_ghz,rx_freq_hz,ue_lat,ue_lon,ue_alt_m,time_minutes
2026-01-20T23:01:49+00:00,SAT-66229,270.65743601694015,40.0520756503155,70822.74523762877,-69.35574522956838,2429131.5724509256,10.5,10502429131.57245,47.655,-122.3035,60.0,1.8166666666666667
2026-01-20T23:01:50+00:00,SAT-66229,269.64712592138125,40.543724653034964,70753.57444105315,-69.28699408554901,2426723.6165703163,10.5,10502426723.61657,47.655,-122.3035,60.0,1.8333333333333333
2026-01-20T23:01:51+00:00,SAT-66229,268.6203530618422,41.02610000362917,70684.47221228517,-69.20040845346848,2423691.0214779954,10.5,10502423691.021479,47.655,-122.3035,60.0,1.85
2026-01-20T23:01:52+00:00,SAT-66229,267.57690561202406,41.49886844603701,70615.45633825423,-69.09596126524917,2420032.8391353874,10.5,10502420032.839136,47.655,-122.3035,60.0,1.8666666666666667
2026-01-20T23:01:53+00:00,SAT-66229,266.5165933042669,41.961689436911186,70546.54463288569,-68.97363000791819,2415748.28104295,10.5,10502415748.281042,47.655,-122.3035,60.0,1.8833333333333333
2026-01-20T23:01:54+00:00,SAT-66229,265.43924992854215,42.414215495774556,70477.75493255779,-68.83339682949583,2410836.721948843,10.5,10502410836.721949,47.655,-122.3035,60.0,1.9
2026-01-20T23:01:55+00:00,SAT-66229,264.3447359377926,42.85609262415399,70409.10509145318,-68.67524828266593,2405297.6908711707,10.5,10502405297.69087,47.655,-122.3035,60.0,1.9166666666666667
2026-01-20T23:01:56+00:00,SAT-66229,263.23294115206505,43.286960795995654,70340.61297716593,-68.49917623196843,2399130.902871708,10.5,10502399130.902872,47.655,-122.3035,60.0,1.9333333333333333
2026-01-20T23:01:57+00:00,SAT-66229,262.1037875259492,43.706454531051826,70272.29646540391,-68.30517688728732,2392336.225204561,10.5,10502392336.225204,47.655,-122.3035,60.0,1.95
2026-01-20T23:01:58+00:00,SAT-66229,260.95723198875953,44.11420354328514,70204.173435655,-68.0932516291345,2384913.7062210958,10.5,10502384913.70622,47.655,-122.3035,60.0,1.9666666666666666
2026-01-20T23:01:59+00:00,SAT-66229,259.79326930444785,44.50983347910623,70136.2617660302,-67.86340642215606,2376863.5548284496,10.5,10502376863.554829,47.655,-122.3035,60.0,1.9833333333333334
2026-01-20T23:02:00+00:00,SAT-66229,258.611934945966,44.892966739583066,70068.57932869183,-67.61565266346086,2368186.1702015833,10.5,10502368186.170202,47.655,-122.3035,60.0,2.0
2026-01-20T23:02:01+00:00,SAT-66229,257.413307927466,45.26322339711871,70001.14398443549,-67.35000645554095,2358882.1163178827,10.5,10502358882.116318,47.655,-122.3035,60.0,2.0166666666666666
2026-01-20T23:02:02+00:00,SAT-66229,256.1975135847729,45.62022219855098,69933.97357799717,-67.06648903266392,2348952.1368912198,10.5,10502348952.13689,47.655,-122.3035,60.0,2.033333333333333
2026-01-20T23:02:03+00:00,SAT-66229,254.9647262442032,45.96358166139767,69867.08593293525,-66.76512687000603,2338397.159194256,10.5,10502338397.159195,47.655,-122.3035,60.0,2.05
2026-01-20T23:02:04+00:00,SAT-66229,253.71517174104673,46.29292125999281,69800.49884640356,-66.44595157815378,2327218.290363444,10.5,10502327218.290363,47.655,-122.3035,60.0,2.066666666666667
2026-01-20T23:02:05+00:00,SAT-66229,252.44912974472237,46.60786269774175,69734.23008402961,-66.10899999526667,2315416.820626955,10.5,10502315416.820627,47.655,-122.3035,60.0,2.0833333333333335
2026-01-20T23:02:06+00:00,SAT-66229,251.16693583775884,46.90803126234916,69668.29737470101,-65.75431405341935,2302994.218623416,10.5,10502302994.218624,47.655,-122.3035,60.0,2.1
2026-01-20T23:02:07+00:00,SAT-66229,249.86898330194722,47.193057257088604,69602.71840548507,-65.38194130475961,2289952.1498301863,10.5,10502289952.14983,47.655,-122.3035,60.0,2.1166666666666667
2026-01-20T23:02:08+00:00,SAT-66229,248.55572454709966,47.462577503367854,69537.51081602379,-64.99193459801218,2276292.465233158,10.5,10502276292.465233,47.655,-122.3035,60.0,2.1333333333333333
2026-01-20T23:02:09+00:00,SAT-66229,247.22767214757073,47.716236901147475,69472.69219325135,-64.58435201675246,2262017.199164833,10.5,10502262017.199165,47.655,-122.3035,60.0,2.15
2026-01-20T23:02:10+00:00,SAT-66229,245.88539943262447,47.95369003736109,69408.28006617332,-64.15925705547006,2247128.57547082,10.5,10502247128.57547,47.655,-122.3035,60.0,2.1666666666666665
2026-01-20T23:02:11+00:00,SAT-66229,244.52954057974517,48.17460283016211,69344.29190047001,-63.71671903580487,2231629.022088178,10.5,10502231629.022089,47.655,-122.3035,60.0,2.183333333333333
2026-01-20T23:02:12+00:00,SAT-66229,243.16079016413664,48.378654194666346,69280.74509268496,-63.256812331198866,2215521.143889444,10.5,10502215521.14389,47.655,-122.3035,60.0,2.2
2026-01-20T23:02:13+00:00,SAT-66229,241.77990215461324,48.56553770973542,69217.65696518664,-62.779617322032145,2198807.7561355378,10.5,10502198807.756136,47.655,-122.3035,60.0,2.216666666666667
2026-01-20T23:02:14+00:00,SAT-66229,240.38768829230997,48.73496327384167,69155.04476017746,-62.28521939429173,2181491.849404908,10.5,10502181491.849405,47.655,-122.3035,60.0,2.2333333333333334
2026-01-20T23:02:15+00:00,SAT-66229,238.98501587642923,48.8866587249805,69092.92563470156,-61.77371012146304,2163576.6309883683,10.5,10502163576.63099,47.655,-122.3035,60.0,2.25
2026-01-20T23:02:16+00:00,SAT-66229,237.5728049023157,49.02037141127228,69031.31665447375,-61.245186352783705,2145065.4929558933,10.5,10502145065.492956,47.655,-122.3035,60.0,2.2666666666666666
2026-01-20T23:02:17+00:00,SAT-66229,236.15202460245848,49.135869686358234,68970.2347886179,-60.699750557678286,2125962.0242201756,10.5,10502125962.02422,47.655,-122.3035,60.0,2.283333333333333
2026-01-20T23:02:18+00:00,SAT-66229,234.72368937998107,49.232944313177285,68909.69690406173,-60.137511051936364,2106270.0184583426,10.5,10502106270.018457,47.655,-122.3035,60.0,2.3
2026-01-20T23:02:19+00:00,SAT-66229,233.2888541665443,49.311409755816236,68849.71975970591,-59.55858173525169,2085993.4649194635,10.5,10502085993.46492,47.655,-122.3035,60.0,2.316666666666667
2026-01-20T23:02:20+00:00,SAT-66229,231.8486092588322,49.37110533997174,68790.3200008553,-58.96308229795771,2065136.5556653063,10.5,10502065136.555666,47.655,-122.3035,60.0,2.3333333333333335
2026-01-20T23:02:21+00:00,SAT-66229,230.40407467776538,49.41189626567326,68731.51415344347,-58.35113784148919,2043703.6722772943,10.5,10502043703.672277,47.655,-122.3035,60.0,2.35
2026-01-20T23:02:22+00:00,SAT-66229,228.95639413127427,49.43367445641152,68673.31861863621,-57.72287960350198,2021699.4112532702,10.5,10502021699.411253,47.655,-122.3035,60.0,2.3666666666666667
2026-01-20T23:02:23+00:00,SAT-66229,227.50672863039068,49.436359232404705,68615.74966671166,-57.07844427369532,1999128.5600446989,10.5,10501999128.560045,47.655,-122.3035,60.0,2.3833333333333333
2026-01-20T23:02:24+00:00,SAT-66229,226.05624987826562,49.419897796630764,68558.8234316227,-56.41797438559652,1975996.1107786223,10.5,10501975996.110779,47.655,-122.3035,60.0,2.4
2026-01-20T23:02:25+00:00,SAT-66229,224.60613349737224,49.38426552693696,68502.5559051688,-55.74161799257692,1952307.24891037,10.5,10501952307.24891,47.655,-122.3035,60.0,2.4166666666666665
2026-01-20T23:02:26+00:00,SAT-66229,223.15755220832983,49.3294660698724,68446.96293149087,-55.049529178608644,1928067.3711124205,10.5,10501928067.371113,47.655,-122.3035,60.0,2.433333333333333
2026-01-20T23:02:27+00:00,SAT-66229,221.7116690359994,49.255531234788094,68392.06020105674,-54.341867548158376,1903282.0674083235,10.5,10501903282.067408,47.655,-122.3035,60.0,2.45
2026-01-20T23:02:28+00:00,SAT-66229,220.269630665086,49.16252069115137,68337.86324515537,-53.618798435695886,1877957.1285105736,10.5,10501877957.128511,47.655,-122.3035,60.0,2.466666666666667
2026-01-20T23:02:29+00:00,SAT-66229,218.83256101912747,49.050521474260115,68284.38743018218,-52.88049284466693,1852098.5436831862,10.5,10501852098.543684,47.655,-122.3035,60.0,2.4833333333333334
2026-01-20T23:02:30+00:00,SAT-66229,217.4015551563149,48.91964730811914,68231.6479519851,-52.127127547632945,1825712.5042490093,10.5,10501825712.50425,47.655,-122.3035,60.0,2.5
2026-01-20T23:02:31+00:00,SAT-66229,215.97767355594047,48.770037756495086,68179.65983011092,-51.35888492045315,1798805.3977820817,10.5,10501798805.397781,47.655,-122.3035,60.0,2.5166666666666666
2026-01-20T23:02:32+00:00,SAT-66229,214.56193687113588,48.601857216624026,68128.43790221692,-50.575952839713565,1771383.8045151636,10.5,10501771383.804516,47.655,-122.3035,60.0,2.533333333333333
2026-01-20T23:02:33+00:00,SAT-66229,213.15532120331767,48.41529377165847,68077.99681858477,-49.77852502961754,1743454.5094893088,10.5,10501743454.50949,47.655,-122.3035,60.0,2.55
2026-01-20T23:02:34+00:00,SAT-66229,211.7587539306949,48.210557917752865,68028.35103628857,-48.96680059537494,1715024.4862111805,10.5,10501715024.486212,47.655,-122.3035,60.0,2.566666666666667
2026-01-20T23:02:35+00:00,SAT-66229,210.37311014519128,47.987881187292686,67979.51481382811,-48.140984323580334,1686100.907173567,10.5,10501686100.907173,47.655,-122.3035,60.0,2.5833333333333335
2026-01-20T23:02:36+00:00,SAT-66229,208.99920969569786,47.74751468508299,67931.50220546273,-47.3012862072593,1656691.1272204942,10.5,10501656691.12722,47.655,-122.3035,60.0,2.6
2026-01-20T23:02:37+00:00,SAT-66229,207.63781486593433,47.48972756056964,67884.3270560187,-46.447922069368694,1626802.705384841,10.5,10501626802.705385,47.655,-122.3035,60.0,2.6166666666666667
2026-01-20T23:02:38+00:00,SAT-66229,206.28962865054686,47.214805430363754,67838.00299507484,-45.581112892962935,1596443.3814279304,10.5,10501596443.381428,47.655,-122.3035,60.0,2.6333333333333333
2026-01-20T23:02:39+00:00,SAT-66229,204.95529364992285,46.92304877639586,67792.54343181626,-44.701085155586426,1565621.087551367,10.5,10501565621.087551,47.655,-122.3035,60.0,2.65
2026-01-20T23:02:40+00:00,SAT-66229,203.63539152961556,46.61477133276291,67747.96154955443,-43.80807041663975,1534343.933944854,10.5,10501534343.933945,47.655,-122.3035,60.0,2.6666666666666665
2026-01-20T23:02:41+00:00,SAT-66229,202.33044303195635,46.290298482476516,67704.2703006589,-42.90230570807457,1502620.222469983,10.5,10501502620.22247,47.655,-122.3035,60.0,2.683333333333333
2026-01-20T23:02:42+00:00,SAT-66229,201.04090847612022,45.94996567434893,67661.48240109938,-41.984033212637726,1470458.4353909802,10.5,10501470458.43539,47.655,-122.3035,60.0,2.7
2026-01-20T23:02:43+00:00,SAT-66229,199.7671887218208,45.59411687834667,67619.61032530863,-41.05350009847618,1437867.2295818725,10.5,10501437867.229582,47.655,-122.3035,60.0,2.716666666666667
2026-01-20T23:02:44+00:00,SAT-66229,198.50962654338676,45.223103091051215,67578.66630121043,-40.11095860335511,1404855.4394761613,10.5,10501404855.439476,47.655,-122.3035,60.0,2.7333333333333334
2026-01-20T23:02:45+00:00,SAT-66229,197.26850835574083,44.83728089951637,67538.66230516334,-39.156666062573414,1371432.0780445414,10.5,10501371432.078045,47.655,-122.3035,60.0,2.75
2026-01-20T23:02:46+00:00,SAT-66229,196.0440662418602,44.437011112018276,67499.61005687695,-38.19088464938945,1337606.3277035116,10.5,10501337606.327703,47.655,-122.3035,60.0,2.7666666666666666
2026-01-20T23:02:47+00:00,SAT-66229,194.83648023937624,44.02265746525467,67461.52101458661,-37.21388115519365,1303387.5326160914,10.5,10501303387.532616,47.655,-122.3035,60.0,2.783333333333333
2026-01-20T23:02:48+00:00,SAT-66229,193.6458808355583,43.59458541338952,67424.40637044783,-36.22592739414084,1268785.2128637566,10.5,10501268785.212864,47.655,-122.3035,60.0,2.8
2026-01-20T23:02:49+00:00,SAT-66229,192.47235160344857,43.15316099542026,67388.27704552675,-35.22729963460281,1233809.0445335002,10.5,10501233809.044533,47.655,-122.3035,60.0,2.816666666666667
2026-01-20T23:02:50+00:00,SAT-66229,191.31593196516096,42.69874979339407,67353.14368535783,-34.2182787283862,1198468.8642435935,10.5,10501198468.864244,47.655,-122.3035,60.0,2.8333333333333335
2026-01-20T23:02:51+00:00,SAT-66229,190.17662001952675,42.231715974916845,67319.01665537272,-33.19914989230379,1162774.6614932846,10.5,10501162774.661493,47.655,-122.3035,60.0,2.85
2026-01-20T23:02:52+00:00,SAT-66229,189.05437540790592,41.75242142355023,67285.9060365468,-32.17020284066113,1126736.583303046,10.5,10501126736.583303,47.655,-122.3035,60.0,2.8666666666666667
2026-01-20T23:02:53+00:00,SAT-66229,187.94912217340683,41.261224950967375,67253.82162091372,-31.131731404295195,1090364.9208716904,10.5,10501090364.920872,47.655,-122.3035,60.0,2.8833333333333333
2026-01-20T23:02:54+00:00,SAT-66229,186.86075160132128,40.75848159568192,67222.77290745983,-30.084033608344072,1053670.1123001992,10.5,10501053670.1123,47.655,-122.3035,60.0,2.9
2026-01-20T23:02:55+00:00,SAT-66229,185.78912500055796,40.244541999142015,67192.7690979411,-29.027411354646244,1016662.7314679996,10.5,10501016662.731468,47.655,-122.3035,60.0,2.9166666666666665
2026-01-20T23:08:24+00:00,SAT-66229,269.8636433230003,40.37122007579779,70865.5522351996,-67.91928589834878,2378820.690454669,10.5,10502378820.690454,47.655,-122.3035,60.0,8.4
2026-01-20T23:08:25+00:00,SAT-66229,268.8414685488253,40.85547247838178,70797.81406739698,-67.84259321772464,2376134.588369494,10.5,10502376134.58837,47.655,-122.3035,60.0,8.416666666666666
2026-01-20T23:08:26+00:00,SAT-66229,267.8027308916802,41.33018838580157,70730.15238776116,-67.7484013682873,2372835.59137107,10.5,10502372835.591372,47.655,-122.3035,60.0,8.433333333333334
2026-01-20T23:08:27+00:00,SAT-66229,266.7472373736823,41.79503024619021,70662.58464879653,-67.63668727369611,2368922.891228335,10.5,10502368922.891228,47.655,-122.3035,60.0,8.45
2026-01-20T23:08:28+00:00,SAT-66229,265.67481844482984,42.24965356769669,70595.12832602223,-67.50743248520754,2364395.8417882523,10.5,10502364395.841787,47.655,-122.3035,60.0,8.466666666666667
2026-01-20T23:08:29+00:00,SAT-66229,264.58533054185614,42.693707322650084,70527.80091335697,-67.36062285251145,2359253.9474471044,10.5,10502359253.947447,47.655,-122.3035,60.0,8.483333333333333
2026-01-20T23:08:30+00:00,SAT-66229,263.4786587482864,43.12683442082544,70460.61991883208,-67.19624930366544,2353496.8904670943,10.5,10502353496.890467,47.655,-122.3035,60.0,8.5
2026-01-20T23:08:31+00:00,SAT-66229,262.35471952185947,43.54867226342046,70393.60285952655,-67.01430732694645,2347124.5128285973,10.5,10502347124.512829,47.655,-122.3035,60.0,8.516666666666667
2026-01-20T23:08:32+00:00,SAT-66229,261.21346349051646,43.95885337310961,70326.76725701915,-66.81479685824563,2340136.8122862484,10.5,10502340136.812286,47.655,-122.3035,60.0,8.533333333333333
2026-01-20T23:08:33+00:00,SAT-66229,260.05487828780144,44.35700610668219,70260.13063295253,-66.59772308382779,2332533.9704849804,10.5,10502332533.970486,47.655,-122.3035,60.0,8.55
2026-01-20T23:08:34+00:00,SAT-66229,258.8789913846001,44.742755458600946,70193.71050379692,-66.36309577181513,2324316.329545751,10.5,10502324316.329546,47.655,-122.3035,60.0,8.566666666666666
2026-01-20T23:08:35+00:00,SAT-66229,257.6858729109254,45.11572394862389,70127.52437628049,-66.11092977966698,2315484.409839634,10.5,10502315484.40984,47.655,-122.3035,60.0,8.583333333333334
2026-01-20T23:08:36+00:00,SAT-66229,256.47563841253645,45.47553260189833,70061.58974231358,-65.84124455874279,2306038.892635516,10.5,10502306038.892635,47.655,-122.3035,60.0,8.6
2026-01-20T23:08:37+00:00,SAT-66229,255.24845152117837,45.82180201598144,69995.92407440698,-65.55406510803148,2295980.6535037337,10.5,10502295980.653503,47.655,-122.3035,60.0,8.616666666666667
2026-01-20T23:08:38+00:00,SAT-66229,254.0045264694033,46.15415352168861,69930.54482013924,-65.24942099449879,2285310.728004496,10.5,10502285310.728004,47.655,-122.3035,60.0,8.633333333333333
2026-01-20T23:08:39+00:00,SAT-66229,252.74413043981863,46.47221042495763,69865.46939760073,-64.92734725522207,2274030.343284459,10.5,10502274030.343285,47.655,-122.3035,60.0,8.65
2026-01-20T23:08:40+00:00,SAT-66229,251.46758566566012,46.77559933583889,69800.71518993819,-64.58788370790293,2262140.893927961,10.5,10502262140.893929,47.655,-122.3035,60.0,8.666666666666666
2026-01-20T23:08:41+00:00,SAT-66229,250.17527126270568,47.06395157097847,69736.29954058684,-64.23107555980374,2249643.9632845577,10.5,10502249643.963285,47.655,-122.3035,60.0,8.683333333333334
2026-01-20T23:08:42+00:00,SAT-66229,248.86762471685586,47.336904628804845,69672.23974789519,-63.85697334163043,2236541.3211533143,10.5,10502236541.321154,47.655,-122.3035,60.0,8.7
2026-01-20T23:08:43+00:00,SAT-66229,247.54514298947777,47.59410372491858,69608.55305981581,-63.46563264963328,2222834.914750088,10.5,10502222834.91475,47.655,-122.3035,60.0,8.716666666666667
2026-01-20T23:08:44+00:00,SAT-66229,246.20838319575608,47.83520337632254,69545.25666885324,-63.057114263196716,2208526.8728260184,10.5,10502208526.872826,47.655,-122.3035,60.0,8.733333333333333
2026-01-20T23:08:45+00:00,SAT-66229,244.85796280257532,48.05986902363637,69482.36770689474,-62.631484711728056,2193619.5255223685,10.5,10502193619.525522,47.655,-122.3035,60.0,8.75
2026-01-20T23:08:46+00:00,SAT-66229,243.49455929408873,48.26777867830823,69419.90323947558,-62.188815567679065,2178115.37960915,10.5,10502178115.37961,47.655,-122.3035,60.0,8.766666666666667
2026-01-20T23:08:47+00:00,SAT-66229,242.11890929621165,48.458624574245064,69357.88026074941,-61.72918374324052,2162017.1288766223,10.5,10502162017.128876,47.655,-122.3035,60.0,8.783333333333333
2026-01-20T23:08:48+00:00,SAT-66229,240.73180711072195,48.632114810538596,69296.31568816282,-61.25267187113308,2145327.6674721995,10.5,10502145327.667473,47.655,-122.3035,60.0,8.8
2026-01-20T23:08:49+00:00,SAT-66229,239.33410263690865,48.787974966599556,69235.22635675,-60.759367748452206,2128050.0704215453,10.5,10502128050.070421,47.655,-122.3035,60.0,8.816666666666666
2026-01-20T23:08:50+00:00,SAT-66229,237.9266986923559,48.92594966776165,69174.62901398222,-60.24936489741748,2110187.613268388,10.5,10502110187.613268,47.655,-122.3035,60.0,8.833333333333334
2026-01-20T23:08:51+00:00,SAT-66229,236.51054770988688,49.04580408478126,69114.54031405787,-59.72276194600315,2091743.7503815826,10.5,10502091743.750381,47.655,-122.3035,60.0,8.85
2026-01-20T23:08:52+00:00,SAT-66229,235.0866478516407,49.14732534454934,69054.97681281039,-59.179663559940096,2072722.147597759,10.5,10502072722.147598,47.655,-122.3035,60.0,8.866666666666667
2026-01-20T23:08:53+00:00,SAT-66229,233.65603853084622,49.23032383582093,68995.95496168661,-58.6201794667223,2053126.648037904,10.5,10502053126.648037,47.655,-122.3035,60.0,8.883333333333333
2026-01-20T23:08:54+00:00,SAT-66229,232.21979542528123,49.29463438766949,68937.49110269846,-58.04442525189386,2032961.299996698,10.5,10502032961.299997,47.655,-122.3035,60.0,8.9
2026-01-20T23:08:55+00:00,SAT-66229,230.77902499227935,49.340117306577206,68879.60146258058,-57.452521826280034,2012230.338282694,10.5,10502012230.338284,47.655,-122.3035,60.0,8.916666666666666
2026-01-20T23:08:56+00:00,SAT-66229,229.33485858007006,49.36665925451435,68822.30214747916,-56.844595837897494,1990938.198645156,10.5,10501990938.198645,47.655,-122.3035,60.0,8.933333333333334
2026-01-20T23:08:57+00:00,SAT-66229,227.88844618608886,49.37417395580117,68765.60913723017,-56.22077944895541,1969089.509963696,10.5,10501969089.509964,47.655,-122.3035,60.0,8.95
2026-01-20T23:08:58+00:00,SAT-66229,226.44094995993265,49.36260272121269,68709.53827985974,-55.58121037961138,1946689.0957807868,10.5,10501946689.095781,47.655,-122.3035,60.0,8.966666666666667
2026-01-20T23:08:59+00:00,SAT-66229,224.99353753340466,49.331914781654135,68654.10528604114,-54.92603179556929,1923741.97036497,10.5,10501923741.970366,47.655,-122.3035,60.0,8.983333333333333
2026-01-20T23:09:00+00:00,SAT-66229,223.5473752751073,49.28210742653749,68599.3257236637,-54.255392722933074,1900253.3532407852,10.5,10501900253.353241,47.655,-122.3035,60.0,9.0
2026-01-20T23:09:01+00:00,SAT-66229,222.10362155123573,49.213205944657155,68545.21501198802,-53.569447566300596,1876228.6523103802,10.5,10501876228.652311,47.655,-122.3035,60.0,9.016666666666667
2026-01-20T23:09:02+00:00,SAT-66229,220.66342011087292,49.1252633696353,68491.7884162819,-52.868356139419355,1851673.4649272037,10.5,10501851673.464928,47.655,-122.3035,60.0,9.033333333333333
2026-01-20T23:09:03+00:00,SAT-66229,219.2278936749574,49.01836003476211,68439.06104242551,-52.15228414823117,1826593.5948142742,10.5,10501826593.594814,47.655,-122.3035,60.0,9.05
2026-01-20T23:09:04+00:00,SAT-66229,217.79813780300617,48.892602943747434,68387.04783103502,-51.4214025033687,1800995.0279848978,10.5,10501800995.027985,47.655,-122.3035,60.0,9.066666666666666
2026-01-20T23:09:05+00:00,SAT-66229,216.37521514848007,48.74812497013378,68335.76355227166,-50.67588780998983,1774883.9498987435,10.5,10501774883.9499,47.655,-122.3035,60.0,9.083333333333334
2026-01-20T23:09:06+00:00,SAT-66229,214.9601501409264,48.585083896333586,68285.22280016249,-49.915922000948775,1748266.732613941,10.5,10501748266.732615,47.655,-122.3035,60.0,9.1
2026-01-20T23:09:07+00:00,SAT-66229,213.55392417732833,48.40366130940474,68235.43998728688,-49.14169258810053,1721149.9435888263,10.5,10501721149.943588,47.655,-122.3035,60.0,9.116666666666667
2026-01-20T23:09:08+00:00,SAT-66229,212.15747135277152,48.2040613688933,68186.42933921234,-48.3533924934093,1693540.339766645,10.5,10501693540.339767,47.655,-122.3035,60.0,9.133333333333333
2026-01-20T23:09:09+00:00,SAT-66229,210.7716747769151,47.98650946619381,68138.20488909892,-47.5512199902959,1665444.8655212899,10.5,10501665444.86552,47.655,-122.3035,60.0,9.15
2026-01-20T23:09:10+00:00,SAT-66229,209.39736349514718,47.751250794321656,68090.78047236193,-46.73537859825323,1636870.648966289,10.5,10501636870.648966,47.655,-122.3035,60.0,9.166666666666666
2026-01-20T23:09:11+00:00,SAT-66229,208.0353100256227,47.49854884792784,68044.16972143995,-45.90607733252457,1607825.010699595,10.5,10501607825.0107,47.655,-122.3035,60.0,9.183333333333334
2026-01-20T23:09:12+00:00,SAT-66229,206.68622849942338,47.22868387099387,67998.38606031364,-45.06353044779813,1578315.4548266865,10.5,10501578315.454826,47.655,-122.3035,60.0,9.2
2026-01-20T23:09:13+00:00,SAT-66229,205.35077340532757,46.941951273520985,67953.44269928036,-44.207957319877224,1548349.664816154,10.5,10501548349.664816,47.655,-122.3035,60.0,9.216666666666667
2026-01-20T23:09:14+00:00,SAT-66229,204.02953891232892,46.638660035018155,67909.35262984667,-43.339582444533775,1517935.5034595456,10.5,10501517935.50346,47.655,-122.3035,60.0,9.233333333333333
2026-01-20T23:09:15+00:00,SAT-66229,202.72305873533335,46.3191311111678,67866.12861962199,-42.45863564715503,1487081.0202140834,10.5,10501487081.020214,47.655,-122.3035,60.0,9.25
2026-01-20T23:09:16+00:00,SAT-66229,201.43180649920205,45.98369585741523,67823.78320700323,-41.56535166796301,1455794.4366752934,10.5,10501455794.436676,47.655,-122.3035,60.0,9.266666666666667
2026-01-20T23:09:17+00:00,SAT-66229,200.15619657632422,45.63269448800328,67782.32869627305,-40.659970103280656,1424084.144519896,10.5,10501424084.14452,47.655,-122.3035,60.0,9.283333333333333
2026-01-20T23:09:18+00:00,SAT-66229,198.89658533982842,45.26647458088086,67741.77715275671,-39.742735717440475,1391958.716430168,10.5,10501391958.71643,47.655,-122.3035,60.0,9.3
2026-01-20T23:09:19+00:00,SAT-66229,197.6532727710546,44.885389635563406,67702.14039766786,-38.81389798799696,1359426.890165356,10.5,10501359426.890165,47.655,-122.3035,60.0,9.316666666666666
2026-01-20T23:09:20+00:00,SAT-66229,196.42650439383357,44.48979769930897,67663.43000340782,-37.87371120986695,1326497.5722091144,10.5,10501326497.572208,47.655,-122.3035,60.0,9.333333333333334
2026-01-20T23:09:21+00:00,SAT-66229,195.21647346769822,44.08006006414862,67625.65728876118,-36.92243424487887,1293179.82899766,10.5,10501293179.828999,47.655,-122.3035,60.0,9.35
2026-01-20T23:09:22+00:00,SAT-66229,194.02332340162084,43.656540043711004,67588.83331434095,-35.960330768109,1259482.8955475073,10.5,10501259482.895548,47.655,-122.3035,60.0,9.366666666666667
2026-01-20T23:09:23+00:00,SAT-66229,192.84715032490445,43.219601828363174,67552.96887778823,-34.98766886685936,1225416.161409982,10.5,10501225416.16141,47.655,-122.3035,60.0,9.383333333333333
2026-01-20T23:09:24+00:00,SAT-66229,191.68800579108685,42.76960942807525,67518.07450937168,-34.00472110656369,1190989.1729795244,10.5,10501190989.17298,47.655,-122.3035,60.0,9.4
2026-01-20T23:09:25+00:00,SAT-66229,190.54589955860766,42.30692569916713,67484.1604675214,-33.01176428096296,1156211.6247437785,10.5,10501156211.624744,47.655,-122.3035,60.0,9.416666666666666
2026-01-20T23:09:26+00:00,SAT-66229,189.42080242076304,41.8319114587379,67451.23673461186,-32.00907961975973,1121093.3665565301,10.5,10501121093.366556,47.655,-122.3035,60.0,9.433333333333334
2026-01-20T23:09:27+00:00,SAT-66229,188.3126490358163,41.34492467949829,67419.31301253775,-30.99695237374025,1085644.389106922,10.5,10501085644.389107,47.655,-122.3035,60.0,9.45
2026-01-20T23:09:28+00:00,SAT-66229,187.22134074816108,40.846319771449615,67388.39871870367,-29.975671895097406,1049874.8267327084,10.5,10501049874.826733,47.655,-122.3035,60.0,9.466666666666667
2026-01-20T23:09:29+00:00,SAT-66229,186.14674835803484,40.33644694098989,67358.50298193362,-28.945531357413966,1013794.9476128804,10.5,10501013794.947613,47.655,-122.3035,60.0,9.483333333333333
2026-01-20T23:14:58+00:00,SAT-66229,269.9527448684603,40.261044249526,70964.42088390629,-66.51573614438163,2329662.441061166,10.5,10502329662.441061,47.655,-122.3035,60.0,14.966666666666667
2026-01-20T23:14:59+00:00,SAT-66229,268.9329801748171,40.74603814985629,70898.0825230583,-66.44557988155937,2327205.271976433,10.5,10502327205.271976,47.655,-122.3035,60.0,14.983333333333333
