satellites_20260120_184412/SAT-66172.csv

timestamp,satellite,azimuth_deg,elevation_deg,distance_km,relative_velocity_kms,doppler_shift_hz,tx_freq_ghz,rx_freq_hz,ue_lat,ue_lon,ue_alt_m,time_minutes
2026-01-20T23:01:17+00:00,SAT-66172,77.8631582218826,40.610182734234016,240421.1044116186,32.235709549312354,-1129030.9053331146,10.5,10498870969.094667,47.655,-122.3035,60.0,1.2833333333333334
2026-01-20T23:01:18+00:00,SAT-66172,76.26140109475776,41.50323857037849,240453.2541592758,36.11744301662122,-1264985.6310745578,10.5,10498735014.368925,47.655,-122.3035,60.0,1.3
2026-01-20T23:01:19+00:00,SAT-66172,74.61543122338786,42.373045779716804,240489.27528911104,39.974113982149156,-1400062.5619893551,10.5,10498599937.438011,47.655,-122.3035,60.0,1.3166666666666667
2026-01-20T23:01:20+00:00,SAT-66172,72.92392828040921,43.21823206108227,240529.14280545592,43.80303490823626,-1534167.5691403844,10.5,10498465832.43086,47.655,-122.3035,60.0,1.3333333333333333
2026-01-20T23:01:21+00:00,SAT-66172,71.18569141780182,44.037369910665014,240572.82903227105,47.60154183660334,-1667207.3494401753,10.5,10498332792.65056,47.655,-122.3035,60.0,1.35
2026-01-20T23:01:22+00:00,SAT-66172,69.39966948728056,44.82897930448112,240620.30363666275,51.366997163703346,-1799089.5228554585,10.5,10498200910.477144,47.655,-122.3035,60.0,1.3666666666666667
2026-01-20T23:01:23+00:00,SAT-66172,67.56499427281008,45.59153163668181,240671.53365516738,55.09679119562999,-1929722.6868666417,10.5,10498070277.313133,47.655,-122.3035,60.0,1.3833333333333333
2026-01-20T23:01:24+00:00,SAT-66172,65.6810164939769,46.323455063273016,240726.4835215865,58.788344601168504,-2059016.5023840235,10.5,10497940983.497616,47.655,-122.3035,60.0,1.4
2026-01-20T23:01:25+00:00,SAT-66172,63.7473440570134,47.02314143333689,240785.1150972687,62.43911018423853,-2186881.755826241,10.5,10497813118.244173,47.655,-122.3035,60.0,1.4166666666666667
2026-01-20T23:01:26+00:00,SAT-66172,61.76388185905571,47.68895494494996,240847.38770315913,66.04657544389062,-2313230.4487821753,10.5,10497686769.551218,47.655,-122.3035,60.0,1.4333333333333333
2026-01-20T23:01:27+00:00,SAT-66172,59.730872141728824,48.31924265281015,240913.25815440185,69.60826383114582,-2437975.8420307925,10.5,10497562024.157969,47.655,-122.3035,60.0,1.45
2026-01-20T23:01:28+00:00,SAT-66172,57.64893418286481,48.912346885850745,240982.6807961961,73.12173745041562,-2561032.5501562953,10.5,10497438967.449844,47.655,-122.3035,60.0,1.4666666666666666
2026-01-20T23:01:29+00:00,SAT-66172,55.51910175420604,49.46661960210102,241055.60754234664,76.58459802246855,-2682316.575275285,10.5,10497317683.424725,47.655,-122.3035,60.0,1.4833333333333334
2026-01-20T23:01:30+00:00,SAT-66172,53.34285662504173,49.98043859909153,241131.9879147744,79.99448983184469,-2801745.41026769,10.5,10497198254.589733,47.655,-122.3035,60.0,1.5
2026-01-20T23:01:31+00:00,SAT-66172,51.12215608709091,50.4522254381402,241211.7690859667,83.34910055760383,-2919238.067873076,10.5,10497080761.932127,47.655,-122.3035,60.0,1.5166666666666666
2026-01-20T23:01:32+00:00,SAT-66172,48.85945249446246,50.88046480285211,241294.8959222561,86.64616312870987,-3034715.145674057,10.5,10496965284.854326,47.655,-122.3035,60.0,1.5333333333333334
2026-01-20T23:01:33+00:00,SAT-66172,46.55770273915296,51.263724926010376,241381.31102894983,89.8834581354157,-3148098.9105531964,10.5,10496851901.089447,47.655,-122.3035,60.0,1.55
2026-01-20T23:01:34+00:00,SAT-66172,44.22036577332646,51.60067859880048,241470.95479786355,93.05881450450423,-3259313.3223428004,10.5,10496740686.677658,47.655,-122.3035,60.0,1.5666666666666667
2026-01-20T23:01:35+00:00,SAT-66172,41.851386695738874,51.89012416487346,241563.76545552936,96.17011145264142,-3368284.1022396064,10.5,10496631715.89776,47.655,-122.3035,60.0,1.5833333333333333
2026-01-20T23:01:36+00:00,SAT-66172,39.45516636209651,52.13100583487413,241659.67911335148,99.21527994129947,-3474938.7837623465,10.5,10496525061.216238,47.655,-122.3035,60.0,1.6
2026-01-20T23:01:37+00:00,SAT-66172,37.036516213045516,52.32243259592903,241758.62981921292,102.19230409986993,-3579206.7625951893,10.5,10496420793.237404,47.655,-122.3035,60.0,1.6166666666666667
2026-01-20T23:01:38+00:00,SAT-66172,34.60059880920404,52.46369498207323,241860.54961050185,105.09922257920333,-3681019.343994421,10.5,10496318980.656006,47.655,-122.3035,60.0,1.6333333333333333
2026-01-20T23:01:39+00:00,SAT-66172,32.152855432823074,52.554279007075436,241965.36856848752,107.93412979423488,-3780309.7863104558,10.5,10496219690.21369,47.655,-122.3035,60.0,1.65
2026-01-20T23:01:40+00:00,SAT-66172,29.69892296963894,52.59387664603988,242073.01487393564,110.69517690318185,-3877013.335283469,10.5,10496122986.664717,47.655,-122.3035,60.0,1.6666666666666667
2026-01-20T23:01:41+00:00,SAT-66172,27.244543037676568,52.58239238400861,242183.41486370043,113.38057367629588,-3971067.2894950104,10.5,10496028932.710505,47.655,-122.3035,60.0,1.6833333333333333
2026-01-20T23:01:42+00:00,SAT-66172,24.795466869719434,52.51994551990864,242296.49308918024,115.98858878430433,-4062411.010470435,10.5,10495937588.989529,47.655,-122.3035,60.0,1.7
2026-01-20T23:01:43+00:00,SAT-66172,22.357359827790795,52.40686811011734,242412.1723750611,118.51755134996857,-4150985.977021043,10.5,10495849014.02298,47.655,-122.3035,60.0,1.7166666666666666
2026-01-20T23:01:44+00:00,SAT-66172,19.93570939294743,52.243698642875714,242530.3738796075,120.96585130489485,-4236735.797741103,10.5,10495763264.20226,47.655,-122.3035,60.0,1.7333333333333334
2026-01-20T23:01:45+00:00,SAT-66172,17.53574026653849,52.031171733903385,242651.01715530892,123.3319412565631,-4319606.2763990965,10.5,10495680393.7236,47.655,-122.3035,60.0,1.75
2026-01-20T23:01:46+00:00,SAT-66172,15.162339641989693,51.77020430574285,242774.02021138876,125.61433653506676,-4399545.413574751,10.5,10495600454.586426,47.655,-122.3035,60.0,1.7666666666666666
2026-01-20T23:01:47+00:00,SAT-66172,12.819995054916022,51.46187885523691,242899.29957635974,127.81161579090937,-4476503.427596396,10.5,10495523496.572403,47.655,-122.3035,60.0,1.7833333333333334
2026-01-20T23:01:48+00:00,SAT-66172,10.51274632971846,51.107424503153496,243026.7703611752,129.92242263467617,-4550432.811969205,10.5,10495449567.18803,47.655,-122.3035,60.0,1.8
2026-01-20T23:01:49+00:00,SAT-66172,8.244152262272548,50.708196558735864,243156.34632401622,131.94546523959778,-4621288.321455294,10.5,10495378711.678545,47.655,-122.3035,60.0,1.8166666666666667
2026-01-20T23:01:50+00:00,SAT-66172,6.017271908824909,50.265655334771246,243287.93993468184,133.8795175073824,-4689027.012906092,10.5,10495310972.987093,47.655,-122.3035,60.0,1.8333333333333333
2026-01-20T23:01:51+00:00,SAT-66172,3.834659570685879,49.78134489285141,243421.46244014252,135.7234193785791,-4753608.256132582,10.5,10495246391.743868,47.655,-122.3035,60.0,1.85
2026-01-20T23:01:52+00:00,SAT-66172,1.6983720514373513,49.256872325223796,243556.82393040275,137.47607730462894,-4814993.750438524,10.5,10495185006.249561,47.655,-122.3035,60.0,1.8666666666666667
2026-01-20T23:01:53+00:00,SAT-66172,359.60998636310563,48.693888076070365,243693.93340483456,139.1364646594496,-4873147.539035891,10.5,10495126852.460964,47.655,-122.3035,60.0,1.8833333333333333
2026-01-20T23:01:54+00:00,SAT-66172,357.5706258558161,48.09406769355288,243832.6988389216,140.70362193137169,-4928036.01576729,10.5,10495071963.984232,47.655,-122.3035,60.0,1.9
2026-01-20T23:01:55+00:00,SAT-66172,355.58099269956585,47.45909529128748,243973.02725119446,142.17665658086992,-4979627.920123108,10.5,10495020372.079876,47.655,-122.3035,60.0,1.9166666666666667
2026-01-20T23:01:56+00:00,SAT-66172,353.6414047289568,46.79064889157643,244114.82477002448,143.55474460139115,-5027894.3919083085,10.5,10494972105.608091,47.655,-122.3035,60.0,1.9333333333333333
2026-01-20T23:01:57+00:00,SAT-66172,351.7518348115152,46.090387717689474,244257.99670197358,144.83712906560206,-5072808.920325879,10.5,10494927191.079674,47.655,-122.3035,60.0,1.95
2026-01-20T23:01:58+00:00,SAT-66172,349.91195120440415,45.35994144410183,244402.44759869503,146.02312108126512,-5114347.377455652,10.5,10494885652.622545,47.655,-122.3035,60.0,1.9666666666666666
2026-01-20T23:01:59+00:00,SAT-66172,348.12115755843007,44.60090132547229,244548.08132478676,147.1120991984186,-5152487.997491236,10.5,10494847512.002508,47.655,-122.3035,60.0,1.9833333333333334
2026-01-20T23:02:00+00:00,SAT-66172,346.37863155917313,43.814813096120076,244694.801125054,148.10351052573594,-5187211.415839646,10.5,10494812788.58416,47.655,-122.3035,60.0,2.0
2026-01-20T23:02:01+00:00,SAT-66172,344.6833614165839,43.0031714834411,244842.50969288495,148.9968691837165,-5218500.614945501,10.5,10494781499.385054,47.655,-122.3035,60.0,2.0166666666666666
2026-01-20T23:02:02+00:00,SAT-66172,343.0341797053708,42.16741618273206,244991.1092370842,149.79175714444332,-5246340.953702894,10.5,10494753659.046297,47.655,-122.3035,60.0,2.033333333333333
2026-01-20T23:02:03+00:00,SAT-66172,341.4297942019138,41.308929106145364,245140.5015495429,150.48782367239497,-5270720.147870255,10.5,10494729279.852129,47.655,-122.3035,60.0,2.05
2026-01-20T23:02:04+00:00,SAT-66172,339.8688155790055,40.429032738912525,245290.58807235217,151.08478541886893,-5291628.273377457,10.5,10494708371.726622,47.655,-122.3035,60.0,2.066666666666667
2026-01-20T23:05:22+00:00,SAT-66172,78.34703532325355,40.354309736934,240506.9260346714,30.1073141495108,-1054485.4953284494,10.5,10498945514.504671,47.655,-122.3035,60.0,5.366666666666666
2026-01-20T23:05:23+00:00,SAT-66172,76.7574330881494,41.25438794056618,240536.95306264985,34.01622626778358,-1191392.1323922286,10.5,10498808607.867607,47.655,-122.3035,60.0,5.383333333333334
2026-01-20T23:05:24+00:00,SAT-66172,75.12397054648125,42.13160350213095,240570.87857898092,37.901523026095866,-1327471.6596573172,10.5,10498672528.340343,47.655,-122.3035,60.0,5.4
2026-01-20T23:05:25+00:00,SAT-66172,73.44529373589148,42.98459866874318,240608.67903127894,41.76049299418113,-1462629.1113664433,10.5,10498537370.888634,47.655,-122.3035,60.0,5.416666666666667
2026-01-20T23:05:26+00:00,SAT-66172,71.72015995886137,43.81195973273259,240650.32816295847,45.59044762005417,-1596770.3230565218,10.5,10498403229.676943,47.655,-122.3035,60.0,5.433333333333334
2026-01-20T23:05:27+00:00,SAT-66172,69.94746714277758,44.612219387536534,240695.79703605155,49.38872308045145,-1729801.996368902,10.5,10498270198.003632,47.655,-122.3035,60.0,5.45
2026-01-20T23:05:28+00:00,SAT-66172,68.12628631883479,45.3838602732899,240745.05405587045,53.152682749982304,-1861631.7855294885,10.5,10498138368.21447,47.655,-122.3035,60.0,5.466666666666667
2026-01-20T23:05:29+00:00,SAT-66172,66.25589695508624,46.125319898868554,240798.06499813308,56.87971895786169,-1992168.3588769527,10.5,10498007831.641123,47.655,-122.3035,60.0,5.483333333333333
2026-01-20T23:05:30+00:00,SAT-66172,64.33582474476256,46.83499709737021,240854.7930378404,60.56725564766414,-2121321.492018567,10.5,10497878678.507982,47.655,-122.3035,60.0,5.5
2026-01-20T23:05:31+00:00,SAT-66172,62.36588116778959,47.51126018331532,240915.19878080633,64.21275007661552,-2249002.127346589,10.5,10497750997.872654,47.655,-122.3035,60.0,5.516666666666667
2026-01-20T23:05:32+00:00,SAT-66172,60.3462039572836,48.15245692608549,240979.24029688275,67.81369460010303,-2375122.436539354,10.5,10497624877.563461,47.655,-122.3035,60.0,5.533333333333333
2026-01-20T23:05:33+00:00,SAT-66172,58.27729728935507,48.75692643181573,241046.87315496392,71.3676192808186,-2499595.911944507,10.5,10497500404.088055,47.655,-122.3035,60.0,5.55
2026-01-20T23:05:34+00:00,SAT-66172,56.160070217416255,49.32301297314382,241118.0504605933,74.8720932943728,-2622337.4158095545,10.5,10497377662.58419,47.655,-122.3035,60.0,5.566666666666666
2026-01-20T23:05:35+00:00,SAT-66172,53.9958716760303,49.849081713460414,241192.72289497225,78.32472706228911,-2743263.2549883416,10.5,10497256736.745012,47.655,-122.3035,60.0,5.583333333333333
2026-01-20T23:05:36+00:00,SAT-66172,51.78652010520629,50.333536203416884,241270.8387560957,81.72317357955536,-2862291.227437521,10.5,10497137708.772562,47.655,-122.3035,60.0,5.6
2026-01-20T23:05:37+00:00,SAT-66172,49.53432565850937,50.774837411912095,241352.34400121236,85.06513108933953,-2979340.715896412,10.5,10497020659.284103,47.655,-122.3035,60.0,5.616666666666666
2026-01-20T23:05:38+00:00,SAT-66172,47.24210287739911,51.171523956474815,241437.18229195214,88.34834388540781,-3094332.7159910807,10.5,10496905667.284008,47.655,-122.3035,60.0,5.633333333333334
2026-01-20T23:05:39+00:00,SAT-66172,44.91317193071695,51.522233064836314,241525.29504025384,91.57060442921373,-3207189.91038375,10.5,10496792810.089617,47.655,-122.3035,60.0,5.65
2026-01-20T23:05:40+00:00,SAT-66172,42.551346723893765,51.825721712643684,241616.6214564046,94.72975466034073,-3317836.7146700458,10.5,10496682163.28533,47.655,-122.3035,60.0,5.666666666666667
2026-01-20T23:05:41+00:00,SAT-66172,40.16090871704483,52.08088727992329,241711.09859838584,97.82368779857626,-3426199.3404952525,10.5,10496573800.659504,47.655,-122.3035,60.0,5.683333333333334
2026-01-20T23:05:42+00:00,SAT-66172,37.74656590093077,52.28678701337867,241808.66142301692,100.85034972168346,-3532205.8438097076,10.5,10496467794.15619,47.655,-122.3035,60.0,5.7
2026-01-20T23:05:43+00:00,SAT-66172,35.31339718622043,52.44265555387187,241909.24283847268,103.80774020828706,-3635786.1683999207,10.5,10496364213.8316,47.655,-122.3035,60.0,5.716666666666667
2026-01-20T23:05:44+00:00,SAT-66172,32.86678331780485,52.54791981193717,242012.77375804042,106.69391402697623,-3736872.1840335634,10.5,10496263127.815966,47.655,-122.3035,60.0,5.733333333333333
2026-01-20T23:05:45+00:00,SAT-66172,30.412326297126167,52.602210545439384,242119.18315496334,109.50698331987962,-3835397.769942351,10.5,10496164602.230057,47.655,-122.3035,60.0,5.75
2026-01-20T23:05:46+00:00,SAT-66172,27.955760056790517,52.60537011269705,242228.39811966103,112.24511720975055,-3931298.8010605015,10.5,10496068701.19894,47.655,-122.3035,60.0,5.766666666666667
2026-01-20T23:05:47+00:00,SAT-66172,25.502855855708017,52.557456033214606,242340.34391655822,114.90654404595686,-4024513.2266888013,10.5,10495975486.773312,47.655,-122.3035,60.0,5.783333333333333
2026-01-20T23:05:48+00:00,SAT-66172,23.059326132729165,52.45874018364715,242454.9440431534,117.4895521818863,-4114981.097722632,10.5,10495885018.902277,47.655,-122.3035,60.0,5.8
2026-01-20T23:05:49+00:00,SAT-66172,20.630730767164142,52.30970365929595,242572.12028986283,119.99249099480143,-4202644.602371601,10.5,10495797355.397629,47.655,-122.3035,60.0,5.816666666666666
2026-01-20T23:05:50+00:00,SAT-66172,18.22238947369921,52.11102753702821,242691.79280088164,122.41377167658074,-4287448.093854642,10.5,10495712551.906145,47.655,-122.3035,60.0,5.833333333333333
2026-01-20T23:05:51+00:00,SAT-66172,15.839303615352227,51.863579959771016,242813.88013583372,124.75186780396562,-4369338.1103724735,10.5,10495630661.889627,47.655,-122.3035,60.0,5.85
2026-01-20T23:05:52+00:00,SAT-66172,13.486090043263957,51.568400113419614,242938.29933199022,127.00531716961514,-4448263.439238885,10.5,10495551736.56076,47.655,-122.3035,60.0,5.866666666666666
2026-01-20T23:05:53+00:00,SAT-66172,11.166928725599359,51.226679769012726,243064.96596831406,129.17272155006523,-4524175.108753687,10.5,10495475824.891247,47.655,-122.3035,60.0,5.883333333333334
2026-01-20T23:05:54+00:00,SAT-66172,8.885525114877044,50.83974312680537,243193.7942292733,131.25274767711954,-4597026.422224922,10.5,10495402973.577776,47.655,-122.3035,60.0,5.9
2026-01-20T23:05:55+00:00,SAT-66172,6.645087287097479,50.40902570034027,243324.6969696233,133.2441274084161,-4666772.963942839,10.5,10495333227.036057,47.655,-122.3035,60.0,5.916666666666667
2026-01-20T23:05:56+00:00,SAT-66172,4.448317169180086,49.936052946607425,243457.58577935863,135.14565956996387,-4733372.663713311,10.5,10495266627.336287,47.655,-122.3035,60.0,5.933333333333334
2026-01-20T23:05:57+00:00,SAT-66172,2.2974145209897983,49.422419268701084,243592.37105050305,136.95620886590171,-4796785.7586729815,10.5,10495203214.241327,47.655,-122.3035,60.0,5.95
2026-01-20T23:05:58+00:00,SAT-66172,0.19409198083045048,48.86976793656302,243728.962042812,138.67470716152127,-4856974.838226162,10.5,10495143025.161774,47.655,-122.3035,60.0,5.966666666666667
2026-01-20T23:05:59+00:00,SAT-66172,358.139599137893,48.279772343199426,243867.2669507544,140.30015348508866,-4913904.844108623,10.5,10495086095.155891,47.655,-122.3035,60.0,5.983333333333333
2026-01-20T23:06:00+00:00,SAT-66172,356.1347535666964,47.654118911344995,244007.19297049686,141.83161470282533,-4967543.09402829,10.5,10495032456.905972,47.655,-122.3035,60.0,6.0
2026-01-20T23:06:01+00:00,SAT-66172,354.17997677558276,46.994491848272524,244148.6463675605,143.26822541362114,-5017859.27797764,10.5,10494982140.722023,47.655,-122.3035,60.0,6.016666666666667
2026-01-20T23:06:02+00:00,SAT-66172,352.2753331982201,46.30255985293824,244291.532544373,144.6091879159228,-5064825.457074005,10.5,10494935174.542927,47.655,-122.3035,60.0,6.033333333333333
2026-01-20T23:06:03+00:00,SAT-66172,350.42057056959175,45.579964791311205,244435.7561077878,145.85377276093732,-5108416.082935087,10.5,10494891583.917065,47.655,-122.3035,60.0,6.05
2026-01-20T23:06:04+00:00,SAT-66172,348.6151602884167,44.82831228429426,244581.22093715475,147.0013189800541,-5148608.005644252,10.5,10494851391.994356,47.655,-122.3035,60.0,6.066666666666666
2026-01-20T23:06:05+00:00,SAT-66172,346.85833665896064,44.04916410477987,244727.8302526175,148.05123318247436,-5185380.442145682,10.5,10494814619.557854,47.655,-122.3035,60.0,6.083333333333333
2026-01-20T23:06:06+00:00,SAT-66172,345.14913418326347,43.244032249048324,244875.4866825115,149.00299000329036,-5218714.991938018,10.5,10494781285.008062,47.655,-122.3035,60.0,6.1
2026-01-20T23:06:07+00:00,SAT-66172,343.48642229125403,42.414374512336785,245024.0923312081,149.85613259088822,-5248595.654145263,10.5,10494751404.345854,47.655,-122.3035,60.0,6.116666666666666
2026-01-20T23:06:08+00:00,SAT-66172,341.8689371303695,41.56159139362872,245173.54884744543,150.61027129461894,-5275008.781553467,10.5,10494724991.218447,47.655,-122.3035,60.0,6.133333333333334
2026-01-20T23:06:09+00:00,SAT-66172,340.2953102351161,40.687024163694296,245323.7574913499,151.26508452960144,-5297943.110899792,10.5,10494702056.889101,47.655,-122.3035,60.0,6.15
2026-01-20T23:09:27+00:00,SAT-66172,78.75054626680266,40.14158832159199,240595.99908993026,28.135683826605465,-985430.6614323079,10.5,10499014569.338568,47.655,-122.3035,60.0,9.45
2026-01-20T23:09:28+00:00,SAT-66172,77.17089721692481,41.04749484041416,240624.05974526666,32.06944661626873,-1123207.6741264171,10.5,10498876792.325874,47.655,-122.3035,60.0,9.466666666666667
2026-01-20T23:09:29+00:00,SAT-66172,75.5476796650854,41.93085615369673,240656.04367335862,35.980936517190315,-1260204.5960425672,10.5,10498739795.403957,47.655,-122.3035,60.0,9.483333333333333
2026-01-20T23:09:30+00:00,SAT-66172,73.87951274891249,42.79032645227771,240691.92866071177,39.86742046969321,-1396325.7038700376,10.5,10498603674.29613,47.655,-122.3035,60.0,9.5
2026-01-20T23:09:31+00:00,SAT-66172,72.16512020795902,43.6245033923437,240731.6897680602,43.726187029784896,-1531476.0313708137,10.5,10498468523.96863,47.655,-122.3035,60.0,9.516666666666667
2026-01-20T23:09:32+00:00,SAT-66172,70.40335905255934,44.431930176854664,240775.29935192456,47.55454848409972,-1665561.4434538144,10.5,10498334438.556545,47.655,-122.3035,60.0,9.533333333333333
2026-01-20T23:09:33+00:00,SAT-66172,68.5932513884849,45.21109879392421,240822.72708827938,51.34984333505284,-1798488.7232154948,10.5,10498201511.276785,47.655,-122.3035,60.0,9.55
2026-01-20T23:09:34+00:00,SAT-66172,66.73401918591948,45.960454592737676,240873.9399986989,55.10943824973708,-1930165.6401984582,10.5,10498069834.359802,47.655,-122.3035,60.0,9.566666666666666
2026-01-20T23:09:35+00:00,SAT-66172,64.8251216371467,46.678402358841105,240928.9024784466,58.830730274492524,-2060501.027955051,10.5,10497939498.972046,47.655,-122.3035,60.0,9.583333333333334
2026-01-20T23:09:36+00:00,SAT-66172,62.86629449820988,47.36331405472713,240987.5763267737,62.511148734623916,-2189404.850583503,10.5,10497810595.149416,47.655,-122.3035,60.0,9.6
2026-01-20T23:09:37+00:00,SAT-66172,60.85759058437281,48.01353835881171,241049.9207791117,66.14815775783786,-2316788.29110937,10.5,10497683211.70889,47.655,-122.3035,60.0,9.616666666666667
2026-01-20T23:09:38+00:00,SAT-66172,58.7994202865187,48.627412110054514,241115.8925417822,69.7392578309728,-2442563.8060088037,10.5,10497557436.19399,47.655,-122.3035,60.0,9.633333333333333
2026-01-20T23:09:39+00:00,SAT-66172,56.692590748459935,49.20327369472663,241185.44582825896,73.28198784139995,-2566645.1967070485,10.5,10497433354.803293,47.655,-122.3035,60.0,9.65
2026-01-20T23:09:40+00:00,SAT-66172,54.53834202781543,49.73947836061712,241258.5323974661,76.77392707412366,-2688947.679525342,10.5,10497311052.320475,47.655,-122.3035,60.0,9.666666666666666
2026-01-20T23:09:41+00:00,SAT-66172,52.338378353395456,50.23441535066081,241335.10159406802,80.21269711175901,-2809387.9522261685,10.5,10497190612.047773,47.655,-122.3035,60.0,9.683333333333334
2026-01-20T23:09:42+00:00,SAT-66172,50.094892435870484,50.686526648078946,241415.10039065414,83.59596337246177,-2927884.2478780723,10.5,10497072115.752123,47.655,-122.3035,60.0,9.7
2026-01-20T23:09:43+00:00,SAT-66172,47.81058074364151,51.094327014236114,241498.47343145765,86.92143727974215,-3044356.410851712,10.5,10496955643.589148,47.655,-122.3035,60.0,9.716666666666667
2026-01-20T23:09:44+00:00,SAT-66172,45.488647716002845,51.45642489175923,241585.16307823797,90.18687718454626,-3158725.9291150537,10.5,10496841274.070885,47.655,-122.3035,60.0,9.733333333333333
2026-01-20T23:09:45+00:00,SAT-66172,43.13279719169551,51.7715436257615,241675.10945708334,93.39009099401272,-3270916.026303549,10.5,10496729083.973696,47.655,-122.3035,60.0,9.75
2026-01-20T23:09:46+00:00,SAT-66172,40.74720968441341,52.0385423745734,241768.25050783472,96.52893703520226,-3380851.6919715963,10.5,10496619148.30803,47.655,-122.3035,60.0,9.766666666666667
2026-01-20T23:09:47+00:00,SAT-66172,38.33650483982549,52.25643599558725,241864.52203437113,99.60132542411989,-3488459.7295414913,10.5,10496511540.270458,47.655,-122.3035,60.0,9.783333333333333
2026-01-20T23:09:48+00:00,SAT-66172,35.90568910393384,52.42441316932697,241963.8577562608,102.60522027208788,-3593668.8335799384,10.5,10496406331.16642,47.655,-122.3035,60.0,9.8
2026-01-20T23:09:49+00:00,SAT-66172,33.46008948287481,52.541852032261836,242066.18936261215,105.538640226882,-3696409.6087509347,10.5,10496303590.391249,47.655,-122.3035,60.0,9.816666666666666
2026-01-20T23:09:50+00:00,SAT-66172,31.005275218367718,52.60833264351687,242171.4465664651,108.39966038360534,-3796614.6367426496,10.5,10496203385.363256,47.655,-122.3035,60.0,9.833333333333334
2026-01-20T23:09:51+00:00,SAT-66172,28.546969953048873,52.62364572565653,242279.5571610877,111.18641282823133,-3894218.495304605,10.5,10496105781.504696,47.655,-122.3035,60.0,9.85
2026-01-20T23:09:52+00:00,SAT-66172,26.09095770660906,52.587797268257276,242390.44707681503,113.89708869035624,-3989157.8301437474,10.5,10496010842.169857,47.655,-122.3035,60.0,9.866666666666667
2026-01-20T23:09:53+00:00,SAT-66172,23.642986376642295,52.50100877153419,242504.04043993558,116.52993857849549,-4081371.370170369,10.5,10495918628.62983,47.655,-122.3035,60.0,9.883333333333333
2026-01-20T23:09:54+00:00,SAT-66172,21.208672734903146,52.36371311144466,242620.25963201118,119.08327402638781,-4170799.978153793,10.5,10495829200.021847,47.655,-122.3035,60.0,9.9
2026-01-20T23:09:55+00:00,SAT-66172,18.79341271803389,52.17654621551847,242739.02535064018,121.55546765012845,-4257386.656225851,10.5,10495742613.343775,47.655,-122.3035,60.0,9.916666666666666
2026-01-20T23:09:56+00:00,SAT-66172,16.40230046637908,51.940334931433355,242860.25667037658,123.94495548588266,-4341076.627757487,10.5,10495658923.372242,47.655,-122.3035,60.0,9.933333333333334
2026-01-20T23:09:57+00:00,SAT-66172,14.040058861288665,51.65608162568544,242983.87110598115,126.25023651363902,-4421817.320678594,10.5,10495578182.679321,47.655,-122.3035,60.0,9.95
2026-01-20T23:09:58+00:00,SAT-66172,11.710983615919025,51.32494617506592,243109.7846751974,128.46987415659606,-4499558.419992869,10.5,10495500441.580008,47.655,-122.3035,60.0,9.966666666666667
2026-01-20T23:09:59+00:00,SAT-66172,9.418902000752144,50.94822607507555,243237.91196302293,130.6024960239134,-4574251.858767877,10.5,10495425748.141232,47.655,-122.3035,60.0,9.983333333333333
2026-01-20T23:10:00+00:00,SAT-66172,7.167146488422156,50.527335415572175,243368.1661857241,132.6467963631774,-4645851.904030763,10.5,10495354148.09597,47.655,-122.3035,60.0,10.0
2026-01-20T23:10:01+00:00,SAT-66172,4.958542733682389,50.063783434944746,243500.45925729699,134.60153491398708,-4714315.11661599,10.5,10495285684.883385,47.655,-122.3035,60.0,10.016666666666667
2026-01-20T23:10:02+00:00,SAT-66172,2.7954107672032014,49.55915331797299,243634.70185478454,136.46553773593791,-4779600.380164828,10.5,10495220399.619835,47.655,-122.3035,60.0,10.033333333333333
2026-01-20T23:10:03+00:00,SAT-66172,0.6795777017611192,49.0150817948234,243770.80348441986,138.2376985008824,-4841668.946385787,10.5,10495158331.053614,47.655,-122.3035,60.0,10.05
2026-01-20T23:10:04+00:00,SAT-66172,358.61239998306166,48.43323999203281,243908.67254905804,139.91697795075282,-4900484.416065279,10.5,10495099515.583935,47.655,-122.3035,60.0,10.066666666666666
2026-01-20T23:10:05+00:00,SAT-66172,356.59479312458586,47.81531588091706,244048.2164150676,141.50240493585864,-4956012.775433183,10.5,10495043987.224567,47.655,-122.3035,60.0,10.083333333333334
2026-01-20T23:10:06+00:00,SAT-66172,354.627266831544,47.16299854342171,244189.34148025696,142.9930754458372,-5008222.362222636,10.5,10494991777.637777,47.655,-122.3035,60.0,10.1
2026-01-20T23:10:07+00:00,SAT-66172,352.7099636072475,46.47796438725968,244331.95324083496,144.38815460633128,-5057083.935602138,10.5,10494942916.064398,47.655,-122.3035,60.0,10.116666666666667
2026-01-20T23:10:08+00:00,SAT-66172,350.8426990787536,45.76186533087276,244475.95636036232,145.68687545529366,-5102570.633316544,10.5,10494897429.366684,47.655,-122.3035,60.0,10.133333333333333
2026-01-20T23:10:09+00:00,SAT-66172,349.02500262679416,45.01631893398826,244621.25473748308,146.88853943559425,-5144657.988940268,10.5,10494855342.011059,47.655,-122.3035,60.0,10.15
2026-01-20T23:10:10+00:00,SAT-66172,347.2561571139693,44.242900371435155,244767.75157414682,147.99251604500705,-5183323.919618332,10.5,10494816676.080381,47.655,-122.3035,60.0,10.166666666666666
2026-01-20T23:10:11+00:00,SAT-66172,345.5352368158797,43.44313611970689,244915.3494434824,148.99824374176853,-5218548.757782858,10.5,10494781451.242218,47.655,-122.3035,60.0,10.183333333333334
2026-01-20T23:10:12+00:00,SAT-66172,343.861142888679,42.618499189391585,245063.9503585742,149.90522899432835,-5250315.217871318,10.5,10494749684.78213,47.655,-122.3035,60.0,10.2
2026-01-20T23:10:13+00:00,SAT-66172,342.23263596829315,41.77040573973513,245213.4558402912,150.71304646896002,-5278608.402897447,10.5,10494721391.597103,47.655,-122.3035,60.0,10.216666666666667
2026-01-20T23:10:14+00:00,SAT-66172,340.64836564948166,40.9002128923488,245363.76698530294,151.42133834752633,-5303415.780556516,10.5,10494696584.219444,47.655,-122.3035,60.0,10.233333333333333
2026-01-20T23:10:15+00:00,SAT-66172,339.1068967696223,40.00921757564628,245514.78453341484,152.02981528742146,-5324727.216846547,10.5,10494675272.783154,47.655,-122.3035,60.0,10.25
2026-01-20T23:13:33+00:00,SAT-66172,77.50336469593687,40.88342540134343,240714.25209405532,30.279706169863715,-1060523.3930987318,10.5,10498939476.606901,47.655,-122.3035,60.0,13.55
2026-01-20T23:13:34+00:00,SAT-66172,75.88817006261768,41.771719511635666,240744.45105434206,34.21517602481038,-1198360.1944399448,10.5,10498801639.80556,47.655,-122.3035,60.0,13.566666666666666
2026-01-20T23:13:35+00:00,SAT-66172,74.22823218436271,42.636382553359425,240778.5749898975,38.12685568159273,-1335363.7624090053,10.5,10498664636.23759,47.655,-122.3035,60.0,13.583333333333334
2026-01-20T23:13:36+00:00,SAT-66172,72.52224845624096,43.47602098509659,240816.60017396393,42.01201267735452,-1471438.3945983807,10.5,10498528561.605402,47.655,-122.3035,60.0,13.6
2026-01-20T23:13:37+00:00,SAT-66172,70.76904379865589,44.28918614494324,240858.50015460746,45.86793755908874,-1606489.194502791,10.5,10498393510.805498,47.655,-122.3035,60.0,13.616666666666667
2026-01-20T23:13:38+00:00,SAT-66172,68.96760195533132,45.07437725327609,240904.24577766642,49.691945975323826,-1740422.1447789064,10.5,10498259577.85522,47.655,-122.3035,60.0,13.633333333333333
2026-01-20T23:13:39+00:00,SAT-66172,67.1170998202559,45.830045714175306,240953.8052117858,53.481380838684125,-1873144.1829873628,10.5,10498126855.817013,47.655,-122.3035,60.0,13.65
2026-01-20T23:13:40+00:00,SAT-66172,65.21694444920995,46.55460089245254,241007.14397560892,57.23361446532439,-2004563.2765248087,10.5,10497995436.723475,47.655,-122.3035,60.0,13.666666666666666
2026-01-20T23:13:41+00:00,SAT-66172,63.266812206828824,47.24641753048545,241064.22496710232,60.9460510587502,-2134588.509617801,10.5,10497865411.490383,47.655,-122.3035,60.0,13.683333333333334
2026-01-20T23:13:42+00:00,SAT-66172,61.26668924543293,47.903844951838934,241125.00849535826,64.61612822488209,-2263130.1363867596,10.5,10497736869.863613,47.655,-122.3035,60.0,13.7
2026-01-20T23:13:43+00:00,SAT-66172,59.21691228640406,48.52521814939371,241189.45231390785,68.24131950294118,-2390099.6694882913,10.5,10497609900.330511,47.655,-122.3035,60.0,13.716666666666667
2026-01-20T23:13:44+00:00,SAT-66172,57.1182083259905,49.10887083056174,241257.5116565588,71.81913585725718,-2515409.9323646105,10.5,10497484590.067635,47.655,-122.3035,60.0,13.733333333333333
2026-01-20T23:13:45+00:00,SAT-66172,54.971731682219655,49.653150402084414,241329.13927472042,75.34712823056454,-2638975.1486707763,10.5,10497361024.85133,47.655,-122.3035,60.0,13.75
2026-01-20T23:13:46+00:00,SAT-66172,52.77909649219781,50.15643481516455,241404.28547727573,78.8228888861254,-2760710.9892815137,10.5,10497239289.01072,47.655,-122.3035,60.0,13.766666666666667
2026-01-20T23:13:47+00:00,SAT-66172,50.54240266372728,50.61715107363202,241482.8981717915,82.24405338772131,-2880534.6416388955,10.5,10497119465.35836,47.655,-122.3035,60.0,13.783333333333333
2026-01-20T23:13:48+00:00,SAT-66172,48.264253152416174,51.03379511528242,241564.92290770353,85.60830256240615,-2998364.8784962585,10.5,10497001635.121504,47.655,-122.3035,60.0,13.8
2026-01-20T23:13:49+00:00,SAT-66172,45.94776051538327,51.40495265458935,241650.30292145908,88.91336401752179,-3114122.1110505015,10.5,10496885877.88895,47.655,-122.3035,60.0,13.816666666666666
2026-01-20T23:13:50+00:00,SAT-66172,43.59654092483657,51.72932046156901,241738.97918317255,92.15701388832348,-3227728.450151326,10.5,10496772271.549849,47.655,-122.3035,60.0,13.833333333333334
2026-01-20T23:13:51+00:00,SAT-66172,41.214694206443944,52.00572745594473,241830.89044502383,95.33707807989025,-3339107.749798187,10.5,10496660892.250202,47.655,-122.3035,60.0,13.85
2026-01-20T23:13:52+00:00,SAT-66172,38.80676906692891,52.23315491646619,241925.97329089552,98.4514346154741,-3448185.6893894174,10.5,10496551814.31061,47.655,-122.3035,60.0,13.866666666666667
2026-01-20T23:13:53+00:00,SAT-66172,36.37771337032284,52.410755067697586,242024.16218835203,101.4980142158544,-3554889.7940136683,10.5,10496445110.205986,47.655,-122.3035,60.0,13.883333333333333
2026-01-20T23:13:54+00:00,SAT-66172,33.932810242972444,52.53786729945571,242125.38954119664,104.47480234431666,-3659149.5060737147,10.5,10496340850.493927,47.655,-122.3035,60.0,13.9
2026-01-20T23:13:55+00:00,SAT-66172,31.477601592845463,52.61403133316909,242229.58574406803,107.37983986852531,-3760896.2084680456,10.5,10496239103.791533,47.655,-122.3035,60.0,13.916666666666666
2026-01-20T23:13:56+00:00,SAT-66172,29.017801548554345,52.63899674276346,242336.67923769692,110.21122514980313,-3860063.2977662594,10.5,10496139936.702234,47.655,-122.3035,60.0,13.933333333333334
2026-01-20T23:13:57+00:00,SAT-66172,26.55920297399622,52.612728387534304,242446.5965662463,112.96711474930453,-3956586.208942246,10.5,10496043413.791058,47.655,-122.3035,60.0,13.95
2026-01-20T23:13:58+00:00,SAT-66172,24.107580791832163,52.53540749341218,242559.2624353563,115.64572474467069,-4050402.4614890153,10.5,10495949597.538511,47.655,-122.3035,60.0,13.966666666666667
2026-01-20T23:13:59+00:00,SAT-66172,21.66859604239121,52.40742832551311,242674.59977150164,118.24533101690952,-4141451.669466448,10.5,10495858548.330534,47.655,-122.3035,60.0,13.983333333333333
2026-01-20T23:14:00+00:00,SAT-66172,19.24770458528856,52.22939060453786,242792.52978163582,120.7642721711712,-4229675.64379921,10.5,10495770324.356201,47.655,-122.3035,60.0,14.0
2026-01-20T23:14:01+00:00,SAT-66172,16.850073927789033,52.00208801168596,242912.9720157479,123.20094835101052,-4315018.350747204,10.5,10495684981.649252,47.655,-122.3035,60.0,14.016666666666667
2026-01-20T23:14:02+00:00,SAT-66172,14.480511209068705,51.72649330313039,243035.84442823663,125.55382292769305,-4397425.971072217,10.5,10495602574.028927,47.655,-122.3035,60.0,14.033333333333333
2026-01-20T23:14:03+00:00,SAT-66172,12.14340444455674,51.40374067462163,243161.06344096985,127.82142421548974,-4476846.960114795,10.5,10495523153.039885,47.655,-122.3035,60.0,14.05
2026-01-20T23:14:04+00:00,SAT-66172,9.842678326316896,51.035106095608306,243288.54400805407,130.00234445816483,-4553232.012296756,10.5,10495446767.987703,47.655,-122.3035,60.0,14.066666666666666
2026-01-20T23:14:05+00:00,SAT-66172,7.5817650402590715,50.62198636978102,243418.1996795937,132.0952422003861,-4626534.144178017,10.5,10495373465.855822,47.655,-122.3035,60.0,14.083333333333334
2026-01-20T23:14:06+00:00,SAT-66172,5.363589635130363,50.16587764429493,243549.94266781487,134.09884119276737,-4696708.656106544,10.5,10495303291.343893,47.655,-122.3035,60.0,14.1
2026-01-20T23:14:07+00:00,SAT-66172,3.190568921443974,49.668354049702735,243683.68391209783,136.01193270772453,-4763713.213329429,10.5,10495236286.78667,47.655,-122.3035,60.0,14.116666666666667
2026-01-20T23:14:08+00:00,SAT-66172,1.064622242535636,49.13104704339268,243819.33314631833,137.8333745651896,-4827507.811869272,10.5,10495172492.188131,47.655,-122.3035,60.0,14.133333333333333
2026-01-20T23:14:09+00:00,SAT-66172,358.98719224212067,48.555625943964486,243956.79896521798,139.5620925931612,-4888054.829678846,10.5,10495111945.17032,47.655,-122.3035,60.0,14.15
2026-01-20T23:14:10+00:00,SAT-66172,356.95927349906145,47.943780009082126,244095.9888922309,141.19707969293805,-4945318.993901606,10.5,10495054681.006098,47.655,-122.3035,60.0,14.166666666666666
2026-01-20T23:14:11+00:00,SAT-66172,354.98144697231606,47.29720231340273,244236.809446378,142.73739790322293,-4999267.453165352,10.5,10495000732.546835,47.655,-122.3035,60.0,14.183333333333334
2026-01-20T23:14:12+00:00,SAT-66172,353.05391823504686,46.617575555120546,244379.16621122014,144.18217670782425,-5049869.718310774,10.5,10494950130.281689,47.655,-122.3035,60.0,14.2
2026-01-20T23:14:13+00:00,SAT-66172,351.1765577788516,45.906559856702046,244522.96390212342,145.53061502966614,-5097097.732230123,10.5,10494902902.26777,47.655,-122.3035,60.0,14.216666666666667
2026-01-20T23:14:14+00:00,SAT-66172,349.34894181942286,45.165782515896815,244668.10643551298,146.78197937563215,-5140925.804891788,10.5,10494859074.195108,47.655,-122.3035,60.0,14.233333333333333
2026-01-20T23:14:15+00:00,SAT-66172,347.5703924180066,44.396829638981295,244814.49699627698,147.93560575267554,-5181330.680450584,10.5,10494818669.31955,47.655,-122.3035,60.0,14.25
2026-01-20T23:14:16+00:00,SAT-66172,345.8400159104536,43.60123950842072,244962.03810708097,148.99089887525668,-5218291.509488858,10.5,10494781708.49051,47.655,-122.3035,60.0,14.266666666666667
2026-01-20T23:14:17+00:00,SAT-66172,344.1567389814621,42.78049754084671,245110.63169689255,149.94733099225797,-5251789.807930088,10.5,10494748210.19207,47.655,-122.3035,60.0,14.283333333333333
2026-01-20T23:14:18+00:00,SAT-66172,342.51934191931974,41.936032665526255,245260.1791683355,150.80444417574572,-5281809.537200999,10.5,10494718190.4628,47.655,-122.3035,60.0,14.3
2026-01-20T23:14:19+00:00,SAT-66172,340.9264887427924,41.06921492616304,245410.5814673268,151.56184800722795,-5308337.0231945375,10.5,10494691662.976805,47.655,-122.3035,60.0,14.316666666666666
2026-01-20T23:14:20+00:00,SAT-66172,339.37675414327646,40.18135415612249,245561.73915040598,152.21922036176085,-5331360.983732583,10.5,10494668639.016268,47.655,-122.3035,60.0,14.333333333333334
