satellites_20260120_184412/SAT-51991.csv

timestamp,satellite,azimuth_deg,elevation_deg,distance_km,relative_velocity_kms,doppler_shift_hz,tx_freq_ghz,rx_freq_hz,ue_lat,ue_lon,ue_alt_m,time_minutes
2026-01-20T23:00:36+00:00,SAT-51991,209.22309142824022,40.04962129042739,1233.2780487227121,-4.976094931324342,174283.89335566803,10.5,10500174283.893356,47.655,-122.3035,60.0,0.6
2026-01-20T23:00:37+00:00,SAT-51991,209.27973379025937,40.293981722314875,1228.3152233778712,-4.9571337312749995,173619.79192414338,10.5,10500173619.791924,47.655,-122.3035,60.0,0.6166666666666667
2026-01-20T23:00:38+00:00,SAT-51991,209.33756231204717,40.54005770373495,1223.37130866988,-4.937936250606259,172947.41494586138,10.5,10500172947.414946,47.655,-122.3035,60.0,0.6333333333333333
2026-01-20T23:00:39+00:00,SAT-51991,209.39660448990278,40.78786171005929,1218.4465402492751,-4.918499611627865,172266.66163193667,10.5,10500172266.661633,47.655,-122.3035,60.0,0.65
2026-01-20T23:00:40+00:00,SAT-51991,209.45688866856418,41.03740614531491,1213.5411566366115,-4.898820893232607,171577.42967283845,10.5,10500171577.429672,47.655,-122.3035,60.0,0.6666666666666666
2026-01-20T23:00:41+00:00,SAT-51991,209.51844407350208,41.28870333220752,1208.6553992657607,-4.8788971868848465,170879.61719934558,10.5,10500170879.617199,47.655,-122.3035,60.0,0.6833333333333333
2026-01-20T23:00:42+00:00,SAT-51991,209.58130084540684,41.541765504519724,1203.7895124713743,-4.858725505428621,170173.1195886206,10.5,10500170173.119589,47.655,-122.3035,60.0,0.7
2026-01-20T23:00:43+00:00,SAT-51991,209.6454900750593,41.796604794445564,1198.9437435672935,-4.838302892766804,169457.83330563785,10.5,10500169457.833305,47.655,-122.3035,60.0,0.7166666666666667
2026-01-20T23:00:44+00:00,SAT-51991,209.7110438412649,42.05323322503048,1194.1183428155744,-4.8176263778392565,168733.65429130374,10.5,10500168733.654291,47.655,-122.3035,60.0,0.7333333333333333
2026-01-20T23:00:45+00:00,SAT-51991,209.77799524995172,42.31166269986644,1189.3135634414093,-4.796692943951015,168000.47688819995,10.5,10500168000.476889,47.655,-122.3035,60.0,0.75
2026-01-20T23:00:46+00:00,SAT-51991,209.84637847465885,42.571904990633136,1184.529661678642,-4.775499570318992,167258.19529572493,10.5,10500167258.195295,47.655,-122.3035,60.0,0.7666666666666667
2026-01-20T23:00:47+00:00,SAT-51991,209.91622879952567,42.833971726305116,1179.7668967738439,-4.754043209294841,166506.70277234205,10.5,10500166506.702772,47.655,-122.3035,60.0,0.7833333333333333
2026-01-20T23:00:48+00:00,SAT-51991,209.98758266398102,43.097874380595364,1175.0255310131072,-4.732320832347412,165745.89324607968,10.5,10500165745.893246,47.655,-122.3035,60.0,0.8
2026-01-20T23:00:49+00:00,SAT-51991,210.0604777102633,43.36362426137524,1170.3058297029795,-4.710329368752386,164975.65916718307,10.5,10500164975.659166,47.655,-122.3035,60.0,0.8166666666666667
2026-01-20T23:00:50+00:00,SAT-51991,210.1349528323263,43.631232496170114,1165.6080612125436,-4.688065744390282,164195.89286698453,10.5,10500164195.892866,47.655,-122.3035,60.0,0.8333333333333334
2026-01-20T23:00:51+00:00,SAT-51991,210.21104822766617,43.90071001916255,1160.9324969768052,-4.665526879109814,163406.48646555693,10.5,10500163406.486465,47.655,-122.3035,60.0,0.85
2026-01-20T23:00:52+00:00,SAT-51991,210.28880545168838,44.17206755744143,1156.2794115027061,-4.642709670826198,162607.33131476937,10.5,10500162607.331314,47.655,-122.3035,60.0,0.8666666666666667
2026-01-20T23:00:53+00:00,SAT-51991,210.36826747444502,44.445315615693076,1151.6490823910021,-4.619611022353385,161798.3189380653,10.5,10500161798.318937,47.655,-122.3035,60.0,0.8833333333333333
2026-01-20T23:00:54+00:00,SAT-51991,210.44947874067014,44.7204644617442,1147.041790331375,-4.596227817515946,160979.34019379978,10.5,10500160979.340195,47.655,-122.3035,60.0,0.9
2026-01-20T23:00:55+00:00,SAT-51991,210.53248523237286,44.99752411002256,1142.4578191213725,-4.572556967588543,160150.28690174624,10.5,10500160150.286901,47.655,-122.3035,60.0,0.9166666666666666
2026-01-20T23:00:56+00:00,SAT-51991,210.61733453543815,45.27650430704831,1137.8974556390308,-4.548595331827644,159311.04905978078,10.5,10500159311.049059,47.655,-122.3035,60.0,0.9333333333333333
2026-01-20T23:00:57+00:00,SAT-51991,210.7040759081254,45.557414511414514,1133.3609898947548,-4.524339796940569,158461.51762722453,10.5,10500158461.517628,47.655,-122.3035,60.0,0.95
2026-01-20T23:00:58+00:00,SAT-51991,210.79276035453069,45.84026387769186,1128.8487150039393,-4.499787255813701,157601.58377981567,10.5,10500157601.58378,47.655,-122.3035,60.0,0.9666666666666667
2026-01-20T23:00:59+00:00,SAT-51991,210.88344070146613,46.12506123831832,1124.3609271808077,-4.474934573329244,156731.1377124673,10.5,10500156731.137712,47.655,-122.3035,60.0,0.9833333333333333
2026-01-20T23:01:00+00:00,SAT-51991,210.97617167859602,46.411815082432625,1119.897925766341,-4.449778666945374,155850.07146152563,10.5,10500155850.07146,47.655,-122.3035,60.0,1.0
2026-01-20T23:01:01+00:00,SAT-51991,211.07101000444402,46.70053353892092,1115.4600131758407,-4.424316391634768,154958.27487483047,10.5,10500154958.274876,47.655,-122.3035,60.0,1.0166666666666666
2026-01-20T23:01:02+00:00,SAT-51991,211.16801447444772,46.99122435117216,1111.04749496125,-4.39854467418042,154055.64031532244,10.5,10500154055.640316,47.655,-122.3035,60.0,1.0333333333333334
2026-01-20T23:01:03+00:00,SAT-51991,211.26724605661454,47.283894859480355,1106.6606797395343,-4.372460424821877,153142.05956652085,10.5,10500153142.059566,47.655,-122.3035,60.0,1.05
2026-01-20T23:01:04+00:00,SAT-51991,211.36876799032905,47.57855197676774,1102.2998792091785,-4.346060538834281,152217.42388782828,10.5,10500152217.423887,47.655,-122.3035,60.0,1.0666666666666667
2026-01-20T23:01:05+00:00,SAT-51991,211.472645890452,47.87520216323503,1097.9654081651145,-4.319341994070994,151281.62743088565,10.5,10500151281.62743,47.655,-122.3035,60.0,1.0833333333333333
2026-01-20T23:01:06+00:00,SAT-51991,211.57894785942761,48.173851406482115,1093.657584416361,-4.292301701403534,150334.56200134664,10.5,10500150334.562002,47.655,-122.3035,60.0,1.1
2026-01-20T23:01:07+00:00,SAT-51991,211.68774460182252,48.474505190377,1089.3767288528281,-4.264936659560006,149376.12248197405,10.5,10500149376.122482,47.655,-122.3035,60.0,1.1166666666666667
2026-01-20T23:01:08+00:00,SAT-51991,211.7991095490483,48.77716847321391,1085.1231653576933,-4.237243860918438,148406.20353312424,10.5,10500148406.203533,47.655,-122.3035,60.0,1.1333333333333333
2026-01-20T23:01:09+00:00,SAT-51991,211.91311898861764,49.081845658239786,1080.8972208137375,-4.209220297590421,147424.69980582173,10.5,10500147424.699806,47.655,-122.3035,60.0,1.15
2026-01-20T23:01:10+00:00,SAT-51991,212.02985220069792,49.38854056311662,1076.6992251036072,-4.18086304674232,146431.50893006907,10.5,10500146431.50893,47.655,-122.3035,60.0,1.1666666666666667
2026-01-20T23:01:11+00:00,SAT-51991,212.14939160473986,49.69725639416178,1072.5295110249897,-4.1521691715513676,145426.52804591024,10.5,10500145426.528046,47.655,-122.3035,60.0,1.1833333333333333
2026-01-20T23:01:12+00:00,SAT-51991,212.2718229116628,50.007995712055354,1068.3884143045623,-4.123135760598036,144409.65518311795,10.5,10500144409.655184,47.655,-122.3035,60.0,1.2
2026-01-20T23:01:13+00:00,SAT-51991,212.39723528577946,50.320760398760164,1064.2762735726594,-4.09375998552242,143380.79128056453,10.5,10500143380.79128,47.655,-122.3035,60.0,1.2166666666666666
2026-01-20T23:01:14+00:00,SAT-51991,212.5257215178627,50.63555162721424,1060.1934302804316,-4.064038991643159,142339.83635523333,10.5,10500142339.836355,47.655,-122.3035,60.0,1.2333333333333334
2026-01-20T23:01:15+00:00,SAT-51991,212.6573782048391,50.952369821133885,1056.1402287260994,-4.0339700555646285,141286.6950222897,10.5,10500141286.695023,47.655,-122.3035,60.0,1.25
2026-01-20T23:01:16+00:00,SAT-51991,212.7923059450838,51.271214625077434,1052.1170159240162,-4.003550385684305,140221.26950800474,10.5,10500140221.269508,47.655,-122.3035,60.0,1.2666666666666666
2026-01-20T23:01:17+00:00,SAT-51991,212.93060953858603,51.59208485727006,1048.124141672694,-3.9727773349294857,139143.4671006954,10.5,10500139143.4671,47.655,-122.3035,60.0,1.2833333333333334
2026-01-20T23:01:18+00:00,SAT-51991,213.0723982062366,51.91497847700039,1044.1619584106575,-3.9416482825145054,138053.1960093616,10.5,10500138053.196009,47.655,-122.3035,60.0,1.3
2026-01-20T23:01:19+00:00,SAT-51991,213.21778581823327,52.23989254088306,1040.2308211902298,-3.9101606093754135,136950.3645033053,10.5,10500136950.364504,47.655,-122.3035,60.0,1.3166666666666667
2026-01-20T23:01:20+00:00,SAT-51991,213.36689113520137,52.5668231547233,1036.3310876758126,-3.8783118446356206,135834.88604197645,10.5,10500135834.886042,47.655,-122.3035,60.0,1.3333333333333333
2026-01-20T23:01:21+00:00,SAT-51991,213.51983806955639,52.89576543515066,1032.4631179960961,-3.8460995157534783,134706.67402650777,10.5,10500134706.674026,47.655,-122.3035,60.0,1.35
2026-01-20T23:01:22+00:00,SAT-51991,213.67675595714005,53.22671345658739,1028.6272747457178,-3.8135212508346763,133565.64538312735,10.5,10500133565.645384,47.655,-122.3035,60.0,1.3666666666666667
2026-01-20T23:01:23+00:00,SAT-51991,213.8377798496615,53.559660204143476,1024.8239228848854,-3.7805747063274286,132411.71803073844,10.5,10500132411.71803,47.655,-122.3035,60.0,1.3833333333333333
2026-01-20T23:01:24+00:00,SAT-51991,214.00305082229892,53.89459751766131,1021.0534297111083,-3.7472576728617852,131244.8145878598,10.5,10500131244.814589,47.655,-122.3035,60.0,1.4
2026-01-20T23:01:25+00:00,SAT-51991,214.17271630519588,54.23151604211831,1017.316164725374,-3.713567983985304,130064.85917616278,10.5,10500130064.859177,47.655,-122.3035,60.0,1.4166666666666667
2026-01-20T23:01:26+00:00,SAT-51991,214.3469304319295,54.57040516713276,1013.6124995893462,-3.679503556731186,128871.77884133914,10.5,10500128871.778841,47.655,-122.3035,60.0,1.4333333333333333
2026-01-20T23:01:27+00:00,SAT-51991,214.525854411887,54.91125296675542,1009.9428080420995,-3.645062402210716,127665.50392409312,10.5,10500127665.503923,47.655,-122.3035,60.0,1.45
2026-01-20T23:01:28+00:00,SAT-51991,214.70965692708825,55.25404613685205,1006.3074658062947,-3.610242629852202,126445.9682086069,10.5,10500126445.968208,47.655,-122.3035,60.0,1.4666666666666666
2026-01-20T23:01:29+00:00,SAT-51991,214.89851455485825,55.59876992933099,1002.7068504901221,-3.575042442240759,125213.1087418082,10.5,10500125213.108742,47.655,-122.3035,60.0,1.4833333333333334
2026-01-20T23:01:30+00:00,SAT-51991,215.0926122177871,55.94540808207243,999.141341494394,-3.539460120878506,123966.86533463198,10.5,10500123966.865335,47.655,-122.3035,60.0,1.5
2026-01-20T23:01:31+00:00,SAT-51991,215.29214366228624,56.29394274332929,995.6113199338378,-3.5034940933411027,122707.18291412648,10.5,10500122707.182915,47.655,-122.3035,60.0,1.5166666666666666
2026-01-20T23:01:32+00:00,SAT-51991,215.49731197252024,56.64435439825741,992.1171684914123,-3.4671428599783582,121434.00895619848,10.5,10500121434.008957,47.655,-122.3035,60.0,1.5333333333333334
2026-01-20T23:01:33+00:00,SAT-51991,215.70833011427175,56.99662178369202,988.6592713457271,-3.4304050633713534,120147.29591829563,10.5,10500120147.295918,47.655,-122.3035,60.0,1.55
2026-01-20T23:01:34+00:00,SAT-51991,215.92542151928657,57.350721804734135,985.2380140291915,-3.3932794441288876,118846.99969121077,10.5,10500118846.999691,47.655,-122.3035,60.0,1.5666666666666667
2026-01-20T23:01:35+00:00,SAT-51991,216.14882070619169,57.70662944158988,981.8537833302469,-3.3557648765421404,117533.08084785934,10.5,10500117533.080849,47.655,-122.3035,60.0,1.5833333333333333
2026-01-20T23:01:36+00:00,SAT-51991,216.37877394570893,58.06431765423974,978.5069671600422,-3.3178603720574684,116205.50476491112,10.5,10500116205.504765,47.655,-122.3035,60.0,1.6
2026-01-20T23:01:37+00:00,SAT-51991,216.61553997145907,58.423757281392504,975.1979544156436,-3.279565055734135,114864.24079824056,10.5,10500114864.240799,47.655,-122.3035,60.0,1.6166666666666667
2026-01-20T23:01:38+00:00,SAT-51991,216.85939073775026,58.78491693027225,971.9271348667247,-3.2408782140730064,113509.26395808985,10.5,10500113509.263958,47.655,-122.3035,60.0,1.6333333333333333
2026-01-20T23:01:39+00:00,SAT-51991,217.110612232973,59.147762864387744,968.694898994556,-3.201799257366737,112140.55359041333,10.5,10500112140.55359,47.655,-122.3035,60.0,1.65
2026-01-20T23:01:40+00:00,SAT-51991,217.36950534642162,59.51225887952501,965.5016378685423,-3.1623277522222804,110758.09451595324,10.5,10500110758.094517,47.655,-122.3035,60.0,1.6666666666666667
2026-01-20T23:01:41+00:00,SAT-51991,217.6363867978048,59.878366174968626,962.3477429903257,-3.122463429670168,109361.87731426106,10.5,10500109361.877314,47.655,-122.3035,60.0,1.6833333333333333
2026-01-20T23:01:42+00:00,SAT-51991,217.91159013235122,60.24604321674175,959.2336061298015,-3.0822061483143854,107951.89703305026,10.5,10500107951.897034,47.655,-122.3035,60.0,1.7
2026-01-20T23:01:43+00:00,SAT-51991,218.19546678220513,60.61524558683034,956.1596191978826,-3.0415559651375497,106528.15566809314,10.5,10500106528.155668,47.655,-122.3035,60.0,1.7166666666666666
2026-01-20T23:01:44+00:00,SAT-51991,218.48838720865228,60.98592583012068,953.126174048652,-3.000513085187406,105090.66040102905,10.5,10500105090.6604,47.655,-122.3035,60.0,1.7333333333333334
2026-01-20T23:01:45+00:00,SAT-51991,218.79074212002584,61.35803328409437,950.1336623316919,-2.9590778837695155,103639.4243766463,10.5,10500103639.424377,47.655,-122.3035,60.0,1.75
2026-01-20T23:01:46+00:00,SAT-51991,219.10294377727806,61.731513898673406,947.1824753222791,-2.9172509178349335,102174.46710172677,10.5,10500102174.467102,47.655,-122.3035,60.0,1.7666666666666666
2026-01-20T23:01:47+00:00,SAT-51991,219.4254273925807,62.10631004403324,944.273003740225,-2.8750329339287695,100695.81472343804,10.5,10500100695.814724,47.655,-122.3035,60.0,1.7833333333333334
2026-01-20T23:01:48+00:00,SAT-51991,219.7586526272403,62.48236030486273,941.4056375607867,-2.832424849048722,99203.49935891843,10.5,10500099203.49936,47.655,-122.3035,60.0,1.8
2026-01-20T23:01:49+00:00,SAT-51991,220.10310519246812,62.85959925626268,938.5807658446687,-2.789427783483321,97697.56024541108,10.5,10500097697.560246,47.655,-122.3035,60.0,1.8166666666666667
2026-01-20T23:01:50+00:00,SAT-51991,220.4592985658732,63.23795722653611,935.7987765352747,-2.746043035143014,96178.04284123001,10.5,10500096178.042841,47.655,-122.3035,60.0,1.8333333333333333
2026-01-20T23:01:51+00:00,SAT-51991,220.82777582409793,63.617360037723344,933.0600562815588,-2.7022721352125214,94645.00077494101,10.5,10500094645.000774,47.655,-122.3035,60.0,1.85
2026-01-20T23:01:52+00:00,SAT-51991,221.20911160944607,63.99772873314335,930.3649902053735,-2.6581167811529833,93098.49349881354,10.5,10500093098.4935,47.655,-122.3035,60.0,1.8666666666666667
2026-01-20T23:01:53+00:00,SAT-51991,221.60391422196784,64.37897927339444,927.7139617356369,-2.613578888362124,91538.5880981779,10.5,10500091538.588099,47.655,-122.3035,60.0,1.8833333333333333
2026-01-20T23:01:54+00:00,SAT-51991,222.01282785986967,64.76102221485473,925.1073523909771,-2.5686605987029316,89965.35959013613,10.5,10500089965.35959,47.655,-122.3035,60.0,1.9
2026-01-20T23:01:55+00:00,SAT-51991,222.4365350108311,65.14376236293543,922.5455415538706,-2.523364252804039,88378.88995340373,10.5,10500088378.889954,47.655,-122.3035,60.0,1.9166666666666667
2026-01-20T23:01:56+00:00,SAT-51991,222.87575899520746,65.52709839223257,920.0289062724075,-2.4776924179367166,86779.26910468016,10.5,10500086779.269104,47.655,-122.3035,60.0,1.9333333333333333
2026-01-20T23:01:57+00:00,SAT-51991,223.33126667595604,65.91092243898298,917.5578210342519,-2.4316478681727034,85166.59420369203,10.5,10500085166.594204,47.655,-122.3035,60.0,1.95
2026-01-20T23:01:58+00:00,SAT-51991,223.80387133277608,66.29511965584733,915.1326575603944,-2.385233618957762,83540.97086410526,10.5,10500083540.970863,47.655,-122.3035,60.0,1.9666666666666666
2026-01-20T23:01:59+00:00,SAT-51991,224.29443571426094,66.67956773427203,912.7537845644205,-2.338452908699892,81902.51250866646,10.5,10500081902.512508,47.655,-122.3035,60.0,1.9833333333333334
2026-01-20T23:02:00+00:00,SAT-51991,224.80387526071007,67.06413638296425,910.4215675301438,-2.2913092073845474,80251.34067094425,10.5,10500080251.340672,47.655,-122.3035,60.0,2.0
2026-01-20T23:02:01+00:00,SAT-51991,225.33316150179567,67.44868676298431,908.1363684806456,-2.243806193906762,78587.58420140443,10.5,10500078587.584202,47.655,-122.3035,60.0,2.0166666666666666
2026-01-20T23:02:02+00:00,SAT-51991,225.88332561772856,67.83307087031616,905.8985457699225,-2.195947826716746,76911.38174171757,10.5,10500076911.381742,47.655,-122.3035,60.0,2.033333333333333
2026-01-20T23:02:03+00:00,SAT-51991,226.45546217765067,68.21713087759086,903.7084538040771,-2.1477382612247733,75222.87883192886,10.5,10500075222.878832,47.655,-122.3035,60.0,2.05
2026-01-20T23:02:04+00:00,SAT-51991,227.05073300481163,68.60069840480747,901.5664428448822,-2.0991818991469073,73522.22963875403,10.5,10500073522.22964,47.655,-122.3035,60.0,2.066666666666667
2026-01-20T23:02:05+00:00,SAT-51991,227.67037117708867,68.9835937365655,899.4728587641331,-2.0502834047973795,71809.59752620755,10.5,10500071809.597527,47.655,-122.3035,60.0,2.0833333333333335
2026-01-20T23:02:06+00:00,SAT-51991,228.31568512661806,69.36562497614848,897.4280427817484,-2.0010476442584997,70085.15292507541,10.5,10500070085.152925,47.655,-122.3035,60.0,2.1
2026-01-20T23:02:07+00:00,SAT-51991,228.98806277136325,69.74658711738614,895.4323312645414,-1.9514797601945424,68349.07595321392,10.5,10500068349.075953,47.655,-122.3035,60.0,2.1166666666666667
2026-01-20T23:02:08+00:00,SAT-51991,229.68897566189852,70.12626105437103,893.4860554503739,-1.9015851063518747,66601.5541214672,10.5,10500066601.554121,47.655,-122.3035,60.0,2.1333333333333333
2026-01-20T23:02:09+00:00,SAT-51991,230.41998302397857,70.50441249860286,891.5895412376391,-1.8513693014636652,64842.78422163804,10.5,10500064842.784222,47.655,-122.3035,60.0,2.15
2026-01-20T23:02:10+00:00,SAT-51991,231.18273563826054,70.88079082188949,889.7431089209794,-1.8008381939253122,63072.97108927196,10.5,10500063072.971088,47.655,-122.3035,60.0,2.1666666666666665
2026-01-20T23:02:11+00:00,SAT-51991,231.97897940160487,71.25512780456263,887.9470729622377,-1.749997863059651,61292.32764797017,10.5,10500061292.327648,47.655,-122.3035,60.0,2.183333333333333
2026-01-20T23:02:12+00:00,SAT-51991,232.81055842305614,71.62713629329014,886.2017417601462,-1.6988546481416433,59501.07592595693,10.5,10500059501.075926,47.655,-122.3035,60.0,2.2
2026-01-20T23:02:13+00:00,SAT-51991,233.67941747187467,71.99650877366398,884.5074173910663,-1.6474150999679513,57699.44535984121,10.5,10500057699.44536,47.655,-122.3035,60.0,2.216666666666667
2026-01-20T23:02:14+00:00,SAT-51991,234.5876034974474,72.36291584232693,882.8643953980315,-1.5956860321164967,55887.674589943206,10.5,10500055887.67459,47.655,-122.3035,60.0,2.2333333333333334
2026-01-20T23:02:15+00:00,SAT-51991,235.53726597032733,72.7260046037445,881.2729645286674,-1.54367446651434,54066.00955385132,10.5,10500054066.009554,47.655,-122.3035,60.0,2.25
2026-01-20T23:02:16+00:00,SAT-51991,236.53065562738755,73.08539697627234,879.733406527397,-1.4913876680750213,52234.704699568276,10.5,10500052234.7047,47.655,-122.3035,60.0,2.2666666666666666
2026-01-20T23:02:17+00:00,SAT-51991,237.57012123215333,73.44068793937126,878.2459958931037,-1.438833124758428,50394.022287123364,10.5,10500050394.022287,47.655,-122.3035,60.0,2.283333333333333
2026-01-20T23:02:18+00:00,SAT-51991,238.6581038029379,73.79144372841033,876.810999656678,-1.3860185538522665,48544.23260857615,10.5,10500048544.232609,47.655,-122.3035,60.0,2.3
2026-01-20T23:02:19+00:00,SAT-51991,239.79712771725673,74.1372000092674,875.4286771523026,-1.3329518803659854,46685.61323128032,10.5,10500046685.613232,47.655,-122.3035,60.0,2.316666666666667
2026-01-20T23:02:20+00:00,SAT-51991,240.989787968678,74.47746006169027,874.0992798102843,-1.2796412566176953,44818.449683900326,10.5,10500044818.449684,47.655,-122.3035,60.0,2.3333333333333335
2026-01-20T23:02:21+00:00,SAT-51991,242.23873281005785,74.811693029041,872.8230509303509,-1.2260950384451617,42943.0346232199,10.5,10500042943.034624,47.655,-122.3035,60.0,2.35
2026-01-20T23:02:22+00:00,SAT-51991,243.5466408598778,75.13933228514702,871.6002254786748,-1.1723217925772782,41059.66809232213,10.5,10500041059.668093,47.655,-122.3035,60.0,2.3666666666666667
2026-01-20T23:02:23+00:00,SAT-51991,244.916191734807,75.4597740038799,870.4310298775445,-1.118330280393145,39168.65695176368,10.5,10500039168.656952,47.655,-122.3035,60.0,2.3833333333333333
2026-01-20T23:02:24+00:00,SAT-51991,246.35002917802103,75.77237602191994,869.3156818112324,-1.064129456751126,37270.31483856349,10.5,10500037270.314838,47.655,-122.3035,60.0,2.4
2026-01-20T23:02:25+00:00,SAT-51991,247.85071569317648,76.07645711593592,868.2543900330327,-1.0097284728454274,35364.96226625217,10.5,10500035364.962267,47.655,-122.3035,60.0,2.4166666666666665
2026-01-20T23:02:26+00:00,SAT-51991,249.42067776707418,76.37129683513686,867.247354169448,-0.9551366506356568,33452.92572928702,10.5,10500033452.92573,47.655,-122.3035,60.0,2.433333333333333
2026-01-20T23:02:27+00:00,SAT-51991,251.06214089163234,76.6561360429757,866.2947645498807,-0.9003634935322675,31534.53807730149,10.5,10500031534.538076,47.655,-122.3035,60.0,2.45
2026-01-20T23:02:28+00:00,SAT-51991,252.77705399968252,76.93017836102598,865.3968020256646,-0.8454186694079168,29610.13792009113,10.5,10500029610.13792,47.655,-122.3035,60.0,2.466666666666667
2026-01-20T23:02:29+00:00,SAT-51991,254.56700332050696,77.19259270640416,864.5536378060417,-0.7903120004526385,27680.06927229872,10.5,10500027680.069273,47.655,-122.3035,60.0,2.4833333333333334
2026-01-20T23:02:30+00:00,SAT-51991,256.43311638335155,77.44251713266544,863.765433304257,-0.7350534707366585,25744.681818296158,10.5,10500025744.681818,47.655,-122.3035,60.0,2.5
2026-01-20T23:02:31+00:00,SAT-51991,258.3759578322995,77.67906418491638,863.032339976109,-0.6796531905254919,23804.329662348162,10.5,10500023804.329662,47.655,-122.3035,60.0,2.5166666666666666
2026-01-20T23:02:32+00:00,SAT-51991,260.3954196805198,77.90132794064445,862.3544991940915,-0.6241214234353943,21859.372279711053,10.5,10500021859.37228,47.655,-122.3035,60.0,2.533333333333333
2026-01-20T23:02:33+00:00,SAT-51991,262.4906101786621,78.10839289944602,861.7320420944519,-0.5684685423674058,19910.172973256587,10.5,10500019910.172974,47.655,-122.3035,60.0,2.55
2026-01-20T23:02:34+00:00,SAT-51991,264.6597465079607,78.29934477366996,861.1650894681975,-0.5127050424846143,17957.0993279906,10.5,10500017957.099327,47.655,-122.3035,60.0,2.566666666666667
2026-01-20T23:02:35+00:00,SAT-51991,266.9000581881562,78.47328317550038,860.6537516391596,-0.45684152350628804,16000.52259091863,10.5,10500016000.52259,47.655,-122.3035,60.0,2.5833333333333335
2026-01-20T23:02:36+00:00,SAT-51991,269.2077089489375,78.62933604112038,860.198128359716,-0.4008886824717152,14040.817417604983,10.5,10500014040.817417,47.655,-122.3035,60.0,2.6
2026-01-20T23:02:37+00:00,SAT-51991,271.5777455507673,78.76667549497394,859.7983087137309,-0.34485730210044646,12078.361464499178,10.5,10500012078.361464,47.655,-122.3035,60.0,2.6166666666666667
2026-01-20T23:02:38+00:00,SAT-51991,274.00408187746666,78.88453468732642,859.4543710311027,-0.28875823953865737,10113.534994785969,10.5,10500010113.534994,47.655,-122.3035,60.0,2.6333333333333333
2026-01-20T23:02:39+00:00,SAT-51991,276.4795255660045,78.98222497709159,859.1663828135361,-0.23260242063214748,8146.720677801535,10.5,10500008146.720678,47.655,-122.3035,60.0,2.65
2026-01-20T23:02:40+00:00,SAT-51991,278.99585234866873,79.05915269403373,858.9344006660257,-0.1764008247021083,6178.303055816492,10.5,10500006178.303057,47.655,-122.3035,60.0,2.6666666666666665
2026-01-20T23:02:41+00:00,SAT-51991,281.54392998714945,79.11483461617895,858.7584702435228,-0.12016447681573637,4208.668273320044,10.5,10500004208.668274,47.655,-122.3035,60.0,2.683333333333333
2026-01-20T23:02:42+00:00,SAT-51991,284.1138898166132,79.14891127925253,858.6386262053119,-0.06390443466984311,2238.203617628542,10.5,10500002238.203617,47.655,-122.3035,60.0,2.7
2026-01-20T23:02:43+00:00,SAT-51991,286.69533943808756,79.16115728952144,858.5748921824678,-0.007631780578389057,267.2972382550234,10.5,10500000267.297237,47.655,-122.3035,60.0,2.716666666666667
2026-01-20T23:02:44+00:00,SAT-51991,289.2776061367223,79.15148796135169,858.5672807533042,0.04864239149093181,-1703.6623071244308,10.5,10499998296.337692,47.655,-122.3035,60.0,2.7333333333333334
2026-01-20T23:02:45+00:00,SAT-51991,291.8499970909653,79.11996182311873,858.6157934317512,0.1049069864101598,-3674.286420196328,10.5,10499996325.71358,47.655,-122.3035,60.0,2.75
2026-01-20T23:02:46+00:00,SAT-51991,294.40206091736286,79.06677881664679,858.7204206661977,0.16115091763986814,-5644.186803453927,10.5,10499994355.813196,47.655,-122.3035,60.0,2.7666666666666666
2026-01-20T23:02:47+00:00,SAT-51991,296.9238345125232,78.99227431879389,858.8811418480572,0.21736311868303898,-7612.975861360425,10.5,10499992387.02414,47.655,-122.3035,60.0,2.783333333333333
2026-01-20T23:02:48+00:00,SAT-51991,299.40606124709245,78.89690939666289,859.0979253317571,0.27353255703124896,-9580.267188803376,10.5,10499990419.732811,47.655,-122.3035,60.0,2.8
2026-01-20T23:02:49+00:00,SAT-51991,301.84036931284305,78.78125794493864,859.3707284686361,0.32964823551412015,-11545.675618358155,10.5,10499988454.32438,47.655,-122.3035,60.0,2.816666666666667
2026-01-20T23:02:50+00:00,SAT-51991,304.2194030956198,78.64599151937412,859.6994976421889,0.3856992177028116,-13508.81811002571,10.5,10499986491.18189,47.655,-122.3035,60.0,2.8333333333333335
2026-01-20T23:02:51+00:00,SAT-51991,306.5369050982511,78.49186273806531,860.0841683286446,0.44167462355584713,-15469.313598731007,10.5,10499984530.686401,47.655,-122.3035,60.0,2.85
2026-01-20T23:02:52+00:00,SAT-51991,308.7877495295313,78.31968813234697,860.5246651532042,0.4975636497191909,-17426.78370531758,10.5,10499982573.216295,47.655,-122.3035,60.0,2.8666666666666667
2026-01-20T23:02:53+00:00,SAT-51991,310.9679324761106,78.13033122293932,861.0209019665242,0.5533555735099293,-19380.85287607288,10.5,10499980619.147123,47.655,-122.3035,60.0,2.8833333333333333
2026-01-20T23:02:54+00:00,SAT-51991,313.0745255551588,77.92468648005016,861.5727819251714,0.6090397704480724,-21331.14899676616,10.5,10499978668.851004,47.655,-122.3035,60.0,2.9
2026-01-20T23:02:55+00:00,SAT-51991,315.1056013611194,77.70366465383756,862.180197589565,0.6646057141979835,-23277.303390597062,10.5,10499976722.69661,47.655,-122.3035,60.0,2.9166666666666665
2026-01-20T23:02:56+00:00,SAT-51991,317.0601391232901,77.46817980775094,862.8430310218585,0.7200429967649041,-25218.951525563374,10.5,10499974781.048475,47.655,-122.3035,60.0,2.933333333333333
2026-01-20T23:02:57+00:00,SAT-51991,318.9379186162166,77.21913821940275,863.5611539039653,0.7753413266036153,-27155.732948218334,10.5,10499972844.267052,47.655,-122.3035,60.0,2.95
2026-01-20T23:02:58+00:00,SAT-51991,320.7394091729949,76.95742919821637,864.334427653698,0.8304905446789438,-29087.291846177497,10.5,10499970912.708155,47.655,-122.3035,60.0,2.966666666666667
2026-01-20T23:02:59+00:00,SAT-51991,322.46565946815423,76.68391775243786,865.1627035569244,0.8854806434395123,-31013.277712659732,10.5,10499968986.722288,47.655,-122.3035,60.0,2.9833333333333334
2026-01-20T23:03:00+00:00,SAT-51991,324.11819228542595,76.39943897118519,866.0458229186481,0.9403017428326882,-32933.34450642927,10.5,10499967066.655493,47.655,-122.3035,60.0,3.0
2026-01-20T23:03:01+00:00,SAT-51991,325.6989071068305,76.10479395568188,866.9836171901666,0.9949441387331004,-34847.15234796719,10.5,10499965152.847652,47.655,-122.3035,60.0,3.0166666666666666
2026-01-20T23:03:02+00:00,SAT-51991,327.2099924423835,75.80074707343203,867.9759081445296,1.0493982782782245,-36754.36665561933,10.5,10499963245.633345,47.655,-122.3035,60.0,3.033333333333333
2026-01-20T23:03:03+00:00,SAT-51991,328.6538486044893,75.48802435073365,869.0225080273992,1.1036547956939382,-38654.65940035874,10.5,10499961345.3406,47.655,-122.3035,60.0,3.05
2026-01-20T23:03:04+00:00,SAT-51991,330.03302116760926,75.16731278361604,870.123219743638,1.1577044862776085,-40547.708194563354,10.5,10499959452.291805,47.655,-122.3035,60.0,3.066666666666667
2026-01-20T23:03:05+00:00,SAT-51991,331.35014464650664,74.83926040048527,871.2778370179522,1.211538343955405,-42433.197607431975,10.5,10499957566.802393,47.655,-122.3035,60.0,3.0833333333333335
2026-01-20T23:03:06+00:00,SAT-51991,332.6078957706053,74.5044768924351,872.4861445929903,1.2651475540106907,-44310.81891030179,10.5,10499955689.18109,47.655,-122.3035,60.0,3.1
2026-01-20T23:03:07+00:00,SAT-51991,333.8089553841094,74.16353468171745,873.7479184201903,1.3185234956519312,-46180.2701665873,10.5,10499953819.729834,47.655,-122.3035,60.0,3.1166666666666667
2026-01-20T23:03:08+00:00,SAT-51991,334.95597799259275,73.81697030444502,875.0629258531873,1.3716577518214614,-48041.25657532501,10.5,10499951958.743425,47.655,-122.3035,60.0,3.1333333333333333
2026-01-20T23:03:09+00:00,SAT-51991,336.0515679515749,73.46528600600503,876.4309258510037,1.424542119156976,-49893.490820066756,10.5,10499950106.50918,47.655,-122.3035,60.0,3.15
2026-01-20T23:03:10+00:00,SAT-51991,337.0982613224677,73.1089514687258,877.8516691911763,1.4771686089697236,-51736.693103140366,10.5,10499948263.306896,47.655,-122.3035,60.0,3.1666666666666665
2026-01-20T23:03:11+00:00,SAT-51991,338.0985124866623,72.74840561036861,879.3248986838555,1.5295294459294895,-53570.5910995921,10.5,10499946429.408901,47.655,-122.3035,60.0,3.183333333333333
2026-01-20T23:03:12+00:00,SAT-51991,339.0546847053428,72.38405840429712,880.8503493845959,1.5816170768681046,-55394.920265522815,10.5,10499944605.079735,47.655,-122.3035,60.0,3.2
2026-01-20T23:03:13+00:00,SAT-51991,339.96904391511606,72.01629268131686,882.4277488159257,1.6334241799361688,-57209.424158795126,10.5,10499942790.575842,47.655,-122.3035,60.0,3.216666666666667
2026-01-20T23:03:14+00:00,SAT-51991,340.84375513591544,71.64546588570724,884.0568171980486,1.684943663191979,-59013.85438961169,10.5,10499940986.14561,47.655,-122.3035,60.0,3.2333333333333334
2026-01-20T23:03:15+00:00,SAT-51991,341.68088095358326,71.27191176834492,885.7372676781388,1.736168660791276,-60807.970487064085,10.5,10499939192.029512,47.655,-122.3035,60.0,3.25
2026-01-20T23:03:16+00:00,SAT-51991,342.4823816296526,70.89594200398615,887.4688065558346,1.787092541273391,-62591.54018934861,10.5,10499937408.45981,47.655,-122.3035,60.0,3.2666666666666666
2026-01-20T23:03:17+00:00,SAT-51991,343.25011647111876,70.5178477217453,889.2511335169979,1.8377089171918795,-64364.339781071925,10.5,10499935635.66022,47.655,-122.3035,60.0,3.283333333333333
2026-01-20T23:03:18+00:00,SAT-51991,343.98584615104835,70.13790094426135,891.0839418770773,1.8880116333646084,-66126.15368171933,10.5,10499933873.84632,47.655,-122.3035,60.0,3.3
2026-01-20T23:03:19+00:00,SAT-51991,344.69123571907346,69.75635593856124,892.966918812753,1.93799477531084,-67876.77474115716,10.5,10499932123.22526,47.655,-122.3035,60.0,3.316666666666667
2026-01-20T23:03:20+00:00,SAT-51991,345.36785810713957,69.3734504749106,894.8997456019963,1.9876526691099463,-69616.00423468437,10.5,10499930383.995766,47.655,-122.3035,60.0,3.3333333333333335
2026-01-20T23:03:21+00:00,SAT-51991,346.0171979630191,68.98940699773192,896.8820978639886,2.036979877673109,-71343.65173245168,10.5,10499928656.348267,47.655,-122.3035,60.0,3.35
2026-01-20T23:03:22+00:00,SAT-51991,346.64065568096856,68.60443371250773,898.9136457953213,2.0859712249065017,-73059.5359457584,10.5,10499926940.464054,47.655,-122.3035,60.0,3.3666666666666667
2026-01-20T23:03:23+00:00,SAT-51991,347.239551536001,68.21872558752035,900.9940544302947,2.1346217283285887,-74763.48236702532,10.5,10499925236.517633,47.655,-122.3035,60.0,3.3833333333333333
2026-01-20T23:03:24+00:00,SAT-51991,347.8151298161701,67.83246529179397,903.1229838340143,2.1829267094149323,-76455.32713453648,10.5,10499923544.672865,47.655,-122.3035,60.0,3.4
2026-01-20T23:03:25+00:00,SAT-51991,348.3685629440461,67.44582404118131,905.3000894055375,2.230881673758823,-78134.9128351576,10.5,10499921865.087164,47.655,-122.3035,60.0,3.4166666666666665
2026-01-20T23:03:26+00:00,SAT-51991,348.9009554770079,67.05896239949469,907.5250220614996,2.2784823968610675,-79802.09150905728,10.5,10499920197.908491,47.655,-122.3035,60.0,3.433333333333333
2026-01-20T23:03:27+00:00,SAT-51991,349.41334801076096,66.67203100197182,909.7974285053024,2.325724881504706,-81456.7231567894,10.5,10499918543.276844,47.655,-122.3035,60.0,3.45
2026-01-20T23:03:28+00:00,SAT-51991,349.9067209279532,66.2851712288252,912.1169514537899,2.37260535523678,-83098.6756510939,10.5,10499916901.324348,47.655,-122.3035,60.0,3.466666666666667
2026-01-20T23:03:29+00:00,SAT-51991,350.381997988197,65.89851582581784,914.4832298614125,2.41912030906559,-84727.82609223844,10.5,10499915272.173908,47.655,-122.3035,60.0,3.4833333333333334
2026-01-20T23:03:30+00:00,SAT-51991,350.84004975757045,65.51218946951458,916.8958991829874,2.4652664258102135,-86344.05829851545,10.5,10499913655.941702,47.655,-122.3035,60.0,3.5
2026-01-20T23:03:31+00:00,SAT-51991,351.2816968508368,65.12630929904543,919.3545915649953,2.5110406361356783,-87947.26476883091,10.5,10499912052.735231,47.655,-122.3035,60.0,3.5166666666666666
2026-01-20T23:03:32+00:00,SAT-51991,351.7077130112476,64.74098539718678,921.8589360927681,2.556440108042975,-89537.3463146002,10.5,10499910462.653685,47.655,-122.3035,60.0,3.533333333333333
2026-01-20T23:03:33+00:00,SAT-51991,352.11882801518715,64.35632123532929,924.4085590271897,2.6014622023484986,-91114.21050044973,10.5,10499908885.7895,47.655,-122.3035,60.0,3.55
2026-01-20T23:03:34+00:00,SAT-51991,352.51573040111913,63.97241409016199,927.0030839969985,2.64610452399671,-92677.77344140343,10.5,10499907322.226559,47.655,-122.3035,60.0,3.566666666666667
2026-01-20T23:03:35+00:00,SAT-51991,352.89907004370264,63.58935542055858,929.6421322422646,2.690364883975419,-94227.95846899488,10.5,10499905772.04153,47.655,-122.3035,60.0,3.5833333333333335
2026-01-20T23:03:36+00:00,SAT-51991,353.2694605645043,63.207231220840356,932.3253228198827,2.734241298981755,-95764.69611956824,10.5,10499904235.30388,47.655,-122.3035,60.0,3.6
2026-01-20T23:03:37+00:00,SAT-51991,353.62748159276134,62.82612234706609,935.0522728087338,2.7777320044552103,-97287.92459075041,10.5,10499902712.075409,47.655,-122.3035,60.0,3.6166666666666667
2026-01-20T23:03:38+00:00,SAT-51991,353.9736808849949,62.44610481679511,937.8225975278438,2.820835441607616,-98797.58928718603,10.5,10499901202.410713,47.655,-122.3035,60.0,3.6333333333333333
2026-01-20T23:03:39+00:00,SAT-51991,354.3085763071861,62.06725008818168,940.6359107416072,2.8635502388200136,-100293.64216897725,10.5,10499899706.357832,47.655,-122.3035,60.0,3.65
2026-01-20T23:03:40+00:00,SAT-51991,354.63265768695567,61.68962532076437,943.491824846457,2.9058752331904083,-101776.04250637715,10.5,10499898223.957493,47.655,-122.3035,60.0,3.6666666666666665
2026-01-20T23:03:41+00:00,SAT-51991,354.9463885479267,61.31329361434977,946.3899510790255,2.9478094406241495,-103244.75583222834,10.5,10499896755.244167,47.655,-122.3035,60.0,3.683333333333333
2026-01-20T23:03:42+00:00,SAT-51991,355.2502077274775,60.93831423437865,949.3298996944746,2.9893520823692232,-104699.75487134117,10.5,10499895300.245129,47.655,-122.3035,60.0,3.7
2026-01-20T23:03:43+00:00,SAT-51991,355.5445308912592,60.56474281786,952.311280171291,3.0305025390068696,-106141.01792905053,10.5,10499893858.98207,47.655,-122.3035,60.0,3.716666666666667
2026-01-20T23:03:44+00:00,SAT-51991,355.8297519436322,60.19263157039437,955.3337013701937,3.0712603981659155,-107568.53056237363,10.5,10499892431.469439,47.655,-122.3035,60.0,3.7333333333333334
2026-01-20T23:03:45+00:00,SAT-51991,356.1062443499789,59.822029443704416,958.3967717406312,3.111625397580312,-108982.28358564404,10.5,10499891017.716413,47.655,-122.3035,60.0,3.75
2026-01-20T23:03:46+00:00,SAT-51991,356.3743623667425,59.45298230773528,961.5000994704847,3.151597443082781,-110382.27370072532,10.5,10499889617.7263,47.655,-122.3035,60.0,3.7666666666666666
2026-01-20T23:03:47+00:00,SAT-51991,356.6344421925421,59.0855331089271,964.6432926537192,3.191176629179202,-111768.50421761318,10.5,10499888231.495783,47.655,-122.3035,60.0,3.783333333333333
2026-01-20T23:03:48+00:00,SAT-51991,356.88680304533574,58.71972201559148,967.825959478554,3.2303631851669006,-113140.98316726986,10.5,10499886859.016832,47.655,-122.3035,60.0,3.8
2026-01-20T23:03:49+00:00,SAT-51991,357.1317481647908,58.355586559795455,971.0477083618938,3.2691575000397,-114499.72417390451,10.5,10499885500.275826,47.655,-122.3035,60.0,3.816666666666667
2026-01-20T23:03:50+00:00,SAT-51991,357.36956575135207,57.99316176723175,974.3081481086001,3.3075601154006744,-115844.74620674775,10.5,10499884155.253794,47.655,-122.3035,60.0,3.8333333333333335
2026-01-20T23:03:51+00:00,SAT-51991,357.6005298437163,57.632480279571304,977.606888063693,3.3455717227857327,-117176.07348631229,10.5,10499882823.926514,47.655,-122.3035,60.0,3.85
2026-01-20T23:03:52+00:00,SAT-51991,357.82490113930066,57.27357246939373,980.9435382618846,3.383193142567291,-118493.73474551036,10.5,10499881506.265255,47.655,-122.3035,60.0,3.8666666666666667
2026-01-20T23:03:53+00:00,SAT-51991,358.04292776041086,56.916466550218004,984.3177095560717,3.420425347474555,-119797.76405343335,10.5,10499880202.235947,47.655,-122.3035,60.0,3.8833333333333333
2026-01-20T23:03:54+00:00,SAT-51991,358.2548459728134,56.561188677353556,987.7290137692863,3.4572694112793347,-121088.19901811211,10.5,10499878911.800982,47.655,-122.3035,60.0,3.9
2026-01-20T23:03:55+00:00,SAT-51991,358.46088085528015,56.20776304792047,991.1770637954689,3.4937265622948104,-122365.08266026995,10.5,10499877634.91734,47.655,-122.3035,60.0,3.9166666666666665
2026-01-20T23:03:56+00:00,SAT-51991,358.661246929911,55.856211989520304,994.6614737535975,3.529798138228724,-123628.46183209053,10.5,10499876371.538168,47.655,-122.3035,60.0,3.933333333333333
2026-01-20T23:03:57+00:00,SAT-51991,358.85614874996617,55.50655604824422,998.181859096791,3.5654855800834673,-124878.387003573,10.5,10499875121.612997,47.655,-122.3035,60.0,3.95
2026-01-20T23:03:58+00:00,SAT-51991,359.0457814505701,55.158814072151934,1001.7378367153277,3.600790477200874,-126114.91384019131,10.5,10499873885.08616,47.655,-122.3035,60.0,3.966666666666667
2026-01-20T23:03:59+00:00,SAT-51991,359.23033126748214,54.81300328571117,1005.3290250845893,3.635714466577908,-127338.09967650364,10.5,10499872661.900324,47.655,-122.3035,60.0,3.9833333333333334
2026-01-20T23:04:00+00:00,SAT-51991,359.40997601848585,54.46913936957585,1008.9550443125897,3.6702593562901233,-128548.00783896404,10.5,10499871451.99216,47.655,-122.3035,60.0,4.0
2026-01-20T23:04:01+00:00,SAT-51991,359.5848855613948,54.127236524439574,1012.6155163105964,3.7044269918780235,-129744.70296620752,10.5,10499870255.297033,47.655,-122.3035,60.0,4.016666666666667
2026-01-20T23:04:02+00:00,SAT-51991,359.7552222174896,53.78730754371214,1016.3100648304961,3.7382193504114145,-130928.25430358175,10.5,10499869071.745697,47.655,-122.3035,60.0,4.033333333333333
2026-01-20T23:04:03+00:00,SAT-51991,359.9211411737457,53.44936387372487,1020.038315595973,3.77163848466592,-132098.7337479723,10.5,10499867901.266253,47.655,-122.3035,60.0,4.05
2026-01-20T23:04:04+00:00,SAT-51991,0.08279085817465762,53.113415675753686,1023.7998963780132,3.8046865160312797,-133256.21559942124,10.5,10499866743.7844,47.655,-122.3035,60.0,4.066666666666666
2026-01-20T23:04:05+00:00,SAT-51991,0.24031329247044084,52.779471885378065,1027.5944370633351,3.8373656948600314,-134400.77867479352,10.5,10499865599.221325,47.655,-122.3035,60.0,4.083333333333333
2026-01-20T23:04:06+00:00,SAT-51991,0.3938444261304442,52.447540263556405,1031.4215697830089,3.869678282224974,-135532.50216642284,10.5,10499864467.497833,47.655,-122.3035,60.0,4.1
2026-01-20T23:04:07+00:00,SAT-51991,0.5435144460537552,52.11762745518472,1035.280928923148,3.9016266638677566,-136651.46963307343,10.5,10499863348.530367,47.655,-122.3035,60.0,4.116666666666666
2026-01-20T23:04:08+00:00,SAT-51991,0.6894480725264432,51.78973903504989,1039.1721512492452,3.9332132606082433,-137757.76586209703,10.5,10499862242.234138,47.655,-122.3035,60.0,4.133333333333334
2026-01-20T23:04:09+00:00,SAT-51991,0.8317648344877759,51.4638795589583,1043.0948759411585,3.9644405807254635,-138851.4787040352,10.5,10499861148.521296,47.655,-122.3035,60.0,4.15
2026-01-20T23:04:10+00:00,SAT-51991,0.9705793308609278,51.140052608011,1047.0487446803354,3.995311176418285,-139932.69754768812,10.5,10499860067.302452,47.655,-122.3035,60.0,4.166666666666667
2026-01-20T23:04:11+00:00,SAT-51991,1.106001475300762,50.818260834237655,1051.0334016936165,4.025827676932202,-141001.5144803547,10.5,10499858998.48552,47.655,-122.3035,60.0,4.183333333333334
2026-01-20T23:04:12+00:00,SAT-51991,1.2381367281372047,50.4985060013612,1055.048493830077,4.055992733899411,-142058.02237341081,10.5,10499857941.977627,47.655,-122.3035,60.0,4.2
2026-01-20T23:04:13+00:00,SAT-51991,1.3670863134065823,50.18078902788799,1059.0936705833526,4.08580906879319,-143102.3165443625,10.5,10499856897.683456,47.655,-122.3035,60.0,4.216666666666667
2026-01-20T23:04:14+00:00,SAT-51991,1.4929474252412913,49.86511002442579,1063.1685841612957,4.115279453520898,-144134.49407713066,10.5,10499855865.505922,47.655,-122.3035,60.0,4.233333333333333
2026-01-20T23:04:15+00:00,SAT-51991,1.6158134221197884,49.55146833076273,1067.2728895362739,4.144406695309387,-145154.6532926741,10.5,10499854845.346706,47.655,-122.3035,60.0,4.25
2026-01-20T23:04:16+00:00,SAT-51991,1.7357740098950998,49.23986255231165,1071.4062444803958,4.17319363481824,-146162.8936829075,10.5,10499853837.106318,47.655,-122.3035,60.0,4.266666666666667
2026-01-20T23:04:17+00:00,SAT-51991,1.8529154147537383,48.93029059499712,1075.5683095988545,4.201643147477147,-147159.3159575417,10.5,10499852840.684042,47.655,-122.3035,60.0,4.283333333333333
2026-01-20T23:04:18+00:00,SAT-51991,1.9673205468100083,48.62274969837535,1079.758748364605,4.229758187797084,-148144.0235960485,10.5,10499851855.976404,47.655,-122.3035,60.0,4.3
2026-01-20T23:04:19+00:00,SAT-51991,2.0790691559754997,48.31723646410855,1083.9772271972347,4.257541655369273,-149117.11815437788,10.5,10499850882.881845,47.655,-122.3035,60.0,4.316666666666666
2026-01-20T23:04:20+00:00,SAT-51991,2.188237975936983,48.01374689261819,1088.2234154081896,4.284996551493687,-150078.7047507503,10.5,10499849921.29525,47.655,-122.3035,60.0,4.333333333333333
2026-01-20T23:04:21+00:00,SAT-51991,2.2949008645636653,47.7122764070336,1092.4969853022126,4.3121258839821195,-151028.88873145785,10.5,10499848971.111269,47.655,-122.3035,60.0,4.35
2026-01-20T23:04:22+00:00,SAT-51991,2.399128934366464,47.41281988272096,1096.7976121838374,4.338932653186332,-151967.77518151072,10.5,10499848032.22482,47.655,-122.3035,60.0,4.366666666666666
2026-01-20T23:04:23+00:00,SAT-51991,2.500990675852708,47.11537167638933,1101.1249743499486,4.365419920047923,-152895.47130803135,10.5,10499847104.528692,47.655,-122.3035,60.0,4.383333333333334
2026-01-20T23:04:24+00:00,SAT-51991,2.6005520760364793,46.81992564927589,1105.4787531502097,4.391590729275313,-153812.0837495878,10.5,10499846187.91625,47.655,-122.3035,60.0,4.4
2026-01-20T23:04:25+00:00,SAT-51991,2.697876729029576,46.52647519444454,1109.8586329708737,4.41744816599005,-154717.72056018678,10.5,10499845282.27944,47.655,-122.3035,60.0,4.416666666666667
2026-01-20T23:04:26+00:00,SAT-51991,2.7930259422377604,46.23501325909667,1114.2643012750877,4.442995317614143,-155612.48987440672,10.5,10499844387.510126,47.655,-122.3035,60.0,4.433333333333334
2026-01-20T23:04:27+00:00,SAT-51991,2.8860588362596546,45.94553236840795,1118.6954486051884,4.468235269388189,-156496.49975042394,10.5,10499843503.50025,47.655,-122.3035,60.0,4.45
2026-01-20T23:04:28+00:00,SAT-51991,2.977032439678071,45.65802464854818,1123.1517685805247,4.49317113433513,-157369.85921946997,10.5,10499842630.140781,47.655,-122.3035,60.0,4.466666666666667
2026-01-20T23:04:29+00:00,SAT-51991,3.0660017796889854,45.3724818467921,1127.6329579251683,4.517806035788542,-158232.67767389832,10.5,10499841767.322327,47.655,-122.3035,60.0,4.483333333333333
2026-01-20T23:04:30+00:00,SAT-51991,3.1530199678031714,45.08889535185461,1132.1387164781947,4.542143069698746,-159085.06354698498,10.5,10499840914.936453,47.655,-122.3035,60.0,4.5
2026-01-20T23:04:31+00:00,SAT-51991,3.2381382806217327,44.80725621563253,1136.6687471663743,4.5661853531383,-159927.12601179627,10.5,10499840072.87399,47.655,-122.3035,60.0,4.516666666666667
2026-01-20T23:04:32+00:00,SAT-51991,3.3214062375439184,44.5275551710003,1141.2227560252375,4.589936028754149,-160758.9751371216,10.5,10499839241.024862,47.655,-122.3035,60.0,4.533333333333333
2026-01-20T23:04:33+00:00,SAT-51991,3.4028716747262413,44.249782648607805,1145.8004522245817,4.613398189252009,-161580.71924259714,10.5,10499838419.280758,47.655,-122.3035,60.0,4.55
2026-01-20T23:04:34+00:00,SAT-51991,3.4825808140912815,43.97392879739977,1150.4015480186624,4.636574960678332,-162392.46781559289,10.5,10499837607.532185,47.655,-122.3035,60.0,4.566666666666666
2026-01-20T23:04:35+00:00,SAT-51991,3.5605783305130827,43.699983499326855,1155.0257587794456,4.659469432357773,-163194.3290573261,10.5,10499836805.670942,47.655,-122.3035,60.0,4.583333333333333
2026-01-20T23:04:36+00:00,SAT-51991,3.6369074145446136,43.427936387483356,1159.6728029599838,4.6820847398850916,-163986.41278958882,10.5,10499836013.58721,47.655,-122.3035,60.0,4.6
2026-01-20T23:04:37+00:00,SAT-51991,3.711609833563547,43.15777685868196,1164.3424021405624,4.70442396269524,-164768.826867219,10.5,10499835231.173132,47.655,-122.3035,60.0,4.616666666666666
2026-01-20T23:04:38+00:00,SAT-51991,3.7847259883396807,42.889494091303085,1169.0342809726906,4.726490180328624,-165541.6791487481,10.5,10499834458.32085,47.655,-122.3035,60.0,4.633333333333334
2026-01-20T23:04:39+00:00,SAT-51991,3.856294967869053,42.62307705917664,1173.748167179205,4.74828648116029,-166305.07780213415,10.5,10499833694.922197,47.655,-122.3035,60.0,4.65
2026-01-20T23:04:40+00:00,SAT-51991,3.9263546017838244,42.358514544356765,1178.4837915630821,4.769815927289811,-167059.13007505683,10.5,10499832940.869925,47.655,-122.3035,60.0,4.666666666666667
2026-01-20T23:04:41+00:00,SAT-51991,3.9949415097889527,42.09579515129545,1183.2408879812324,4.791081575560755,-167803.94303110827,10.5,10499832196.056969,47.655,-122.3035,60.0,4.683333333333334
2026-01-20T23:04:42+00:00,SAT-51991,4.062091149138486,41.8349073192132,1188.0191933392584,4.812086452799957,-168539.6226825678,10.5,10499831460.377317,47.655,-122.3035,60.0,4.7
2026-01-20T23:04:43+00:00,SAT-51991,4.127837859616373,41.57583933526017,1192.8184475615176,4.8328335957259885,-169266.27538816497,10.5,10499830733.724611,47.655,-122.3035,60.0,4.716666666666667
2026-01-20T23:04:44+00:00,SAT-51991,4.1922149070047166,41.318579344970125,1197.6383936009884,4.8533260139764245,-169984.00655813847,10.5,10499830015.993443,47.655,-122.3035,60.0,4.733333333333333
2026-01-20T23:04:45+00:00,SAT-51991,4.255254524080644,41.06311536421055,1202.4787774122608,4.8735666904597785,-170692.92066656216,10.5,10499829307.079334,47.655,-122.3035,60.0,4.75
2026-01-20T23:04:46+00:00,SAT-51991,4.316987949822315,40.80943529054324,1207.3393479248793,4.893558600572318,-171393.12192439922,10.5,10499828606.878077,47.655,-122.3035,60.0,4.766666666666667
2026-01-20T23:04:47+00:00,SAT-51991,4.37744546708713,40.55752691312113,1212.2198570358503,4.913304708120611,-172084.7141366926,10.5,10499827915.285864,47.655,-122.3035,60.0,4.783333333333333
2026-01-20T23:04:48+00:00,SAT-51991,4.436656438587422,40.307377922324015,1217.1200595980824,4.932807955554053,-172767.8003604666,10.5,10499827232.19964,47.655,-122.3035,60.0,4.8
2026-01-20T23:04:49+00:00,SAT-51991,4.494649341147959,40.058975919487565,1222.0397133990882,4.952071229210511,-173442.4816874825,10.5,10499826557.518312,47.655,-122.3035,60.0,4.816666666666666
