satellites_20260120_184412/SAT-47376.csv

timestamp,satellite,azimuth_deg,elevation_deg,distance_km,relative_velocity_kms,doppler_shift_hz,tx_freq_ghz,rx_freq_hz,ue_lat,ue_lon,ue_alt_m,time_minutes
2026-01-20T23:08:24+00:00,SAT-47376,181.13639844466442,40.2647733225446,863.6597587896534,-4.1214007449121235,144348.88759468825,10.5,10500144348.887594,47.655,-122.3035,60.0,8.4
2026-01-20T23:08:25+00:00,SAT-47376,181.09071550786288,40.66372313435571,859.5493484467278,-4.084590076437075,143059.62227571875,10.5,10500143059.622276,47.655,-122.3035,60.0,8.416666666666666
2026-01-20T23:08:26+00:00,SAT-47376,181.0444822137058,41.066239781785384,855.4756506104944,-4.047246770343296,141751.7017342865,10.5,10500141751.701735,47.655,-122.3035,60.0,8.433333333333334
2026-01-20T23:08:27+00:00,SAT-47376,180.99768007177275,41.47234144974923,851.4391964982054,-4.009365639225515,140424.94428551605,10.5,10500140424.944286,47.655,-122.3035,60.0,8.45
2026-01-20T23:08:28+00:00,SAT-47376,180.9502897610462,41.88204539667202,847.4405225006844,-3.970941551542735,139079.17020113533,10.5,10500139079.1702,47.655,-122.3035,60.0,8.466666666666667
2026-01-20T23:08:29+00:00,SAT-47376,180.90229108350468,42.29536789812866,843.4801701266125,-3.931969576996414,137714.20680123428,10.5,10500137714.2068,47.655,-122.3035,60.0,8.483333333333333
2026-01-20T23:08:30+00:00,SAT-47376,180.8536629127734,42.71232420290507,839.5586858018215,-3.8924448748647875,136329.88454326047,10.5,10500136329.884542,47.655,-122.3035,60.0,8.5
2026-01-20T23:08:31+00:00,SAT-47376,180.80438314081843,43.1329284757593,835.6766207799564,-3.8523627405879535,134926.03865362587,10.5,10500134926.038654,47.655,-122.3035,60.0,8.516666666666667
2026-01-20T23:08:32+00:00,SAT-47376,180.75442862041305,43.557193742493865,831.8345310066766,-3.8117186620520656,133502.51109901734,10.5,10500133502.511099,47.655,-122.3035,60.0,8.533333333333333
2026-01-20T23:08:33+00:00,SAT-47376,180.7037751028228,43.985131838825346,828.0329769277234,-3.7705082608067255,132059.1485275811,10.5,10500132059.148527,47.655,-122.3035,60.0,8.55
2026-01-20T23:08:34+00:00,SAT-47376,180.65239717209704,44.41675335089549,824.2725233556121,-3.728727377272226,130595.8052532408,10.5,10500130595.805254,47.655,-122.3035,60.0,8.566666666666666
2026-01-20T23:08:35+00:00,SAT-47376,180.60026817336603,44.85206756275447,820.553739251346,-3.6863720168194614,129112.34136718791,10.5,10500129112.341368,47.655,-122.3035,60.0,8.583333333333334
2026-01-20T23:08:36+00:00,SAT-47376,180.5473601369128,45.291082395868294,816.8771975599046,-3.643438381361632,127608.6238443568,10.5,10500127608.623844,47.655,-122.3035,60.0,8.6
2026-01-20T23:08:37+00:00,SAT-47376,180.4936436962563,45.73380434972113,813.2434750142266,-3.5999229259236776,126084.52852472565,10.5,10500126084.528524,47.655,-122.3035,60.0,8.616666666666667
2026-01-20T23:08:38+00:00,SAT-47376,180.43908799930804,46.1802384470096,809.6531518827721,-3.555822317029374,124539.93865585647,10.5,10500124539.938656,47.655,-122.3035,60.0,8.633333333333333
2026-01-20T23:08:39+00:00,SAT-47376,180.38366061359363,46.63038817190624,806.1068117585882,-3.5111334493287556,122974.74547525785,10.5,10500122974.745476,47.655,-122.3035,60.0,8.65
2026-01-20T23:08:40+00:00,SAT-47376,180.32732742408533,47.08425540802513,802.605041331791,-3.465853503738073,121388.85024669222,10.5,10500121388.850246,47.655,-122.3035,60.0,8.666666666666666
2026-01-20T23:08:41+00:00,SAT-47376,180.27005252217634,47.541840381496954,799.1484301040628,-3.419979909298287,119782.16292429884,10.5,10500119782.162924,47.655,-122.3035,60.0,8.683333333333334
2026-01-20T23:08:42+00:00,SAT-47376,180.21179808677581,48.00314159741597,795.7375701411894,-3.373510408636313,118154.60444532358,10.5,10500118154.604445,47.655,-122.3035,60.0,8.7
2026-01-20T23:08:43+00:00,SAT-47376,180.15252425471942,48.468155782602004,792.3730557603094,-3.3264430050768716,116506.1048777523,10.5,10500116506.104877,47.655,-122.3035,60.0,8.716666666666667
2026-01-20T23:08:44+00:00,SAT-47376,180.0921889819651,48.93687781970187,789.0554832699128,-3.27877603695592,114836.60602308133,10.5,10500114836.606024,47.655,-122.3035,60.0,8.733333333333333
2026-01-20T23:08:45+00:00,SAT-47376,180.03074789199698,49.40930068908392,785.785450635722,-3.230508168441173,113146.06109481351,10.5,10500113146.061094,47.655,-122.3035,60.0,8.75
2026-01-20T23:08:46+00:00,SAT-47376,179.96815411194586,49.88541540803562,782.56355715573,-3.1816384130700563,111434.43554285675,10.5,10500111434.435543,47.655,-122.3035,60.0,8.766666666666667
2026-01-20T23:08:47+00:00,SAT-47376,179.9043580944868,50.36521097161058,779.3904031117614,-3.132166102282387,109701.70595140543,10.5,10500109701.705952,47.655,-122.3035,60.0,8.783333333333333
2026-01-20T23:08:48+00:00,SAT-47376,179.83930742532837,50.8486742872325,776.2665894524185,-3.082090984930948,107947.86352422166,10.5,10500107947.863523,47.655,-122.3035,60.0,8.8
2026-01-20T23:08:49+00:00,SAT-47376,179.77294661183578,51.33579012236958,773.1927173767807,-3.031413158514398,106172.91167612089,10.5,10500106172.911676,47.655,-122.3035,60.0,8.816666666666666
2026-01-20T23:08:50+00:00,SAT-47376,179.7052168547252,51.826541040869586,770.169387986689,-2.9801331320167415,104376.86823387594,10.5,10500104376.868235,47.655,-122.3035,60.0,8.833333333333334
2026-01-20T23:08:51+00:00,SAT-47376,179.63605579788467,52.3209073473531,767.1972018763577,-2.9282518192189007,102559.76520195999,10.5,10500102559.765202,47.655,-122.3035,60.0,8.85
2026-01-20T23:08:52+00:00,SAT-47376,179.56539725573518,52.818867029643684,764.2767587286567,-2.875770568628668,100721.64981082016,10.5,10500100721.64981,47.655,-122.3035,60.0,8.866666666666667
2026-01-20T23:08:53+00:00,SAT-47376,179.49317091467924,53.320395705029874,761.4086568815444,-2.8226911501889784,98862.58405134486,10.5,10500098862.584051,47.655,-122.3035,60.0,8.883333333333333
2026-01-20T23:08:54+00:00,SAT-47376,179.41930200697175,53.82546656353332,758.593492907756,-2.7690157930930233,96982.6459993091,10.5,10500096982.646,47.655,-122.3035,60.0,8.9
2026-01-20T23:08:55+00:00,SAT-47376,179.34371095245322,54.334050316657766,755.8318611567778,-2.714747195318064,95081.93014928905,10.5,10500095081.93015,47.655,-122.3035,60.0,8.916666666666666
2026-01-20T23:08:56+00:00,SAT-47376,179.26631296535018,54.846115147630734,753.124353287314,-2.659888513738913,93160.5470683942,10.5,10500093160.547068,47.655,-122.3035,60.0,8.933333333333334
2026-01-20T23:08:57+00:00,SAT-47376,179.18701762255233,55.36162665925133,750.4715578096117,-2.604443410587476,91218.62502347706,10.5,10500091218.625023,47.655,-122.3035,60.0,8.95
2026-01-20T23:08:58+00:00,SAT-47376,179.10572838716337,55.880547830114516,747.8740595814523,-2.5484160274634062,89256.30907087651,10.5,10500089256.30907,47.655,-122.3035,60.0,8.966666666666667
2026-01-20T23:08:59+00:00,SAT-47376,179.0223420842085,56.40283896589809,745.3324393300622,-2.491811034321289,87273.762772156,10.5,10500087273.762772,47.655,-122.3035,60.0,8.983333333333333
2026-01-20T23:09:00+00:00,SAT-47376,178.9367483201893,56.92845766027872,742.8472731251658,-2.434633591164967,85271.16685247685,10.5,10500085271.166853,47.655,-122.3035,60.0,9.0
2026-01-20T23:09:01+00:00,SAT-47376,178.84882884249927,57.457358748350075,740.419131890244,-2.3768894235026776,83248.72184335644,10.5,10500083248.721844,47.655,-122.3035,60.0,9.016666666666667
2026-01-20T23:09:02+00:00,SAT-47376,178.75845682695146,57.98949427613758,738.0485808385372,-2.318584756271496,81206.6457684226,10.5,10500081206.64577,47.655,-122.3035,60.0,9.033333333333333
2026-01-20T23:09:03+00:00,SAT-47376,178.66549608951254,58.52481345683197,735.7361789749492,-2.2597263746271525,79145.17627253018,10.5,10500079145.176273,47.655,-122.3035,60.0,9.05
2026-01-20T23:09:04+00:00,SAT-47376,178.56980020729668,59.06326264057424,733.482478537321,-2.2003216152614766,77064.57031766126,10.5,10500077064.570318,47.655,-122.3035,60.0,9.066666666666666
2026-01-20T23:09:05+00:00,SAT-47376,178.47121153945466,59.604785283524855,731.2880244463669,-2.1403783671952272,74965.10421069327,10.5,10500074965.10421,47.655,-122.3035,60.0,9.083333333333334
2026-01-20T23:09:06+00:00,SAT-47376,178.3695601339747,60.14932191818904,729.1533537548175,-2.0799050653029814,72847.07337661345,10.5,10500072847.073376,47.655,-122.3035,60.0,9.1
2026-01-20T23:09:07+00:00,SAT-47376,178.26466250491234,60.696810122772206,727.078995103022,-2.0189107402670796,70710.79410811707,10.5,10500070710.794107,47.655,-122.3035,60.0,9.116666666666667
2026-01-20T23:09:08+00:00,SAT-47376,178.1563202587381,61.24718450446839,725.065468124729,-1.9574049486601774,68556.60111680282,10.5,10500068556.601116,47.655,-122.3035,60.0,9.133333333333333
2026-01-20T23:09:09+00:00,SAT-47376,178.04431855439216,61.80037666594994,723.1132829225985,-1.8953978479344704,66384.85015961256,10.5,10500066384.850159,47.655,-122.3035,60.0,9.15
2026-01-20T23:09:10+00:00,SAT-47376,177.92842436435518,62.35631519243571,721.2229394689252,-1.8329001428493594,64195.91616250157,10.5,10500064195.916162,47.655,-122.3035,60.0,9.166666666666666
2026-01-20T23:09:11+00:00,SAT-47376,177.80838451431302,62.9149256256862,719.3949270597901,-1.7699231025172677,61990.19381745525,10.5,10500061990.193817,47.655,-122.3035,60.0,9.183333333333334
2026-01-20T23:09:12+00:00,SAT-47376,177.6839234631014,63.476130443033085,717.629723752213,-1.7064785798229727,59768.09826263613,10.5,10500059768.098263,47.655,-122.3035,60.0,9.2
2026-01-20T23:09:13+00:00,SAT-47376,177.55474078142277,64.03984904310997,715.9277957819362,-1.6425789607453298,57530.06330741637,10.5,10500057530.063307,47.655,-122.3035,60.0,9.216666666666667
2026-01-20T23:09:14+00:00,SAT-47376,177.42050828640131,64.60599771643554,714.2895970317528,-1.5782371991292845,55276.542650240684,10.5,10500055276.54265,47.655,-122.3035,60.0,9.233333333333333
2026-01-20T23:09:15+00:00,SAT-47376,177.28086676862213,65.17448962600726,712.7155684651545,-1.5134667882357338,53008.0088821821,10.5,10500053008.008883,47.655,-122.3035,60.0,9.25
2026-01-20T23:09:16+00:00,SAT-47376,177.1354222481576,65.74523477774044,711.2061375883541,-1.4482817786736757,50724.95411500177,10.5,10500050724.954115,47.655,-122.3035,60.0,9.266666666666667
2026-01-20T23:09:17+00:00,SAT-47376,176.98374167392797,66.31813999539796,709.7617178944236,-1.3826967149915375,48427.88776030898,10.5,10500048427.88776,47.655,-122.3035,60.0,9.283333333333333
2026-01-20T23:09:18+00:00,SAT-47376,176.82534797685386,66.8931088689795,708.3827083706719,-1.3167266901244101,46117.338436533675,10.5,10500046117.338436,47.655,-122.3035,60.0,9.3
2026-01-20T23:09:19+00:00,SAT-47376,176.65971434661444,67.47004171810427,707.0694929517211,-1.2503872915707785,43793.85208380785,10.5,10500043793.852083,47.655,-122.3035,60.0,9.316666666666666
2026-01-20T23:09:20+00:00,SAT-47376,176.48625760002363,68.04883552838193,705.8224400262612,-1.1836945981951863,41457.99185198133,10.5,10500041457.991852,47.655,-122.3035,60.0,9.333333333333334
2026-01-20T23:09:21+00:00,SAT-47376,176.30433046215828,68.62938387659706,704.6419019469946,-1.116665158844124,39110.3373516598,10.5,10500039110.33735,47.655,-122.3035,60.0,9.35
2026-01-20T23:09:22+00:00,SAT-47376,176.1132125497421,69.211576833024,703.5282145619075,-1.049315990529908,36751.484590596454,10.5,10500036751.48459,47.655,-122.3035,60.0,9.366666666666667
2026-01-20T23:09:23+00:00,SAT-47376,175.91209979226667,69.79530084624233,702.4816967473522,-0.9816645454187558,34382.044817474816,10.5,10500034382.044817,47.655,-122.3035,60.0,9.383333333333333
2026-01-20T23:09:24+00:00,SAT-47376,175.70009197280118,70.38043858978178,701.5026499740546,-0.9137286973995552,32002.644051490213,10.5,10500032002.64405,47.655,-122.3035,60.0,9.4
2026-01-20T23:09:25+00:00,SAT-47376,175.47617798456503,70.96686877234468,700.5913578865149,-0.8455267201125056,29613.922312819854,10.5,10500029613.922314,47.655,-122.3035,60.0,9.416666666666666
2026-01-20T23:09:26+00:00,SAT-47376,175.23921830341226,71.55446589818992,699.7480859043226,-0.7770772642952235,27216.532829187607,10.5,10500027216.53283,47.655,-122.3035,60.0,9.433333333333334
2026-01-20T23:09:27+00:00,SAT-47376,174.98792404649797,72.14309996504693,698.9730808460655,-0.7083993375630908,24811.141327686284,10.5,10500024811.141327,47.655,-122.3035,60.0,9.45
2026-01-20T23:09:28+00:00,SAT-47376,174.7208318189925,72.73263608652054,698.2665705734025,-0.6395122717713824,22398.42489166127,10.5,10500022398.424892,47.655,-122.3035,60.0,9.466666666666667
2026-01-20T23:09:29+00:00,SAT-47376,174.43627333732334,73.32293401041693,697.6287636676893,-0.5704357084204638,19979.071449538835,10.5,10500019979.07145,47.655,-122.3035,60.0,9.483333333333333
2026-01-20T23:09:30+00:00,SAT-47376,174.13233851937372,73.91384752033278,697.0598491211579,-0.5011895606254523,17553.778442842777,10.5,10500017553.778442,47.655,-122.3035,60.0,9.5
2026-01-20T23:09:31+00:00,SAT-47376,173.8068303653769,74.50522367025224,696.5599960660275,-0.4317939965610853,15123.252246363701,10.5,10500015123.252247,47.655,-122.3035,60.0,9.516666666666667
2026-01-20T23:09:32+00:00,SAT-47376,173.45720942346804,75.0969018257652,696.1293535201239,-0.3622693978043431,12688.206709141437,10.5,10500012688.206709,47.655,-122.3035,60.0,9.533333333333333
2026-01-20T23:09:33+00:00,SAT-47376,173.08052496681833,75.68871243044944,695.7680501740471,-0.29263634589915133,10249.362683904106,10.5,10500010249.362684,47.655,-122.3035,60.0,9.55
2026-01-20T23:09:34+00:00,SAT-47376,172.6733290333488,76.28047545114335,695.4761941917369,-0.2229155791613851,7807.446514196643,10.5,10500007807.446514,47.655,-122.3035,60.0,9.566666666666666
2026-01-20T23:09:35+00:00,SAT-47376,172.23156822005714,76.87199836454165,695.2538730541199,-0.1531279667672842,5363.189126847496,10.5,10500005363.189127,47.655,-122.3035,60.0,9.583333333333334
2026-01-20T23:09:36+00:00,SAT-47376,171.7504462847998,77.4630735602128,695.1011534285974,-0.08329448103095428,2917.32506100944,10.5,10500002917.325062,47.655,-122.3035,60.0,9.6
2026-01-20T23:09:37+00:00,SAT-47376,171.22424806281245,78.05347497057136,695.0180810661826,-0.013436160950905909,470.59119140519545,10.5,10500000470.591192,47.655,-122.3035,60.0,9.616666666666667
2026-01-20T23:09:38+00:00,SAT-47376,170.64611159794077,78.64295363290012,695.0046807349942,0.056425915904535565,-1976.2742563644595,10.5,10499998023.725744,47.655,-122.3035,60.0,9.633333333333333
2026-01-20T23:09:39+00:00,SAT-47376,170.00773010970946,79.23123182129278,695.0609561817896,0.12627066670239623,-4422.532872308483,10.5,10499995577.467127,47.655,-122.3035,60.0,9.65
2026-01-20T23:09:40+00:00,SAT-47376,169.2989577978884,79.81799517364234,695.1868901267142,0.19607703406198337,-6867.447137882386,10.5,10499993132.552862,47.655,-122.3035,60.0,9.666666666666666
2026-01-20T23:09:41+00:00,SAT-47376,168.507282098814,80.40288202949755,695.3824442886853,0.26582401888829665,-9310.281575953173,10.5,10499990689.718424,47.655,-122.3035,60.0,9.683333333333334
2026-01-20T23:09:42+00:00,SAT-47376,167.61710801400278,80.98546877275264,695.6475594435232,0.3354907098125643,-11750.30378193145,10.5,10499988249.696218,47.655,-122.3035,60.0,9.7
2026-01-20T23:09:43+00:00,SAT-47376,166.60877421943252,81.56524938540399,695.9821555114429,0.40505631544450404,-14186.785553382042,10.5,10499985813.214447,47.655,-122.3035,60.0,9.716666666666667
2026-01-20T23:09:44+00:00,SAT-47376,165.45718075964456,82.14160646970494,696.3861316767129,0.4745001963216868,-16619.00400902584,10.5,10499983380.99599,47.655,-122.3035,60.0,9.733333333333333
2026-01-20T23:09:45+00:00,SAT-47376,164.1298461096707,82.71376942093518,696.8593665391777,0.543801894483861,-19046.24262455775,10.5,10499980953.757376,47.655,-122.3035,60.0,9.75
2026-01-20T23:09:46+00:00,SAT-47376,162.5841142845171,83.2807528642894,697.4017182952763,0.6129411576615452,-21467.79207983353,10.5,10499978532.20792,47.655,-122.3035,60.0,9.766666666666667
2026-01-20T23:09:47+00:00,SAT-47376,160.76308119318216,83.84126411870442,698.0130249431841,0.6818979775808071,-23882.951600465123,10.5,10499976117.048399,47.655,-122.3035,60.0,9.783333333333333
2026-01-20T23:09:48+00:00,SAT-47376,158.58957799923138,84.393561015463,698.6931045261581,0.7506526101628379,-26291.02966529531,10.5,10499973708.970335,47.655,-122.3035,60.0,9.8
2026-01-20T23:09:49+00:00,SAT-47376,155.95721835688232,84.93522843990831,699.4417553960271,0.8191856089019224,-28691.345175435283,10.5,10499971308.654825,47.655,-122.3035,60.0,9.816666666666666
2026-01-20T23:09:50+00:00,SAT-47376,152.71712867119317,85.46281971573373,700.2587565099719,0.8874778405767976,-31083.22800454298,10.5,10499968916.771996,47.655,-122.3035,60.0,9.833333333333334
2026-01-20T23:09:51+00:00,SAT-47376,148.6588596141759,85.9712719518885,701.1438677429738,0.9555105271268197,-33466.02046550353,10.5,10499966533.979534,47.655,-122.3035,60.0,9.85
2026-01-20T23:09:52+00:00,SAT-47376,143.48546248962282,86.45295098644421,702.0968302420283,1.023265248230161,-35839.07740072864,10.5,10499964160.9226,47.655,-122.3035,60.0,9.866666666666667
2026-01-20T23:09:53+00:00,SAT-47376,136.79033834323235,86.89613930679263,703.1173667829298,1.0907239887331677,-38201.76784333334,10.5,10499961798.232157,47.655,-122.3035,60.0,9.883333333333333
2026-01-20T23:09:54+00:00,SAT-47376,128.06946914469316,87.28290875618079,704.2051821743598,1.1578691306967193,-40553.47473856581,10.5,10499959446.52526,47.655,-122.3035,60.0,9.9
2026-01-20T23:09:55+00:00,SAT-47376,116.86455843267343,87.5871698534566,705.3599636540413,1.2246835033590602,-42893.596693717125,10.5,10499957106.403307,47.655,-122.3035,60.0,9.916666666666666
2026-01-20T23:09:56+00:00,SAT-47376,103.18121918157424,87.77619900454262,706.5813813347247,1.2911503844452277,-45221.54802398295,10.5,10499954778.451977,47.655,-122.3035,60.0,9.933333333333334
2026-01-20T23:09:57+00:00,SAT-47376,88.04931378762228,87.82132487673911,707.8690886514781,1.3572535180582943,-47536.75937909049,10.5,10499952463.240622,47.655,-122.3035,60.0,9.95
2026-01-20T23:09:58+00:00,SAT-47376,73.38115535166594,87.71554080330864,709.2227228268216,1.4229771321447209,-49838.67835500908,10.5,10499950161.321646,47.655,-122.3035,60.0,9.966666666666667
2026-01-20T23:09:59+00:00,SAT-47376,60.7833724025432,87.47923037563856,710.6419053532805,1.4883059641308674,-52126.77039184924,10.5,10499947873.229609,47.655,-122.3035,60.0,9.983333333333333
2026-01-20T23:10:00+00:00,SAT-47376,50.76322649603911,87.14598105534131,712.1262425015071,1.5532252581615806,-54400.51867714629,10.5,10499945599.481323,47.655,-122.3035,60.0,10.0
2026-01-20T23:10:01+00:00,SAT-47376,43.04073686385381,86.74668696264926,713.675325825647,1.6177207816530401,-56659.42472561108,10.5,10499943340.575274,47.655,-122.3035,60.0,10.016666666666667
2026-01-20T23:10:02+00:00,SAT-47376,37.10417563824367,86.30383222582034,715.2887326852156,1.6817788423356528,-58903.008976044206,10.5,10499941096.991024,47.655,-122.3035,60.0,10.033333333333333
2026-01-20T23:10:03+00:00,SAT-47376,32.48774500901295,85.83233401864857,716.9660267839716,1.7453862834227893,-61130.81062212475,10.5,10499938869.189379,47.655,-122.3035,60.0,10.05
2026-01-20T23:10:04+00:00,SAT-47376,28.837261580709182,85.34185971454514,718.706758703972,1.8085305167863548,-63342.38877435912,10.5,10499936657.611225,47.655,-122.3035,60.0,10.066666666666666
2026-01-20T23:10:05+00:00,SAT-47376,25.898936856352186,84.83872751823846,720.5104664727136,1.8711994831204888,-65537.32106484524,10.5,10499934462.678936,47.655,-122.3035,60.0,10.083333333333334
2026-01-20T23:10:06+00:00,SAT-47376,23.493457482949044,84.32715771234734,722.3766760905457,1.9333817164717553,-67715.20590739287,10.5,10499932284.794092,47.655,-122.3035,60.0,10.1
2026-01-20T23:10:07+00:00,SAT-47376,21.493500692761913,83.81004463109558,724.3049021224402,1.9950662927231915,-69875.66069321701,10.5,10499930124.339306,47.655,-122.3035,60.0,10.116666666666667
2026-01-20T23:10:08+00:00,SAT-47376,19.807483796236735,83.28942764112541,726.2946482383829,2.0562428651226816,-72018.32303529182,10.5,10499927981.676964,47.655,-122.3035,60.0,10.133333333333333
2026-01-20T23:10:09+00:00,SAT-47376,18.36847538562115,82.76678148724741,728.3454077891986,2.1169016437450328,-74142.85004902573,10.5,10499925857.14995,47.655,-122.3035,60.0,10.15
2026-01-20T23:10:10+00:00,SAT-47376,17.126742759454924,82.24319876884789,730.4566643618936,2.1770334224989005,-76248.91929815811,10.5,10499923751.080702,47.655,-122.3035,60.0,10.166666666666666
2026-01-20T23:10:11+00:00,SAT-47376,16.04473087864628,81.71950720532065,732.6278923619325,2.236629541983676,-78336.22749385043,10.5,10499921663.772507,47.655,-122.3035,60.0,10.183333333333334
2026-01-20T23:10:12+00:00,SAT-47376,15.0936445133112,81.19634674603542,734.8585575584709,2.2956819147739265,-80404.49138025424,10.5,10499919595.50862,47.655,-122.3035,60.0,10.2
2026-01-20T23:10:13+00:00,SAT-47376,14.25108950566362,80.6742213975485,737.1481176548054,2.3541829991107615,-82453.44681307158,10.5,10499917546.553186,47.655,-122.3035,60.0,10.216666666666667
2026-01-20T23:10:14+00:00,SAT-47376,13.499420394256582,80.15353480026035,739.4960228325851,2.412125826491944,-84482.8497258774,10.5,10499915517.150274,47.655,-122.3035,60.0,10.233333333333333
2026-01-20T23:10:15+00:00,SAT-47376,12.8245651828206,79.634615119626,741.9017163235399,2.4695039442697384,-86492.47411965331,10.5,10499913507.52588,47.655,-122.3035,60.0,10.25
2026-01-20T23:10:16+00:00,SAT-47376,12.21517706647621,79.1177327927302,744.3646349239582,2.526311472929306,-88482.11406891936,10.5,10499911517.885931,47.655,-122.3035,60.0,10.266666666666667
2026-01-20T23:10:17+00:00,SAT-47376,11.662013434822397,78.60311337414511,746.8842095662931,2.582543023486991,-90451.58082867251,10.5,10499909548.41917,47.655,-122.3035,60.0,10.283333333333333
2026-01-20T23:10:18+00:00,SAT-47376,11.157475191986789,78.09094700225457,749.459865808384,2.6381937623578335,-92400.70510632143,10.5,10499907599.294893,47.655,-122.3035,60.0,10.3
2026-01-20T23:10:19+00:00,SAT-47376,10.69526067937101,77.58139545198331,752.0910243873756,2.693259357893905,-94329.33518923282,10.5,10499905670.66481,47.655,-122.3035,60.0,10.316666666666666
2026-01-20T23:10:20+00:00,SAT-47376,10.270102652148278,77.07459747787456,754.777101720315,2.747735973182067,-96237.33669247845,10.5,10499903762.663307,47.655,-122.3035,60.0,10.333333333333334
2026-01-20T23:10:21+00:00,SAT-47376,9.87756617322442,76.57067290677789,757.5175103975687,2.801620261951788,-98124.59241550957,10.5,10499901875.407585,47.655,-122.3035,60.0,10.35
2026-01-20T23:10:22+00:00,SAT-47376,9.513891722813636,76.06972580903562,760.3116596721553,2.854909366399201,-99991.0022659463,10.5,10499900008.997734,47.655,-122.3035,60.0,10.366666666666667
2026-01-20T23:10:23+00:00,SAT-47376,9.175872241214996,75.5718469826379,763.1589559469107,2.9076009017792743,-101836.48271993014,10.5,10499898163.51728,47.655,-122.3035,60.0,10.383333333333333
2026-01-20T23:10:24+00:00,SAT-47376,8.860755904894788,75.07711592168445,766.0588032462853,2.9596929034685022,-103660.96496803557,10.5,10499896339.035032,47.655,-122.3035,60.0,10.4
2026-01-20T23:10:25+00:00,SAT-47376,8.566168609941705,74.58560239863569,769.0106036353445,3.0111839013774233,-105464.39752151119,10.5,10499894535.602478,47.655,-122.3035,60.0,10.416666666666666
2026-01-20T23:10:26+00:00,SAT-47376,8.290051672823592,74.09736772929266,772.0137577129849,3.06207280404132,-107246.74215264567,10.5,10499892753.257847,47.655,-122.3035,60.0,10.433333333333334
2026-01-20T23:10:27+00:00,SAT-47376,8.03061140889368,73.61246582109104,775.0676649895488,3.112358979364777,-109007.97672278386,10.5,10499890992.023277,47.655,-122.3035,60.0,10.45
2026-01-20T23:10:28+00:00,SAT-47376,7.7862780274287955,73.13094402223189,778.1717243449685,3.162042157928933,-110748.09179573756,10.5,10499889251.908205,47.655,-122.3035,60.0,10.466666666666667
2026-01-20T23:10:29+00:00,SAT-47376,7.555671916993323,72.65284383993414,781.3253343904763,3.2111224848099504,-112467.09245268765,10.5,10499887532.907547,47.655,-122.3035,60.0,10.483333333333333
2026-01-20T23:10:30+00:00,SAT-47376,7.337575813773027,72.17820153322444,784.5278938819935,3.2596004796274727,-114164.99689291205,10.5,10499885835.003107,47.655,-122.3035,60.0,10.5
2026-01-20T23:10:31+00:00,SAT-47376,7.130911699703386,71.70704861822121,787.7788020936754,3.307477000168931,-115841.835159755,10.5,10499884158.16484,47.655,-122.3035,60.0,10.516666666666667
2026-01-20T23:10:32+00:00,SAT-47376,6.934721522108658,71.23941230250304,791.0774591551772,3.354753266239906,-117497.64997596775,10.5,10499882502.350023,47.655,-122.3035,60.0,10.533333333333333
2026-01-20T23:10:33+00:00,SAT-47376,6.748151016685256,70.77531585376046,794.423266412707,3.4014308328890857,-119132.49580593318,10.5,10499880867.504194,47.655,-122.3035,60.0,10.55
2026-01-20T23:10:34+00:00,SAT-47376,6.57043607104778,70.31477892140613,797.8156267633751,3.4475115610158795,-120746.43782622021,10.5,10499879253.562174,47.655,-122.3035,60.0,10.566666666666666
2026-01-20T23:10:35+00:00,SAT-47376,6.4008911767378835,69.85781782002594,801.2539449602283,3.492997633566621,-122339.55249284332,10.5,10499877660.447508,47.655,-122.3035,60.0,10.583333333333334
2026-01-20T23:10:36+00:00,SAT-47376,6.238899605259431,69.40444577529469,804.7376279334387,3.537891495881892,-123911.9254519734,10.5,10499876088.074549,47.655,-122.3035,60.0,10.6
2026-01-20T23:10:37+00:00,SAT-47376,6.083905018868849,68.95467314840982,808.2660850519983,3.5821958873675066,-125463.6526491898,10.5,10499874536.347351,47.655,-122.3035,60.0,10.616666666666667
2026-01-20T23:10:38+00:00,SAT-47376,5.935404274967833,68.50850763109955,811.8387284169994,3.6259138159053923,-126994.83943324091,10.5,10499873005.160566,47.655,-122.3035,60.0,10.633333333333333
2026-01-20T23:10:39+00:00,SAT-47376,5.792941232983111,68.06595442289968,815.4549731293957,3.669048516935927,-128505.59912293468,10.5,10499871494.400877,47.655,-122.3035,60.0,10.65
2026-01-20T23:10:40+00:00,SAT-47376,5.6561014055626435,67.6270163952026,819.1142375169533,3.7116034829707703,-129996.05404080274,10.5,10499870003.94596,47.655,-122.3035,60.0,10.666666666666666
2026-01-20T23:10:41+00:00,SAT-47376,5.524507320730316,67.19169423586042,822.815943390636,3.7535824202187187,-131466.3339939544,10.5,10499868533.666006,47.655,-122.3035,60.0,10.683333333333334
2026-01-20T23:10:42+00:00,SAT-47376,5.397814489776077,66.75998658542503,826.5595162577341,3.7949892313700158,-132916.57567111033,10.5,10499867083.42433,47.655,-122.3035,60.0,10.7
2026-01-20T23:10:43+00:00,SAT-47376,5.275707889853049,66.33189016330726,830.3443855178206,3.835828052430216,-134346.92393268034,10.5,10499865653.076067,47.655,-122.3035,60.0,10.716666666666667
2026-01-20T23:10:44+00:00,SAT-47376,5.157898885056428,65.90739987913481,834.1699846954443,3.876103158650864,-135757.52851605782,10.5,10499864242.471483,47.655,-122.3035,60.0,10.733333333333333
2026-01-20T23:10:45+00:00,SAT-47376,5.044122526960686,65.48650894552279,838.0357515790054,3.9158190313279944,-137148.54637518578,10.5,10499862851.453625,47.655,-122.3035,60.0,10.75
2026-01-20T23:10:46+00:00,SAT-47376,4.934135177342407,65.06920897478098,841.9411284262499,3.9549803135253936,-138520.14012979818,10.5,10499861479.85987,47.655,-122.3035,60.0,10.766666666666667
2026-01-20T23:10:47+00:00,SAT-47376,4.8277124117684,64.65549007323135,845.8855621256059,3.9935917752278742,-139872.4768449401,10.5,10499860127.523155,47.655,-122.3035,60.0,10.783333333333333
2026-01-20T23:10:48+00:00,SAT-47376,4.724647166032302,64.24534093233159,849.8685043227664,4.031658324846481,-141205.72843392895,10.5,10499858794.271566,47.655,-122.3035,60.0,10.8
2026-01-20T23:10:49+00:00,SAT-47376,4.624748092186266,63.83874891225557,853.8894115587467,4.069185054994986,-142520.07326164076,10.5,10499857479.926739,47.655,-122.3035,60.0,10.816666666666666
2026-01-20T23:10:50+00:00,SAT-47376,4.527838096482103,63.43570011531058,857.9477454535951,4.106177104015004,-143815.691294534,10.5,10499856184.308706,47.655,-122.3035,60.0,10.833333333333334
2026-01-20T23:10:51+00:00,SAT-47376,4.433753039813423,63.03617946832507,862.0429727519993,4.142639745825676,-145092.76724756564,10.5,10499854907.232752,47.655,-122.3035,60.0,10.85
2026-01-20T23:10:52+00:00,SAT-47376,4.342340575666995,62.64017079089208,866.1745654585028,4.1785783707627795,-146351.48991309578,10.5,10499853648.510086,47.655,-122.3035,60.0,10.866666666666667
2026-01-20T23:10:53+00:00,SAT-47376,4.253459110931486,62.24765686131467,870.3420009536102,4.21399845565741,-147592.05111291626,10.5,10499852407.948887,47.655,-122.3035,60.0,10.883333333333333
2026-01-20T23:10:54+00:00,SAT-47376,4.166976874930437,61.85861948139395,874.5447620800525,4.248905514090924,-148814.6439559687,10.5,10499851185.356045,47.655,-122.3035,60.0,10.9
2026-01-20T23:10:55+00:00,SAT-47376,4.082771084050767,61.47303954188702,878.7823371794393,4.283305189232969,-150019.4660899247,10.5,10499849980.53391,47.655,-122.3035,60.0,10.916666666666666
2026-01-20T23:10:56+00:00,SAT-47376,4.000727188446051,61.09089707565685,883.0542202215008,4.317203147727103,-151206.7159846115,10.5,10499848793.284016,47.655,-122.3035,60.0,10.933333333333334
2026-01-20T23:10:57+00:00,SAT-47376,3.9207381946893887,60.71217131732889,887.3599108275007,4.3506051526980825,-152376.59548903618,10.5,10499847623.40451,47.655,-122.3035,60.0,10.95
2026-01-20T23:10:58+00:00,SAT-47376,3.8427040529226724,60.33684075307207,891.6989143664583,4.383516962982056,-153529.3063020004,10.5,10499846470.693699,47.655,-122.3035,60.0,10.966666666666667
2026-01-20T23:10:59+00:00,SAT-47376,3.766531103957993,59.964883176321585,896.0707419508724,4.415944400220206,-154665.05232200393,10.5,10499845334.947678,47.655,-122.3035,60.0,10.983333333333333
2026-01-20T23:11:00+00:00,SAT-47376,3.692131577307085,59.59627573457432,900.4749104993587,4.447893338586616,-155784.0392874709,10.5,10499844215.960712,47.655,-122.3035,60.0,11.0
2026-01-20T23:11:01+00:00,SAT-47376,3.6194231357320223,59.23099497453285,904.9109427890423,4.479369676382211,-156886.4737818495,10.5,10499843113.526218,47.655,-122.3035,60.0,11.016666666666667
2026-01-20T23:11:02+00:00,SAT-47376,3.54832846171831,58.869016887117304,909.3783674796209,4.510379285478964,-157972.56146293422,10.5,10499842027.438538,47.655,-122.3035,60.0,11.033333333333333
2026-01-20T23:11:03+00:00,SAT-47376,3.4787748816343886,58.5103169540637,913.8767190870052,4.540928118940261,-159042.51083218626,10.5,10499840957.489168,47.655,-122.3035,60.0,11.05
2026-01-20T23:11:04+00:00,SAT-47376,3.410694021750558,58.15487018333439,918.4055380642951,4.57102208776109,-160096.52891765357,10.5,10499839903.471083,47.655,-122.3035,60.0,11.066666666666666
2026-01-20T23:11:05+00:00,SAT-47376,3.3440214957350003,57.80265115237902,922.964370759822,4.600667138094694,-161134.82397877498,10.5,10499838865.176022,47.655,-122.3035,60.0,11.083333333333334
2026-01-20T23:11:06+00:00,SAT-47376,3.278696618058358,57.45363404298441,927.5527694522152,4.629869202310135,-162157.60379220886,10.5,10499837842.396208,47.655,-122.3035,60.0,11.1
2026-01-20T23:11:07+00:00,SAT-47376,3.214662142192492,57.10779267801178,932.1702923366526,4.658634195168811,-163165.07551791886,10.5,10499836834.924482,47.655,-122.3035,60.0,11.116666666666667
2026-01-20T23:11:08+00:00,SAT-47376,3.151864020765677,56.76510055635819,936.8165035073008,4.686968054998659,-164157.44714126835,10.5,10499835842.552858,47.655,-122.3035,60.0,11.133333333333333
2026-01-20T23:11:09+00:00,SAT-47376,3.090251184900507,56.425530883034426,941.4909729808195,4.714876641551499,-165134.9238955529,10.5,10499834865.076105,47.655,-122.3035,60.0,11.15
2026-01-20T23:11:10+00:00,SAT-47376,3.0297753426917513,56.089056604958124,946.1932766179935,4.74236587076323,-166097.71298187203,10.5,10499833902.287018,47.655,-122.3035,60.0,11.166666666666666
2026-01-20T23:11:11+00:00,SAT-47376,2.97039079229209,55.755650435171,950.9229961797681,4.769441583114743,-167046.01895857166,10.5,10499832953.981041,47.655,-122.3035,60.0,11.183333333333334
2026-01-20T23:11:12+00:00,SAT-47376,2.9120542512302356,55.425284885030585,955.6797192519945,4.79610962470809,-167980.0465808748,10.5,10499832019.953419,47.655,-122.3035,60.0,11.2
2026-01-20T23:11:13+00:00,SAT-47376,2.854724698163288,55.0979322889709,960.4630392510367,4.8223757698243475,-168899.9980885298,10.5,10499831100.001911,47.655,-122.3035,60.0,11.216666666666667
2026-01-20T23:11:14+00:00,SAT-47376,2.7983632276332866,54.773564833191635,965.2725553521415,4.8482458003305275,-169806.07598697676,10.5,10499830193.924013,47.655,-122.3035,60.0,11.233333333333333
2026-01-20T23:11:15+00:00,SAT-47376,2.7429329150415716,54.452154577387496,970.1078724970045,4.873725441255998,-170698.480790961,10.5,10499829301.519209,47.655,-122.3035,60.0,11.25
2026-01-20T23:11:16+00:00,SAT-47376,2.688398692449703,54.13367347956269,974.9686013370839,4.898820390443167,-171577.41206302546,10.5,10499828422.587936,47.655,-122.3035,60.0,11.266666666666667
2026-01-20T23:11:17+00:00,SAT-47376,2.6347272332483525,53.81809341750926,979.8543582064858,4.923536270566066,-172443.06673299862,10.5,10499827556.933268,47.655,-122.3035,60.0,11.283333333333333
2026-01-20T23:11:18+00:00,SAT-47376,2.5818868457762085,53.50538621213676,984.764765046997,4.947878714364274,-173295.64208324705,10.5,10499826704.357916,47.655,-122.3035,60.0,11.3
2026-01-20T23:11:19+00:00,SAT-47376,2.529847373819512,53.19552364408097,989.699449418123,4.971853258073809,-174135.33201617433,10.5,10499825864.667984,47.655,-122.3035,60.0,11.316666666666666
2026-01-20T23:11:20+00:00,SAT-47376,2.478580105220645,52.88847747602714,994.658044400842,4.995465426957204,-174962.33004984615,10.5,10499825037.66995,47.655,-122.3035,60.0,11.333333333333334
2026-01-20T23:11:21+00:00,SAT-47376,2.428057686164926,52.58421946846868,999.6401885866605,5.01872066235733,-175776.8267631068,10.5,10499824223.173237,47.655,-122.3035,60.0,11.35
2026-01-20T23:11:22+00:00,SAT-47376,2.3782540421158367,52.28272139897251,1004.6455259939183,5.041624387525833,-176579.01210116918,10.5,10499823420.9879,47.655,-122.3035,60.0,11.366666666666667
2026-01-20T23:11:23+00:00,SAT-47376,2.329144303619725,51.98395507637352,1009.673706049744,5.064181942463262,-177369.07309344067,10.5,10499822630.926907,47.655,-122.3035,60.0,11.383333333333333
2026-01-20T23:11:24+00:00,SAT-47376,2.2807047377667744,51.68789235797418,1014.7243835070274,5.086398628412177,-178147.19541186013,10.5,10499821852.804588,47.655,-122.3035,60.0,11.4
2026-01-20T23:11:25+00:00,SAT-47376,2.2329126838511226,51.39450516312526,1019.7972184057638,5.108279683300998,-178913.56251083701,10.5,10499821086.437489,47.655,-122.3035,60.0,11.416666666666666
2026-01-20T23:11:26+00:00,SAT-47376,2.185746493613415,51.103765487372506,1024.8918760099093,5.129830299215831,-179668.35623918936,10.5,10499820331.64376,47.655,-122.3035,60.0,11.433333333333334
2026-01-20T23:11:27+00:00,SAT-47376,2.1391854752070905,50.81564541478178,1030.0080267616606,5.151055597484865,-180411.7559674936,10.5,10499819588.244032,47.655,-122.3035,60.0,11.45
2026-01-20T23:11:28+00:00,SAT-47376,2.0932098410704807,50.53011713087223,1035.1453462108855,5.171960648986969,-181143.9392993775,10.5,10499818856.060701,47.655,-122.3035,60.0,11.466666666666667
2026-01-20T23:11:29+00:00,SAT-47376,2.047800659017591,50.24715293361588,1040.3035149648085,5.19255044624432,-181865.081094086,10.5,10499818134.918905,47.655,-122.3035,60.0,11.483333333333333
2026-01-20T23:11:30+00:00,SAT-47376,2.002939806623396,49.96672524526608,1045.482218609863,5.21282995270931,-182575.3551927172,10.5,10499817424.644808,47.655,-122.3035,60.0,11.5
2026-01-20T23:11:31+00:00,SAT-47376,1.9586099281961236,49.6888066207647,1050.681147682698,5.232804043177417,-183274.93233122924,10.5,10499816725.067669,47.655,-122.3035,60.0,11.516666666666667
2026-01-20T23:11:32+00:00,SAT-47376,1.9147943948154678,49.41336975877071,1055.8999975817605,5.252477526588756,-183963.98093904665,10.5,10499816036.01906,47.655,-122.3035,60.0,11.533333333333333
2026-01-20T23:11:33+00:00,SAT-47376,1.8714772667419088,49.140387510743054,1061.138468501612,5.271855184952618,-184642.6685023627,10.5,10499815357.331497,47.655,-122.3035,60.0,11.55
2026-01-20T23:11:34+00:00,SAT-47376,1.8286432578182992,48.86983288742057,1066.3962654060713,5.290941711604745,-185311.1594016479,10.5,10499814688.8406,47.655,-122.3035,60.0,11.566666666666666
2026-01-20T23:11:35+00:00,SAT-47376,1.7862777024981726,48.601679067984364,1071.6730979397782,5.309741735824985,-185969.61577386427,10.5,10499814030.384226,47.655,-122.3035,60.0,11.583333333333334
2026-01-20T23:11:36+00:00,SAT-47376,1.7443665246543785,48.33589940735481,1076.9686803643076,5.328259811663195,-186618.19712110152,10.5,10499813381.80288,47.655,-122.3035,60.0,11.6
2026-01-20T23:11:37+00:00,SAT-47376,1.7028962083667565,48.07246744349438,1082.2827314831397,5.346500488065687,-187257.06276670145,10.5,10499812742.937233,47.655,-122.3035,60.0,11.616666666666667
2026-01-20T23:11:38+00:00,SAT-47376,1.6618537699227567,47.81135690077647,1087.6149746365709,5.364468179227861,-187886.36731445906,10.5,10499812113.632685,47.655,-122.3035,60.0,11.633333333333333
2026-01-20T23:11:39+00:00,SAT-47376,1.621226732354287,47.55254169932196,1092.9651375673207,5.382167276096092,-188506.26455389,10.5,10499811493.735447,47.655,-122.3035,60.0,11.65
2026-01-20T23:11:40+00:00,SAT-47376,1.5810031006725982,47.29599595834712,1098.3329523973473,5.399602084547377,-189116.90529502064,10.5,10499810883.094706,47.655,-122.3035,60.0,11.666666666666666
2026-01-20T23:11:41+00:00,SAT-47376,1.5411713389743347,47.04169400211747,1103.7181555430022,5.416776907679764,-189718.44025054667,10.5,10499810281.55975,47.655,-122.3035,60.0,11.683333333333334
2026-01-20T23:11:42+00:00,SAT-47376,1.5017203483027108,46.789610361611224,1109.1204877122618,5.433695884036984,-190311.01436977557,10.5,10499809688.98563,47.655,-122.3035,60.0,11.7
2026-01-20T23:11:43+00:00,SAT-47376,1.462639446756121,46.53971978343895,1114.5396937406078,5.450363168334828,-190894.77316842874,10.5,10499809105.226831,47.655,-122.3035,60.0,11.716666666666667
2026-01-20T23:11:44+00:00,SAT-47376,1.4239183496156276,46.29199722985529,1119.9755226071604,5.466782840605432,-191469.8595464901,10.5,10499808530.140453,47.655,-122.3035,60.0,11.733333333333333
2026-01-20T23:11:45+00:00,SAT-47376,1.3855471511340944,46.04641788275909,1125.427727360191,5.482958894153351,-192036.41336637692,10.5,10499807963.586634,47.655,-122.3035,60.0,11.75
2026-01-20T23:11:46+00:00,SAT-47376,1.3475163073458907,45.80295714788655,1130.8960650306265,5.49889528095319,-192594.57304295656,10.5,10499807405.426956,47.655,-122.3035,60.0,11.766666666666667
2026-01-20T23:11:47+00:00,SAT-47376,1.309816619611471,45.561590656606015,1136.3802965908305,5.514595886880991,-193144.4746760454,10.5,10499806855.525324,47.655,-122.3035,60.0,11.783333333333333
2026-01-20T23:11:48+00:00,SAT-47376,1.2724392191367677,45.32229426857888,1141.8801868886799,5.530064528143245,-193686.25192533722,10.5,10499806313.748075,47.655,-122.3035,60.0,11.8
2026-01-20T23:11:49+00:00,SAT-47376,1.2353755523838479,45.08504407427864,1147.3955045780815,5.545305003506746,-194220.03783971388,10.5,10499805779.96216,47.655,-122.3035,60.0,11.816666666666666
2026-01-20T23:11:50+00:00,SAT-47376,1.1986173669250513,44.84981639501808,1152.9260221015788,5.5603209763430845,-194745.96072594455,10.5,10499805254.039274,47.655,-122.3035,60.0,11.833333333333334
2026-01-20T23:11:51+00:00,SAT-47376,1.1621566987279197,44.616587787804576,1158.4715155553183,5.575116117637739,-195264.149157469,10.5,10499804735.850843,47.655,-122.3035,60.0,11.85
2026-01-20T23:11:52+00:00,SAT-47376,1.125985859292308,44.38533504381794,1164.0317646966423,5.589694011532108,-195774.72866607984,10.5,10499804225.271334,47.655,-122.3035,60.0,11.866666666666667
2026-01-20T23:11:53+00:00,SAT-47376,1.0900974239845922,44.15603519074399,1169.606552857477,5.604058193659537,-196277.82308461252,10.5,10499803722.176916,47.655,-122.3035,60.0,11.883333333333333
2026-01-20T23:11:54+00:00,SAT-47376,1.0544842207513048,43.928665493269726,1175.1956668959535,5.618212113848844,-196773.55324066512,10.5,10499803226.44676,47.655,-122.3035,60.0,11.9
2026-01-20T23:11:55+00:00,SAT-47376,1.0191393196193534,43.70320345491408,1180.7988971108318,5.632159227737552,-197262.04016528092,10.5,10499802737.959835,47.655,-122.3035,60.0,11.916666666666666
2026-01-20T23:11:56+00:00,SAT-47376,0.9840560222240389,43.47962681597213,1186.4160372472957,5.645902872598033,-197743.4007438551,10.5,10499802256.599257,47.655,-122.3035,60.0,11.933333333333334
2026-01-20T23:11:57+00:00,SAT-47376,0.9492278525395909,43.25791355633188,1192.0468843789001,5.659446368605639,-198217.7512629728,10.5,10499801782.248737,47.655,-122.3035,60.0,11.95
2026-01-20T23:11:58+00:00,SAT-47376,0.914648547507966,43.0380418940454,1197.6912388905228,5.672792942747023,-198685.20474535666,10.5,10499801314.795254,47.655,-122.3035,60.0,11.966666666666667
2026-01-20T23:11:59+00:00,SAT-47376,0.8803120485603917,42.819990286775436,1203.3489043854224,5.685945806435962,-199145.87366830153,10.5,10499800854.126331,47.655,-122.3035,60.0,11.983333333333333
2026-01-20T23:12:00+00:00,SAT-47376,0.8462124931266642,42.60373743006344,1209.019687669708,5.69890811352603,-199599.86849310037,10.5,10499800400.131506,47.655,-122.3035,60.0,12.0
2026-01-20T23:12:01+00:00,SAT-47376,0.812344206792526,42.38926225714341,1214.7033986949314,5.711682940047359,-200047.2969553399,10.5,10499799952.703045,47.655,-122.3035,60.0,12.016666666666667
2026-01-20T23:12:02+00:00,SAT-47376,0.7787016959175174,42.176543939391856,1220.3998504804717,5.7242733251622955,-200488.26549934124,10.5,10499799511.7345,47.655,-122.3035,60.0,12.033333333333333
2026-01-20T23:12:03+00:00,SAT-47376,0.7452796404235295,41.965561885092214,1226.108859076767,5.736682276228032,-200922.8794554743,10.5,10499799077.120544,47.655,-122.3035,60.0,12.05
2026-01-20T23:12:04+00:00,SAT-47376,0.7120728868768954,41.75629573795814,1231.8302435335918,5.748912696018006,-201351.24049114357,10.5,10499798648.759508,47.655,-122.3035,60.0,12.066666666666666
2026-01-20T23:12:05+00:00,SAT-47376,0.6790764422800625,41.548725378232,1237.5638257957537,5.760967510611855,-201773.45109003535,10.5,10499798226.54891,47.655,-122.3035,60.0,12.083333333333334
2026-01-20T23:12:06+00:00,SAT-47376,0.646285467502707,41.3428309190134,1243.3094307263373,5.772849524044558,-202189.6094613156,10.5,10499797810.39054,47.655,-122.3035,60.0,12.1
2026-01-20T23:12:07+00:00,SAT-47376,0.6136952717555983,41.13859270780378,1249.0668859849843,5.784561539845158,-202599.81379643033,10.5,10499797400.186203,47.655,-122.3035,60.0,12.116666666666667
2026-01-20T23:12:08+00:00,SAT-47376,0.5813013066944581,40.93599132357806,1254.8360220273898,5.796106314971224,-203004.16065569554,10.5,10499796995.839344,47.655,-122.3035,60.0,12.133333333333333
2026-01-20T23:12:09+00:00,SAT-47376,0.5490991610632137,40.73500757547845,1260.6166720588544,5.807486508659569,-203402.7431768329,10.5,10499796597.256823,47.655,-122.3035,60.0,12.15
2026-01-20T23:12:10+00:00,SAT-47376,0.5170845557708769,40.53562250321773,1266.4086719368245,5.818704793909087,-203795.65497957062,10.5,10499796204.34502,47.655,-122.3035,60.0,12.166666666666666
2026-01-20T23:12:11+00:00,SAT-47376,0.485253338713737,40.337817373525375,1272.2118601846164,5.8297637789557255,-204182.98741536424,10.5,10499795817.012585,47.655,-122.3035,60.0,12.183333333333334
2026-01-20T23:12:12+00:00,SAT-47376,0.45360148016579477,40.14157367932117,1278.0260779268283,5.840666020095874,-204564.83001652657,10.5,10499795435.169983,47.655,-122.3035,60.0,12.2
