satellites_20260120_184412/SAT-66478.csv

timestamp,satellite,azimuth_deg,elevation_deg,distance_km,relative_velocity_kms,doppler_shift_hz,tx_freq_ghz,rx_freq_hz,ue_lat,ue_lon,ue_alt_m,time_minutes
2026-01-20T23:02:50+00:00,SAT-66478,149.55401656664645,40.40596357142187,386270.09341764415,-137.52478449024443,4816699.68210997,10.5,10504816699.68211,47.655,-122.3035,60.0,2.8333333333333335
2026-01-20T23:02:51+00:00,SAT-66478,147.169210410567,40.88044057506848,386132.93536591256,-130.18120424133397,4559496.438479472,10.5,10504559496.43848,47.655,-122.3035,60.0,2.85
2026-01-20T23:02:52+00:00,SAT-66478,144.75068200959814,41.30518969693515,386003.1013115492,-122.69368874263681,4297251.973555941,10.5,10504297251.973557,47.655,-122.3035,60.0,2.8666666666666667
2026-01-20T23:02:53+00:00,SAT-66478,142.30130728512017,41.678724538145076,385880.7348059765,-115.07025496255724,4030247.0754846376,10.5,10504030247.075485,47.655,-122.3035,60.0,2.8833333333333333
2026-01-20T23:02:54+00:00,SAT-66478,139.82435122626845,41.99969050144446,385765.9714050272,-107.31910274430852,3758768.937460193,10.5,10503758768.93746,47.655,-122.3035,60.0,2.9
2026-01-20T23:02:55+00:00,SAT-66478,137.32344357505173,42.2668846962526,385658.9384865569,-99.4486046308491,3483110.8013528334,10.5,10503483110.801353,47.655,-122.3035,60.0,2.9166666666666665
2026-01-20T23:02:56+00:00,SAT-66478,134.80254388015948,42.4792745564782,385559.755078205,-91.46729609086495,3203571.615380938,10.5,10503203571.615381,47.655,-122.3035,60.0,2.933333333333333
2026-01-20T23:02:57+00:00,SAT-66478,132.2658962529401,42.63601453063169,385468.53169490374,-83.38386335057356,2920455.6079293443,10.5,10502920455.60793,47.655,-122.3035,60.0,2.95
2026-01-20T23:02:58+00:00,SAT-66478,129.71797479283794,42.73646022572633,385385.3701885221,-75.20713317039126,2634071.9294849914,10.5,10502634071.929485,47.655,-122.3035,60.0,2.966666666666667
2026-01-20T23:02:59+00:00,SAT-66478,127.16342109605229,42.78017946253034,385310.36360770685,-66.9460608692914,2344734.2331992877,10.5,10502344734.2332,47.655,-122.3035,60.0,2.9833333333333334
2026-01-20T23:03:00+00:00,SAT-66478,124.60697584440692,42.76695979461962,385243.59606966656,-58.60971856903874,2052760.2631514724,10.5,10502052760.263151,47.655,-122.3035,60.0,3.0
2026-01-20T23:03:01+00:00,SAT-66478,122.05340681059894,42.696812182940086,385185.14264368033,-50.20728293264349,1758471.424897409,10.5,10501758471.424898,47.655,-122.3035,60.0,3.0166666666666666
2026-01-20T23:03:02+00:00,SAT-66478,119.50743587655884,42.56997067430751,385135.06924683554,-41.74802288349488,1462192.3553416955,10.5,10501462192.355341,47.655,-122.3035,60.0,3.033333333333333
2026-01-20T23:03:03+00:00,SAT-66478,116.97366771473573,42.386888101658826,385093.432552013,-33.24128736853504,1164250.494152251,10.5,10501164250.494152,47.655,-122.3035,60.0,3.05
2026-01-20T23:03:04+00:00,SAT-66478,114.45652265328206,42.14822798874596,385060.27990807756,-24.696491992583223,864975.6156378152,10.5,10500864975.615639,47.655,-122.3035,60.0,3.066666666666667
2026-01-20T23:03:05+00:00,SAT-66478,111.96017604281731,41.854853001417126,385035.64927339694,-16.123106553762174,564699.3921858529,10.5,10500564699.392185,47.655,-122.3035,60.0,3.0833333333333335
2026-01-20T23:03:06+00:00,SAT-66478,109.48850591094842,41.50781040890548,385019.569161794,-7.53064174645237,263754.92854376574,10.5,10500263754.928543,47.655,-122.3035,60.0,3.1
2026-01-20T23:03:07+00:00,SAT-66478,107.04505028866133,41.10831512277763,385012.05860175885,1.0713637556541282,-37523.69058720065,10.5,10499962476.309412,47.655,-122.3035,60.0,3.1166666666666667
2026-01-20T23:03:08+00:00,SAT-66478,104.63297491969915,40.65773092626285,385013.12710854446,9.673356748105856,-338801.87157714117,10.5,10499661198.128424,47.655,-122.3035,60.0,3.1333333333333333
2026-01-20T23:03:09+00:00,SAT-66478,102.2550516500459,40.15755054659496,385022.7746696746,18.26578264728113,-639744.9724917759,10.5,10499360255.027508,47.655,-122.3035,60.0,3.15
2026-01-20T23:06:06+00:00,SAT-66478,151.05492679682143,40.078480839704234,386553.095539352,-144.13794079640599,5048320.389575186,10.5,10505048320.389576,47.655,-122.3035,60.0,6.1
2026-01-20T23:06:07+00:00,SAT-66478,148.6928179814412,40.5836162375472,386409.3419663977,-136.93468499571554,4796031.901693181,10.5,10504796031.901693,47.655,-122.3035,60.0,6.116666666666666
2026-01-20T23:06:08+00:00,SAT-66478,146.29536218093037,41.040026450303614,386272.772440562,-129.58029981082265,4538450.223499745,10.5,10504538450.2235,47.655,-122.3035,60.0,6.133333333333334
2026-01-20T23:06:09+00:00,SAT-66478,143.86518006635137,41.44615147016755,386143.53768821736,-122.08262451470809,4275849.919494756,10.5,10504275849.919495,47.655,-122.3035,60.0,6.15
2026-01-20T23:06:10+00:00,SAT-66478,141.40529139923595,41.80055002131253,386021.780617368,-114.44968992264243,4008512.2627993044,10.5,10504008512.2628,47.655,-122.3035,60.0,6.166666666666667
2026-01-20T23:06:11+00:00,SAT-66478,138.91909742705963,42.10191995668597,385907.6361266185,-106.68970982781295,3736724.9351951205,10.5,10503736724.935196,47.655,-122.3035,60.0,6.183333333333334
2026-01-20T23:06:12+00:00,SAT-66478,136.41035267070342,42.34911777715898,385801.23092268355,-98.81106936382272,3460781.6195300636,10.5,10503460781.61953,47.655,-122.3035,60.0,6.2
2026-01-20T23:06:13+00:00,SAT-66478,133.88312617213418,42.541176625130106,385702.6833495047,-90.82231518767365,3180981.655884663,10.5,10503180981.655884,47.655,-122.3035,60.0,6.216666666666667
2026-01-20T23:06:14+00:00,SAT-66478,131.3417527167477,42.677322122747334,385612.10322715755,-82.73214470225481,2897629.6640980723,10.5,10502897629.664099,47.655,-122.3035,60.0,6.233333333333333
2026-01-20T23:06:15+00:00,SAT-66478,128.7907751600115,42.75698545791767,385529.5917015078,-74.54939438026557,2611035.134822466,10.5,10502611035.134823,47.655,-122.3035,60.0,6.25
2026-01-20T23:06:16+00:00,SAT-66478,126.23487953328156,42.77981320297264,385455.24110551254,-66.28302828830431,2321512.027588083,10.5,10502321512.027588,47.655,-122.3035,60.0,6.266666666666667
2026-01-20T23:06:17+00:00,SAT-66478,123.6788250349359,42.74567346873489,385389.13483196637,-57.942126208219285,2029378.3547626887,10.5,10502029378.354763,47.655,-122.3035,60.0,6.283333333333333
2026-01-20T23:06:18+00:00,SAT-66478,121.12737136572726,42.65465813973432,385331.3472180947,-49.53587188511605,1734955.769947083,10.5,10501734955.769947,47.655,-122.3035,60.0,6.3
2026-01-20T23:06:19+00:00,SAT-66478,118.58520602261382,42.507081098668735,385281.94344186794,-41.07354007827548,1438569.1144434747,10.5,10501438569.114443,47.655,-122.3035,60.0,6.316666666666666
2026-01-20T23:06:20+00:00,SAT-66478,116.05687422536121,42.30347252010998,385240.9794312299,-32.564484274237586,1140545.9869157036,10.5,10501140545.986916,47.655,-122.3035,60.0,6.333333333333333
2026-01-20T23:06:21+00:00,SAT-66478,113.5467139034097,42.04456947626429,385208.50178558036,-24.0181238779719,841216.2947698468,10.5,10500841216.29477,47.655,-122.3035,60.0,6.35
2026-01-20T23:06:22+00:00,SAT-66478,111.05879788123777,41.73130324367791,385184.5477100327,-15.443931389866675,540911.8050381377,10.5,10500540911.805038,47.655,-122.3035,60.0,6.366666666666666
2026-01-20T23:06:23+00:00,SAT-66478,108.59688491474827,41.36478381506648,385169.1449624599,-6.8514191175301695,239965.6789700386,10.5,10500239965.67897,47.655,-122.3035,60.0,6.383333333333334
2026-01-20T23:06:24+00:00,SAT-66478,106.16438074669446,40.94628220944051,385162.3118137934,1.7498737686725412,-61287.98133761485,10.5,10499938712.018661,47.655,-122.3035,60.0,6.4
2026-01-20T23:06:25+00:00,SAT-66478,103.7643096953284,40.47721120590398,385164.057021232,10.350394567403171,-362514.59987606923,10.5,10499637485.400124,47.655,-122.3035,60.0,6.416666666666667
2026-01-20T23:09:23+00:00,SAT-66478,150.1290862353413,40.28301869897641,386691.09534564544,-143.4895556991656,5025611.200803587,10.5,10505025611.200804,47.655,-122.3035,60.0,9.383333333333333
2026-01-20T23:09:24+00:00,SAT-66478,147.75271496712085,40.768946780431165,386547.9884287614,-136.27398728738825,4772891.473199024,10.5,10504772891.4732,47.655,-122.3035,60.0,9.4
2026-01-20T23:09:25+00:00,SAT-66478,145.34197826861475,41.20552098896883,386412.0778387735,-128.90798441079087,4514902.89429931,10.5,10504514902.894299,47.655,-122.3035,60.0,9.416666666666666
2026-01-20T23:09:26+00:00,SAT-66478,142.89965564719142,41.59122525107345,386283.5136089878,-121.39940255705312,4251920.596511663,10.5,10504251920.596512,47.655,-122.3035,60.0,9.433333333333334
2026-01-20T23:09:27+00:00,SAT-66478,140.42891999818067,41.92467029737474,386162.4379381709,-113.7562881363928,3984226.399158195,10.5,10503984226.399158,47.655,-122.3035,60.0,9.45
2026-01-20T23:09:28+00:00,SAT-66478,137.9333158506013,42.20461379149995,386048.9850001362,-105.98686849281128,3712108.458627463,10.5,10503712108.458628,47.655,-122.3035,60.0,9.466666666666667
2026-01-20T23:09:29+00:00,SAT-66478,135.4167269788305,42.42997932768994,385943.28076329274,-98.09954267156995,3435860.945012447,10.5,10503435860.945013,47.655,-122.3035,60.0,9.483333333333333
2026-01-20T23:09:30+00:00,SAT-66478,132.88333357559998,42.5998736564289,385845.44281940156,-90.10286967975257,3155783.630945786,10.5,10503155783.630945,47.655,-122.3035,60.0,9.5
2026-01-20T23:09:31+00:00,SAT-66478,130.3375598137544,42.71360150850539,385755.580224041,-82.00555832082927,2872181.5355632035,10.5,10502872181.535563,47.655,-122.3035,60.0,9.516666666666667
2026-01-20T23:09:32+00:00,SAT-66478,127.78401309292668,42.7706774544659,385673.79334720905,-73.81645516248408,2585364.503085941,10.5,10502585364.503086,47.655,-122.3035,60.0,9.533333333333333
2026-01-20T23:09:33+00:00,SAT-66478,125.22741686274706,42.77083432433759,385600.173735927,-65.54453401345744,2295646.8342552604,10.5,10502295646.834255,47.655,-122.3035,60.0,9.55
2026-01-20T23:09:34+00:00,SAT-66478,122.67253923594214,42.71402784443093,385534.8039873375,-57.198883031579776,2003346.8348012532,10.5,10502003346.8348,47.655,-122.3035,60.0,9.566666666666666
2026-01-20T23:09:35+00:00,SAT-66478,120.12412000045644,42.600437298019244,385477.7576346607,-48.788692997799906,1708786.404749712,10.5,10501708786.404749,47.655,-122.3035,60.0,9.583333333333334
2026-01-20T23:09:36+00:00,SAT-66478,117.58679864406574,42.43046218717815,385429.0990448442,-40.323244845496404,1412290.6016458634,10.5,10501412290.601646,47.655,-122.3035,60.0,9.6
2026-01-20T23:09:37+00:00,SAT-66478,115.06504599473158,42.20471504058816,385388.88332865166,-31.811897264338864,1114187.206389155,10.5,10501114187.206388,47.655,-122.3035,60.0,9.616666666666667
2026-01-20T23:09:38+00:00,SAT-66478,112.56310180470268,41.924010669037756,385357.1562631134,-23.264073612644896,814806.2648486355,10.5,10500814806.264849,47.655,-122.3035,60.0,9.633333333333333
2026-01-20T23:09:39+00:00,SAT-66478,110.08492026459386,41.58935230960782,385333.95422703034,-14.689249167292722,514479.6413009616,10.5,10500514479.6413,47.655,-122.3035,60.0,9.65
2026-01-20T23:09:40+00:00,SAT-66478,107.6341248833994,41.20191519956852,385319.30414919415,-6.096937972327119,213540.55781294787,10.5,10500213540.557814,47.655,-122.3035,60.0,9.666666666666666
2026-01-20T23:09:41+00:00,SAT-66478,105.21397366584841,40.76302819289014,385313.22346972313,2.5033202097823546,-87676.86278056643,10.5,10499912323.13722,47.655,-122.3035,60.0,9.683333333333334
2026-01-20T23:09:42+00:00,SAT-66478,102.82733491276137,40.274154055679396,385315.7201144123,11.101973220102069,-388838.0634681334,10.5,10499611161.936531,47.655,-122.3035,60.0,9.7
2026-01-20T23:12:40+00:00,SAT-66478,149.12357700414194,40.4951691442884,386827.70588192897,-142.7427186445314,4999453.808032689,10.5,10504999453.808033,47.655,-122.3035,60.0,12.666666666666666
2026-01-20T23:12:41+00:00,SAT-66478,146.73227490143245,40.960096669823436,386685.34381053416,-135.51309686250272,4746241.871956226,10.5,10504746241.871956,47.655,-122.3035,60.0,12.683333333333334
2026-01-20T23:12:42+00:00,SAT-66478,144.30773709455153,41.375012247465655,386550.19208193,-128.13383146019225,4487788.783305611,10.5,10504487788.783306,47.655,-122.3035,60.0,12.7
2026-01-20T23:12:43+00:00,SAT-66478,141.85291220245315,41.73845079643999,386422.399940687,-120.61279563364054,4224370.294709768,10.5,10504224370.29471,47.655,-122.3035,60.0,12.716666666666667
2026-01-20T23:12:44+00:00,SAT-66478,139.37113426604373,42.049082646218054,386302.10877917503,-112.95805355841186,3956268.8477083854,10.5,10503956268.847708,47.655,-122.3035,60.0,12.733333333333333
2026-01-20T23:12:45+00:00,SAT-66478,136.866096459522,42.30573326873071,386189.45194709284,-105.17784892448164,3683773.171195178,10.5,10503683773.171196,47.655,-122.3035,60.0,12.75
2026-01-20T23:12:46+00:00,SAT-66478,134.3418142230567,42.507401602527025,386084.5545724322,-97.28059601225509,3407177.9688623073,10.5,10503407177.968863,47.655,-122.3035,60.0,12.766666666666667
2026-01-20T23:12:47+00:00,SAT-66478,131.8025782142905,42.653276336763085,385987.53339134256,-89.27486782972592,3126783.5037134993,10.5,10503126783.503714,47.655,-122.3035,60.0,12.783333333333333
2026-01-20T23:12:48+00:00,SAT-66478,129.25289815601818,42.742749544262864,385898.49658982706,-81.16938659450366,2842895.264704386,10.5,10502842895.264704,47.655,-122.3035,60.0,12.8
2026-01-20T23:12:49+00:00,SAT-66478,126.69743907915246,42.775427136654905,385817.5436549302,-72.9730110580161,2555823.5227824477,10.5,10502555823.522783,47.655,-122.3035,60.0,12.816666666666666
2026-01-20T23:12:50+00:00,SAT-66478,124.1409520768672,42.75113571515844,385744.7652385683,-64.69472563308629,2265882.950088778,10.5,10502265882.950089,47.655,-122.3035,60.0,12.833333333333334
2026-01-20T23:12:51+00:00,SAT-66478,121.58820191982194,42.66992553793295,385680.2430322036,-56.34362813778607,1973392.1906959838,10.5,10501973392.190697,47.655,-122.3035,60.0,12.85
2026-01-20T23:12:52+00:00,SAT-66478,119.043894177749,42.53206948138999,385624.04965374083,-47.928918044158955,1678673.4490287579,10.5,10501678673.449028,47.655,-122.3035,60.0,12.866666666666667
2026-01-20T23:12:53+00:00,SAT-66478,116.51260446706499,42.338058042946386,385576.2485461448,-39.45988367056158,1382052.041285497,10.5,10501382052.041285,47.655,-122.3035,60.0,12.883333333333333
2026-01-20T23:12:54+00:00,SAT-66478,113.99871235913417,42.088590600110315,385536.8938888307,-30.945889611575485,1083855.9551806422,10.5,10501083855.955181,47.655,-122.3035,60.0,12.9
2026-01-20T23:12:55+00:00,SAT-66478,111.50634213282359,41.78456329043119,385506.03052159137,-22.396364096166458,784415.407173945,10.5,10500784415.407173,47.655,-122.3035,60.0,12.916666666666666
2026-01-20T23:12:56+00:00,SAT-66478,109.0393121213722,41.42705399859672,385483.69388113276,-13.820786056556976,484062.38956767967,10.5,10500484062.389568,47.655,-122.3035,60.0,12.933333333333334
2026-01-20T23:12:57+00:00,SAT-66478,106.60109388368755,41.01730502567926,385469.9099505057,-5.228671880294806,183130.20650804855,10.5,10500183130.206509,47.655,-122.3035,60.0,12.95
2026-01-20T23:12:58+00:00,SAT-66478,104.19478189198237,40.55670407120748,385464.6952217504,3.3704376309427047,-118046.98277265667,10.5,10499881953.017227,47.655,-122.3035,60.0,12.966666666666667
2026-01-20T23:12:59+00:00,SAT-66478,101.82307383646013,40.046764166908744,385468.0566715477,11.966990471744959,-419134.62664001394,10.5,10499580865.37336,47.655,-122.3035,60.0,12.983333333333333
