satellites_20260120_184412/SAT-53529.csv

timestamp,satellite,azimuth_deg,elevation_deg,distance_km,relative_velocity_kms,doppler_shift_hz,tx_freq_ghz,rx_freq_hz,ue_lat,ue_lon,ue_alt_m,time_minutes
2026-01-20T23:00:00+00:00,SAT-53529,21.35570256625721,40.375581857114135,965.2883944174824,5.787291375763096,-202695.424197471,10.5,10499797304.575802,47.655,-122.3035,60.0,0.0
2026-01-20T23:00:01+00:00,SAT-53529,21.075373205331292,40.21663504406705,971.0602530162436,5.8030284063653115,-203246.60157673404,10.5,10499796753.398424,47.655,-122.3035,60.0,0.016666666666666666
2026-01-20T23:00:02+00:00,SAT-53529,20.79925818659061,40.058666858838265,976.8478066801919,5.818480774588131,-203787.80887534993,10.5,10499796212.191124,47.655,-122.3035,60.0,0.03333333333333333
