satellites_20260120_184412/SAT-63364.csv

timestamp,satellite,azimuth_deg,elevation_deg,distance_km,relative_velocity_kms,doppler_shift_hz,tx_freq_ghz,rx_freq_hz,ue_lat,ue_lon,ue_alt_m,time_minutes
2026-01-20T23:06:34+00:00,SAT-63364,194.55374798169632,40.06076840386219,895.9254151211597,-4.357108570117719,152604.37267650024,10.5,10500152604.372677,47.655,-122.3035,60.0,6.566666666666666
2026-01-20T23:06:35+00:00,SAT-63364,194.61507309149513,40.43615180647808,891.579925507229,-4.3227478016795615,151400.91321988957,10.5,10500151400.91322,47.655,-122.3035,60.0,6.583333333333333
2026-01-20T23:06:36+00:00,SAT-63364,194.67814955229952,40.81488194493022,887.2687050330206,-4.287879035750844,150179.6615423323,10.5,10500150179.661543,47.655,-122.3035,60.0,6.6
2026-01-20T23:06:37+00:00,SAT-63364,194.74303354004147,41.196977764475484,882.992260341365,-4.252496506524552,148940.41570087726,10.5,10500148940.4157,47.655,-122.3035,60.0,6.616666666666666
2026-01-20T23:06:38+00:00,SAT-63364,194.8097836475374,41.58245738155781,878.7511038255245,-4.216594594604541,147682.97888050164,10.5,10500147682.97888,47.655,-122.3035,60.0,6.633333333333334
2026-01-20T23:06:39+00:00,SAT-63364,194.87846101615273,41.97133803886441,874.5457534831722,-4.180167692722696,146407.15469095728,10.5,10500146407.154692,47.655,-122.3035,60.0,6.65
2026-01-20T23:06:40+00:00,SAT-63364,194.94912947387442,42.363636046054985,870.3767329042969,-4.143210298487138,145112.75041520543,10.5,10500145112.750416,47.655,-122.3035,60.0,6.666666666666667
2026-01-20T23:06:41+00:00,SAT-63364,195.02185568371698,42.75936672603908,866.2445711666057,-4.105717001520952,143799.57655896063,10.5,10500143799.57656,47.655,-122.3035,60.0,6.683333333333334
2026-01-20T23:06:42+00:00,SAT-63364,195.0967093016728,43.15854435747756,862.1498027437555,-4.067682504398809,142467.44758397993,10.5,10500142467.447584,47.655,-122.3035,60.0,6.7
2026-01-20T23:06:43+00:00,SAT-63364,195.17376314538427,43.56118211649096,858.0929673927018,-4.029101595634845,141116.18096198363,10.5,10500141116.180962,47.655,-122.3035,60.0,6.716666666666667
2026-01-20T23:06:44+00:00,SAT-63364,195.253093373686,43.96729201295212,854.0746100679885,-3.989969216627,139745.59951932981,10.5,10500139745.59952,47.655,-122.3035,60.0,6.733333333333333
2026-01-20T23:06:45+00:00,SAT-63364,195.33477967941866,44.3768848303159,850.0952807692726,-3.950280400437134,138355.52929283466,10.5,10500138355.529293,47.655,-122.3035,60.0,6.75
2026-01-20T23:06:46+00:00,SAT-63364,195.4189054942141,44.78997005635047,846.1555344499033,-3.9100303697112473,136945.80295935294,10.5,10500136945.80296,47.655,-122.3035,60.0,6.766666666666667
2026-01-20T23:06:47+00:00,SAT-63364,195.50555820940457,45.20655582067909,842.2559308278445,-3.869214471492422,135516.2575526514,10.5,10500135516.257553,47.655,-122.3035,60.0,6.783333333333333
2026-01-20T23:06:48+00:00,SAT-63364,195.59482941093768,45.62664882252499,838.3970342616094,-3.8278282078808274,134066.73553725187,10.5,10500134066.735537,47.655,-122.3035,60.0,6.8
2026-01-20T23:06:49+00:00,SAT-63364,195.68681513152336,46.05025425822537,834.5794135956163,-3.785867301965709,132597.0871176484,10.5,10500132597.087118,47.655,-122.3035,60.0,6.816666666666666
2026-01-20T23:06:50+00:00,SAT-63364,195.78161612223792,46.477375752494275,830.8036419397891,-3.74332761308495,131107.16727033866,10.5,10500131107.16727,47.655,-122.3035,60.0,6.833333333333333
2026-01-20T23:06:51+00:00,SAT-63364,195.87933814176426,46.90801527710831,827.0702965336725,-3.7002052552609856,129596.83989195069,10.5,10500129596.839891,47.655,-122.3035,60.0,6.85
2026-01-20T23:06:52+00:00,SAT-63364,195.98009226958933,47.34217307899337,823.3799584924255,-3.656496511118288,128065.974784269,10.5,10500128065.974785,47.655,-122.3035,60.0,6.866666666666666
2026-01-20T23:06:53+00:00,SAT-63364,196.08399524019086,47.77984759513638,819.7332126386702,-3.6121979139041898,126514.45052695085,10.5,10500126514.450527,47.655,-122.3035,60.0,6.883333333333334
2026-01-20T23:06:54+00:00,SAT-63364,196.19116980430476,48.22103537289748,816.1306472525364,-3.56730623746298,124942.15412637661,10.5,10500124942.154127,47.655,-122.3035,60.0,6.9
2026-01-20T23:06:55+00:00,SAT-63364,196.3017451172695,48.665730985450104,812.5728538317067,-3.521818521629611,123348.98190504484,10.5,10500123348.981905,47.655,-122.3035,60.0,6.916666666666667
2026-01-20T23:06:56+00:00,SAT-63364,196.4158571578989,49.11392694632784,809.0604268261347,-3.475732022033217,121734.8377434791,10.5,10500121734.837744,47.655,-122.3035,60.0,6.933333333333334
2026-01-20T23:06:57+00:00,SAT-63364,196.53364917820144,49.56561361347833,805.593963422827,-3.4290443494476652,120099.63796087386,10.5,10500120099.63796,47.655,-122.3035,60.0,6.95
2026-01-20T23:06:58+00:00,SAT-63364,196.65527219278658,50.02077910636091,802.1740631916444,-3.381753346251976,118443.30698821566,10.5,10500118443.306988,47.655,-122.3035,60.0,6.966666666666667
2026-01-20T23:06:59+00:00,SAT-63364,196.78088550317898,50.47940920315621,798.8013278543159,-3.3338572182312736,116765.78198451002,10.5,10500116765.781984,47.655,-122.3035,60.0,6.983333333333333
2026-01-20T23:07:00+00:00,SAT-63364,196.9106572688029,50.9414872501954,795.4763609219999,-3.2853544453386,115067.00971128268,10.5,10500115067.009712,47.655,-122.3035,60.0,7.0
2026-01-20T23:07:01+00:00,SAT-63364,197.04476512128198,51.40699405488389,792.1997674218488,-3.236243871733167,113346.94968610002,10.5,10500113346.949686,47.655,-122.3035,60.0,7.016666666666667
2026-01-20T23:07:02+00:00,SAT-63364,197.18339683284643,51.87590778550044,788.9721535337736,-3.1865247077649523,111605.57425207808,10.5,10500111605.574251,47.655,-122.3035,60.0,7.033333333333333
2026-01-20T23:07:03+00:00,SAT-63364,197.32675104079246,52.348203866308566,785.7941262252293,-3.1361964965789415,109842.86740822175,10.5,10500109842.867409,47.655,-122.3035,60.0,7.05
2026-01-20T23:07:04+00:00,SAT-63364,197.47503803195337,52.82385486226368,782.6662929193079,-3.085259179624534,108058.82710384132,10.5,10500108058.827105,47.655,-122.3035,60.0,7.066666666666666
2026-01-20T23:07:05+00:00,SAT-63364,197.62848059725349,53.30283036706536,779.5892610974958,-3.033713108614713,106253.46565741318,10.5,10500106253.465658,47.655,-122.3035,60.0,7.083333333333333
2026-01-20T23:07:06+00:00,SAT-63364,197.78731496139923,53.78509688710187,776.5636378905041,-2.9815590121999134,104426.80858935781,10.5,10500104426.80859,47.655,-122.3035,60.0,7.1
2026-01-20T23:07:07+00:00,SAT-63364,197.95179179288124,54.27061771357589,773.5900297023367,-2.9287980630028505,102578.89696988284,10.5,10500102578.89697,47.655,-122.3035,60.0,7.116666666666666
2026-01-20T23:07:08+00:00,SAT-63364,198.12217730761836,54.75935279776108,770.6690417675019,-2.875431864423096,100709.78695682366,10.5,10500100709.786957,47.655,-122.3035,60.0,7.133333333333334
2026-01-20T23:07:09+00:00,SAT-63364,198.2987544720568,55.25125861674676,767.8012777213838,-2.8214624714274623,98819.55052381055,10.5,10500098819.550524,47.655,-122.3035,60.0,7.15
2026-01-20T23:07:10+00:00,SAT-63364,198.48182431799015,55.746288034326554,764.9873391498802,-2.7668923941314274,96908.27558570533,10.5,10500096908.275585,47.655,-122.3035,60.0,7.166666666666667
2026-01-20T23:07:11+00:00,SAT-63364,198.67170738004563,56.24439015351741,762.2278251354664,-2.7117246266911743,94976.06701052275,10.5,10500094976.06701,47.655,-122.3035,60.0,7.183333333333334
2026-01-20T23:07:12+00:00,SAT-63364,198.86874527088716,56.74551016438404,759.5233317744464,-2.655962636001035,93023.04622356735,10.5,10500093023.046223,47.655,-122.3035,60.0,7.2
2026-01-20T23:07:13+00:00,SAT-63364,199.07330240650623,57.24958917924102,756.8744517054747,-2.5996104104778923,91049.35291606926,10.5,10500091049.352917,47.655,-122.3035,60.0,7.216666666666667
2026-01-20T23:07:14+00:00,SAT-63364,199.2857679026719,57.75656406509586,754.2817735894248,-2.542672423566422,89055.14376698372,10.5,10500089055.143766,47.655,-122.3035,60.0,7.233333333333333
2026-01-20T23:07:15+00:00,SAT-63364,199.50655765564227,58.266367256683814,751.7458816256545,-2.4851536801986387,87040.59407020074,10.5,10500087040.59407,47.655,-122.3035,60.0,7.25
2026-01-20T23:07:16+00:00,SAT-63364,199.73611663423839,58.77892656379967,749.2673550219365,-2.427059713698459,85005.8976261298,10.5,10500085005.897627,47.655,-122.3035,60.0,7.266666666666667
2026-01-20T23:07:17+00:00,SAT-63364,199.9749214042398,59.29416496252077,746.8467674674746,-2.3683965922709036,82951.26696897921,10.5,10500082951.26697,47.655,-122.3035,60.0,7.283333333333333
2026-01-20T23:07:18+00:00,SAT-63364,200.2234829128286,59.81200037010446,744.4846865994497,-2.309170918028094,80876.93333264237,10.5,10500080876.933332,47.655,-122.3035,60.0,7.3
2026-01-20T23:07:19+00:00,SAT-63364,200.48234956303568,60.33234539965537,742.1816734705363,-2.249389877773368,78783.1484293723,10.5,10500078783.14843,47.655,-122.3035,60.0,7.316666666666666
2026-01-20T23:07:20+00:00,SAT-63364,200.75211061879813,60.855107103734895,739.9382819657703,-2.1890611807679887,76670.18227010862,10.5,10500076670.18227,47.655,-122.3035,60.0,7.333333333333333
2026-01-20T23:07:21+00:00,SAT-63364,201.03339996826836,61.38018667935553,737.7550582814844,-2.128193125106809,74538.32548923395,10.5,10500074538.325489,47.655,-122.3035,60.0,7.35
2026-01-20T23:07:22+00:00,SAT-63364,201.32690030398098,61.90747915934239,735.6325403380445,-2.0667945620314567,72387.88809467081,10.5,10500072387.888094,47.655,-122.3035,60.0,7.366666666666666
2026-01-20T23:07:23+00:00,SAT-63364,201.63334775938054,62.43687306339283,733.5712572281785,-2.0048749182438548,70219.20024939545,10.5,10500070219.200249,47.655,-122.3035,60.0,7.383333333333334
2026-01-20T23:07:24+00:00,SAT-63364,201.95353706649914,62.96825001781373,731.5717286430499,-1.942444198853384,68032.61237465998,10.5,10500068032.612375,47.655,-122.3035,60.0,7.4
2026-01-20T23:07:25+00:00,SAT-63364,202.28832729817805,63.50148433423954,729.6344642953935,-1.8795129717918178,65828.49460413739,10.5,10500065828.494604,47.655,-122.3035,60.0,7.416666666666667
2026-01-20T23:07:26+00:00,SAT-63364,202.6386482669437,64.03644253673872,727.7599633581932,-1.8160923786215042,63607.237162469886,10.5,10500063607.237162,47.655,-122.3035,60.0,7.433333333333334
2026-01-20T23:07:27+00:00,SAT-63364,203.0055076687976,64.57298283644752,725.9487138925813,-1.752194139422789,61369.250536447056,10.5,10500061369.250536,47.655,-122.3035,60.0,7.45
2026-01-20T23:07:28+00:00,SAT-63364,203.38999906901418,65.11095454503472,724.2011922708637,-1.6878305290643445,59114.96464389247,10.5,10500059114.964643,47.655,-122.3035,60.0,7.466666666666667
2026-01-20T23:07:29+00:00,SAT-63364,203.79331083357704,65.6501974085605,722.5178626232101,-1.6230143982655756,56844.82957135815,10.5,10500056844.82957,47.655,-122.3035,60.0,7.483333333333333
2026-01-20T23:07:30+00:00,SAT-63364,204.21673614076755,66.19054086405735,720.8991762633399,-1.5577591334825807,54559.31416916131,10.5,10500054559.314169,47.655,-122.3035,60.0,7.5
2026-01-20T23:07:31+00:00,SAT-63364,204.6616842006946,66.73180318664969,719.3455711542133,-1.4920786834726694,52258.90698178614,10.5,10500052258.906982,47.655,-122.3035,60.0,7.516666666666667
2026-01-20T23:07:32+00:00,SAT-63364,205.1296928590891,67.27379053285195,717.8574713472299,-1.4259875444247438,49944.115727086806,10.5,10500049944.115726,47.655,-122.3035,60.0,7.533333333333333
2026-01-20T23:07:33+00:00,SAT-63364,205.62244275853948,67.81629584960466,716.435286436257,-1.3595007125356597,47615.46563531103,10.5,10500047615.465635,47.655,-122.3035,60.0,7.55
2026-01-20T23:07:34+00:00,SAT-63364,206.141773249733,68.35909761527911,715.0794110589547,-1.292633724196052,45273.50085657774,10.5,10500045273.500856,47.655,-122.3035,60.0,7.566666666666666
2026-01-20T23:07:35+00:00,SAT-63364,206.68970030863676,68.90195841866439,713.7902243580231,-1.225402608817757,42918.78280869377,10.5,10500042918.782808,47.655,-122.3035,60.0,7.583333333333333
2026-01-20T23:07:36+00:00,SAT-63364,207.26843668886553,69.44462331620367,712.5680894894956,-1.157823884582557,40551.890028256974,10.5,10500040551.890028,47.655,-122.3035,60.0,7.6
2026-01-20T23:07:37+00:00,SAT-63364,207.88041460360853,69.98681794801858,711.4133531352719,-1.0899145407995807,38173.41755273776,10.5,10500038173.417553,47.655,-122.3035,60.0,7.616666666666666
2026-01-20T23:07:38+00:00,SAT-63364,208.52831123994423,70.5282463676264,710.3263450332479,-1.02169202105223,35783.97633021314,10.5,10500035783.97633,47.655,-122.3035,60.0,7.633333333333334
2026-01-20T23:07:39+00:00,SAT-63364,209.21507743495616,71.06858853841979,709.3073775242517,-0.9531742003633584,33384.19241959471,10.5,10500033384.19242,47.655,-122.3035,60.0,7.65
2026-01-20T23:07:40+00:00,SAT-63364,209.9439698541092,71.60749743887006,708.356745121756,-0.8843793670964191,30974.706356730298,10.5,10500030974.706356,47.655,-122.3035,60.0,7.666666666666667
2026-01-20T23:07:41+00:00,SAT-63364,210.71858701854381,72.14459571348375,707.4747240996385,-0.8153262047262589,28556.172515940078,10.5,10500028556.172516,47.655,-122.3035,60.0,7.683333333333334
2026-01-20T23:07:42+00:00,SAT-63364,211.54290950939307,72.67947179550184,706.6615720981249,-0.7460337626581551,26129.258087975748,10.5,10500026129.258087,47.655,-122.3035,60.0,7.7
2026-01-20T23:07:43+00:00,SAT-63364,212.42134461159915,73.21167540780635,705.9175277588338,-0.6765214317327662,23694.64222210035,10.5,10500023694.642221,47.655,-122.3035,60.0,7.716666666666667
2026-01-20T23:07:44+00:00,SAT-63364,213.35877556560902,73.74071234476044,705.2428103842524,-0.6068089263599198,21253.015400337918,10.5,10500021253.0154,47.655,-122.3035,60.0,7.733333333333333
2026-01-20T23:07:45+00:00,SAT-63364,214.36061541659205,74.26603842621759,704.6376196150293,-0.5369162473805804,18805.0781367425,10.5,10500018805.078136,47.655,-122.3035,60.0,7.75
2026-01-20T23:07:46+00:00,SAT-63364,215.43286512220217,74.78705248465724,704.1021351443085,-0.4668636650158221,16351.540380199063,10.5,10500016351.54038,47.655,-122.3035,60.0,7.766666666666667
2026-01-20T23:07:47+00:00,SAT-63364,216.58217515886344,75.30308826150731,703.636516449066,-0.3966716799716258,13893.12015214896,10.5,10500013893.120152,47.655,-122.3035,60.0,7.783333333333333
2026-01-20T23:07:48+00:00,SAT-63364,217.81590910328276,75.81340504999896,703.2409025602409,-0.32636100363419057,11430.542852945957,10.5,10500011430.542852,47.655,-122.3035,60.0,7.8
2026-01-20T23:07:49+00:00,SAT-63364,219.14220668837268,76.31717695521249,702.9154118526164,-0.2559525220947077,8964.540001851652,10.5,10500008964.54,47.655,-122.3035,60.0,7.816666666666666
2026-01-20T23:07:50+00:00,SAT-63364,220.57004227146575,76.8134806275238,702.6601418705807,-0.1854672690487958,6495.848287859049,10.5,10500006495.848288,47.655,-122.3035,60.0,7.833333333333333
2026-01-20T23:07:51+00:00,SAT-63364,222.10927257205324,77.30128138410387,702.475169180916,-0.1149263913728699,4025.2083640314063,10.5,10500004025.208364,47.655,-122.3035,60.0,7.85
2026-01-20T23:07:52+00:00,SAT-63364,223.7706645653595,77.77941769178938,702.3605492599202,-0.04435112020897794,1553.3638347708813,10.5,10500001553.363834,47.655,-122.3035,60.0,7.866666666666666
2026-01-20T23:07:53+00:00,SAT-63364,225.5658905126786,78.24658412781952,702.3163164093651,0.026237260810242826,-918.9398570778911,10.5,10499999081.060143,47.655,-122.3035,60.0,7.883333333333334
2026-01-20T23:07:54+00:00,SAT-63364,227.50747200178546,78.70131314176265,702.3424837041465,0.09681744924776957,-3390.956610061153,10.5,10499996609.04339,47.655,-122.3035,60.0,7.9
2026-01-20T23:07:55+00:00,SAT-63364,229.6086485009781,79.1419562503771,702.4390429735296,0.16736815440518557,-5861.940733860784,10.5,10499994138.059267,47.655,-122.3035,60.0,7.916666666666667
2026-01-20T23:07:56+00:00,SAT-63364,231.8831388431024,79.56666580690565,702.6059648128564,0.23786812960492698,-8331.148079955145,10.5,10499991668.85192,47.655,-122.3035,60.0,7.933333333333334
2026-01-20T23:07:57+00:00,SAT-63364,234.34475665010336,79.97337911423942,702.8431986274489,0.3082962040325382,-10797.83715686954,10.5,10499989202.162844,47.655,-122.3035,60.0,7.95
2026-01-20T23:07:58+00:00,SAT-63364,237.0068354167256,80.35980755816598,703.1506727082708,0.37863131594857974,-13261.270293397733,10.5,10499986738.729706,47.655,-122.3035,60.0,7.966666666666667
2026-01-20T23:07:59+00:00,SAT-63364,239.88141872249113,80.72343448950696,703.5282943407102,0.44885253896956184,-15720.714559071394,10.5,10499984279.28544,47.655,-122.3035,60.0,7.983333333333333
2026-01-20T23:08:00+00:00,SAT-63364,242.97818129816767,81.06152673577354,703.9759499395759,0.5189391187915235,-18175.443050375197,10.5,10499981824.55695,47.655,-122.3035,60.0,8.0
2026-01-20T23:08:01+00:00,SAT-63364,246.30307454922905,81.37116563296057,704.4935052207173,0.5888705008974126,-20624.73586117644,10.5,10499979375.26414,47.655,-122.3035,60.0,8.016666666666667
2026-01-20T23:08:02+00:00,SAT-63364,249.85674213935224,81.64930382032884,705.0808054002789,0.658626357457411,-23067.881024888276,10.5,10499976932.118975,47.655,-122.3035,60.0,8.033333333333333
2026-01-20T23:08:03+00:00,SAT-63364,253.6328312482658,81.89285317542044,705.7376754207831,0.7281866197068557,-25504.175648481407,10.5,10499974495.824352,47.655,-122.3035,60.0,8.05
2026-01-20T23:08:04+00:00,SAT-63364,257.61642572446505,82.09880638204247,706.4639202095041,0.797531503861252,-27932.926820137505,10.5,10499972067.07318,47.655,-122.3035,60.0,8.066666666666666
2026-01-20T23:08:05+00:00,SAT-63364,261.7829240900398,82.26438923370203,707.2593249626884,0.8666415382440303,-30353.45255937799,10.5,10499969646.547441,47.655,-122.3035,60.0,8.083333333333334
2026-01-20T23:08:06+00:00,SAT-63364,266.0977344602486,82.38723314884932,708.1236554568304,0.9354975905158157,-32765.08277074824,10.5,10499967234.917229,47.655,-122.3035,60.0,8.1
2026-01-20T23:08:07+00:00,SAT-63364,270.5171073568748,82.46554901177268,709.0566583871049,1.0040808856558807,-35167.15987360412,10.5,10499964832.840126,47.655,-122.3035,60.0,8.116666666666667
2026-01-20T23:08:08+00:00,SAT-63364,274.9902439264637,82.49827719511057,710.0580617237323,1.0723730420894544,-37559.040067443166,10.5,10499962440.959932,47.655,-122.3035,60.0,8.133333333333333
2026-01-20T23:08:09+00:00,SAT-63364,279.46252440182735,82.48518773960002,711.1275751043762,1.1403560793046672,-39940.093598682215,10.5,10499960059.9064,47.655,-122.3035,60.0,8.15
2026-01-20T23:08:10+00:00,SAT-63364,283.8793910856256,82.42691113142637,712.264890234136,1.2080124518816744,-42309.70595250125,10.5,10499957690.294048,47.655,-122.3035,60.0,8.166666666666666
2026-01-20T23:08:11+00:00,SAT-63364,288.1902205005931,82.32489299821727,713.4696813194794,1.275325061808983,-44667.27828421328,10.5,10499955332.721716,47.655,-122.3035,60.0,8.183333333333334
2026-01-20T23:08:12+00:00,SAT-63364,292.3515225458725,82.18128130100408,714.7416055144569,1.3422772692683818,-47012.22779699818,10.5,10499952987.772203,47.655,-122.3035,60.0,8.2
2026-01-20T23:08:13+00:00,SAT-63364,296.32900973329373,81.99876696868286,716.0803033776739,1.408852936268278,-49343.98927012673,10.5,10499950656.01073,47.655,-122.3035,60.0,8.216666666666667
2026-01-20T23:08:14+00:00,SAT-63364,300.09839133106885,81.7804045845024,717.4853993727787,1.4750364068661965,-51662.01436626889,10.5,10499948337.985634,47.655,-122.3035,60.0,8.233333333333333
2026-01-20T23:08:15+00:00,SAT-63364,303.64503742177055,81.5294380811361,718.9565023492266,1.5408125414808582,-53965.7728332479,10.5,10499946034.227167,47.655,-122.3035,60.0,8.25
2026-01-20T23:08:16+00:00,SAT-63364,306.9628375507599,81.24914959256823,720.4932060572636,1.6061667375997195,-56254.753229305905,10.5,10499943745.24677,47.655,-122.3035,60.0,8.266666666666667
2026-01-20T23:08:17+00:00,SAT-63364,310.05262567755864,80.94274103905438,722.095089683563,1.6710849153508687,-58528.46241777077,10.5,10499941471.537582,47.655,-122.3035,60.0,8.283333333333333
2026-01-20T23:08:18+00:00,SAT-63364,312.92049179745413,80.61325043936452,723.761718372473,1.7355535395860628,-60786.4263404974,10.5,10499939213.57366,47.655,-122.3035,60.0,8.3
2026-01-20T23:08:19+00:00,SAT-63364,315.5762032668349,80.2634997358878,725.4926437692868,1.7995596399892078,-63028.19072215179,10.5,10499936971.809278,47.655,-122.3035,60.0,8.316666666666666
2026-01-20T23:08:20+00:00,SAT-63364,318.0318585356845,79.89606827268803,727.2874045835694,1.8630908092606129,-65253.32100661596,10.5,10499934746.678993,47.655,-122.3035,60.0,8.333333333333334
2026-01-20T23:08:21+00:00,SAT-63364,320.3008169025668,79.5132853944345,729.1455271506719,1.9261351858401883,-67461.40175188122,10.5,10499932538.598248,47.655,-122.3035,60.0,8.35
2026-01-20T23:08:22+00:00,SAT-63364,322.3968965921672,79.11723616690004,731.0665259760166,1.9886814922040925,-69652.03797135875,10.5,10499930347.962029,47.655,-122.3035,60.0,8.366666666666667
2026-01-20T23:08:23+00:00,SAT-63364,324.33380646143786,78.70977529573985,733.0499043175748,2.050719024610128,-71824.85477471999,10.5,10499928175.145226,47.655,-122.3035,60.0,8.383333333333333
2026-01-20T23:08:24+00:00,SAT-63364,326.1247666230606,78.29254555398144,735.0951547581193,2.1122376405528422,-73979.49692852126,10.5,10499926020.50307,47.655,-122.3035,60.0,8.4
2026-01-20T23:08:25+00:00,SAT-63364,327.7822737785729,77.86699811454132,737.201759764964,2.1732277854948703,-76115.62979244841,10.5,10499923884.370207,47.655,-122.3035,60.0,8.416666666666666
2026-01-20T23:08:26+00:00,SAT-63364,329.3179725893888,77.43441306113874,739.3691922763642,2.2336804585369507,-78232.9381169355,10.5,10499921767.061884,47.655,-122.3035,60.0,8.433333333333334
2026-01-20T23:08:27+00:00,SAT-63364,330.7426016057458,76.99591903488842,741.5969162536784,2.2935872375077118,-80331.12692191535,10.5,10499919668.873077,47.655,-122.3035,60.0,8.45
2026-01-20T23:08:28+00:00,SAT-63364,332.0659895730005,76.55251141836617,743.8843872585527,2.352940271458156,-82409.92123394458,10.5,10499917590.078766,47.655,-122.3035,60.0,8.466666666666667
2026-01-20T23:08:29+00:00,SAT-63364,333.2970841233903,76.10506879322531,746.2310530226204,2.411732247772601,-84469.06493428966,10.5,10499915530.935066,47.655,-122.3035,60.0,8.483333333333333
2026-01-20T23:08:30+00:00,SAT-63364,334.4439999494214,75.65436760734912,748.6363539843989,2.469956435434952,-86508.32227429481,10.5,10499913491.677725,47.655,-122.3035,60.0,8.5
2026-01-20T23:08:31+00:00,SAT-63364,335.5140775125298,75.20109508936159,751.0997238693393,2.5276066309904577,-88527.47598273405,10.5,10499911472.524017,47.655,-122.3035,60.0,8.516666666666667
2026-01-20T23:08:32+00:00,SAT-63364,336.5139461502481,74.74586054943984,753.6205902159805,2.5846771722046213,-90526.32774420406,10.5,10499909473.672256,47.655,-122.3035,60.0,8.533333333333333
2026-01-20T23:08:33+00:00,SAT-63364,337.4495876386385,74.28920520529559,756.1983749157259,2.6411629378757997,-92504.6981925606,10.5,10499907495.301807,47.655,-122.3035,60.0,8.55
2026-01-20T23:08:34+00:00,SAT-63364,338.32639770427795,73.83161069845417,758.8324947524341,2.69705932124641,-94462.42597966657,10.5,10499905537.57402,47.655,-122.3035,60.0,8.566666666666666
2026-01-20T23:08:35+00:00,SAT-63364,339.1492440117561,73.37350646434861,761.5223619154905,2.7523622299331794,-96399.36777294906,10.5,10499903600.632227,47.655,-122.3035,60.0,8.583333333333334
2026-01-20T23:08:36+00:00,SAT-63364,339.9225198685751,72.91527610013556,764.2673845128105,2.8070680688395253,-98315.39765691845,10.5,10499901684.602343,47.655,-122.3035,60.0,8.6
2026-01-20T23:08:37+00:00,SAT-63364,340.65019333430354,72.45726286789701,767.0669670667997,2.861173731784418,-100210.40683997591,10.5,10499899789.59316,47.655,-122.3035,60.0,8.616666666666667
2026-01-20T23:08:38+00:00,SAT-63364,341.33585172464115,71.9997744515401,769.9205110019661,2.9146765950277778,-102084.30342764549,10.5,10499897915.696573,47.655,-122.3035,60.0,8.633333333333333
2026-01-20T23:08:39+00:00,SAT-63364,341.9827416798931,71.54308707206356,772.8274151260738,2.9675744925969223,-103937.0115584018,10.5,10499896062.988441,47.655,-122.3035,60.0,8.65
2026-01-20T23:08:40+00:00,SAT-63364,342.5938050665477,71.08744905526126,775.7870760866904,3.0198657337976567,-105768.47201698247,10.5,10499894231.527983,47.655,-122.3035,60.0,8.666666666666666
2026-01-20T23:08:41+00:00,SAT-63364,343.17171104747166,70.63308392366271,778.798888845198,3.071549026736727,-107578.63955582111,10.5,10499892421.360445,47.655,-122.3035,60.0,8.683333333333334
2026-01-20T23:08:42+00:00,SAT-63364,343.71888464551785,70.18019309466462,781.8622470745302,3.122623538569751,-109367.48500518444,10.5,10499890632.514996,47.655,-122.3035,60.0,8.7
2026-01-20T23:08:43+00:00,SAT-63364,344.2375321721411,69.72895822116601,784.976543616997,3.173088846097426,-111134.99354284279,10.5,10499888865.006456,47.655,-122.3035,60.0,8.716666666666667
2026-01-20T23:08:44+00:00,SAT-63364,344.7296638246905,69.2795432410951,788.1411708928382,3.2229449036574755,-112881.16356951011,10.5,10499887118.83643,47.655,-122.3035,60.0,8.733333333333333
2026-01-20T23:08:45+00:00,SAT-63364,345.1971137644249,68.83209617435587,791.3555212767526,3.2721920623370107,-114606.00738174212,10.5,10499885393.992619,47.655,-122.3035,60.0,8.75
2026-01-20T23:08:46+00:00,SAT-63364,345.6415579632942,68.38675069563998,794.61898749359,3.320831066045512,-116309.55103439552,10.5,10499883690.448965,47.655,-122.3035,60.0,8.766666666666667
2026-01-20T23:08:47+00:00,SAT-63364,346.06453006848983,67.94362751714297,797.930963010126,3.368862958725846,-117991.83109076541,10.5,10499882008.16891,47.655,-122.3035,60.0,8.783333333333333
2026-01-20T23:08:48+00:00,SAT-63364,346.4674355014933,67.50283561891769,801.2908423342952,3.4162891816858445,-119652.89803154877,10.5,10499880347.101969,47.655,-122.3035,60.0,8.8
2026-01-20T23:08:49+00:00,SAT-63364,346.85156402094987,67.064473323059,804.6980214114967,3.463111478284358,-121292.81291654694,10.5,10499878707.187084,47.655,-122.3035,60.0,8.816666666666666
2026-01-20T23:08:50+00:00,SAT-63364,347.218100903277,66.6286292568902,808.151897925839,3.5093318991600713,-122911.64756780089,10.5,10499877088.352432,47.655,-122.3035,60.0,8.833333333333334
2026-01-20T23:08:51+00:00,SAT-63364,347.5681369151419,66.19538320733521,811.6518716066012,3.5549528171563987,-124509.48509232406,10.5,10499875490.514908,47.655,-122.3035,60.0,8.85
2026-01-20T23:08:52+00:00,SAT-63364,347.9026772184427,65.76480687951083,815.1973445495785,3.5999768576323503,-126086.41744129427,10.5,10499873913.58256,47.655,-122.3035,60.0,8.866666666666667
2026-01-20T23:08:53+00:00,SAT-63364,348.22264932333974,65.33696458185491,818.7877214689238,3.6444069434065707,-127642.54698418395,10.5,10499872357.453016,47.655,-122.3035,60.0,8.883333333333333
2026-01-20T23:08:54+00:00,SAT-63364,348.52891021031013,64.91191383370831,822.4224099938147,3.6882462528020152,-129177.98503930728,10.5,10499870822.014961,47.655,-122.3035,60.0,8.9
2026-01-20T23:08:55+00:00,SAT-63364,348.82225270835005,64.48970591493334,826.1008209232759,3.7314982013143387,-130692.85123176966,10.5,10499869307.148767,47.655,-122.3035,60.0,8.916666666666666
2026-01-20T23:08:56+00:00,SAT-63364,349.1034112163506,64.07038636206835,829.8223684627201,3.774166406841529,-132187.2722756623,10.5,10499867812.727724,47.655,-122.3035,60.0,8.933333333333334
2026-01-20T23:08:57+00:00,SAT-63364,349.3730668411104,63.65399541917948,833.5864704258099,3.816254774234147,-133661.3849353693,10.5,10499866338.615065,47.655,-122.3035,60.0,8.95
2026-01-20T23:08:58+00:00,SAT-63364,349.63185202579564,63.240568435908266,837.3925485206462,3.8577673503900476,-135115.330950372,10.5,10499864884.66905,47.655,-122.3035,60.0,8.966666666666667
2026-01-20T23:08:59+00:00,SAT-63364,349.8803547089354,62.83013624329634,841.2400284914352,3.8987083961615134,-136549.25955374065,10.5,10499863450.740446,47.655,-122.3035,60.0,8.983333333333333
2026-01-20T23:09:00+00:00,SAT-63364,350.11912208125625,62.422725487202285,845.1283403318736,3.9390823499660765,-137963.32619763172,10.5,10499862036.673801,47.655,-122.3035,60.0,9.0
2026-01-20T23:09:01+00:00,SAT-63364,350.34866397656134,62.0183589352164,849.0569184622398,3.9788938445568895,-139357.69314065715,10.5,10499860642.30686,47.655,-122.3035,60.0,9.016666666666667
2026-01-20T23:09:02+00:00,SAT-63364,350.5694559393635,61.617055754683264,853.0252019232112,4.01814761333774,-140732.52616663981,10.5,10499859267.473833,47.655,-122.3035,60.0,9.033333333333333
2026-01-20T23:09:03+00:00,SAT-63364,350.78194199769194,61.218831775850276,857.0326344762467,4.056848591868262,-142087.9981397556,10.5,10499857912.00186,47.655,-122.3035,60.0,9.05
2026-01-20T23:09:04+00:00,SAT-63364,350.9865371831193,60.82369972267716,861.0786648052033,4.095001830810725,-143424.28595556132,10.5,10499856575.714045,47.655,-122.3035,60.0,9.066666666666666
2026-01-20T23:09:05+00:00,SAT-63364,351.18362981396143,60.431669432833786,865.1627466311319,4.132612469589245,-144741.5696184294,10.5,10499855258.430382,47.655,-122.3035,60.0,9.083333333333334
2026-01-20T23:09:06+00:00,SAT-63364,351.3735835697459,60.04274806219188,869.2843388008023,4.169685835162181,-146040.03570097446,10.5,10499853959.964298,47.655,-122.3035,60.0,9.1
2026-01-20T23:09:07+00:00,SAT-63364,351.5567393842316,59.65694026372312,873.4429054737373,4.206227284202987,-147319.87181655972,10.5,10499852680.128183,47.655,-122.3035,60.0,9.116666666666667
2026-01-20T23:09:08+00:00,SAT-63364,351.733417163003,59.27424836688834,877.6379161518491,4.242242303296009,-148581.27012857707,10.5,10499851418.729872,47.655,-122.3035,60.0,9.133333333333333
2026-01-20T23:09:09+00:00,SAT-63364,351.90391735543596,58.89467253406907,881.868845809003,4.27773647471867,-149824.4261519949,10.5,10499850175.573849,47.655,-122.3035,60.0,9.15
2026-01-20T23:09:10+00:00,SAT-63364,352.06852238895794,58.51821090827032,886.1351749864557,4.312715447091526,-151049.53772539878,10.5,10499848950.462275,47.655,-122.3035,60.0,9.166666666666666
2026-01-20T23:09:11+00:00,SAT-63364,352.22749797961455,58.14485975240126,890.4363898590217,4.347184903373133,-152256.80389003616,10.5,10499847743.19611,47.655,-122.3035,60.0,9.183333333333334
2026-01-20T23:09:12+00:00,SAT-63364,352.3810943308389,57.774613581096936,894.7719822693191,4.381150637402765,-153446.42757066633,10.5,10499846553.57243,47.655,-122.3035,60.0,9.2
2026-01-20T23:09:13+00:00,SAT-63364,352.5295472351943,57.407465276578066,899.1414498383556,4.414618484286254,-154618.61313737807,10.5,10499845381.386862,47.655,-122.3035,60.0,9.216666666666667
2026-01-20T23:09:14+00:00,SAT-63364,352.67307908264337,57.043406202168455,903.5442960066836,4.447594282283823,-155773.56507074015,10.5,10499844226.434929,47.655,-122.3035,60.0,9.233333333333333
2026-01-20T23:09:15+00:00,SAT-63364,352.81189978561486,56.68242631096809,907.9800300375481,4.480083951200448,-156911.49070736364,10.5,10499843088.509293,47.655,-122.3035,60.0,9.25
2026-01-20T23:09:16+00:00,SAT-63364,352.946207632276,56.32451424071846,912.4481670982119,4.512093438072535,-158032.59833761933,10.5,10499841967.401663,47.655,-122.3035,60.0,9.266666666666667
2026-01-20T23:09:17+00:00,SAT-63364,353.0761900701535,55.96965740659349,916.9482282871163,4.543628687033412,-159137.09615020012,10.5,10499840862.90385,47.655,-122.3035,60.0,9.283333333333333
2026-01-20T23:09:18+00:00,SAT-63364,353.20202442735246,55.6178420901078,921.4797406309843,4.5746956665725875,-160225.1931868552,10.5,10499839774.806812,47.655,-122.3035,60.0,9.3
2026-01-20T23:09:19+00:00,SAT-63364,353.323878578608,55.26905352002047,926.0422371091126,4.605300392496353,-161297.10014656777,10.5,10499838702.899853,47.655,-122.3035,60.0,9.316666666666666
2026-01-20T23:09:20+00:00,SAT-63364,353.4419115608766,54.923275946222795,930.6352567005624,4.635448827435965,-162353.02586590635,10.5,10499837646.974134,47.655,-122.3035,60.0,9.333333333333334
2026-01-20T23:09:21+00:00,SAT-63364,353.55627413939806,54.58049271635915,935.2583443311252,4.665146993854887,-163393.18127701635,10.5,10499836606.818724,47.655,-122.3035,60.0,9.35
2026-01-20T23:09:22+00:00,SAT-63364,353.6671093344256,54.24068633918049,939.9110509329964,4.694400874295537,-164417.7759138395,10.5,10499835582.224087,47.655,-122.3035,60.0,9.366666666666667
2026-01-20T23:09:23+00:00,SAT-63364,353.7745529062128,53.903838551144744,944.5929334049606,4.723216426246751,-165427.0184328349,10.5,10499834572.981567,47.655,-122.3035,60.0,9.383333333333333
2026-01-20T23:09:24+00:00,SAT-63364,353.87873380494653,53.569930377697304,949.303554587404,4.751599652930155,-166421.11909221753,10.5,10499833578.880907,47.655,-122.3035,60.0,9.4
2026-01-20T23:09:25+00:00,SAT-63364,353.97977458965977,53.23894218576909,954.0424833079263,4.779556496038861,-167400.28599521352,10.5,10499832599.714005,47.655,-122.3035,60.0,9.416666666666666
2026-01-20T23:09:26+00:00,SAT-63364,354.0777918146056,52.91085374047301,958.8092943199757,4.807092854966976,-168364.7257635589,10.5,10499831635.274237,47.655,-122.3035,60.0,9.433333333333334
2026-01-20T23:09:27+00:00,SAT-63364,354.1728963887399,52.5856442569124,963.6035682606629,4.834214660080283,-169314.6461037488,10.5,10499830685.353897,47.655,-122.3035,60.0,9.45
2026-01-20T23:09:28+00:00,SAT-63364,354.26519391154,52.263292443903524,968.4248916816495,4.860927779515973,-170250.25254276983,10.5,10499829749.747458,47.655,-122.3035,60.0,9.466666666666667
2026-01-20T23:09:29+00:00,SAT-63364,354.354784983476,51.94377655123674,973.2728569870868,4.887238045807525,-171171.74936061606,10.5,10499828828.250639,47.655,-122.3035,60.0,9.483333333333333
2026-01-20T23:09:30+00:00,SAT-63364,354.4417654958198,51.6270744122669,978.1470623981055,4.913151266852843,-172079.3399744394,10.5,10499827920.660025,47.655,-122.3035,60.0,9.5
2026-01-20T23:09:31+00:00,SAT-63364,354.5262269008866,51.31316348323559,983.0471119282466,4.938673209151137,-172973.22635143457,10.5,10499827026.77365,47.655,-122.3035,60.0,9.516666666666667
2026-01-20T23:09:32+00:00,SAT-63364,354.608256463836,51.0020208812615,987.9726153421735,4.963809597217204,-173853.60898832433,10.5,10499826146.391012,47.655,-122.3035,60.0,9.533333333333333
2026-01-20T23:09:33+00:00,SAT-63364,354.6879374976655,50.693623420085466,992.923188113798,4.988566112268564,-174720.6868653778,10.5,10499825279.313135,47.655,-122.3035,60.0,9.55
2026-01-20T23:09:34+00:00,SAT-63364,354.76534958272583,50.38794764372475,997.8984513831006,5.012948393590922,-175574.6574942345,10.5,10499824425.342506,47.655,-122.3035,60.0,9.566666666666666
2026-01-20T23:09:35+00:00,SAT-63364,354.8405687719138,50.08496985802587,1002.8980319143087,5.036962019922584,-176415.716265908,10.5,10499823584.283733,47.655,-122.3035,60.0,9.583333333333334
2026-01-20T23:09:36+00:00,SAT-63364,354.91366778235255,49.78466616142185,1007.9215620355113,5.060612536562396,-177244.0574002204,10.5,10499822755.9426,47.655,-122.3035,60.0,9.6
2026-01-20T23:09:37+00:00,SAT-63364,354.9847161752092,49.4870124722337,1012.9686796053096,5.083905416100614,-178059.87257043156,10.5,10499821940.12743,47.655,-122.3035,60.0,9.616666666666667
2026-01-20T23:09:38+00:00,SAT-63364,355.0537805235717,49.19198455661223,1018.0390279403007,5.106846103203613,-178863.3524717888,10.5,10499821136.647528,47.655,-122.3035,60.0,9.633333333333333
2026-01-20T23:09:39+00:00,SAT-63364,355.12092457042723,48.89955805221317,1023.132255787229,5.129439965979541,-179654.6851181466,10.5,10499820345.314882,47.655,-122.3035,60.0,9.65
2026-01-20T23:09:40+00:00,SAT-63364,355.1862093761657,48.60970849320929,1028.2480172466326,5.15169234664758,-180434.0576166182,10.5,10499819565.942383,47.655,-122.3035,60.0,9.666666666666666
2026-01-20T23:09:41+00:00,SAT-63364,355.2496934576901,48.32241133093829,1033.3859717470225,5.173608473672076,-181201.65309014145,10.5,10499818798.34691,47.655,-122.3035,60.0,9.683333333333334
2026-01-20T23:09:42+00:00,SAT-63364,355.3114329179,48.03764195814818,1038.5457839314315,5.195193573040828,-181957.65457491492,10.5,10499818042.345425,47.655,-122.3035,60.0,9.7
2026-01-20T23:09:43+00:00,SAT-63364,355.37148156882785,47.75537572567946,1043.727123654944,5.216452785609733,-182702.242125458,10.5,10499817297.757875,47.655,-122.3035,60.0,9.716666666666667
2026-01-20T23:09:44+00:00,SAT-63364,355.4298910463465,47.475587962589195,1048.9296658997923,5.237391200109006,-183435.59397062808,10.5,10499816564.406029,47.655,-122.3035,60.0,9.733333333333333
2026-01-20T23:09:45+00:00,SAT-63364,355.4867109184827,47.198253993272964,1054.1530907233675,5.2580138271105055,-184157.88560184627,10.5,10499815842.114399,47.655,-122.3035,60.0,9.75
2026-01-20T23:09:46+00:00,SAT-63364,355.54198878711196,46.923349154881876,1059.3970831802724,5.278325645724869,-184869.29140862884,10.5,10499815130.708591,47.655,-122.3035,60.0,9.766666666666667
2026-01-20T23:09:47+00:00,SAT-63364,355.5957703842331,46.65084881124051,1064.6613332909421,5.298331546773403,-185569.982688226,10.5,10499814430.017311,47.655,-122.3035,60.0,9.783333333333333
2026-01-20T23:09:48+00:00,SAT-63364,355.64809966209435,46.380728368793626,1069.945535953591,5.318036357598982,-186260.12851460493,10.5,10499813739.871485,47.655,-122.3035,60.0,9.8
2026-01-20T23:09:49+00:00,SAT-63364,355.69901887842667,46.11296329028344,1075.2493908809029,5.337444865931801,-186939.89657432912,10.5,10499813060.103426,47.655,-122.3035,60.0,9.816666666666666
2026-01-20T23:09:50+00:00,SAT-63364,355.74856867713163,45.84752910636008,1080.5726025605256,5.356561781374063,-187609.45181758932,10.5,10499812390.548182,47.655,-122.3035,60.0,9.833333333333334
2026-01-20T23:09:51+00:00,SAT-63364,355.7967881640064,45.58440142835466,1085.9148801771494,5.3753917424667845,-188268.95670571283,10.5,10499811731.043295,47.655,-122.3035,60.0,9.85
2026-01-20T23:09:52+00:00,SAT-63364,355.84371497837765,45.32355595985181,1091.2759375416363,5.393939327020741,-188918.5715729973,10.5,10499811081.428427,47.655,-122.3035,60.0,9.866666666666667
2026-01-20T23:09:53+00:00,SAT-63364,355.88938536084993,45.06496850702242,1096.6554930304515,5.412209086857121,-189558.4558434748,10.5,10499810441.544157,47.655,-122.3035,60.0,9.883333333333333
2026-01-20T23:09:54+00:00,SAT-63364,355.93383421771586,44.808614986610166,1102.0532695597435,5.430205431644228,-190188.76396238228,10.5,10499809811.236038,47.655,-122.3035,60.0,9.9
2026-01-20T23:09:55+00:00,SAT-63364,355.9770951807595,44.55447143881743,1107.4689944435702,5.447932804339779,-190809.65154089258,10.5,10499809190.34846,47.655,-122.3035,60.0,9.916666666666666
2026-01-20T23:09:56+00:00,SAT-63364,356.0192006654863,44.30251403119949,1112.9023994270985,5.465395473272344,-191421.26807392738,10.5,10499808578.731926,47.655,-122.3035,60.0,9.933333333333334
2026-01-20T23:09:57+00:00,SAT-63364,356.06018192436653,44.05271907177531,1118.353220512442,5.48259775491467,-192023.76474262078,10.5,10499807976.235258,47.655,-122.3035,60.0,9.95
2026-01-20T23:09:58+00:00,SAT-63364,356.1000690992362,43.80506301117326,1123.821198006677,5.499543823374687,-192617.2877418891,10.5,10499807382.712257,47.655,-122.3035,60.0,9.966666666666667
2026-01-20T23:09:59+00:00,SAT-63364,356.1388912692945,43.55952245309396,1129.3060763798558,5.516237846457006,-193201.9830458796,10.5,10499806798.016954,47.655,-122.3035,60.0,9.983333333333333
2026-01-20T23:10:00+00:00,SAT-63364,356.1766764977671,43.316074158032166,1134.8076042587224,5.532683849394077,-193777.99163525927,10.5,10499806222.008366,47.655,-122.3035,60.0,10.0
2026-01-20T23:10:01+00:00,SAT-63364,356.2134518750574,43.07469505263326,1140.3255342845182,5.54888591300552,-194345.45643759312,10.5,10499805654.543562,47.655,-122.3035,60.0,10.016666666666667
2026-01-20T23:10:02+00:00,SAT-63364,356.24924356124495,42.835362229836,1145.859623168422,5.564847943258072,-194904.51425635847,10.5,10499805095.485744,47.655,-122.3035,60.0,10.033333333333333
2026-01-20T23:10:03+00:00,SAT-63364,356.28407682465314,42.59805295875047,1151.4096315171648,5.580573846651845,-195455.30191371383,10.5,10499804544.698086,47.655,-122.3035,60.0,10.05
2026-01-20T23:10:04+00:00,SAT-63364,356.31797607982435,42.362744686426836,1156.9753238335588,5.596067453893344,-195997.95357720475,10.5,10499804002.046423,47.655,-122.3035,60.0,10.066666666666666
2026-01-20T23:10:05+00:00,SAT-63364,356.35096492299124,42.12941504261062,1162.5564684409087,5.611332531391139,-196532.60116239137,10.5,10499803467.398838,47.655,-122.3035,60.0,10.083333333333334
2026-01-20T23:10:06+00:00,SAT-63364,356.3830661659241,41.89804184362505,1168.1528374188829,5.626372818641789,-197059.37564226112,10.5,10499802940.624357,47.655,-122.3035,60.0,10.1
2026-01-20T23:10:07+00:00,SAT-63364,356.41430186831843,41.668603094394534,1173.764206576675,5.641191910526135,-197578.4029247474,10.5,10499802421.597075,47.655,-122.3035,60.0,10.116666666666667
2026-01-20T23:10:08+00:00,SAT-63364,356.4446933678743,41.441076994974644,1179.390355308773,5.65579344263139,-198089.81034349304,10.5,10499801910.189657,47.655,-122.3035,60.0,10.133333333333333
2026-01-20T23:10:09+00:00,SAT-63364,356.4742613100851,41.2154419391943,1185.0310666355572,5.670180955552648,-198593.7219051148,10.5,10499801406.278095,47.655,-122.3035,60.0,10.15
2026-01-20T23:10:10+00:00,SAT-63364,356.5030256757452,40.99167651861769,1190.6861271085618,5.68435791245467,-199090.25890429184,10.5,10499800909.741096,47.655,-122.3035,60.0,10.166666666666666
2026-01-20T23:10:11+00:00,SAT-63364,356.53100580724714,40.76975952547038,1196.35532673325,5.698327709931276,-199579.5403041073,10.5,10499800420.459696,47.655,-122.3035,60.0,10.183333333333334
2026-01-20T23:10:12+00:00,SAT-63364,356.5582204337442,40.549669954849485,1202.0384589026214,5.712093760513545,-200061.68562583462,10.5,10499799938.314375,47.655,-122.3035,60.0,10.2
2026-01-20T23:10:13+00:00,SAT-63364,356.5846876955426,40.331387003542716,1207.7353204131068,5.725659335295254,-200536.80943701448,10.5,10499799463.190563,47.655,-122.3035,60.0,10.216666666666667
2026-01-20T23:10:14+00:00,SAT-63364,356.61042516652856,40.11489007473557,1213.445711323508,5.739027711889109,-201005.0265335082,10.5,10499798994.973467,47.655,-122.3035,60.0,10.233333333333333
