satellites_20260120_184412/SAT-63382.csv

timestamp,satellite,azimuth_deg,elevation_deg,distance_km,relative_velocity_kms,doppler_shift_hz,tx_freq_ghz,rx_freq_hz,ue_lat,ue_lon,ue_alt_m,time_minutes
2026-01-20T23:10:39+00:00,SAT-63382,199.1380880058089,40.27959877945124,938.178805578038,-4.4428221515247746,155606.4248654652,10.5,10500155606.424866,47.655,-122.3035,60.0,10.65
2026-01-20T23:10:40+00:00,SAT-63382,199.23229524808607,40.630226895222755,933.7478309522505,-4.410638930798744,154479.23234075095,10.5,10500154479.23234,47.655,-122.3035,60.0,10.666666666666666
2026-01-20T23:10:41+00:00,SAT-63382,199.32884293768782,40.983815623721014,929.3489537252673,-4.377991675844167,153335.7873744901,10.5,10500153335.787374,47.655,-122.3035,60.0,10.683333333333334
2026-01-20T23:10:42+00:00,SAT-63382,199.42780222245312,41.34037969019877,924.9826366938921,-4.344875091184865,152175.9044967071,10.5,10500152175.904497,47.655,-122.3035,60.0,10.7
2026-01-20T23:10:43+00:00,SAT-63382,199.5292471248927,41.69993303343214,920.6493479362837,-4.31128388229618,150999.39827075263,10.5,10500150999.398272,47.655,-122.3035,60.0,10.716666666666667
2026-01-20T23:10:44+00:00,SAT-63382,199.6332546855237,42.06248875334753,916.3495608110069,-4.277212846878821,149806.0864900998,10.5,10500149806.08649,47.655,-122.3035,60.0,10.733333333333333
2026-01-20T23:10:45+00:00,SAT-63382,199.73990511674,42.42805906360627,912.083753865053,-4.242656815491431,148595.7880990456,10.5,10500148595.7881,47.655,-122.3035,60.0,10.75
2026-01-20T23:10:46+00:00,SAT-63382,199.8492819644043,42.796655236825664,907.8524108010697,-4.207610686862966,147368.32442949965,10.5,10500147368.324429,47.655,-122.3035,60.0,10.766666666666667
2026-01-20T23:10:47+00:00,SAT-63382,199.9614722799423,43.16828755007682,903.6560204093716,-4.172069423362297,146123.51904231065,10.5,10500146123.519043,47.655,-122.3035,60.0,10.783333333333333
2026-01-20T23:10:48+00:00,SAT-63382,200.07656680269562,43.54296522722362,899.4950765044717,-4.13602806885019,144861.19835251823,10.5,10500144861.198353,47.655,-122.3035,60.0,10.8
2026-01-20T23:10:49+00:00,SAT-63382,200.1946601538075,43.92069637997433,895.3700778438051,-4.099481732184017,143581.19105161805,10.5,10500143581.191051,47.655,-122.3035,60.0,10.816666666666666
2026-01-20T23:10:50+00:00,SAT-63382,200.31585104154777,44.301487944453925,891.2815280629069,-4.062425660322254,142283.33066799055,10.5,10500142283.330667,47.655,-122.3035,60.0,10.833333333333334
2026-01-20T23:10:51+00:00,SAT-63382,200.4402424814188,44.685345621337554,887.2299355376788,-4.024855152140055,140967.45254835786,10.5,10500140967.452549,47.655,-122.3035,60.0,10.85
2026-01-20T23:10:52+00:00,SAT-63382,200.56794202749353,45.07227380496726,883.2158133326111,-3.986765644561707,139633.39687450684,10.5,10500139633.396875,47.655,-122.3035,60.0,10.866666666666667
2026-01-20T23:10:53+00:00,SAT-63382,200.69906202087137,45.46227551699351,879.2396790631017,-3.9481526932862705,138281.0079882191,10.5,10500138281.007988,47.655,-122.3035,60.0,10.883333333333333
2026-01-20T23:10:54+00:00,SAT-63382,200.83371985337868,45.85535233489143,875.3020547769975,-3.9090119616710313,136910.13400192285,10.5,10500136910.134003,47.655,-122.3035,60.0,10.9
2026-01-20T23:10:55+00:00,SAT-63382,200.97203824776037,46.25150431574057,871.4034668472242,-3.8693392715171413,135520.62857742066,10.5,10500135520.628578,47.655,-122.3035,60.0,10.916666666666666
2026-01-20T23:10:56+00:00,SAT-63382,201.11414555772825,46.650729921188116,867.5444458137645,-3.8291305850988406,134112.35029647686,10.5,10500134112.350296,47.655,-122.3035,60.0,10.933333333333334
2026-01-20T23:10:57+00:00,SAT-63382,201.26017608697705,47.05302593682629,863.7255262435592,-3.788382029321428,132685.16350693183,10.5,10500132685.163507,47.655,-122.3035,60.0,10.95
2026-01-20T23:10:58+00:00,SAT-63382,201.41027043011482,47.458387389928525,859.9472465663159,-3.747089875844787,131238.93762654383,10.5,10500131238.937626,47.655,-122.3035,60.0,10.966666666666667
2026-01-20T23:10:59+00:00,SAT-63382,201.56457583546165,47.866807460847156,856.2101489301401,-3.7052506079645995,129773.54948545202,10.5,10500129773.549486,47.655,-122.3035,60.0,10.983333333333333
2026-01-20T23:11:00+00:00,SAT-63382,201.7232465948332,48.27827739699075,852.5147789904634,-3.662860872150416,128288.8816288346,10.5,10500128288.881628,47.655,-122.3035,60.0,11.0
2026-01-20T23:11:01+00:00,SAT-63382,201.8864444577832,48.692786417082694,848.8616857473054,-3.6199175349463175,126784.8243098108,10.5,10500126784.82431,47.655,-122.3035,60.0,11.016666666666667
2026-01-20T23:11:02+00:00,SAT-63382,202.05433907651891,49.11032161666906,845.2514213257856,-3.5764176514836588,125261.27438662387,10.5,10500125261.274387,47.655,-122.3035,60.0,11.033333333333333
2026-01-20T23:11:03+00:00,SAT-63382,202.22710848018372,49.53086786510033,841.6845407880393,-3.532358520305266,123718.13724281646,10.5,10500123718.137243,47.655,-122.3035,60.0,11.05
2026-01-20T23:11:04+00:00,SAT-63382,202.40493958453658,49.95440770321955,838.1616018904548,-3.4877376702310126,122155.32632720744,10.5,10500122155.326326,47.655,-122.3035,60.0,11.066666666666666
2026-01-20T23:11:05+00:00,SAT-63382,202.58802873698525,50.38092123411736,834.683164854011,-3.4425528710559736,120572.76352858658,10.5,10500120572.763529,47.655,-122.3035,60.0,11.083333333333334
2026-01-20T23:11:06+00:00,SAT-63382,202.7765823007068,50.81038600908886,831.2497921239445,-3.396802147509437,118970.37966461816,10.5,10500118970.379665,47.655,-122.3035,60.0,11.1
2026-01-20T23:11:07+00:00,SAT-63382,202.97081728126335,51.242776908977255,827.8620481154951,-3.3504838160557373,117348.1157707618,10.5,10500117348.11577,47.655,-122.3035,60.0,11.116666666666667
2026-01-20T23:11:08+00:00,SAT-63382,203.17096200049323,51.678066023430574,824.5204989229488,-3.303596447609346,115705.92179439729,10.5,10500115705.921795,47.655,-122.3035,60.0,11.133333333333333
2026-01-20T23:11:09+00:00,SAT-63382,203.37725681746085,52.11622251858455,821.2257120658664,-3.256138917971872,114043.7583613416,10.5,10500114043.758362,47.655,-122.3035,60.0,11.15
2026-01-20T23:11:10+00:00,SAT-63382,203.5899549051354,52.557212503411876,817.9782561850092,-3.2081104198064825,112361.59719524387,10.5,10500112361.597195,47.655,-122.3035,60.0,11.166666666666666
2026-01-20T23:11:11+00:00,SAT-63382,203.80932308562146,53.000998889937506,814.7787007263222,-3.159510458845567,110659.42098476157,10.5,10500110659.420984,47.655,-122.3035,60.0,11.183333333333334
2026-01-20T23:11:12+00:00,SAT-63382,204.03564272758416,53.44754124447597,811.6276156287003,-3.1103388580582654,108937.22352952517,10.5,10500108937.22353,47.655,-122.3035,60.0,11.2
2026-01-20T23:11:13+00:00,SAT-63382,204.26921071151327,53.89679563023819,808.5255710075968,-3.0605958020958117,107195.01129680195,10.5,10500107195.011297,47.655,-122.3035,60.0,11.216666666666667
2026-01-20T23:11:14+00:00,SAT-63382,204.51034047160445,54.34871444638753,805.4731367943066,-3.010281816790585,105432.80270346608,10.5,10500105432.802704,47.655,-122.3035,60.0,11.233333333333333
2026-01-20T23:11:15+00:00,SAT-63382,204.75936311598585,54.80324625383898,802.470882395694,-2.9593978027589625,103650.62929291272,10.5,10500103650.629293,47.655,-122.3035,60.0,11.25
2026-01-20T23:11:16+00:00,SAT-63382,205.0166286360673,55.260335594579125,799.5193763204092,-2.907945042959823,101848.53599978871,10.5,10500101848.536,47.655,-122.3035,60.0,11.266666666666667
2026-01-20T23:11:17+00:00,SAT-63382,205.28250721077268,55.719922800147465,796.6191857975639,-2.855925185058299,100026.58053229658,10.5,10500100026.580532,47.655,-122.3035,60.0,11.283333333333333
2026-01-20T23:11:18+00:00,SAT-63382,205.55739061129339,56.181943784111795,793.770876412999,-2.803340304633961,98184.83558601262,10.5,10500098184.835587,47.655,-122.3035,60.0,11.3
2026-01-20T23:11:19+00:00,SAT-63382,205.84169372245975,56.6463298300879,790.9750116825109,-2.750192888229658,96323.38825018542,10.5,10500096323.38825,47.655,-122.3035,60.0,11.316666666666666
2026-01-20T23:11:20+00:00,SAT-63382,206.13585618358792,57.11300736189416,788.2321526419831,-2.6964858170194876,94442.33943571929,10.5,10500094442.339436,47.655,-122.3035,60.0,11.333333333333334
2026-01-20T23:11:21+00:00,SAT-63382,206.44034415858962,57.581897694035455,785.542857453809,-2.642222426408117,92541.80596259439,10.5,10500092541.805964,47.655,-122.3035,60.0,11.35
2026-01-20T23:11:22+00:00,SAT-63382,206.75565225432786,58.05291677348018,782.9076809538712,-2.5874064943206316,90621.92014972783,10.5,10500090621.920149,47.655,-122.3035,60.0,11.366666666666667
2026-01-20T23:11:23+00:00,SAT-63382,207.08230559284348,58.52597489974227,780.3271742102022,-2.5320422379260443,88682.82970021703,10.5,10500088682.8297,47.655,-122.3035,60.0,11.383333333333333
2026-01-20T23:11:24+00:00,SAT-63382,207.420862050838,59.00097642223689,777.8018840849106,-2.4761343349144256,86724.69844655486,10.5,10500086724.698446,47.655,-122.3035,60.0,11.4
2026-01-20T23:11:25+00:00,SAT-63382,207.77191468360184,59.477819417202596,775.3323527748893,-2.4196879375082627,84747.70684136676,10.5,10500084747.70684,47.655,-122.3035,60.0,11.416666666666666
2026-01-20T23:11:26+00:00,SAT-63382,208.1360943479891,59.95639534063032,772.9191173385477,-2.3627086620618782,82752.05159313823,10.5,10500082752.051594,47.655,-122.3035,60.0,11.433333333333334
2026-01-20T23:11:27+00:00,SAT-63382,208.51407253768036,60.43658865016969,770.562709232918,-2.3052026145008737,80737.94655721184,10.5,10500080737.946558,47.655,-122.3035,60.0,11.45
2026-01-20T23:11:28+00:00,SAT-63382,208.90656445263951,60.918276399559886,768.2636538253892,-2.2471763829038953,78705.62247596937,10.5,10500078705.622477,47.655,-122.3035,60.0,11.466666666666667
2026-01-20T23:11:29+00:00,SAT-63382,209.31433231665508,61.401327796158995,766.0224699128396,-2.188637037115253,76655.32696526394,10.5,10500076655.326965,47.655,-122.3035,60.0,11.483333333333333
2026-01-20T23:11:30+00:00,SAT-63382,209.73818896248417,61.885603718914524,763.8396692411567,-2.1295921679789718,74587.32588856255,10.5,10500074587.325888,47.655,-122.3035,60.0,11.5
2026-01-20T23:11:31+00:00,SAT-63382,210.1790017119648,62.370956201237256,761.7157559856257,-2.070049839913884,72501.90169592517,10.5,10500072501.901695,47.655,-122.3035,60.0,11.516666666666667
2026-01-20T23:11:32+00:00,SAT-63382,210.63769655561546,62.85722785577101,759.6512262786182,-2.0100186274160072,70399.35470247245,10.5,10500070399.354702,47.655,-122.3035,60.0,11.533333333333333
2026-01-20T23:11:33+00:00,SAT-63382,211.1152626667969,63.34425125354764,757.6465677008754,-1.9495076141885974,68280.0030579164,10.5,10500068280.003057,47.655,-122.3035,60.0,11.55
2026-01-20T23:11:34+00:00,SAT-63382,211.6127572644138,63.83184824441624,755.7022587736578,-1.8885263821849334,66144.18236279246,10.5,10500066144.182364,47.655,-122.3035,60.0,11.566666666666666
2026-01-20T23:11:35+00:00,SAT-63382,212.1313108396809,64.31982920959426,753.8187684618255,-1.8270850168554293,63992.245852235574,10.5,10500063992.245852,47.655,-122.3035,60.0,11.583333333333334
2026-01-20T23:11:36+00:00,SAT-63382,212.67213276717143,64.80799224329672,751.9965556716817,-1.7651940932672634,61824.5639098308,10.5,10500061824.56391,47.655,-122.3035,60.0,11.6
2026-01-20T23:11:37+00:00,SAT-63382,213.2365173073597,65.29612225058463,750.2360687626631,-1.702864707304373,59641.52516036917,10.5,10500059641.52516,47.655,-122.3035,60.0,11.616666666666667
2026-01-20T23:11:38+00:00,SAT-63382,213.82585002268877,65.78398996537426,748.5377450279115,-1.6401084325620299,57443.53496011336,10.5,10500057443.53496,47.655,-122.3035,60.0,11.633333333333333
2026-01-20T23:11:39+00:00,SAT-63382,214.44161458544679,66.2713508595524,746.9020102178364,-1.576937334354268,55231.015887397065,10.5,10500055231.015888,47.655,-122.3035,60.0,11.65
2026-01-20T23:11:40+00:00,SAT-63382,215.0853999844967,66.75794394841266,745.329278049707,-1.513363965641011,53004.40759997576,10.5,10500053004.4076,47.655,-122.3035,60.0,11.666666666666666
2026-01-20T23:11:41+00:00,SAT-63382,215.75890810262496,67.2434904770803,743.8199497213077,-1.4494013488730617,50764.16619916152,10.5,10500050764.166199,47.655,-122.3035,60.0,11.683333333333334
2026-01-20T23:11:42+00:00,SAT-63382,216.4639616171364,67.72769247257696,742.3744134426983,-1.3850629788031954,48510.764328279234,10.5,10500048510.764328,47.655,-122.3035,60.0,11.7
2026-01-20T23:11:43+00:00,SAT-63382,217.20251216542076,68.21023115589243,740.9930439651719,-1.320362802707389,46244.69047993056,10.5,10500046244.69048,47.655,-122.3035,60.0,11.716666666666667
2026-01-20T23:11:44+00:00,SAT-63382,217.97664866812363,68.69076519526087,739.6762021299384,-1.2553152154998122,43966.44882490016,10.5,10500043966.448826,47.655,-122.3035,60.0,11.733333333333333
2026-01-20T23:11:45+00:00,SAT-63382,218.78860567661172,69.16892879316808,738.4242344216799,-1.1899350427023845,41676.55861567751,10.5,10500041676.558615,47.655,-122.3035,60.0,11.75
2026-01-20T23:11:46+00:00,SAT-63382,219.64077154736196,69.64432959207144,737.2374725390914,-1.1242375367054183,39375.55405548892,10.5,10500039375.554056,47.655,-122.3035,60.0,11.766666666666667
2026-01-20T23:11:47+00:00,SAT-63382,220.53569619222327,70.11654639338516,736.1162329691505,-1.0582383473992538,37063.98326969308,10.5,10500037063.98327,47.655,-122.3035,60.0,11.783333333333333
2026-01-20T23:11:48+00:00,SAT-63382,221.47609804576652,70.58512667267745,735.0608165906777,-0.9919535193345784,34742.40820632344,10.5,10500034742.408207,47.655,-122.3035,60.0,11.8
2026-01-20T23:11:49+00:00,SAT-63382,222.4648698202097,71.04958389690186,734.071508280728,-0.9253994655599096,32411.403719766196,10.5,10500032411.403719,47.655,-122.3035,60.0,11.816666666666666
2026-01-20T23:11:50+00:00,SAT-63382,223.50508245623652,71.50939463590066,733.1485765470762,-0.8585929579760914,30071.55723293399,10.5,10500030071.557234,47.655,-122.3035,60.0,11.833333333333334
2026-01-20T23:11:51+00:00,SAT-63382,224.59998655275302,71.96399548402191,732.2922731703214,-0.7915510973200728,27723.46768597082,10.5,10500027723.467686,47.655,-122.3035,60.0,11.85
2026-01-20T23:11:52+00:00,SAT-63382,225.7530103387547,72.41277980224626,731.5028328759275,-0.7242913078537566,25367.745350233075,10.5,10500025367.74535,47.655,-122.3035,60.0,11.866666666666667
2026-01-20T23:11:53+00:00,SAT-63382,226.96775308106476,72.85509432693146,730.7804730115614,-0.656831299793727,23005.010512419674,10.5,10500023005.010513,47.655,-122.3035,60.0,11.883333333333333
2026-01-20T23:11:54+00:00,SAT-63382,228.2479725044347,73.29023568196911,730.1253932619004,-0.5891890606016321,20635.893169524425,10.5,10500020635.89317,47.655,-122.3035,60.0,11.9
2026-01-20T23:11:55+00:00,SAT-63382,229.59756460121537,73.71744688722438,729.537775372127,-0.5213828252568862,18261.03198766029,10.5,10500018261.031988,47.655,-122.3035,60.0,11.916666666666666
2026-01-20T23:11:56+00:00,SAT-63382,231.0205338505434,74.13591396163028,729.0177829010709,-0.4534310548674769,15881.073552919426,10.5,10500015881.073553,47.655,-122.3035,60.0,11.933333333333334
2026-01-20T23:11:57+00:00,SAT-63382,232.52095161694592,74.54476277362009,728.5655609956831,-0.38535241094032485,13496.671470212272,10.5,10500013496.67147,47.655,-122.3035,60.0,11.95
2026-01-20T23:11:58+00:00,SAT-63382,234.1029002272852,74.94305633206534,728.1812361911719,-0.31716573021322286,11108.485481775662,10.5,10500011108.485481,47.655,-122.3035,60.0,11.966666666666667
2026-01-20T23:11:59+00:00,SAT-63382,235.77040006224962,75.32979276844684,727.8649162362392,-0.2488900028448394,8717.180703294456,10.5,10500008717.180704,47.655,-122.3035,60.0,11.983333333333333
2026-01-20T23:12:00+00:00,SAT-63382,237.52731700992217,75.70390432844286,727.6166899400687,-0.1805443418943423,6323.426554948871,10.5,10500006323.426556,47.655,-122.3035,60.0,12.0
2026-01-20T23:12:01+00:00,SAT-63382,239.37724781569503,76.06425774559347,727.4366270497527,-0.11214795838877274,3927.8958881684534,10.5,10500003927.895887,47.655,-122.3035,60.0,12.016666666666667
2026-01-20T23:12:02+00:00,SAT-63382,241.32338151926865,76.40965644968789,727.3247781525863,-0.04372013467301647,1531.2640522353397,10.5,10500001531.264051,47.655,-122.3035,60.0,12.033333333333333
2026-01-20T23:12:03+00:00,SAT-63382,243.368336244879,76.7388451131223,727.2811746049391,0.02471980185880511,-865.7920257535419,10.5,10499999134.207973,47.655,-122.3035,60.0,12.05
2026-01-20T23:12:04+00:00,SAT-63382,245.51397237410274,77.05051708082453,727.3058284873263,0.09315250704576519,-3262.594831456816,10.5,10499996737.405169,47.655,-122.3035,60.0,12.066666666666666
2026-01-20T23:12:05+00:00,SAT-63382,247.76118557523824,77.3433252252915,727.3987325876866,0.16155864699818553,-5658.467210275678,10.5,10499994341.53279,47.655,-122.3035,60.0,12.083333333333334
2026-01-20T23:12:06+00:00,SAT-63382,250.1096863805198,77.61589671420575,727.559860411626,0.22991892448237397,-8052.733291459009,10.5,10499991947.266708,47.655,-122.3035,60.0,12.1
2026-01-20T23:12:07+00:00,SAT-63382,252.55777695245646,77.86685205829922,727.7891662189764,0.29821410782104985,-10444.719500318526,10.5,10499989555.2805,47.655,-122.3035,60.0,12.116666666666667
2026-01-20T23:12:08+00:00,SAT-63382,255.10213979774335,78.09482857103215,728.0865850891767,0.3664250550966748,-12833.755405931812,10.5,10499987166.244595,47.655,-122.3035,60.0,12.133333333333333
2026-01-20T23:12:09+00:00,SAT-63382,257.7376571597648,78.29850805038808,728.4520330107931,0.4345327420841013,-15219.174699461797,10.5,10499984780.8253,47.655,-122.3035,60.0,12.15
2026-01-20T23:12:10+00:00,SAT-63382,260.4572827720183,78.47664807506817,728.8854069988984,0.5025182906009765,-17600.316187107863,10.5,10499982399.683813,47.655,-122.3035,60.0,12.166666666666666
2026-01-20T23:12:11+00:00,SAT-63382,263.25198842889324,78.62811580898584,729.3865852407243,0.5703629888356443,-19976.524502074913,10.5,10499980023.475498,47.655,-122.3035,60.0,12.183333333333334
2026-01-20T23:12:12+00:00,SAT-63382,266.1108056004675,78.75192270334914,729.9554272615898,0.6380483235201236,-22347.15123140722,10.5,10499977652.848768,47.655,-122.3035,60.0,12.2
2026-01-20T23:12:13+00:00,SAT-63382,269.02097658967864,78.84725805595794,730.5917741229139,0.7055559938845544,-24711.555404732102,10.5,10499975288.444595,47.655,-122.3035,60.0,12.216666666666667
2026-01-20T23:12:14+00:00,SAT-63382,271.9682200241873,78.91351909934555,731.2954486341481,0.7728679526076391,-27069.104928517616,10.5,10499972930.895071,47.655,-122.3035,60.0,12.233333333333333
2026-01-20T23:12:15+00:00,SAT-63382,274.937103465005,78.95033527043086,732.0662556055487,0.8399664083140356,-29419.176673541846,10.5,10499970580.823326,47.655,-122.3035,60.0,12.25
2026-01-20T23:12:16+00:00,SAT-63382,277.9115024072978,78.95758457521158,732.9039821034405,0.9068338671758293,-31761.157931952403,10.5,10499968238.842068,47.655,-122.3035,60.0,12.266666666666667
2026-01-20T23:12:17+00:00,SAT-63382,280.8751136295974,78.93540054656805,733.8083977469706,0.9734531348249649,-34094.446484247885,10.5,10499965905.553516,47.655,-122.3035,60.0,12.283333333333333
2026-01-20T23:12:18+00:00,SAT-63382,283.81198275409065,78.88416909751994,734.7792550067694,1.0398073561452015,-36418.45199296046,10.5,10499963581.548008,47.655,-122.3035,60.0,12.3
2026-01-20T23:12:19+00:00,SAT-63382,286.70700409582525,78.80451550317633,735.8162895432982,1.1058800222611518,-38732.596247441594,10.5,10499961267.403753,47.655,-122.3035,60.0,12.316666666666666
2026-01-20T23:12:20+00:00,SAT-63382,289.5463546633522,78.69728263733386,736.9192205521667,1.1716549912068166,-41036.313887761564,10.5,10499958963.686111,47.655,-122.3035,60.0,12.333333333333334
2026-01-20T23:12:21+00:00,SAT-63382,292.31783361173143,78.56350230708699,738.0877511300636,1.2371165057998028,-43329.05303074012,10.5,10499956670.94697,47.655,-122.3035,60.0,12.35
2026-01-20T23:12:22+00:00,SAT-63382,295.0110908309669,78.40436196899704,739.3215686585146,1.302249213194696,-45610.27595478839,10.5,10499954389.724045,47.655,-122.3035,60.0,12.366666666666667
2026-01-20T23:12:23+00:00,SAT-63382,297.6177414992323,78.22116923770956,740.6203452071408,1.3670381737750021,-47879.45941134224,10.5,10499952120.540588,47.655,-122.3035,60.0,12.383333333333333
2026-01-20T23:12:24+00:00,SAT-63382,300.1313749259176,78.01531644074673,741.9837379457857,1.4314688801713653,-50136.09529096071,10.5,10499949863.904709,47.655,-122.3035,60.0,12.4
2026-01-20T23:12:25+00:00,SAT-63382,302.54747444535803,77.78824709757374,743.41138957561,1.4955272603026286,-52379.69072983684,10.5,10499947620.30927,47.655,-122.3035,60.0,12.416666666666666
2026-01-20T23:12:26+00:00,SAT-63382,304.86326969761666,77.5414257124943,744.9029287632185,1.559199709331803,-54609.76922903088,10.5,10499945390.23077,47.655,-122.3035,60.0,12.433333333333334
2026-01-20T23:12:27+00:00,SAT-63382,307.0775438362264,77.2763117432932,746.4579706066587,1.6224730800375913,-56825.87031724029,10.5,10499943174.129683,47.655,-122.3035,60.0,12.45
2026-01-20T23:12:28+00:00,SAT-63382,309.1904164686219,76.99433814192233,748.0761170918162,1.6853346928784079,-59027.549903284365,10.5,10499940972.450096,47.655,-122.3035,60.0,12.466666666666667
2026-01-20T23:12:29+00:00,SAT-63382,311.2031199100748,76.69689446412703,749.7569575588469,1.7477723569879549,-61214.38101145803,10.5,10499938785.618988,47.655,-122.3035,60.0,12.483333333333333
2026-01-20T23:12:30+00:00,SAT-63382,313.1177821825519,76.38531426196785,751.5000691895495,1.8097743682903638,-63385.95371551615,10.5,10499936614.046284,47.655,-122.3035,60.0,12.5
2026-01-20T23:12:31+00:00,SAT-63382,314.93722600622635,76.06086629875352,753.3050174928579,1.8713295127836729,-65541.87525367488,10.5,10499934458.124746,47.655,-122.3035,60.0,12.516666666666667
2026-01-20T23:12:32+00:00,SAT-63382,316.664789381655,75.7247490297849,755.1713567936075,1.9324270735735911,-67681.77027496371,10.5,10499932318.229725,47.655,-122.3035,60.0,12.533333333333333
2026-01-20T23:12:33+00:00,SAT-63382,318.3041703671904,75.37808776908643,757.0986307283181,1.993056837161955,-69805.28105947391,10.5,10499930194.71894,47.655,-122.3035,60.0,12.55
2026-01-20T23:12:34+00:00,SAT-63382,319.8592964226525,75.0219339875634,759.0863727472477,2.053209094513609,-71912.06755572514,10.5,10499928087.932444,47.655,-122.3035,60.0,12.566666666666666
2026-01-20T23:12:35+00:00,SAT-63382,321.33421716953956,74.65726624215402,761.1341066175092,2.11287462960596,-74001.80697962247,10.5,10499925998.19302,47.655,-122.3035,60.0,12.583333333333334
2026-01-20T23:12:36+00:00,SAT-63382,322.7330184871223,74.28499230474985,763.2413469147696,2.1720447377128176,-76074.19445483376,10.5,10499923925.805546,47.655,-122.3035,60.0,12.6
2026-01-20T23:12:37+00:00,SAT-63382,324.0597554218402,73.90595212395328,765.4075995331818,2.2307112218783685,-78128.94288929334,10.5,10499921871.05711,47.655,-122.3035,60.0,12.616666666666667
2026-01-20T23:12:38+00:00,SAT-63382,325.3184011995719,73.52092133144228,767.6323621918019,2.2888663744422404,-80165.78232813158,10.5,10499919834.217672,47.655,-122.3035,60.0,12.633333333333333
2026-01-20T23:12:39+00:00,SAT-63382,326.51280971424137,73.1306150658684,769.9151249225789,2.3465029718696395,-82184.45977260447,10.5,10499917815.540228,47.655,-122.3035,60.0,12.65
2026-01-20T23:12:40+00:00,SAT-63382,327.64668908441683,72.73569193632162,772.2553705531902,2.4036143241322683,-84184.74090962227,10.5,10499915815.25909,47.655,-122.3035,60.0,12.666666666666666
2026-01-20T23:12:41+00:00,SAT-63382,328.7235841514195,72.33675798599366,774.6525752391249,2.460194190622477,-86166.40716670733,10.5,10499913833.592833,47.655,-122.3035,60.0,12.683333333333334
2026-01-20T23:12:42+00:00,SAT-63382,329.7468659938431,71.93437058540371,777.1062089119057,2.5162368282717633,-88129.25739730756,10.5,10499911870.742603,47.655,-122.3035,60.0,12.7
2026-01-20T23:12:43+00:00,SAT-63382,330.71972695861547,71.52904216814115,779.615735775302,2.5717369634598177,-90073.1068969323,10.5,10499909926.893103,47.655,-122.3035,60.0,12.716666666666667
2026-01-20T23:12:44+00:00,SAT-63382,331.64517986881674,71.1212437804527,782.1806147735259,2.6266898043365603,-91997.78783472226,10.5,10499908002.212166,47.655,-122.3035,60.0,12.733333333333333
2026-01-20T23:12:45+00:00,SAT-63382,332.5260603652557,70.71140841338133,784.8003000717176,2.681091007143694,-93903.14807388779,10.5,10499906096.851927,47.655,-122.3035,60.0,12.75
2026-01-20T23:12:46+00:00,SAT-63382,333.36503151053006,70.29993411307908,787.4742415028422,2.7349366850892314,-95789.05148253239,10.5,10499904210.948517,47.655,-122.3035,60.0,12.766666666666667
2026-01-20T23:12:47+00:00,SAT-63382,334.1645899945948,69.88718685975046,790.2018850234379,2.788223392436537,-97655.37737638362,10.5,10499902344.622623,47.655,-122.3035,60.0,12.783333333333333
2026-01-20T23:12:48+00:00,SAT-63382,334.9270734008578,69.47350322314958,792.9826731534946,2.8409481227202185,-99502.02045630613,10.5,10499900497.979544,47.655,-122.3035,60.0,12.8
2026-01-20T23:12:49+00:00,SAT-63382,335.6546681263468,69.05919280068376,795.8160454145543,2.893108293368033,-101328.89026969566,10.5,10499898671.10973,47.655,-122.3035,60.0,12.816666666666666
2026-01-20T23:12:50+00:00,SAT-63382,336.34941763756086,68.6445404513923,798.7014387524733,2.944701731834364,-103135.91072481491,10.5,10499896864.089275,47.655,-122.3035,60.0,12.833333333333334
2026-01-20T23:12:51+00:00,SAT-63382,337.0132308275636,68.22980833812835,801.6382879463561,2.995726667881635,-104923.01982045583,10.5,10499895076.980179,47.655,-122.3035,60.0,12.85
2026-01-20T23:12:52+00:00,SAT-63382,337.6478903014023,67.81523779068942,804.62602600979,3.0461817318413074,-106690.16958503248,10.5,10499893309.830416,47.655,-122.3035,60.0,12.866666666666667
2026-01-20T23:12:53+00:00,SAT-63382,338.25506046590056,67.40105100275221,807.6640845903464,3.096065927119953,-108437.32511362745,10.5,10499891562.674887,47.655,-122.3035,60.0,12.883333333333333
2026-01-20T23:12:54+00:00,SAT-63382,338.8362953304498,66.98745257977458,810.7518943416608,3.1453786241767236,-110164.46435705731,10.5,10499889835.535643,47.655,-122.3035,60.0,12.9
2026-01-20T23:12:55+00:00,SAT-63382,339.393045966179,66.57463094768481,813.8888852895063,3.1941195693419817,-111871.57843073827,10.5,10499888128.42157,47.655,-122.3035,60.0,12.916666666666666
2026-01-20T23:12:56+00:00,SAT-63382,339.9266675894845,66.16275963284944,817.0744872066633,3.2422888288014406,-113558.669652774,10.5,10499886441.330347,47.655,-122.3035,60.0,12.933333333333334
2026-01-20T23:12:57+00:00,SAT-63382,340.43842623971796,65.75199843330338,820.3081299319214,3.2898868236618077,-115225.7527721027,10.5,10499884774.247229,47.655,-122.3035,60.0,12.95
2026-01-20T23:12:58+00:00,SAT-63382,340.9295050610044,65.34249447987074,823.5892437240534,3.3369142807450727,-116872.85324510485,10.5,10499883127.146755,47.655,-122.3035,60.0,12.966666666666667
2026-01-20T23:12:59+00:00,SAT-63382,341.40101017641734,64.93438320796943,826.9172595667166,3.3833722557712043,-118500.00804755952,10.5,10499881499.991953,47.655,-122.3035,60.0,12.983333333333333
2026-01-20T23:13:00+00:00,SAT-63382,341.85397617565997,64.52778923982952,830.2916094964722,3.4292620859193956,-120107.26401313824,10.5,10499879892.735987,47.655,-122.3035,60.0,13.0
2026-01-20T23:13:01+00:00,SAT-63382,342.2893712196184,64.12282719408121,833.7117268834959,3.4745853987629465,-121694.67814634262,10.5,10499878305.321854,47.655,-122.3035,60.0,13.016666666666667
2026-01-20T23:13:02+00:00,SAT-63382,342.7081017871405,63.71960242312901,837.1770467211954,3.5193440895609887,-123262.31682716442,10.5,10499876737.683172,47.655,-122.3035,60.0,13.033333333333333
2026-01-20T23:13:03+00:00,SAT-63382,343.1110170784669,63.31821168885473,840.6870058931844,3.563540332803714,-124810.25621544821,10.5,10499875189.743784,47.655,-122.3035,60.0,13.05
2026-01-20T23:13:04+00:00,SAT-63382,343.4989130991444,62.91874377876602,844.2410434517673,3.607176537995984,-126338.58070224647,10.5,10499873661.419298,47.655,-122.3035,60.0,13.066666666666666
2026-01-20T23:13:05+00:00,SAT-63382,343.8725364379343,62.521280074483926,847.8386008523286,3.650255345788382,-127847.38277431251,10.5,10499872152.617226,47.655,-122.3035,60.0,13.083333333333334
2026-01-20T23:13:06+00:00,SAT-63382,344.23258776385325,62.12589507269014,851.4791221838616,3.69277963828797,-129336.763375227,10.5,10499870663.236626,47.655,-122.3035,60.0,13.1
2026-01-20T23:13:07+00:00,SAT-63382,344.5797250628424,61.7326568615627,855.1620544097808,3.7347525061486513,-130806.83075276308,10.5,10499869193.169247,47.655,-122.3035,60.0,13.116666666666667
2026-01-20T23:13:08+00:00,SAT-63382,344.9145666281399,61.34162756148274,858.886847575913,3.7761772500551687,-132257.70051086234,10.5,10499867742.29949,47.655,-122.3035,60.0,13.133333333333333
2026-01-20T23:13:09+00:00,SAT-63382,345.2376938259673,60.95286372977618,862.652955019968,3.8170573401004657,-133689.49418685806,10.5,10499866310.505814,47.655,-122.3035,60.0,13.15
2026-01-20T23:13:10+00:00,SAT-63382,345.5496536494586,60.56641673714048,866.4598335404949,3.8573964605252837,-135102.3408184454,10.5,10499864897.659182,47.655,-122.3035,60.0,13.166666666666666
2026-01-20T23:13:11+00:00,SAT-63382,345.8509610843766,60.18233310977898,870.3069436104588,3.8971984365883903,-136496.3743823672,10.5,10499863503.625618,47.655,-122.3035,60.0,13.183333333333334
2026-01-20T23:13:12+00:00,SAT-63382,346.14210129098177,59.80065485207804,874.1937495178829,3.936467287196299,-137871.73563772955,10.5,10499862128.264362,47.655,-122.3035,60.0,13.2
2026-01-20T23:13:13+00:00,SAT-63382,346.4235316266733,59.42141973930638,878.11971955898,3.9752071351513925,-139228.5689825113,10.5,10499860771.431017,47.655,-122.3035,60.0,13.216666666666667
2026-01-20T23:13:14+00:00,SAT-63382,346.6956835108748,59.0446615966444,882.084326141771,4.01342229007739,-140567.0253579648,10.5,10499859432.974642,47.655,-122.3035,60.0,13.233333333333333
2026-01-20T23:13:15+00:00,SAT-63382,346.95896415725747,58.670410549513356,886.0870459724082,4.051117161781974,-141887.25921420855,10.5,10499858112.740786,47.655,-122.3035,60.0,13.25
2026-01-20T23:13:16+00:00,SAT-63382,347.2137581715821,58.29869326343336,890.1273601550921,4.08829630248757,-143189.42998932776,10.5,10499856810.570011,47.655,-122.3035,60.0,13.266666666666667
2026-01-20T23:13:17+00:00,SAT-63382,347.46042903480037,57.92953316252242,894.2047543341064,4.1249643519585995,-144473.7001874987,10.5,10499855526.299812,47.655,-122.3035,60.0,13.283333333333333
2026-01-20T23:13:18+00:00,SAT-63382,347.69932047397964,57.56295063719928,898.3187187811264,4.161126074689578,-145740.2366814731,10.5,10499854259.763319,47.655,-122.3035,60.0,13.3
2026-01-20T23:13:19+00:00,SAT-63382,347.93075773578795,57.19896323384012,902.4687485196168,4.196786329663748,-146989.20965339747,10.5,10499853010.790346,47.655,-122.3035,60.0,13.316666666666666
2026-01-20T23:13:20+00:00,SAT-63382,348.15504876589733,56.837585833800155,906.6543434190681,4.231950038132831,-148220.79146632412,10.5,10499851779.208534,47.655,-122.3035,60.0,13.333333333333334
2026-01-20T23:13:21+00:00,SAT-63382,348.3724853019897,56.4788308227656,910.8750082570992,4.2666222388523956,-149435.1585987869,10.5,10499850564.841402,47.655,-122.3035,60.0,13.35
2026-01-20T23:13:22+00:00,SAT-63382,348.58334389163866,56.122708243899176,915.130252836648,4.300807999067918,-150632.48852715682,10.5,10499849367.511473,47.655,-122.3035,60.0,13.366666666666667
2026-01-20T23:13:23+00:00,SAT-63382,348.78788683346016,55.76922594801441,919.4195920143851,4.334512492508986,-151812.9624573289,10.5,10499848187.037542,47.655,-122.3035,60.0,13.383333333333333
2026-01-20T23:13:24+00:00,SAT-63382,348.9863630559355,55.418389727368584,923.7425458069141,4.367740906035936,-152976.76205509255,10.5,10499847023.237946,47.655,-122.3035,60.0,13.4
2026-01-20T23:13:25+00:00,SAT-63382,349.17900893039393,55.070203448128254,928.0986394038672,4.4004985126958065,-154124.07200486,10.5,10499845875.927996,47.655,-122.3035,60.0,13.416666666666666
2026-01-20T23:13:26+00:00,SAT-63382,349.3660490310521,54.7246691684004,932.4874032538626,4.432790617935663,-155255.07812582952,10.5,10499844744.921875,47.655,-122.3035,60.0,13.433333333333334
2026-01-20T23:13:27+00:00,SAT-63382,349.54769684032885,54.38178725286913,936.9083730968171,4.464622545028762,-156369.96686154793,10.5,10499843630.033138,47.655,-122.3035,60.0,13.45
2026-01-20T23:13:28+00:00,SAT-63382,349.7241554054696,54.041556481198796,941.3610899817256,4.4959996746028645,-157468.92666435952,10.5,10499842531.073336,47.655,-122.3035,60.0,13.466666666666667
2026-01-20T23:13:29+00:00,SAT-63382,349.89561795240525,53.70397414658825,945.845100323863,4.526927389350885,-158552.14605893884,10.5,10499841447.853941,47.655,-122.3035,60.0,13.483333333333333
2026-01-20T23:13:30+00:00,SAT-63382,350.06226845611883,53.36903615228622,950.3599559068423,4.557411122431193,-159619.81533747434,10.5,10499840380.184662,47.655,-122.3035,60.0,13.5
2026-01-20T23:13:31+00:00,SAT-63382,350.2242821749264,53.03673709855089,954.9052139329469,4.587456286546449,-160672.1240757088,10.5,10499839327.875925,47.655,-122.3035,60.0,13.516666666666667
2026-01-20T23:13:32+00:00,SAT-63382,350.3818261467903,52.70707036940312,959.4804370027293,4.6170683158277575,-161709.26259989984,10.5,10499838290.7374,47.655,-122.3035,60.0,13.533333333333333
2026-01-20T23:13:33+00:00,SAT-63382,350.5350596547298,52.38002821105178,964.0851931363815,4.646252671358768,-162731.42218029738,10.5,10499837268.57782,47.655,-122.3035,60.0,13.55
2026-01-20T23:13:34+00:00,SAT-63382,350.6841346620562,52.05560180522755,968.7190558006166,4.675014772327404,-163738.79261978547,10.5,10499836261.20738,47.655,-122.3035,60.0,13.566666666666666
2026-01-20T23:13:35+00:00,SAT-63382,350.8291962173308,51.73378134284667,973.3816038668845,4.703360080405202,-164731.5652092042,10.5,10499835268.434792,47.655,-122.3035,60.0,13.583333333333334
2026-01-20T23:13:36+00:00,SAT-63382,350.97038283615825,51.41455608751084,978.072421653742,4.731294005976442,-165709.92944309703,10.5,10499834290.070557,47.655,-122.3035,60.0,13.6
2026-01-20T23:13:37+00:00,SAT-63382,351.1078268558363,51.09791444156268,982.7910988757025,4.758821974626515,-166674.07534841457,10.5,10499833325.924652,47.655,-122.3035,60.0,13.616666666666667
2026-01-20T23:13:38+00:00,SAT-63382,351.24165476975713,50.783844003806806,987.5372306583967,4.785949392863897,-167624.19228395307,10.5,10499832375.807716,47.655,-122.3035,60.0,13.633333333333333
2026-01-20T23:13:39+00:00,SAT-63382,351.37198753993357,50.4723316261015,992.3104175195463,4.812681635838376,-168560.46851019497,10.5,10499831439.53149,47.655,-122.3035,60.0,13.65
2026-01-20T23:13:40+00:00,SAT-63382,351.4989408898674,50.16336346743388,997.110265337689,4.839024072419412,-169483.09206765908,10.5,10499830516.907932,47.655,-122.3035,60.0,13.666666666666666
2026-01-20T23:13:41+00:00,SAT-63382,351.6226255801473,49.85692504324506,1001.9363853459154,4.864982030299865,-170392.24955468555,10.5,10499829607.750444,47.655,-122.3035,60.0,13.683333333333334
2026-01-20T23:13:42+00:00,SAT-63382,351.7431476663809,49.55300127409568,1006.7883940908011,4.890560824970116,-171288.1271422319,10.5,10499828711.872858,47.655,-122.3035,60.0,13.7
2026-01-20T23:13:43+00:00,SAT-63382,351.8606087422934,49.25157652972505,1011.665913420238,4.915765729229574,-172170.90950603745,10.5,10499827829.090494,47.655,-122.3035,60.0,13.716666666666667
2026-01-20T23:13:44+00:00,SAT-63382,351.9751061675507,48.95263467244166,1016.5685704408563,4.940601973939605,-173040.77985299367,10.5,10499826959.220146,47.655,-122.3035,60.0,13.733333333333333
2026-01-20T23:13:45+00:00,SAT-63382,352.0867332820813,48.65615909796399,1021.4959974761987,4.96507479606695,-173897.92160382823,10.5,10499826102.078396,47.655,-122.3035,60.0,13.75
2026-01-20T23:13:46+00:00,SAT-63382,352.19557960892314,48.362132771085506,1026.4478320728094,4.989189349136155,-174742.5152567702,10.5,10499825257.484743,47.655,-122.3035,60.0,13.766666666666667
2026-01-20T23:13:47+00:00,SAT-63382,352.3017310431408,48.0705382645611,1031.4237169170146,5.012950755193276,-175574.74020753847,10.5,10499824425.259792,47.655,-122.3035,60.0,13.783333333333333
2026-01-20T23:13:48+00:00,SAT-63382,352.40527003104967,47.78135779273836,1036.4232998035272,5.03636411118631,-176394.77497281219,10.5,10499823605.225027,47.655,-122.3035,60.0,13.8
2026-01-20T23:13:49+00:00,SAT-63382,352.5062757392344,47.49457324292259,1041.446233610417,5.059434467101846,-177202.796424483,10.5,10499822797.203575,47.655,-122.3035,60.0,13.816666666666666
2026-01-20T23:13:50+00:00,SAT-63382,352.60482421349747,47.210166206194245,1046.4921762522733,5.082166814720569,-177998.97939582582,10.5,10499822001.020605,47.655,-122.3035,60.0,13.833333333333334
2026-01-20T23:13:51+00:00,SAT-63382,352.70098852857427,46.92811800709816,1051.5607906221546,5.104566117324995,-178783.4977219889,10.5,10499821216.502277,47.655,-122.3035,60.0,13.85
2026-01-20T23:13:52+00:00,SAT-63382,352.79483893009757,46.648409729999656,1056.6517445631669,5.126637272508712,-179556.5229374165,10.5,10499820443.477062,47.655,-122.3035,60.0,13.866666666666667
2026-01-20T23:13:53+00:00,SAT-63382,352.8864429678927,46.37102224596917,1061.764710802949,5.1483851470292,-180318.225496542,10.5,10499819681.774504,47.655,-122.3035,60.0,13.883333333333333
2026-01-20T23:13:54+00:00,SAT-63382,352.97586562263433,46.09593623625701,1066.8993669229194,5.169814539796087,-181068.77347747993,10.5,10499818931.226522,47.655,-122.3035,60.0,13.9
2026-01-20T23:13:55+00:00,SAT-63382,353.0631694248444,45.82313221639383,1072.055395290609,5.190930212360916,-181808.33364990662,10.5,10499818191.66635,47.655,-122.3035,60.0,13.916666666666666
2026-01-20T23:13:56+00:00,SAT-63382,353.1484145680161,45.55259055731309,1077.2324830224038,5.2117368740118115,-182537.0709530125,10.5,10499817462.929047,47.655,-122.3035,60.0,13.933333333333334
2026-01-20T23:13:57+00:00,SAT-63382,353.2316590153399,45.28429150603926,1082.4303219314183,5.232239177662749,-183255.1483515268,10.5,10499816744.851648,47.655,-122.3035,60.0,13.95
2026-01-20T23:13:58+00:00,SAT-63382,353.3129586006934,45.01821520539449,1087.648608471274,5.2524417046595575,-183962.7263035595,10.5,10499816037.273697,47.655,-122.3035,60.0,13.966666666666667
2026-01-20T23:13:59+00:00,SAT-63382,353.39236712399975,44.75434171332869,1092.887043664721,5.272349022850388,-184659.96479447486,10.5,10499815340.035206,47.655,-122.3035,60.0,13.983333333333333
2026-01-20T23:14:00+00:00,SAT-63382,353.4699364425347,44.49265101824537,1098.1453330901772,5.291965609749741,-185347.02064577048,10.5,10499814652.979355,47.655,-122.3035,60.0,14.0
2026-01-20T23:14:01+00:00,SAT-63382,353.5457165561991,44.233123057221455,1103.4231867916342,5.311295915359128,-186024.04971532288,10.5,10499813975.950285,47.655,-122.3035,60.0,14.016666666666667
2026-01-20T23:14:02+00:00,SAT-63382,353.6197556893913,43.97573773010517,1108.720319251219,5.330344297954784,-186691.2046484012,10.5,10499813308.795351,47.655,-122.3035,60.0,14.033333333333333
2026-01-20T23:14:03+00:00,SAT-63382,353.692100367672,43.7204749158694,1114.0364492977126,5.3491151064137945,-187348.63776107685,10.5,10499812651.36224,47.655,-122.3035,60.0,14.05
2026-01-20T23:14:04+00:00,SAT-63382,353.7627954917366,43.46731448409988,1119.3713000971761,5.367612596286059,-187996.49810070812,10.5,10499812003.5019,47.655,-122.3035,60.0,14.066666666666666
2026-01-20T23:14:05+00:00,SAT-63382,353.83188440641965,43.216236309735606,1124.7245990598722,5.385840996265743,-188634.9337740521,10.5,10499811365.066225,47.655,-122.3035,60.0,14.083333333333334
2026-01-20T23:14:06+00:00,SAT-63382,353.8994089671753,42.96722028385055,1130.096077813481,5.403804441129905,-189264.08959849153,10.5,10499810735.910402,47.655,-122.3035,60.0,14.1
2026-01-20T23:14:07+00:00,SAT-63382,353.96540960230635,42.7202463268524,1135.4854721094346,5.421507056344005,-189884.1100652774,10.5,10499810115.889935,47.655,-122.3035,60.0,14.116666666666667
2026-01-20T23:14:08+00:00,SAT-63382,354.02992537325895,42.47529439706181,1140.8925218136283,5.438952878964602,-190495.1365692072,10.5,10499809504.86343,47.655,-122.3035,60.0,14.133333333333333
2026-01-20T23:14:09+00:00,SAT-63382,354.0929940308792,42.2323445022986,1146.316970818249,5.4561458949578165,-191097.30871567514,10.5,10499808902.691284,47.655,-122.3035,60.0,14.15
2026-01-20T23:14:10+00:00,SAT-63382,354.15465206944936,41.99137670910523,1151.7585669908203,5.473090048092534,-191690.7646321497,10.5,10499808309.235369,47.655,-122.3035,60.0,14.166666666666666
2026-01-20T23:14:11+00:00,SAT-63382,354.21493477815983,41.752371151012085,1157.2170621321181,5.4897892038216085,-192275.63970314054,10.5,10499807724.360296,47.655,-122.3035,60.0,14.183333333333334
2026-01-20T23:14:12+00:00,SAT-63382,354.273876289713,41.5153080378349,1162.6922118980626,5.506247212988989,-192852.06880149196,10.5,10499807147.931198,47.655,-122.3035,60.0,14.2
2026-01-20T23:14:13+00:00,SAT-63382,354.3315096273044,41.28016766167233,1168.1837757851504,5.522467807586352,-193420.1826373387,10.5,10499806579.817362,47.655,-122.3035,60.0,14.216666666666667
2026-01-20T23:14:14+00:00,SAT-63382,354.38786674822563,41.04693040690031,1173.6915170119164,5.538454723590068,-193980.11206037647,10.5,10499806019.88794,47.655,-122.3035,60.0,14.233333333333333
2026-01-20T23:14:15+00:00,SAT-63382,354.4429785867495,40.81557675440838,1179.2152025229104,5.554211625026565,-194531.98540030964,10.5,10499805468.014599,47.655,-122.3035,60.0,14.25
2026-01-20T23:14:16+00:00,SAT-63382,354.4968750941981,40.586087288672616,1184.7546029169368,5.569742097778912,-195075.9282499314,10.5,10499804924.07175,47.655,-122.3035,60.0,14.266666666666667
2026-01-20T23:14:17+00:00,SAT-63382,354.5495852770637,40.35844270461118,1190.3094923691217,5.585049697056314,-195612.06512770674,10.5,10499804387.934872,47.655,-122.3035,60.0,14.283333333333333
2026-01-20T23:14:18+00:00,SAT-63382,354.6011372338996,40.132623812061645,1195.8796486003191,5.6001379336236505,-196140.5189954723,10.5,10499803859.481005,47.655,-122.3035,60.0,14.3
