satellites_20260120_184412/SAT-53505.csv

timestamp,satellite,azimuth_deg,elevation_deg,distance_km,relative_velocity_kms,doppler_shift_hz,tx_freq_ghz,rx_freq_hz,ue_lat,ue_lon,ue_alt_m,time_minutes
2026-01-20T23:05:04+00:00,SAT-53505,290.9410961541983,40.02451315973484,3044.4089762802923,-6.620681656418202,231884.2770634047,10.5,10500231884.277063,47.655,-122.3035,60.0,5.066666666666666
2026-01-20T23:05:05+00:00,SAT-53505,290.8777574486044,40.0813817055093,3037.805949774958,-6.618810235191396,231818.73197593802,10.5,10500231818.731976,47.655,-122.3035,60.0,5.083333333333333
2026-01-20T23:05:06+00:00,SAT-53505,290.81402563006765,40.1383203648521,3031.204789700394,-6.616918446339766,231752.47352809503,10.5,10500231752.473528,47.655,-122.3035,60.0,5.1
2026-01-20T23:05:07+00:00,SAT-53505,290.74989754822707,40.195329145083164,3024.6055163699116,-6.615006157580824,231685.49708678346,10.5,10500231685.497087,47.655,-122.3035,60.0,5.116666666666666
2026-01-20T23:05:08+00:00,SAT-53505,290.6853700216839,40.252408048492676,3018.0081502287503,-6.613073213132503,231617.79719585634,10.5,10500231617.797195,47.655,-122.3035,60.0,5.133333333333334
2026-01-20T23:05:09+00:00,SAT-53505,290.6204398378194,40.30955707202945,3011.4127118775195,-6.611119439132313,231549.36776591386,10.5,10500231549.367765,47.655,-122.3035,60.0,5.15
2026-01-20T23:05:10+00:00,SAT-53505,290.55510375261923,40.36677620702958,3004.819222090225,-6.6091446931354,231480.2038079347,10.5,10500231480.203808,47.655,-122.3035,60.0,5.166666666666667
2026-01-20T23:05:11+00:00,SAT-53505,290.489358490029,40.42406543937208,2998.2277017829383,-6.607148809055545,231410.29950487686,10.5,10500231410.299505,47.655,-122.3035,60.0,5.183333333333334
2026-01-20T23:05:12+00:00,SAT-53505,290.4232007418134,40.481424749155586,2991.6381720373734,-6.605131624766069,231339.6491783783,10.5,10500231339.649178,47.655,-122.3035,60.0,5.2
2026-01-20T23:05:13+00:00,SAT-53505,290.3566271671304,40.538854110611325,2985.05065409694,-6.603092976386421,231268.24708864896,10.5,10500231268.24709,47.655,-122.3035,60.0,5.216666666666667
2026-01-20T23:05:14+00:00,SAT-53505,290.2896343922143,40.59635349196346,2978.4651693684905,-6.601032698492595,231196.08744184035,10.5,10500231196.087442,47.655,-122.3035,60.0,5.233333333333333
2026-01-20T23:05:15+00:00,SAT-53505,290.2222190099704,40.65392285529016,2971.881739423861,-6.5989506348664735,231123.16476653318,10.5,10500231123.164766,47.655,-122.3035,60.0,5.25
2026-01-20T23:05:16+00:00,SAT-53505,290.1543775795516,40.71156215647383,2965.300385990687,-6.596846578281953,231049.47180479273,10.5,10500231049.471806,47.655,-122.3035,60.0,5.266666666666667
2026-01-20T23:05:17+00:00,SAT-53505,290.08610662641706,40.76927134462464,2958.721131003281,-6.594720407505751,230975.00431051664,10.5,10500230975.00431,47.655,-122.3035,60.0,5.283333333333333
2026-01-20T23:05:18+00:00,SAT-53505,290.0174026411758,40.827050362695296,2952.1439965168615,-6.592571922839004,230899.75528940605,10.5,10500230899.75529,47.655,-122.3035,60.0,5.3
2026-01-20T23:05:19+00:00,SAT-53505,289.9482620798977,40.88489914665978,2945.5690047858166,-6.590400955667102,230823.718835864,10.5,10500230823.718836,47.655,-122.3035,60.0,5.316666666666666
2026-01-20T23:05:20+00:00,SAT-53505,289.8786813634616,40.94281762564277,2938.996178232698,-6.588207341155568,230746.88917668993,10.5,10500230746.889177,47.655,-122.3035,60.0,5.333333333333333
2026-01-20T23:05:21+00:00,SAT-53505,289.8086568770767,41.000805721811005,2932.425539444452,-6.585990857780556,230669.25855318157,10.5,10500230669.258553,47.655,-122.3035,60.0,5.35
2026-01-20T23:05:22+00:00,SAT-53505,289.7381849704646,41.05886334972757,2925.857111228959,-6.583751391903614,230590.82298523982,10.5,10500230590.822985,47.655,-122.3035,60.0,5.366666666666666
2026-01-20T23:05:23+00:00,SAT-53505,289.6672619563848,41.11699041715099,2919.2909165074343,-6.581488723813205,230511.5747776372,10.5,10500230511.574778,47.655,-122.3035,60.0,5.383333333333334
2026-01-20T23:05:24+00:00,SAT-53505,289.5958841112675,41.175186823949765,2912.7269784202176,-6.579202670410456,230431.50751747657,10.5,10500230431.507517,47.655,-122.3035,60.0,5.4
2026-01-20T23:05:25+00:00,SAT-53505,289.5240476744196,41.233452462268225,2906.165320290261,-6.576893046658642,230350.61472398933,10.5,10500230350.614723,47.655,-122.3035,60.0,5.416666666666667
2026-01-20T23:05:26+00:00,SAT-53505,289.4517488476479,41.29178721634967,2899.605965625061,-6.574559676583624,230268.89023381652,10.5,10500230268.890234,47.655,-122.3035,60.0,5.433333333333334
2026-01-20T23:05:27+00:00,SAT-53505,289.37898379473324,41.35019096245424,2893.0489381076145,-6.5722023658228474,230186.3272395595,10.5,10500230186.32724,47.655,-122.3035,60.0,5.45
2026-01-20T23:05:28+00:00,SAT-53505,289.3057486411844,41.40866356853038,2886.4942616147673,-6.56982092909514,230102.91925188783,10.5,10500230102.919252,47.655,-122.3035,60.0,5.466666666666667
2026-01-20T23:05:29+00:00,SAT-53505,289.23203947370996,41.46720489412555,2879.94196020815,-6.567415151736096,230018.65875234595,10.5,10500230018.658752,47.655,-122.3035,60.0,5.483333333333333
2026-01-20T23:05:30+00:00,SAT-53505,289.15785234008916,41.52581478995173,2873.392058163485,-6.564984877254173,229933.54025993816,10.5,10500229933.54026,47.655,-122.3035,60.0,5.5
2026-01-20T23:05:31+00:00,SAT-53505,289.0831832481242,41.58449309822703,2866.84457991257,-6.5625298760976865,229847.5557347934,10.5,10500229847.555735,47.655,-122.3035,60.0,5.516666666666667
2026-01-20T23:05:32+00:00,SAT-53505,289.00802816595336,41.64323965184368,2860.2995501161417,-6.5600499603803275,229760.6985963384,10.5,10500229760.698597,47.655,-122.3035,60.0,5.533333333333333
2026-01-20T23:05:33+00:00,SAT-53505,288.93238302116185,41.70205427455534,2853.7569936223226,-6.557544918324885,229672.9614272394,10.5,10500229672.961428,47.655,-122.3035,60.0,5.55
2026-01-20T23:05:34+00:00,SAT-53505,288.85624370058724,41.7609367805757,2847.2169354904468,-6.555014579741773,229584.3382667372,10.5,10500229584.338266,47.655,-122.3035,60.0,5.566666666666666
2026-01-20T23:05:35+00:00,SAT-53505,288.7796060494077,41.81988697475915,2840.6794009495843,-6.552458701357876,229494.82059437834,10.5,10500229494.820595,47.655,-122.3035,60.0,5.583333333333333
2026-01-20T23:05:36+00:00,SAT-53505,288.7024658714636,41.87890465174928,2834.14441547143,-6.549877097823924,229404.40191844717,10.5,10500229404.401918,47.655,-122.3035,60.0,5.6
2026-01-20T23:05:37+00:00,SAT-53505,288.6248189281598,41.937989596298664,2827.6120047125337,-6.54726954889017,229313.07452486607,10.5,10500229313.074524,47.655,-122.3035,60.0,5.616666666666666
2026-01-20T23:05:38+00:00,SAT-53505,288.5466609383811,41.99714158275097,2821.082194549107,-6.5446358757186545,229220.8321499731,10.5,10500229220.83215,47.655,-122.3035,60.0,5.633333333333334
2026-01-20T23:05:39+00:00,SAT-53505,288.4679875775547,42.05636037520576,2814.5550110357235,-6.541975788304944,229127.6646365864,10.5,10500229127.664637,47.655,-122.3035,60.0,5.65
2026-01-20T23:05:40+00:00,SAT-53505,288.3887944783854,42.115645726302105,2808.0304805161873,-6.539289168748665,229033.56785533606,10.5,10500229033.567856,47.655,-122.3035,60.0,5.666666666666667
2026-01-20T23:05:41+00:00,SAT-53505,288.30907722847996,42.174997378556185,2801.508629451889,-6.536575711694097,228938.5311113731,10.5,10500228938.53111,47.655,-122.3035,60.0,5.683333333333334
2026-01-20T23:05:42+00:00,SAT-53505,288.22883137193037,42.234415062444015,2794.989484608759,-6.533835261972089,228842.54897001758,10.5,10500228842.54897,47.655,-122.3035,60.0,5.7
2026-01-20T23:05:43+00:00,SAT-53505,288.14805240713633,42.293898497535636,2788.473072907486,-6.531067558656005,228745.61229251488,10.5,10500228745.612293,47.655,-122.3035,60.0,5.716666666666667
2026-01-20T23:05:44+00:00,SAT-53505,288.06673578751077,42.35344739130436,2781.9594215289862,-6.528272376655819,228647.71319526024,10.5,10500228647.713196,47.655,-122.3035,60.0,5.733333333333333
2026-01-20T23:05:45+00:00,SAT-53505,287.9848769205411,42.41306143921606,2775.448557878668,-6.525449526447739,228548.8450403287,10.5,10500228548.845041,47.655,-122.3035,60.0,5.75
2026-01-20T23:05:46+00:00,SAT-53505,287.90247116692495,42.47274032481292,2768.9405095509574,-6.522598718412056,228448.9976840131,10.5,10500228448.997684,47.655,-122.3035,60.0,5.766666666666667
2026-01-20T23:05:47+00:00,SAT-53505,287.81951384113967,42.532483718554786,2762.435304429128,-6.519719779973603,228348.16508200095,10.5,10500228348.165083,47.655,-122.3035,60.0,5.783333333333333
2026-01-20T23:05:48+00:00,SAT-53505,287.73600020963454,42.592291278636765,2755.9329705685677,-6.516812427479678,228246.3372995748,10.5,10500228246.3373,47.655,-122.3035,60.0,5.8
2026-01-20T23:05:49+00:00,SAT-53505,287.6519254915536,42.65216264971833,2749.433536307561,-6.513876483398952,228143.50811883665,10.5,10500228143.50812,47.655,-122.3035,60.0,5.816666666666666
2026-01-20T23:05:50+00:00,SAT-53505,287.56728485701257,42.71209746363367,2742.9370301614517,-6.510911615781584,228039.66591349884,10.5,10500228039.665913,47.655,-122.3035,60.0,5.833333333333333
2026-01-20T23:05:51+00:00,SAT-53505,287.4820734283289,42.77209533770795,2736.4434809766453,-6.507917669133673,227934.80523750721,10.5,10500227934.805237,47.655,-122.3035,60.0,5.85
2026-01-20T23:05:52+00:00,SAT-53505,287.3962862774759,42.83215587610589,2729.952917754629,-6.504894360658358,227828.91618611952,10.5,10500227828.916185,47.655,-122.3035,60.0,5.866666666666666
2026-01-20T23:05:53+00:00,SAT-53505,287.3099184269863,42.89227866838489,2723.4653697789327,-6.501841459191372,227721.99066298525,10.5,10500227721.990664,47.655,-122.3035,60.0,5.883333333333334
2026-01-20T23:05:54+00:00,SAT-53505,287.22296484883327,42.95246328968588,2716.980866563633,-6.49875867678759,227614.0185830482,10.5,10500227614.018583,47.655,-122.3035,60.0,5.9
2026-01-20T23:05:55+00:00,SAT-53505,287.1354204645486,43.01270929991992,2710.499437909983,-6.495645809499436,227504.99280320146,10.5,10500227504.992804,47.655,-122.3035,60.0,5.916666666666667
2026-01-20T23:05:56+00:00,SAT-53505,287.0472801436791,43.0730162442496,2704.0211138226423,-6.492502574860395,227394.9034302729,10.5,10500227394.90343,47.655,-122.3035,60.0,5.933333333333334
2026-01-20T23:05:57+00:00,SAT-53505,286.95853870415317,43.13338365206197,2697.5459245879815,-6.4893287364288454,227283.74218307677,10.5,10500227283.742184,47.655,-122.3035,60.0,5.95
2026-01-20T23:05:58+00:00,SAT-53505,286.8691909112018,43.193811037087386,2691.0739007281827,-6.486123979328585,227171.4980333166,10.5,10500227171.498034,47.655,-122.3035,60.0,5.966666666666667
2026-01-20T23:05:59+00:00,SAT-53505,286.7792314777097,43.254297896356775,2684.605073079466,-6.482888104826378,227058.16402051368,10.5,10500227058.16402,47.655,-122.3035,60.0,5.983333333333333
2026-01-20T23:06:00+00:00,SAT-53505,286.6886550622711,43.31484371096187,2678.1394726762524,-6.479620824870371,226943.73005587384,10.5,10500226943.730057,47.655,-122.3035,60.0,6.0
2026-01-20T23:06:01+00:00,SAT-53505,286.5974562696773,43.37544794489842,2671.6771308402485,-6.476321848622654,226828.1859530231,10.5,10500226828.185953,47.655,-122.3035,60.0,6.016666666666667
2026-01-20T23:06:02+00:00,SAT-53505,286.50562965042195,43.436110044705565,2665.2180791832225,-6.472990909388805,226711.52237119473,10.5,10500226711.522371,47.655,-122.3035,60.0,6.033333333333333
2026-01-20T23:06:03+00:00,SAT-53505,286.41316969979266,43.496829439350826,2658.762349582925,-6.469627780678653,226593.73137774487,10.5,10500226593.731379,47.655,-122.3035,60.0,6.05
2026-01-20T23:06:04+00:00,SAT-53505,286.3200708568045,43.55760554026153,2652.3099741429946,-6.4662321144150186,226474.80078153833,10.5,10500226474.800781,47.655,-122.3035,60.0,6.066666666666666
2026-01-20T23:06:05+00:00,SAT-53505,286.2263275051295,43.618437739830526,2645.8609853142184,-6.462803683588836,226354.7226317574,10.5,10500226354.722631,47.655,-122.3035,60.0,6.083333333333333
2026-01-20T23:06:06+00:00,SAT-53505,286.13193397100815,43.67932541219102,2639.4154157737858,-6.459342161133241,226233.48547313703,10.5,10500226233.485474,47.655,-122.3035,60.0,6.1
2026-01-20T23:06:07+00:00,SAT-53505,286.0368845239031,43.7402679119081,2632.973298525082,-6.4558472924067525,226111.08038705532,10.5,10500226111.080387,47.655,-122.3035,60.0,6.116666666666666
2026-01-20T23:06:08+00:00,SAT-53505,285.9411733750139,43.80126457428458,2626.534666825455,-6.452318781944626,225987.49702508718,10.5,10500225987.497025,47.655,-122.3035,60.0,6.133333333333334
2026-01-20T23:06:09+00:00,SAT-53505,285.8447946771613,43.86231471459355,2620.099554226929,-6.448756325820261,225862.72474243745,10.5,10500225862.724743,47.655,-122.3035,60.0,6.15
2026-01-20T23:06:10+00:00,SAT-53505,285.7477425243469,43.923417627606995,2613.667994584644,-6.445159627711036,225736.7531606345,10.5,10500225736.75316,47.655,-122.3035,60.0,6.166666666666667
2026-01-20T23:06:11+00:00,SAT-53505,285.6500109510332,43.98457258726838,2607.2400220492736,-6.441528393514241,225609.57197895728,10.5,10500225609.57198,47.655,-122.3035,60.0,6.183333333333334
2026-01-20T23:06:12+00:00,SAT-53505,285.55159393151496,44.04577884630688,2600.815671064809,-6.437862347328541,225481.1715341741,10.5,10500225481.171534,47.655,-122.3035,60.0,6.2
2026-01-20T23:06:13+00:00,SAT-53505,285.45248537904575,44.10703563599642,2594.3949763504065,-6.434161113398094,225351.53866572585,10.5,10500225351.538666,47.655,-122.3035,60.0,6.216666666666667
2026-01-20T23:06:14+00:00,SAT-53505,285.3526791466377,44.16834216478187,2587.9779729999773,-6.430424457567758,225220.66517250898,10.5,10500225220.665173,47.655,-122.3035,60.0,6.233333333333333
2026-01-20T23:06:15+00:00,SAT-53505,285.2521690244547,44.22969761919487,2581.564696340963,-6.426652029675128,225088.5387903549,10.5,10500225088.53879,47.655,-122.3035,60.0,6.25
2026-01-20T23:06:16+00:00,SAT-53505,285.1509487408434,44.29110116230928,2575.155182050034,-6.422843503050259,224955.14807790035,10.5,10500224955.148077,47.655,-122.3035,60.0,6.266666666666667
2026-01-20T23:06:17+00:00,SAT-53505,285.0490119613822,44.35255193351439,2568.7494661296582,-6.418998585079519,224820.48278657816,10.5,10500224820.482786,47.655,-122.3035,60.0,6.283333333333333
2026-01-20T23:06:18+00:00,SAT-53505,284.94635228779066,44.4140490483829,2562.347584874139,-6.415116947555601,224684.53142118012,10.5,10500224684.531422,47.655,-122.3035,60.0,6.3
2026-01-20T23:06:19+00:00,SAT-53505,284.842963257796,44.47559159786393,2555.9495749051107,-6.411198248127438,224547.2819911237,10.5,10500224547.281992,47.655,-122.3035,60.0,6.316666666666666
2026-01-20T23:06:20+00:00,SAT-53505,284.73883834476163,44.53717864767016,2549.5554731856446,-6.407242178292416,224408.7236913424,10.5,10500224408.723692,47.655,-122.3035,60.0,6.333333333333333
2026-01-20T23:06:21+00:00,SAT-53505,284.6339709565304,44.598809238116935,2543.1653169864944,-6.4032483939654234,224268.84447052015,10.5,10500224268.844471,47.655,-122.3035,60.0,6.35
2026-01-20T23:06:22+00:00,SAT-53505,284.5283544353731,44.66048238328515,2536.77914392158,-6.399216536754453,224127.63177625288,10.5,10500224127.631777,47.655,-122.3035,60.0,6.366666666666666
2026-01-20T23:06:23+00:00,SAT-53505,284.4219820575458,44.722197070377305,2530.3969919622564,-6.395146324686473,223985.07573265224,10.5,10500223985.075733,47.655,-122.3035,60.0,6.383333333333334
2026-01-20T23:06:24+00:00,SAT-53505,284.3148470315707,44.783952259940584,2524.0188993611023,-6.3910373333618935,223841.1614754494,10.5,10500223841.161476,47.655,-122.3035,60.0,6.4
2026-01-20T23:06:25+00:00,SAT-53505,284.20694249970416,44.845746883964715,2517.6449047939627,-6.3868892893513625,223695.87942799184,10.5,10500223695.879429,47.655,-122.3035,60.0,6.416666666666667
2026-01-20T23:06:26+00:00,SAT-53505,284.0982615350984,44.90757984680749,2511.275047209383,-6.382701792755549,223549.2155841134,10.5,10500223549.215584,47.655,-122.3035,60.0,6.433333333333334
2026-01-20T23:06:27+00:00,SAT-53505,283.9887971430462,44.969450023423725,2504.9093659547416,-6.378474514551451,223401.1584200368,10.5,10500223401.15842,47.655,-122.3035,60.0,6.45
2026-01-20T23:06:28+00:00,SAT-53505,283.8785422593414,45.03135625949604,2498.5479007055624,-6.374207073839024,223251.6945950313,10.5,10500223251.694595,47.655,-122.3035,60.0,6.466666666666667
2026-01-20T23:06:29+00:00,SAT-53505,283.7674897504105,45.09329737036318,2492.1906915172535,-6.369899128455242,223100.81212510035,10.5,10500223100.812124,47.655,-122.3035,60.0,6.483333333333333
2026-01-20T23:06:30+00:00,SAT-53505,283.65563241215085,45.1552721408188,2485.837778786474,-6.365550295016393,222948.4975825247,10.5,10500222948.497583,47.655,-122.3035,60.0,6.5
2026-01-20T23:06:31+00:00,SAT-53505,283.5429629699228,45.21727932412013,2479.4892032922444,-6.361160207401974,222794.73814421552,10.5,10500222794.738144,47.655,-122.3035,60.0,6.516666666666667
2026-01-20T23:06:32+00:00,SAT-53505,283.42947407770384,45.279317641554876,2473.1450061787286,-6.356728484867961,222639.52047490666,10.5,10500222639.520475,47.655,-122.3035,60.0,6.533333333333333
2026-01-20T23:06:33+00:00,SAT-53505,283.3151583176922,45.341385781686064,2466.8052289698203,-6.352254763767865,222482.8318381598,10.5,10500222482.831839,47.655,-122.3035,60.0,6.55
2026-01-20T23:06:34+00:00,SAT-53505,283.2000081994634,45.40348239989485,2460.469913552089,-6.347738644522025,222324.658239005,10.5,10500222324.65824,47.655,-122.3035,60.0,6.566666666666666
2026-01-20T23:06:35+00:00,SAT-53505,283.08401615991687,45.46560611739249,2454.1391022106195,-6.343179739278457,222164.98609322522,10.5,10500222164.986094,47.655,-122.3035,60.0,6.583333333333333
2026-01-20T23:06:36+00:00,SAT-53505,282.96717456254714,45.52775552068658,2447.8128376173127,-6.33857767183866,222003.80222475756,10.5,10500222003.802225,47.655,-122.3035,60.0,6.6
2026-01-20T23:06:37+00:00,SAT-53505,282.8494756966073,45.589929161033986,2441.4911628192654,-6.333932024667061,221841.0920097401,10.5,10500221841.09201,47.655,-122.3035,60.0,6.616666666666666
2026-01-20T23:06:38+00:00,SAT-53505,282.7309117772589,45.652125553362026,2435.1741212799975,-6.329242428819992,221676.84252620497,10.5,10500221676.842525,47.655,-122.3035,60.0,6.633333333333334
2026-01-20T23:06:39+00:00,SAT-53505,282.6114749441497,45.714343176060204,2428.8617568309874,-6.324508431684045,221511.03792171605,10.5,10500221511.037922,47.655,-122.3035,60.0,6.65
2026-01-20T23:06:40+00:00,SAT-53505,282.49115726229786,45.77658046945651,2422.5541137551213,-6.319729655508613,221343.66496584925,10.5,10500221343.664967,47.655,-122.3035,60.0,6.666666666666667
2026-01-20T23:06:41+00:00,SAT-53505,282.36995072022575,45.83883583584268,2416.2512367120275,-6.314905691622489,221174.7093452102,10.5,10500221174.709345,47.655,-122.3035,60.0,6.683333333333334
2026-01-20T23:06:42+00:00,SAT-53505,282.2478472299417,45.90110763844399,2409.9531707689157,-6.310036105746803,221004.15584951584,10.5,10500221004.15585,47.655,-122.3035,60.0,6.7
2026-01-20T23:06:43+00:00,SAT-53505,282.12483862684957,45.963394200427516,2403.659961426118,-6.3051204801706415,220831.9898487631,10.5,10500220831.98985,47.655,-122.3035,60.0,6.716666666666667
2026-01-20T23:06:44+00:00,SAT-53505,282.0009166689231,46.02569380431183,2397.3716546005608,-6.300158376684561,220658.1959950036,10.5,10500220658.195995,47.655,-122.3035,60.0,6.733333333333333
2026-01-20T23:06:45+00:00,SAT-53505,281.87607303651697,46.08800469099629,2391.088296646214,-6.29514939988494,220482.76043953001,10.5,10500220482.760439,47.655,-122.3035,60.0,6.75
2026-01-20T23:06:46+00:00,SAT-53505,281.7502993311285,46.15032505940663,2384.8099343113954,-6.290093065327548,220305.6662150562,10.5,10500220305.666216,47.655,-122.3035,60.0,6.766666666666667
2026-01-20T23:06:47+00:00,SAT-53505,281.6235870764414,46.21265306481301,2378.5366148275757,-6.284988957594565,220126.89877189283,10.5,10500220126.898771,47.655,-122.3035,60.0,6.783333333333333
2026-01-20T23:06:48+00:00,SAT-53505,281.4959277166346,46.274986818706765,2372.268385840535,-6.27983662476833,219946.44228197183,10.5,10500219946.442282,47.655,-122.3035,60.0,6.8
2026-01-20T23:06:49+00:00,SAT-53505,281.3673126165294,46.33732438761178,2366.0052954467656,-6.274635615373846,219764.28093272907,10.5,10500219764.280933,47.655,-122.3035,60.0,6.816666666666666
2026-01-20T23:06:50+00:00,SAT-53505,281.23773306113566,46.399663792249164,2359.7473921930327,-6.269385472978431,219580.39873796134,10.5,10500219580.398739,47.655,-122.3035,60.0,6.833333333333333
2026-01-20T23:06:51+00:00,SAT-53505,281.10718025526455,46.46200300663189,2353.4947250813157,-6.264085730956547,219394.77935446842,10.5,10500219394.779354,47.655,-122.3035,60.0,6.85
2026-01-20T23:06:52+00:00,SAT-53505,280.9756453233189,46.524339957092415,2347.247343578975,-6.258735933336976,219207.40681220958,10.5,10500219207.406813,47.655,-122.3035,60.0,6.866666666666666
2026-01-20T23:06:53+00:00,SAT-53505,280.84311930862805,46.5866725215029,2341.005297608127,-6.253335608551741,219018.26459487947,10.5,10500219018.264595,47.655,-122.3035,60.0,6.883333333333334
2026-01-20T23:06:54+00:00,SAT-53505,280.7095931733626,46.64899852821654,2334.768637561198,-6.247884279934408,218827.33600760327,10.5,10500218827.336008,47.655,-122.3035,60.0,6.9
2026-01-20T23:06:55+00:00,SAT-53505,280.57505779823185,46.71131575509902,2328.5374143060103,-6.242381434263819,218634.60307520512,10.5,10500218634.603075,47.655,-122.3035,60.0,6.916666666666667
2026-01-20T23:06:56+00:00,SAT-53505,280.4395039828448,46.773621928226596,2322.3116792222377,-6.236826631393191,218440.05038188284,10.5,10500218440.050383,47.655,-122.3035,60.0,6.933333333333334
2026-01-20T23:06:57+00:00,SAT-53505,280.30292244390307,46.83591472166711,2316.0914841285285,-6.231219352770649,218243.65976575643,10.5,10500218243.659765,47.655,-122.3035,60.0,6.95
2026-01-20T23:06:58+00:00,SAT-53505,280.1653038164417,46.89819175572753,2309.876881360698,-6.225559105769626,218045.41397295948,10.5,10500218045.413973,47.655,-122.3035,60.0,6.966666666666667
2026-01-20T23:06:59+00:00,SAT-53505,280.0266386529778,46.960450596227425,2303.667923745877,-6.219845381952323,217845.2951958498,10.5,10500217845.295197,47.655,-122.3035,60.0,6.983333333333333
2026-01-20T23:07:00+00:00,SAT-53505,279.8869174235764,47.02268875333912,2297.464664618277,-6.21407769338965,217643.28634508653,10.5,10500217643.286345,47.655,-122.3035,60.0,7.0
2026-01-20T23:07:01+00:00,SAT-53505,279.74613051515325,47.08490368077601,2291.267157798736,-6.208255494589507,217439.36831522902,10.5,10500217439.368315,47.655,-122.3035,60.0,7.016666666666667
2026-01-20T23:07:02+00:00,SAT-53505,279.60426823242454,47.14709277417539,2285.075457652132,-6.202378286457974,217233.523625897,10.5,10500217233.523626,47.655,-122.3035,60.0,7.033333333333333
2026-01-20T23:07:03+00:00,SAT-53505,279.46132079673384,47.20925337051142,2278.8896190411047,-6.196445533063837,217025.73350651236,10.5,10500217025.733507,47.655,-122.3035,60.0,7.05
2026-01-20T23:07:04+00:00,SAT-53505,279.31727834664997,47.271382746652755,2272.709697362796,-6.190456729065633,216815.98025787942,10.5,10500216815.980257,47.655,-122.3035,60.0,7.066666666666666
2026-01-20T23:07:05+00:00,SAT-53505,279.1721309371611,47.33347811858107,2266.5357485183413,-6.184411290792013,216604.2434373587,10.5,10500216604.243437,47.655,-122.3035,60.0,7.083333333333333
2026-01-20T23:07:06+00:00,SAT-53505,279.02586854122063,47.395536639492356,2260.3678289909913,-6.178308701306732,216390.50493965624,10.5,10500216390.50494,47.655,-122.3035,60.0,7.1
2026-01-20T23:07:07+00:00,SAT-53505,278.8784810482558,47.45755539934391,2254.2059957795545,-6.172148427295911,216174.74608586406,10.5,10500216174.746086,47.655,-122.3035,60.0,7.116666666666666
2026-01-20T23:07:08+00:00,SAT-53505,278.7299582644225,47.519531423544684,2248.0503064147315,-6.165929914016325,215956.94744652783,10.5,10500215956.947447,47.655,-122.3035,60.0,7.133333333333334
2026-01-20T23:07:09+00:00,SAT-53505,278.5802899130699,47.58146167157499,2241.900818980486,-6.159652538771701,215737.08721219018,10.5,10500215737.087212,47.655,-122.3035,60.0,7.15
2026-01-20T23:07:10+00:00,SAT-53505,278.42946563626435,47.643343035116104,2235.7575921818175,-6.153315822454628,215515.14860248283,10.5,10500215515.148602,47.655,-122.3035,60.0,7.166666666666667
2026-01-20T23:07:11+00:00,SAT-53505,278.27747499165594,47.705172338302766,2229.620685201556,-6.146919125065729,215291.10920192045,10.5,10500215291.109201,47.655,-122.3035,60.0,7.183333333333334
2026-01-20T23:07:12+00:00,SAT-53505,278.1243074561587,47.76694633487295,2223.4901578608237,-6.140461918901612,215064.9505280981,10.5,10500215064.950527,47.655,-122.3035,60.0,7.2
2026-01-20T23:07:13+00:00,SAT-53505,277.96995242356877,47.82866170806662,2217.3660705070392,-6.133943562011596,214836.6500971874,10.5,10500214836.650097,47.655,-122.3035,60.0,7.216666666666667
2026-01-20T23:07:14+00:00,SAT-53505,277.8143992073533,47.89031506820978,2211.2484841278597,-6.1273635139494385,214606.18898047495,10.5,10500214606.18898,47.655,-122.3035,60.0,7.233333333333333
2026-01-20T23:07:15+00:00,SAT-53505,277.65763703852315,47.95190295246189,2205.1374602499473,-6.120721150920863,214373.5453300465,10.5,10500214373.54533,47.655,-122.3035,60.0,7.25
2026-01-20T23:07:16+00:00,SAT-53505,277.4996550678456,48.01342182267633,2199.033061022096,-6.114015878582414,214138.69832948016,10.5,10500214138.69833,47.655,-122.3035,60.0,7.266666666666667
2026-01-20T23:07:17+00:00,SAT-53505,277.34044236549755,48.074868064379906,2192.935349185856,-6.107247065307385,213901.62585653688,10.5,10500213901.625856,47.655,-122.3035,60.0,7.283333333333333
2026-01-20T23:07:18+00:00,SAT-53505,277.17998792229076,48.13623798505762,2186.8443881127228,-6.100414119041345,213662.3071749661,10.5,10500213662.307175,47.655,-122.3035,60.0,7.3
2026-01-20T23:07:19+00:00,SAT-53505,277.0182806491904,48.19752781319735,2180.760241764666,-6.0935164204814045,213420.72059416102,10.5,10500213420.720594,47.655,-122.3035,60.0,7.316666666666666
2026-01-20T23:07:20+00:00,SAT-53505,276.85530937840554,48.258733696636,2174.6829747213055,-6.0865532977966055,213176.8425837596,10.5,10500213176.842585,47.655,-122.3035,60.0,7.333333333333333
2026-01-20T23:07:21+00:00,SAT-53505,276.69106286525925,48.31985170063189,2168.6126522323034,-6.0795241539418,212930.6522327153,10.5,10500212930.652233,47.655,-122.3035,60.0,7.35
2026-01-20T23:07:22+00:00,SAT-53505,276.52552978690204,48.380877807203134,2162.549340142772,-6.072428308701675,212682.12571701052,10.5,10500212682.125717,47.655,-122.3035,60.0,7.366666666666666
2026-01-20T23:07:23+00:00,SAT-53505,276.3586987451025,48.44180791285241,2156.4931049762267,-6.065265166438341,212431.24217488678,10.5,10500212431.242174,47.655,-122.3035,60.0,7.383333333333334
2026-01-20T23:07:24+00:00,SAT-53505,276.190558264762,48.50263782796357,2150.4440138502323,-6.058033997560137,212177.97605295805,10.5,10500212177.976053,47.655,-122.3035,60.0,7.4
2026-01-20T23:07:25+00:00,SAT-53505,276.02109679819046,48.56336327397222,2144.402134609999,-6.05073419234971,211922.3059963435,10.5,10500211922.305996,47.655,-122.3035,60.0,7.416666666666667
2026-01-20T23:07:26+00:00,SAT-53505,275.85030272282853,48.62397988307986,2138.3675357088287,-6.043365052944067,211664.20756292908,10.5,10500211664.207563,47.655,-122.3035,60.0,7.433333333333334
2026-01-20T23:07:27+00:00,SAT-53505,275.67816434452175,48.68448319585028,2132.3402862960256,-6.035925904543485,211403.65711837422,10.5,10500211403.657118,47.655,-122.3035,60.0,7.45
2026-01-20T23:07:28+00:00,SAT-53505,275.5046698978597,48.74486865990251,2126.3204561938946,-6.028416070431997,211140.6309612231,10.5,10500211140.63096,47.655,-122.3035,60.0,7.466666666666667
2026-01-20T23:07:29+00:00,SAT-53505,275.3298075473763,48.80513162834236,2120.3081158996506,-6.020834815836898,210875.10335662757,10.5,10500210875.103357,47.655,-122.3035,60.0,7.483333333333333
2026-01-20T23:07:30+00:00,SAT-53505,275.15356539020377,48.86526735759476,2114.3033366433224,-6.013181509963179,210607.05221147818,10.5,10500210607.052212,47.655,-122.3035,60.0,7.5
2026-01-20T23:07:31+00:00,SAT-53505,274.9759314545824,48.92527100686729,2108.3061902840523,-6.00545536806387,210336.4500406165,10.5,10500210336.45004,47.655,-122.3035,60.0,7.516666666666667
2026-01-20T23:07:32+00:00,SAT-53505,274.79689370529604,48.98513763497702,2102.316749463637,-5.997655734308799,210063.2738740959,10.5,10500210063.273874,47.655,-122.3035,60.0,7.533333333333333
2026-01-20T23:07:33+00:00,SAT-53505,274.61644004165856,49.0448622000263,2096.3350874779526,-5.989781834246259,209787.49658734153,10.5,10500209787.496588,47.655,-122.3035,60.0,7.55
2026-01-20T23:07:34+00:00,SAT-53505,274.4345583022048,49.104439556549984,2090.3612783952644,-5.981832996716142,209509.09467348742,10.5,10500209509.094673,47.655,-122.3035,60.0,7.566666666666666
2026-01-20T23:07:35+00:00,SAT-53505,274.25123626349193,49.16386445489291,2084.3953969532063,-5.973808422142131,209228.04012798876,10.5,10500209228.040129,47.655,-122.3035,60.0,7.583333333333333
2026-01-20T23:07:36+00:00,SAT-53505,274.0664616453598,49.223131538227214,2078.4375186868565,-5.965707378699193,208944.30731923727,10.5,10500208944.30732,47.655,-122.3035,60.0,7.6
2026-01-20T23:07:37+00:00,SAT-53505,273.8802221108698,49.282235341530935,2072.487719861167,-5.957529151674057,208657.87121495098,10.5,10500208657.871216,47.655,-122.3035,60.0,7.616666666666666
2026-01-20T23:07:38+00:00,SAT-53505,273.6925052676807,49.34117029003865,2066.5460774538974,-5.949272928526737,208368.70335654254,10.5,10500208368.703356,47.655,-122.3035,60.0,7.633333333333334
2026-01-20T23:07:39+00:00,SAT-53505,273.50329867292453,49.399930696521785,2060.6126692531802,-5.940937973647995,208076.7779798648,10.5,10500208076.77798,47.655,-122.3035,60.0,7.65
2026-01-20T23:07:40+00:00,SAT-53505,273.31258983304986,49.45851076030103,2054.6875737807954,-5.932523468764364,207782.0664255197,10.5,10500207782.066425,47.655,-122.3035,60.0,7.666666666666667
2026-01-20T23:07:41+00:00,SAT-53505,273.1203662085545,49.516904564651625,2048.7708703746143,-5.9240286721600945,207484.54271548416,10.5,10500207484.542715,47.655,-122.3035,60.0,7.683333333333334
2026-01-20T23:07:42+00:00,SAT-53505,272.92661521400976,49.57510607577869,2042.8626391122466,-5.915452774415922,207184.17850047172,10.5,10500207184.178501,47.655,-122.3035,60.0,7.7
2026-01-20T23:07:43+00:00,SAT-53505,272.7313242226279,49.63310914034327,2036.9629608785626,-5.906794947845385,206880.94479140145,10.5,10500206880.944792,47.655,-122.3035,60.0,7.716666666666667
2026-01-20T23:07:44+00:00,SAT-53505,272.5344805693569,49.69090748345713,2031.0719173839113,-5.898054411468183,206574.81423503964,10.5,10500206574.814236,47.655,-122.3035,60.0,7.733333333333333
2026-01-20T23:07:45+00:00,SAT-53505,272.3360715522714,49.74849470732626,2025.1895911175404,-5.889230336088444,206265.75778943932,10.5,10500206265.75779,47.655,-122.3035,60.0,7.75
2026-01-20T23:07:46+00:00,SAT-53505,272.13608443685325,49.80586428892141,2019.3160653956816,-5.880321899182454,205953.7466463408,10.5,10500205953.746647,47.655,-122.3035,60.0,7.766666666666667
2026-01-20T23:07:47+00:00,SAT-53505,271.93450645882035,49.86300957819247,2013.451424354897,-5.871328240039635,205638.75066001885,10.5,10500205638.75066,47.655,-122.3035,60.0,7.783333333333333
2026-01-20T23:07:48+00:00,SAT-53505,271.7313248284387,49.91992379581836,2007.595752990164,-5.862248568816334,205320.7421668076,10.5,10500205320.742167,47.655,-122.3035,60.0,7.8
2026-01-20T23:07:49+00:00,SAT-53505,271.5265267316196,49.976600032037354,2001.7491370841979,-5.853081968367972,204999.68904442454,10.5,10500204999.689045,47.655,-122.3035,60.0,7.816666666666666
2026-01-20T23:07:50+00:00,SAT-53505,271.3200993373349,50.033031243492715,1995.9116633344122,-5.843827621857312,204675.56268377433,10.5,10500204675.562683,47.655,-122.3035,60.0,7.833333333333333
2026-01-20T23:07:51+00:00,SAT-53505,271.1120297980673,50.0892102523344,1990.0834192528798,-5.834484639551884,204348.33192266227,10.5,10500204348.331923,47.655,-122.3035,60.0,7.85
2026-01-20T23:07:52+00:00,SAT-53505,270.9023052558396,50.145129743589514,1984.2644932390335,-5.825052138009451,204017.9658192043,10.5,10500204017.965818,47.655,-122.3035,60.0,7.866666666666666
2026-01-20T23:07:53+00:00,SAT-53505,270.69091284596794,50.2007822633172,1978.4549745733923,-5.815529259240442,203684.43432297633,10.5,10500203684.434322,47.655,-122.3035,60.0,7.883333333333334
2026-01-20T23:07:54+00:00,SAT-53505,270.4778397002165,50.256160216936756,1972.6549533921761,-5.805915073003204,203347.70485298082,10.5,10500203347.704853,47.655,-122.3035,60.0,7.9
2026-01-20T23:07:55+00:00,SAT-53505,270.2630729535036,50.31125586660277,1966.864520759368,-5.796208693916389,203007.74639941772,10.5,10500203007.746399,47.655,-122.3035,60.0,7.916666666666667
2026-01-20T23:07:56+00:00,SAT-53505,270.04659974674394,50.3660613297148,1961.0837686219686,-5.786409203446967,202664.52679137496,10.5,10500202664.52679,47.655,-122.3035,60.0,7.933333333333334
2026-01-20T23:07:57+00:00,SAT-53505,269.8284072325792,50.42056857666978,1955.3127898430641,-5.776515683864385,202318.01388604662,10.5,10500202318.013885,47.655,-122.3035,60.0,7.95
2026-01-20T23:07:58+00:00,SAT-53505,269.6084825800858,50.474769428940235,1949.5516782010232,-5.7665271841575745,201968.1743750022,10.5,10500201968.174376,47.655,-122.3035,60.0,7.966666666666667
2026-01-20T23:07:59+00:00,SAT-53505,269.3868129808876,50.52865555682672,1943.8005284226901,-5.756442797817219,201614.97650845104,10.5,10500201614.97651,47.655,-122.3035,60.0,7.983333333333333
2026-01-20T23:08:00+00:00,SAT-53505,269.16338565268404,50.58221847796024,1938.0594361390004,-5.746261546227531,201258.3860111287,10.5,10500201258.386011,47.655,-122.3035,60.0,8.0
2026-01-20T23:08:01+00:00,SAT-53505,268.9381878471577,50.6354495546914,1932.3284979568962,-5.735982480451743,200898.36964725546,10.5,10500200898.369648,47.655,-122.3035,60.0,8.016666666666667
2026-01-20T23:08:02+00:00,SAT-53505,268.7112068543838,50.688339992457195,1926.6078114297256,-5.725604628023268,200534.893356938,10.5,10500200534.893356,47.655,-122.3035,60.0,8.033333333333333
2026-01-20T23:08:03+00:00,SAT-53505,268.48243000942347,50.740880837651055,1920.8974750807104,-5.7151270218420684,200167.9232682422,10.5,10500200167.923267,47.655,-122.3035,60.0,8.05
2026-01-20T23:08:04+00:00,SAT-53505,268.2518446980263,50.79306297577755,1915.1975883975933,-5.704548675861932,199797.42484565865,10.5,10500199797.424845,47.655,-122.3035,60.0,8.066666666666666
2026-01-20T23:08:05+00:00,SAT-53505,268.01943836341127,50.84487712938018,1909.5082518515335,-5.693868580402896,199423.36272592423,10.5,10500199423.362726,47.655,-122.3035,60.0,8.083333333333334
2026-01-20T23:08:06+00:00,SAT-53505,267.7851985134773,50.896313855947064,1903.8295669206786,-5.68308575046644,199045.70241022413,10.5,10500199045.70241,47.655,-122.3035,60.0,8.1
2026-01-20T23:08:07+00:00,SAT-53505,267.54911272646734,50.94736354629056,1898.1616360655466,-5.6721991483176035,198664.40755269045,10.5,10500198664.407553,47.655,-122.3035,60.0,8.116666666666667
2026-01-20T23:08:08+00:00,SAT-53505,267.31116865964253,50.998016422205204,1892.5045627816246,-5.661207794108165,198279.44383489373,10.5,10500198279.443834,47.655,-122.3035,60.0,8.133333333333333
2026-01-20T23:08:09+00:00,SAT-53505,267.07135405407314,51.04826253518938,1886.858451541634,-5.650110593508318,197890.77292877506,10.5,10500197890.772928,47.655,-122.3035,60.0,8.15
2026-01-20T23:08:10+00:00,SAT-53505,266.8296567462604,51.09809176358759,1881.2234079097084,-5.6389065481924945,197498.35986875024,10.5,10500197498.359869,47.655,-122.3035,60.0,8.166666666666666
2026-01-20T23:08:11+00:00,SAT-53505,266.58606467186297,51.14749381170845,1875.5995384456444,-5.627594611696042,197102.1680032005,10.5,10500197102.168003,47.655,-122.3035,60.0,8.183333333333334
2026-01-20T23:08:12+00:00,SAT-53505,266.34056587509787,51.19645820761921,1869.986950752913,-5.616173700327971,196702.15937668347,10.5,10500196702.159376,47.655,-122.3035,60.0,8.2
2026-01-20T23:08:13+00:00,SAT-53505,266.0931485182562,51.24497430110978,1864.3857535157858,-5.6046427491028314,196298.29668890382,10.5,10500196298.296688,47.655,-122.3035,60.0,8.216666666666667
2026-01-20T23:08:14+00:00,SAT-53505,265.84380088895915,51.29303126216643,1858.7960564806806,-5.593000688833467,195890.54249240452,10.5,10500195890.542492,47.655,-122.3035,60.0,8.233333333333333
2026-01-20T23:08:15+00:00,SAT-53505,265.5925114087664,51.340618079298416,1853.2179704603507,-5.5812464309527705,195478.85866096104,10.5,10500195478.858662,47.655,-122.3035,60.0,8.25
2026-01-20T23:08:16+00:00,SAT-53505,265.3392686424483,51.38772355774143,1847.6516073532136,-5.569378868706746,195063.2064313667,10.5,10500195063.20643,47.655,-122.3035,60.0,8.266666666666667
2026-01-20T23:08:17+00:00,SAT-53505,265.08406130769544,51.434336317746556,1842.0970801614903,-5.557396899611451,194643.54718997044,10.5,10500194643.54719,47.655,-122.3035,60.0,8.283333333333333
2026-01-20T23:08:18+00:00,SAT-53505,264.8268782838942,51.48044479308292,1836.5545029869443,-5.545299402803943,194219.84167941075,10.5,10500194219.841679,47.655,-122.3035,60.0,8.3
2026-01-20T23:08:19+00:00,SAT-53505,264.5677086223076,51.52603722941403,1831.0239910492146,-5.533085271251715,193792.0511267265,10.5,10500193792.051126,47.655,-122.3035,60.0,8.316666666666666
2026-01-20T23:08:20+00:00,SAT-53505,264.3065415549605,51.57110168298996,1825.5056606720195,-5.520753332579685,193360.13447038314,10.5,10500193360.13447,47.655,-122.3035,60.0,8.333333333333334
2026-01-20T23:08:21+00:00,SAT-53505,264.04336650732444,51.61562601872285,1819.9996293483266,-5.50830248449907,192924.05310356486,10.5,10500192924.053104,47.655,-122.3035,60.0,8.35
2026-01-20T23:08:22+00:00,SAT-53505,263.7781731052597,51.65959790947905,1814.506015670453,-5.495731550259267,192483.76581148783,10.5,10500192483.765812,47.655,-122.3035,60.0,8.366666666666667
2026-01-20T23:08:23+00:00,SAT-53505,263.51095118863304,51.70300483420822,1809.0249394043276,-5.483039380766997,192039.2323480448,10.5,10500192039.232347,47.655,-122.3035,60.0,8.383333333333333
2026-01-20T23:08:24+00:00,SAT-53505,263.2416908205361,51.745834076987244,1803.5565214619094,-5.470224780908405,191590.41085529327,10.5,10500191590.410854,47.655,-122.3035,60.0,8.4
2026-01-20T23:08:25+00:00,SAT-53505,262.97038230022895,51.788072725545675,1798.1008839470835,-5.457286583336226,191137.26044779413,10.5,10500191137.260448,47.655,-122.3035,60.0,8.416666666666666
2026-01-20T23:08:26+00:00,SAT-53505,262.6970161728401,51.829707670457985,1792.6581501279695,-5.444223602383907,190679.73959848925,10.5,10500190679.7396,47.655,-122.3035,60.0,8.433333333333334
2026-01-20T23:08:27+00:00,SAT-53505,262.4215832415062,51.87072560404466,1787.228444455192,-5.431034638378099,190217.80628974343,10.5,10500190217.80629,47.655,-122.3035,60.0,8.45
2026-01-20T23:08:28+00:00,SAT-53505,262.1440745794363,51.91111301938067,1781.8118925758495,-5.417718469266254,189751.4177201071,10.5,10500189751.41772,47.655,-122.3035,60.0,8.466666666666667
2026-01-20T23:08:29+00:00,SAT-53505,261.86448154281214,51.950856209351805,1776.4086213558346,-5.404273895815145,189280.53188735998,10.5,10500189280.531887,47.655,-122.3035,60.0,8.483333333333333
2026-01-20T23:08:30+00:00,SAT-53505,261.58279578157965,51.9899412661346,1771.018758857075,-5.390699682467551,188805.1055170617,10.5,10500188805.105516,47.655,-122.3035,60.0,8.5
2026-01-20T23:08:31+00:00,SAT-53505,261.29900925341343,52.02835408032385,1765.6424343737606,-5.3769945757116115,188325.09470592457,10.5,10500188325.094706,47.655,-122.3035,60.0,8.516666666666667
2026-01-20T23:08:32+00:00,SAT-53505,261.0131142370098,52.066080340306485,1760.2797784502511,-5.363157381828536,187840.4576448672,10.5,10500187840.457645,47.655,-122.3035,60.0,8.533333333333333
2026-01-20T23:08:33+00:00,SAT-53505,260.72510334181226,52.10310553233693,1754.9309228214408,-5.349186779711204,187351.14806312986,10.5,10500187351.148064,47.655,-122.3035,60.0,8.55
2026-01-20T23:08:34+00:00,SAT-53505,260.434969527107,52.13941493929478,1749.5960005398088,-5.3350815718500115,186857.12401886084,10.5,10500186857.12402,47.655,-122.3035,60.0,8.566666666666666
2026-01-20T23:08:35+00:00,SAT-53505,260.14270610899496,52.17499364146407,1744.2751458521502,-5.320840452061204,186358.33976397978,10.5,10500186358.339764,47.655,-122.3035,60.0,8.583333333333334
2026-01-20T23:08:36+00:00,SAT-53505,259.84830677903454,52.20982651568558,1738.9684943079612,-5.3064621423402825,185854.7505373633,10.5,10500185854.750538,47.655,-122.3035,60.0,8.6
2026-01-20T23:08:37+00:00,SAT-53505,259.55176561635307,52.24389823566673,1733.676182731334,-5.291945383093012,185346.31222269314,10.5,10500185346.312223,47.655,-122.3035,60.0,8.616666666666667
2026-01-20T23:08:38+00:00,SAT-53505,259.2530771002528,52.27719327232432,1728.3983492025957,-5.277288852837201,184832.97853607318,10.5,10500184832.978537,47.655,-122.3035,60.0,8.633333333333333
2026-01-20T23:08:39+00:00,SAT-53505,258.9522361273055,52.30969589372008,1723.1351331200328,-5.262491257793723,184314.7041638856,10.5,10500184314.704165,47.655,-122.3035,60.0,8.65
2026-01-20T23:08:40+00:00,SAT-53505,258.6492380238454,52.34139016575119,1717.8866751722599,-5.247551283108335,183791.443054373,10.5,10500183791.443054,47.655,-122.3035,60.0,8.666666666666666
2026-01-20T23:08:41+00:00,SAT-53505,258.34407856127353,52.37225995266826,1712.6531173592398,-5.232467623477261,183263.14949027583,10.5,10500183263.14949,47.655,-122.3035,60.0,8.683333333333334
2026-01-20T23:08:42+00:00,SAT-53505,258.03675396972557,52.4022889179216,1707.4346029827586,-5.2172389399899295,182729.7765772822,10.5,10500182729.776577,47.655,-122.3035,60.0,8.7
2026-01-20T23:08:43+00:00,SAT-53505,257.72726095445273,52.43146052493364,1702.2312766799419,-5.201863898965608,182191.27760425143,10.5,10500182191.277605,47.655,-122.3035,60.0,8.716666666666667
2026-01-20T23:08:44+00:00,SAT-53505,257.41559670993234,52.45975803823639,1697.0432844180402,-5.18634117308622,181647.6060828899,10.5,10500181647.606083,47.655,-122.3035,60.0,8.733333333333333
2026-01-20T23:08:45+00:00,SAT-53505,257.1017589342466,52.48716452482058,1691.8707734880822,-5.170669401160076,181098.7143385068,10.5,10500181098.714338,47.655,-122.3035,60.0,8.75
2026-01-20T23:08:46+00:00,SAT-53505,256.78574584563563,52.51366285539209,1686.7138925386587,-5.154847232944068,180544.555079877,10.5,10500180544.55508,47.655,-122.3035,60.0,8.766666666666667
2026-01-20T23:08:47+00:00,SAT-53505,256.4675561967575,52.539235706100875,1681.5727915650025,-5.138873302466195,179985.08046488295,10.5,10500179985.080465,47.655,-122.3035,60.0,8.783333333333333
2026-01-20T23:08:48+00:00,SAT-53505,256.1471892903844,52.56386556027968,1676.447621924676,-5.122746254922837,179420.24304257106,10.5,10500179420.243042,47.655,-122.3035,60.0,8.8
2026-01-20T23:08:49+00:00,SAT-53505,255.824644993729,52.58753471054778,1671.338536326433,-5.106464707017541,178849.9943640483,10.5,10500178849.994364,47.655,-122.3035,60.0,8.816666666666666
2026-01-20T23:08:50+00:00,SAT-53505,255.49992375494588,52.61022526086631,1666.2456888586341,-5.090027269808807,178274.28578270797,10.5,10500178274.285782,47.655,-122.3035,60.0,8.833333333333334
2026-01-20T23:08:51+00:00,SAT-53505,255.17302661848703,52.63191912895925,1661.169234994878,-5.0734325612971585,177693.06889508263,10.5,10500177693.068895,47.655,-122.3035,60.0,8.85
2026-01-20T23:08:52+00:00,SAT-53505,254.84395523957096,52.652598048981766,1656.1093315870778,-5.056679206833249,177106.29555513742,10.5,10500177106.295555,47.655,-122.3035,60.0,8.866666666666667
2026-01-20T23:08:53+00:00,SAT-53505,254.51271189861967,52.672243574406984,1651.0661368581293,-5.039765804506825,176513.9166620451,10.5,10500176513.916662,47.655,-122.3035,60.0,8.883333333333333
2026-01-20T23:08:54+00:00,SAT-53505,254.17929951766138,52.69083708095049,1646.0398104291014,-5.022690918104827,175915.88191354927,10.5,10500175915.881914,47.655,-122.3035,60.0,8.9
2026-01-20T23:08:55+00:00,SAT-53505,253.84372167734188,52.70835976974487,1641.0305133534448,-5.005453187205268,175312.14366191733,10.5,10500175312.143661,47.655,-122.3035,60.0,8.916666666666666
2026-01-20T23:08:56+00:00,SAT-53505,253.5059826267142,52.724792671170604,1636.0384080414053,-4.9880511576414674,174702.65097608094,10.5,10500174702.650976,47.655,-122.3035,60.0,8.933333333333334
2026-01-20T23:08:57+00:00,SAT-53505,253.16608730369973,52.74011664822941,1631.0636583535174,-4.970483464340717,174087.35604541967,10.5,10500174087.356045,47.655,-122.3035,60.0,8.95
2026-01-20T23:08:58+00:00,SAT-53505,252.8240413437416,52.75431240089187,1626.1064295117485,-4.952748628345628,173466.20707058976,10.5,10500173466.207071,47.655,-122.3035,60.0,8.966666666666667
2026-01-20T23:08:59+00:00,SAT-53505,252.479851101297,52.76736046990494,1621.1668882130784,-4.9348452684264235,172839.1556750819,10.5,10500172839.155676,47.655,-122.3035,60.0,8.983333333333333
2026-01-20T23:09:00+00:00,SAT-53505,252.13352365747645,52.77924124163772,1616.2452025320345,-4.916771954006714,172206.15175405948,10.5,10500172206.151754,47.655,-122.3035,60.0,9.0
2026-01-20T23:09:01+00:00,SAT-53505,251.78506683702517,52.78993495265158,1611.3415419699052,-4.898527234358687,171567.14449689796,10.5,10500171567.144497,47.655,-122.3035,60.0,9.016666666666667
2026-01-20T23:09:02+00:00,SAT-53505,251.43448922301008,52.79942169460911,1606.4560774748381,-4.880109690334287,170922.0841990295,10.5,10500170922.0842,47.655,-122.3035,60.0,9.033333333333333
2026-01-20T23:09:03+00:00,SAT-53505,251.0818001680293,52.80768141965562,1601.5889814103446,-4.861517891977916,170270.92077736027,10.5,10500170270.920778,47.655,-122.3035,60.0,9.05
2026-01-20T23:09:04+00:00,SAT-53505,250.7270098076997,52.814693945885274,1596.7404275660788,-4.842750407693692,169613.60409134696,10.5,10500169613.604092,47.655,-122.3035,60.0,9.066666666666666
2026-01-20T23:09:05+00:00,SAT-53505,250.37012907330094,52.82043896312175,1591.9105911594722,-4.823805779572658,168950.08307885088,10.5,10500168950.083078,47.655,-122.3035,60.0,9.083333333333334
2026-01-20T23:09:06+00:00,SAT-53505,250.01116970564237,52.824896038901926,1587.0996488619785,-4.804682586641998,168280.30797139325,10.5,10500168280.307972,47.655,-122.3035,60.0,9.1
2026-01-20T23:09:07+00:00,SAT-53505,249.6501442643604,52.82804462491349,1582.3077787622342,-4.785379381928625,167604.22808985598,10.5,10500167604.22809,47.655,-122.3035,60.0,9.116666666666667
2026-01-20T23:09:08+00:00,SAT-53505,249.28706614081082,52.82986406349823,1577.5351603919905,-4.765894743628786,166921.79363665733,10.5,10500166921.793636,47.655,-122.3035,60.0,9.133333333333333
2026-01-20T23:09:09+00:00,SAT-53505,248.92194956719834,52.83033359459452,1572.7819747010114,-4.746227209363982,166232.95339311642,10.5,10500166232.953394,47.655,-122.3035,60.0,9.15
2026-01-20T23:09:10+00:00,SAT-53505,248.5548096296679,52.829432362819055,1568.048404097539,-4.726375358710783,165537.6576099964,10.5,10500165537.65761,47.655,-122.3035,60.0,9.166666666666666
2026-01-20T23:09:11+00:00,SAT-53505,248.1856622751155,52.827139424965345,1563.3346324064514,-4.7063377481304,164835.85572846263,10.5,10500164835.855728,47.655,-122.3035,60.0,9.183333333333334
2026-01-20T23:09:12+00:00,SAT-53505,247.81452432193873,52.823433757675254,1558.6408448923162,-4.686112952465333,164127.49783347116,10.5,10500164127.497833,47.655,-122.3035,60.0,9.2
2026-01-20T23:09:13+00:00,SAT-53505,247.44141346732195,52.818294265454234,1553.9672282410575,-4.665699548841261,163412.53408994447,10.5,10500163412.53409,47.655,-122.3035,60.0,9.216666666666667
2026-01-20T23:09:14+00:00,SAT-53505,247.06634829491912,52.81169978892702,1549.3139705576796,-4.645096073714089,162690.91323837748,10.5,10500162690.913239,47.655,-122.3035,60.0,9.233333333333333
2026-01-20T23:09:15+00:00,SAT-53505,246.68934828521247,52.803629113404,1544.681261406829,-4.624301150796729,161962.58707537482,10.5,10500161962.587076,47.655,-122.3035,60.0,9.25
2026-01-20T23:09:16+00:00,SAT-53505,246.31043381545786,52.794060977683486,1540.0692917257675,-4.603313308958885,161227.5040757306,10.5,10500161227.504076,47.655,-122.3035,60.0,9.266666666666667
2026-01-20T23:09:17+00:00,SAT-53505,245.92962617275623,52.78297408321868,1535.478253918966,-4.582131184801419,160485.6164874398,10.5,10500160485.616488,47.655,-122.3035,60.0,9.283333333333333
2026-01-20T23:09:18+00:00,SAT-53505,245.54694755087246,52.770347103415254,1530.9083417506574,-4.560753341087466,159736.8739723879,10.5,10500159736.873972,47.655,-122.3035,60.0,9.3
2026-01-20T23:09:19+00:00,SAT-53505,245.16242106012118,52.7561586933379,1526.3597504184795,-4.539178371206245,158981.22726511545,10.5,10500158981.227264,47.655,-122.3035,60.0,9.316666666666666
2026-01-20T23:09:20+00:00,SAT-53505,244.77607072861946,52.74038749965151,1521.8326765229297,-4.517404886275461,158218.62772108943,10.5,10500158218.627722,47.655,-122.3035,60.0,9.333333333333334
2026-01-20T23:09:21+00:00,SAT-53505,244.38792150335019,52.7230121707458,1517.3273180496844,-4.495431501440716,157449.02683685097,10.5,10500157449.026836,47.655,-122.3035,60.0,9.35
2026-01-20T23:09:22+00:00,SAT-53505,243.99799925168898,52.70401136720775,1512.8438743655806,-4.473256839603042,156672.37638056904,10.5,10500156672.37638,47.655,-122.3035,60.0,9.366666666666667
2026-01-20T23:09:23+00:00,SAT-53505,243.60633076154033,52.68336377249724,1508.3825462108834,-4.450879513706432,155888.62777167506,10.5,10500155888.627771,47.655,-122.3035,60.0,9.383333333333333
2026-01-20T23:09:24+00:00,SAT-53505,243.21294374215523,52.66104810397393,1503.9435357092134,-4.428298165402182,155097.7334350516,10.5,10500155097.733435,47.655,-122.3035,60.0,9.4
2026-01-20T23:09:25+00:00,SAT-53505,242.817866820748,52.63704312403087,1499.527046338919,-4.405511450374293,154299.64628706596,10.5,10500154299.646288,47.655,-122.3035,60.0,9.416666666666666
2026-01-20T23:09:26+00:00,SAT-53505,242.4211295393347,52.6113276514989,1495.133282919079,-4.382518020515453,153494.31911129752,10.5,10500153494.31911,47.655,-122.3035,60.0,9.433333333333334
2026-01-20T23:09:27+00:00,SAT-53505,242.02276235212008,52.58388057337843,1490.762451613285,-4.359316558494864,152681.70576924947,10.5,10500152681.705769,47.655,-122.3035,60.0,9.45
2026-01-20T23:09:28+00:00,SAT-53505,241.6227966189474,52.55468085663822,1486.4147598989462,-4.335905740358865,151861.75989046422,10.5,10500151861.75989,47.655,-122.3035,60.0,9.466666666666667
2026-01-20T23:09:29+00:00,SAT-53505,241.22126460076916,52.52370756036737,1482.0904165738948,-4.312284253099067,151034.4354878341,10.5,10500151034.435488,47.655,-122.3035,60.0,9.483333333333333
2026-01-20T23:09:30+00:00,SAT-53505,240.81819945289908,52.49093984815777,1477.7896317454706,-4.288450837882042,150199.68847168743,10.5,10500150199.68847,47.655,-122.3035,60.0,9.5
2026-01-20T23:09:31+00:00,SAT-53505,240.41363521305612,52.45635700030943,1473.5126167764897,-4.264404185500375,149357.47298804275,10.5,10500149357.472988,47.655,-122.3035,60.0,9.516666666666667
2026-01-20T23:09:32+00:00,SAT-53505,240.00760679783548,52.41993842695541,1469.259584335484,-4.240143061447847,148507.7457992702,10.5,10500148507.7458,47.655,-122.3035,60.0,9.533333333333333
2026-01-20T23:09:33+00:00,SAT-53505,239.6001499868844,52.38166368053034,1465.0307483222,-4.215666229937524,147650.46362288407,10.5,10500147650.463623,47.655,-122.3035,60.0,9.55
2026-01-20T23:09:34+00:00,SAT-53505,239.19130141279604,52.341512468900746,1460.8263238688755,-4.190972458530621,146785.58329366485,10.5,10500146785.583294,47.655,-122.3035,60.0,9.566666666666666
2026-01-20T23:09:35+00:00,SAT-53505,238.78109854949741,52.299464668638386,1456.6465273369013,-4.166060548513568,145913.06282759274,10.5,10500145913.062828,47.655,-122.3035,60.0,9.583333333333334
2026-01-20T23:09:36+00:00,SAT-53505,238.36957969690937,52.25550033823676,1452.4915762831836,-4.140929313604861,145032.86067607158,10.5,10500145032.860676,47.655,-122.3035,60.0,9.6
2026-01-20T23:09:37+00:00,SAT-53505,237.9567839663394,52.209599731592206,1448.3616894477484,-4.115577610119948,144144.9367824305,10.5,10500144144.936783,47.655,-122.3035,60.0,9.616666666666667
2026-01-20T23:09:38+00:00,SAT-53505,237.54275126214336,52.16174331137051,1444.2570867112554,-4.090004266338334,143249.25010806145,10.5,10500143249.250109,47.655,-122.3035,60.0,9.633333333333333
2026-01-20T23:09:39+00:00,SAT-53505,237.1275222688237,52.11191176311908,1440.1779891229608,-4.06420819373967,142345.76252837735,10.5,10500142345.762527,47.655,-122.3035,60.0,9.65
2026-01-20T23:09:40+00:00,SAT-53505,236.71113842669206,52.06008600842252,1436.1246188177377,-4.038188278204582,141434.43502220497,10.5,10500141434.435022,47.655,-122.3035,60.0,9.666666666666666
2026-01-20T23:09:41+00:00,SAT-53505,236.29364191672403,52.006247219199025,1432.0971990416083,-4.011943473005921,140515.23092873194,10.5,10500140515.230928,47.655,-122.3035,60.0,9.683333333333334
2026-01-20T23:09:42+00:00,SAT-53505,235.87507563562343,51.95037683113054,1428.0959540845304,-3.985472725561339,139588.113382072,10.5,10500139588.113382,47.655,-122.3035,60.0,9.7
2026-01-20T23:09:43+00:00,SAT-53505,235.45548317679555,51.89245655788458,1424.1211092862372,-3.9587750111224147,138653.04649120077,10.5,10500138653.046492,47.655,-122.3035,60.0,9.716666666666667
2026-01-20T23:09:44+00:00,SAT-53505,235.03490880728413,51.8324684050875,1420.1728910084776,-3.931849363649512,137709.99642132383,10.5,10500137709.996422,47.655,-122.3035,60.0,9.733333333333333
2026-01-20T23:09:45+00:00,SAT-53505,234.61339744051787,51.770394683851755,1416.2515265764648,-3.9046948160331922,136758.92930017778,10.5,10500136758.9293,47.655,-122.3035,60.0,9.75
2026-01-20T23:09:46+00:00,SAT-53505,234.19099461422664,51.706218025116215,1412.357244279941,-3.8773104381093035,135799.81254947945,10.5,10500135799.81255,47.655,-122.3035,60.0,9.766666666666667
2026-01-20T23:09:47+00:00,SAT-53505,233.76774646352652,51.63992139345226,1408.4902733363333,-3.8496953318979896,134832.61471817576,10.5,10500134832.614717,47.655,-122.3035,60.0,9.783333333333333
2026-01-20T23:09:48+00:00,SAT-53505,233.34369969382018,51.57148810096414,1404.6508438586536,-3.821848658414552,133857.30642147374,10.5,10500133857.306421,47.655,-122.3035,60.0,9.8
2026-01-20T23:09:49+00:00,SAT-53505,232.9189015499317,51.50090182066711,1400.8391867966616,-3.7937695535654465,132873.8573951623,10.5,10500132873.857395,47.655,-122.3035,60.0,9.816666666666666
2026-01-20T23:09:50+00:00,SAT-53505,232.49339979335895,51.42814660119193,1397.0555339619057,-3.7654572569926588,131882.24100828753,10.5,10500131882.241009,47.655,-122.3035,60.0,9.833333333333334
2026-01-20T23:09:51+00:00,SAT-53505,232.06724266517756,51.353206879287235,1393.300117924265,-3.736910996393739,130882.43021155075,10.5,10500130882.430212,47.655,-122.3035,60.0,9.85
2026-01-20T23:09:52+00:00,SAT-53505,231.64047886064213,51.276067494218786,1389.5731720238614,-3.708130055741159,129874.39992663916,10.5,10500129874.399927,47.655,-122.3035,60.0,9.866666666666667
2026-01-20T23:09:53+00:00,SAT-53505,231.21315749565252,51.196713700812126,1385.8749303149357,-3.679113758543587,128858.12645996473,10.5,10500128858.12646,47.655,-122.3035,60.0,9.883333333333333
2026-01-20T23:09:54+00:00,SAT-53505,230.78532807470845,51.115131182764266,1382.205627526415,-3.649861458322352,127833.58716910983,10.5,10500127833.58717,47.655,-122.3035,60.0,9.9
2026-01-20T23:09:55+00:00,SAT-53505,230.3570404591358,51.031306065926394,1378.5654990319815,-3.620372556844088,126800.76110141144,10.5,10500126800.7611,47.655,-122.3035,60.0,9.916666666666666
2026-01-20T23:09:56+00:00,SAT-53505,229.92834483305938,50.945224931158094,1374.9547808019556,-3.5906465011916056,125759.62889137077,10.5,10500125759.628891,47.655,-122.3035,60.0,9.933333333333334
2026-01-20T23:09:57+00:00,SAT-53505,229.49929166907737,50.85687482699676,1371.3737093581005,-3.5606827918946484,124710.17304542667,10.5,10500124710.173046,47.655,-122.3035,60.0,9.95
2026-01-20T23:09:58+00:00,SAT-53505,229.0699316928206,50.76624328201164,1367.8225217203174,-3.530480930732164,123652.37611377041,10.5,10500123652.376114,47.655,-122.3035,60.0,9.966666666666667
2026-01-20T23:09:59+00:00,SAT-53505,228.64031585291542,50.67331831807043,1364.3014554054007,-3.500040531499564,122586.22456988368,10.5,10500122586.22457,47.655,-122.3035,60.0,9.983333333333333
2026-01-20T23:10:00+00:00,SAT-53505,228.21049527844687,50.578088461003695,1360.8107483153185,-3.4693611965390208,121511.70448610725,10.5,10500121511.704487,47.655,-122.3035,60.0,10.0
2026-01-20T23:10:01+00:00,SAT-53505,227.78052124996094,50.48054275374072,1357.350638748637,-3.438442614505702,120428.8049578281,10.5,10500120428.804958,47.655,-122.3035,60.0,10.016666666666667
2026-01-20T23:10:02+00:00,SAT-53505,227.350445159479,50.38067076704158,1353.9213653144363,-3.407284511499392,119337.51639190209,10.5,10500119337.516392,47.655,-122.3035,60.0,10.033333333333333
2026-01-20T23:10:03+00:00,SAT-53505,226.92031847581333,50.27846261102958,1350.5231668949677,-3.3758866569761024,118237.83071370352,10.5,10500118237.830713,47.655,-122.3035,60.0,10.05
2026-01-20T23:10:04+00:00,SAT-53505,226.49019270948818,50.173908946440946,1347.1562826024103,-3.3442488933221446,117129.74240293437,10.5,10500117129.742403,47.655,-122.3035,60.0,10.066666666666666
2026-01-20T23:10:05+00:00,SAT-53505,226.0601193739977,50.067000994698766,1343.820951706137,-3.312371094028151,116013.24702870139,10.5,10500116013.247028,47.655,-122.3035,60.0,10.083333333333334
2026-01-20T23:10:06+00:00,SAT-53505,225.6301499523921,49.95773054891874,1340.5174136016929,-3.2802532109967113,114888.34290642985,10.5,10500114888.342907,47.655,-122.3035,60.0,10.1
2026-01-20T23:10:07+00:00,SAT-53505,225.20033585825428,49.846089983223344,1337.2459077325923,-3.2478952272321937,113755.02944086082,10.5,10500113755.02944,47.655,-122.3035,60.0,10.116666666666667
2026-01-20T23:10:08+00:00,SAT-53505,224.7707284027904,49.73207226316454,1334.0066735592993,-3.2152972202350623,112613.30934638841,10.5,10500112613.309347,47.655,-122.3035,60.0,10.133333333333333
2026-01-20T23:10:09+00:00,SAT-53505,224.3413787543668,49.615670953831724,1330.799950464985,-3.182459273616111,111463.18555141626,10.5,10500111463.18555,47.655,-122.3035,60.0,10.15
2026-01-20T23:10:10+00:00,SAT-53505,223.9123379095329,49.49688023047029,1327.6259777494317,-3.1493815875984263,110304.66506860382,10.5,10500110304.665068,47.655,-122.3035,60.0,10.166666666666666
2026-01-20T23:10:11+00:00,SAT-53505,223.48365665066353,49.3756948851793,1324.4849945127335,-3.116064398477519,109137.7561740194,10.5,10500109137.756174,47.655,-122.3035,60.0,10.183333333333334
2026-01-20T23:10:12+00:00,SAT-53505,223.05538551415154,49.25211033580227,1321.3772396193185,-3.082507983517005,107962.46857860764,10.5,10500107962.468578,47.655,-122.3035,60.0,10.2
2026-01-20T23:10:13+00:00,SAT-53505,222.62757475862057,49.12612263439552,1318.302951657091,-3.0487127290660583,106778.8158139509,10.5,10500106778.815813,47.655,-122.3035,60.0,10.216666666666667
2026-01-20T23:10:14+00:00,SAT-53505,222.20027432533436,48.99772847302426,1315.2623688286358,-3.01467905005944,105586.81241281967,10.5,10500105586.812412,47.655,-122.3035,60.0,10.233333333333333
2026-01-20T23:10:15+00:00,SAT-53505,221.7735338091507,48.86692519180169,1312.2557289227097,-2.9804074535109115,104386.47613298053,10.5,10500104386.476133,47.655,-122.3035,60.0,10.25
2026-01-20T23:10:16+00:00,SAT-53505,221.34740242252616,48.73371078447501,1309.2832692224083,-2.945898492046453,103177.82632973294,10.5,10500103177.82633,47.655,-122.3035,60.0,10.266666666666667
2026-01-20T23:10:17+00:00,SAT-53505,220.9219289659857,48.59808390516431,1306.3452264596738,-2.91115280606922,101960.88543270428,10.5,10500101960.885433,47.655,-122.3035,60.0,10.283333333333333
2026-01-20T23:10:18+00:00,SAT-53505,220.49716179414617,48.46004387318317,1303.4418367277542,-2.8761710952367276,100735.67794686029,10.5,10500100735.677946,47.655,-122.3035,60.0,10.3
