satellites_20260120_184412/SAT-65089.csv

timestamp,satellite,azimuth_deg,elevation_deg,distance_km,relative_velocity_kms,doppler_shift_hz,tx_freq_ghz,rx_freq_hz,ue_lat,ue_lon,ue_alt_m,time_minutes
2026-01-20T23:02:08+00:00,SAT-65089,214.34739789354015,40.22580184109927,1190.4887250210309,-5.247035429402605,183773.37567553937,10.5,10500183773.375675,47.655,-122.3035,60.0,2.1333333333333333
2026-01-20T23:02:09+00:00,SAT-65089,214.42269177720888,40.46622905534742,1185.2556816861065,-5.228773361194042,183133.76079840356,10.5,10500183133.760798,47.655,-122.3035,60.0,2.15
2026-01-20T23:02:10+00:00,SAT-65089,214.49952590018466,40.70846823944622,1180.0408517205424,-5.2102620841834355,182485.417574868,10.5,10500182485.417574,47.655,-122.3035,60.0,2.1666666666666665
2026-01-20T23:02:11+00:00,SAT-65089,214.5779373093271,40.95253433897755,1174.8444836685835,-5.191498099480716,181828.22345900218,10.5,10500181828.22346,47.655,-122.3035,60.0,2.183333333333333
2026-01-20T23:02:12+00:00,SAT-65089,214.65796423082486,41.1984422423768,1169.6668295640347,-5.172477838570975,181162.05346631916,10.5,10500181162.053467,47.655,-122.3035,60.0,2.2
2026-01-20T23:02:13+00:00,SAT-65089,214.73964611613533,41.44620676821399,1164.5081449996999,-5.153197709319533,180486.78178506778,10.5,10500180486.781786,47.655,-122.3035,60.0,2.216666666666667
2026-01-20T23:02:14+00:00,SAT-65089,214.82302369082583,41.69584265398863,1159.3686891509385,-5.133654112551094,179802.28235690467,10.5,10500179802.282356,47.655,-122.3035,60.0,2.2333333333333334
2026-01-20T23:02:15+00:00,SAT-65089,214.9081390059861,41.94736454515236,1154.2487247826875,-5.113843351510382,179108.42570582282,10.5,10500179108.425705,47.655,-122.3035,60.0,2.25
2026-01-20T23:02:16+00:00,SAT-65089,214.99503549052721,42.20078697906614,1149.1485183467812,-5.093761745631464,178405.08292283447,10.5,10500178405.082922,47.655,-122.3035,60.0,2.2666666666666666
2026-01-20T23:02:17+00:00,SAT-65089,215.0837580079213,42.4561243737678,1144.0683399658046,-5.073405570400484,177692.12355970973,10.5,10500177692.12356,47.655,-122.3035,60.0,2.283333333333333
2026-01-20T23:02:18+00:00,SAT-65089,215.17435291462976,42.713391013123235,1139.0084634769255,-5.052771052473323,176969.41545797623,10.5,10500176969.415459,47.655,-122.3035,60.0,2.3
2026-01-20T23:02:19+00:00,SAT-65089,215.26686812122176,42.97260103094227,1133.969166480592,-5.031854377171076,176236.82501144274,10.5,10500176236.825012,47.655,-122.3035,60.0,2.316666666666667
2026-01-20T23:02:20+00:00,SAT-65089,215.36135315659314,43.23376839461415,1128.95073038176,-5.010651725873213,175494.21847586552,10.5,10500175494.218475,47.655,-122.3035,60.0,2.3333333333333335
2026-01-20T23:02:21+00:00,SAT-65089,215.4578592360214,43.496906889849306,1123.9534403938226,-4.989159200963683,174741.45934024354,10.5,10500174741.459341,47.655,-122.3035,60.0,2.35
2026-01-20T23:02:22+00:00,SAT-65089,215.5564393311051,43.76203010064501,1118.9775856173947,-4.967372949908708,173978.41267254774,10.5,10500173978.412672,47.655,-122.3035,60.0,2.3666666666666667
2026-01-20T23:02:23+00:00,SAT-65089,215.65714824564594,44.029151394831096,1114.0234589953525,-4.945288996960307,173204.93922526637,10.5,10500173204.939226,47.655,-122.3035,60.0,2.3833333333333333
2026-01-20T23:02:24+00:00,SAT-65089,215.76004269184045,44.29828389975986,1109.0913574357173,-4.92290342935621,172420.90195691382,10.5,10500172420.901957,47.655,-122.3035,60.0,2.4
2026-01-20T23:02:25+00:00,SAT-65089,215.86518137420788,44.56944048689645,1104.1815817488396,-4.900212206279409,171626.15934098585,10.5,10500171626.159342,47.655,-122.3035,60.0,2.4166666666666665
2026-01-20T23:02:26+00:00,SAT-65089,215.9726250736011,44.84263374502366,1099.2944367751102,-4.87721136445669,170820.57256688972,10.5,10500170820.572567,47.655,-122.3035,60.0,2.433333333333333
2026-01-20T23:02:27+00:00,SAT-65089,216.08243674003037,45.117875963559214,1094.4302313076253,-4.853896840561734,170003.9993197501,10.5,10500170003.99932,47.655,-122.3035,60.0,2.45
2026-01-20T23:02:28+00:00,SAT-65089,216.1946815862394,45.395179104948355,1089.5892781919717,-4.830264576176361,169176.29745659512,10.5,10500169176.297457,47.655,-122.3035,60.0,2.466666666666667
2026-01-20T23:02:29+00:00,SAT-65089,216.309427188451,45.67455478160203,1084.7718943213317,-4.806310475326471,168337.32351908582,10.5,10500168337.323519,47.655,-122.3035,60.0,2.4833333333333334
2026-01-20T23:02:30+00:00,SAT-65089,216.42674359134543,45.95601422916675,1079.9784006739396,-4.782030469247543,167486.93500187786,10.5,10500167486.935001,47.655,-122.3035,60.0,2.5
2026-01-20T23:02:31+00:00,SAT-65089,216.546703420117,46.239568282223715,1075.2091222859433,-4.757420377762865,166624.9854975007,10.5,10500166624.985498,47.655,-122.3035,60.0,2.5166666666666666
2026-01-20T23:02:32+00:00,SAT-65089,216.66938199484807,46.52522734042439,1070.464388362521,-4.732476125427621,165751.33226663765,10.5,10500165751.332266,47.655,-122.3035,60.0,2.533333333333333
2026-01-20T23:02:33+00:00,SAT-65089,216.79485745655103,46.81300134589793,1065.744532173428,-4.7071935088545755,164865.82808888753,10.5,10500164865.828089,47.655,-122.3035,60.0,2.55
2026-01-20T23:02:34+00:00,SAT-65089,216.92321089370918,47.1028997452684,1061.0498911805971,-4.681568376323635,163968.3275534509,10.5,10500163968.327553,47.655,-122.3035,60.0,2.566666666666667
2026-01-20T23:02:35+00:00,SAT-65089,217.0545264804254,47.394931460740274,1056.3808069866104,-4.6555965506389265,163058.68435725867,10.5,10500163058.684357,47.655,-122.3035,60.0,2.5833333333333335
2026-01-20T23:02:36+00:00,SAT-65089,217.18889161989563,47.68910485485496,1051.7376253601064,-4.6292738450976865,162136.75186427042,10.5,10500162136.751863,47.655,-122.3035,60.0,2.6
2026-01-20T23:02:37+00:00,SAT-65089,217.3263970960752,47.98542769439338,1047.1206962452623,-4.602596077036609,161202.38357992447,10.5,10500161202.38358,47.655,-122.3035,60.0,2.6166666666666667
2026-01-20T23:02:38+00:00,SAT-65089,217.46713723403343,48.2839071132213,1042.5303737577644,-4.575559035964437,160255.43203500664,10.5,10500160255.432035,47.655,-122.3035,60.0,2.6333333333333333
2026-01-20T23:02:39+00:00,SAT-65089,217.6112100680653,48.58454957108392,1037.9670162125626,-4.548158536450606,159295.75063803425,10.5,10500159295.750639,47.655,-122.3035,60.0,2.65
2026-01-20T23:02:40+00:00,SAT-65089,217.7587175207688,48.887360813673475,1033.4309860988758,-4.5203903903378295,158323.19270202325,10.5,10500158323.192701,47.655,-122.3035,60.0,2.6666666666666665
2026-01-20T23:02:41+00:00,SAT-65089,217.90976559117104,49.19234582872898,1028.9226500829122,-4.492250401763193,157337.61127010582,10.5,10500157337.61127,47.655,-122.3035,60.0,2.683333333333333
2026-01-20T23:02:42+00:00,SAT-65089,218.06446455315893,49.499508799403124,1024.4423790155538,-4.463734417067111,156338.8608635534,10.5,10500156338.860863,47.655,-122.3035,60.0,2.7
2026-01-20T23:02:43+00:00,SAT-65089,218.22292916682846,49.80885305856873,1019.9905478902655,-4.434838238231309,155326.7944500083,10.5,10500155326.79445,47.655,-122.3035,60.0,2.716666666666667
2026-01-20T23:02:44+00:00,SAT-65089,218.38527889863283,50.12038103458443,1015.5675358873361,-4.405557752347042,154301.26797800878,10.5,10500154301.267979,47.655,-122.3035,60.0,2.7333333333333334
2026-01-20T23:02:45+00:00,SAT-65089,218.55163815884148,50.43409420325451,1011.1737262889953,-4.3758888121781165,153262.13619380054,10.5,10500153262.136194,47.655,-122.3035,60.0,2.75
2026-01-20T23:02:46+00:00,SAT-65089,218.72213654807783,50.7499930286257,1006.8095065136497,-4.345827309894173,152209.25522378826,10.5,10500152209.255224,47.655,-122.3035,60.0,2.7666666666666666
2026-01-20T23:02:47+00:00,SAT-65089,218.89690912084993,51.06807690582683,1002.475268076582,-4.315369183125623,151142.48278660513,10.5,10500151142.482786,47.655,-122.3035,60.0,2.783333333333333
2026-01-20T23:02:48+00:00,SAT-65089,219.07609666463293,51.388344101221016,998.1714065446113,-4.284510375693116,150061.67681769273,10.5,10500150061.676817,47.655,-122.3035,60.0,2.8
2026-01-20T23:02:49+00:00,SAT-65089,219.25984599355507,51.71079168627986,993.89832152992,-4.253246884779109,148966.69712144876,10.5,10500148966.69712,47.655,-122.3035,60.0,2.816666666666667
2026-01-20T23:02:50+00:00,SAT-65089,219.44831026125993,52.03541547131151,989.6564166368337,-4.221574737704765,147857.40455785595,10.5,10500147857.404558,47.655,-122.3035,60.0,2.8333333333333335
2026-01-20T23:02:51+00:00,SAT-65089,219.64164929116487,52.36220993365749,985.4460994317628,-4.189490002738003,146733.66142102558,10.5,10500146733.66142,47.655,-122.3035,60.0,2.85
2026-01-20T23:02:52+00:00,SAT-65089,219.84002992666876,52.69116814263891,981.2677814023655,-4.156988823213211,145595.33263421428,10.5,10500145595.332634,47.655,-122.3035,60.0,2.8666666666666667
2026-01-20T23:02:53+00:00,SAT-65089,220.0436264038748,53.02228168290762,977.1218778826808,-4.124067361091296,144442.2837730581,10.5,10500144442.283773,47.655,-122.3035,60.0,2.8833333333333333
2026-01-20T23:02:54+00:00,SAT-65089,220.25262074372276,53.355540568841256,973.0088080345524,-4.090721866962997,143274.3835173848,10.5,10500143274.383518,47.655,-122.3035,60.0,2.9
2026-01-20T23:02:55+00:00,SAT-65089,220.4672031711661,53.690933159628514,968.9289947592346,-4.056948635049857,142091.50207515727,10.5,10500142091.502075,47.655,-122.3035,60.0,2.9166666666666665
2026-01-20T23:02:56+00:00,SAT-65089,220.6875725572204,54.02844606567054,964.8828646538783,-4.02274405480973,140893.51298991707,10.5,10500140893.512989,47.655,-122.3035,60.0,2.933333333333333
2026-01-20T23:02:57+00:00,SAT-65089,220.91393689053052,54.368064053753535,960.870847916548,-3.9881045740514733,139680.29184890457,10.5,10500139680.29185,47.655,-122.3035,60.0,2.95
2026-01-20T23:02:58+00:00,SAT-65089,221.14651377548432,54.709769943440314,956.8933782880274,-3.953026713049093,138451.7167773963,10.5,10500138451.716778,47.655,-122.3035,60.0,2.966666666666667
2026-01-20T23:02:59+00:00,SAT-65089,221.38553096131062,55.05354449839053,952.9508929795463,-3.9175071067278,137207.66991623884,10.5,10500137207.669916,47.655,-122.3035,60.0,2.9833333333333334
2026-01-20T23:03:00+00:00,SAT-65089,221.63122690601585,55.39936631478823,949.0438325584365,-3.8815424709792,135948.0362420645,10.5,10500135948.036242,47.655,-122.3035,60.0,3.0
2026-01-20T23:03:01+00:00,SAT-65089,221.88385137277493,55.74721169993405,945.17264086738,-3.845129621321097,134672.7042208364,10.5,10500134672.704222,47.655,-122.3035,60.0,3.0166666666666666
2026-01-20T23:03:02+00:00,SAT-65089,222.14366606390337,56.097054544984445,941.337764925049,-3.808265461421628,133381.56540591523,10.5,10500133381.565407,47.655,-122.3035,60.0,3.033333333333333
2026-01-20T23:03:03+00:00,SAT-65089,222.410945292816,56.448866188633865,937.5396548381913,-3.77094706311212,132074.51724044792,10.5,10500132074.51724,47.655,-122.3035,60.0,3.05
2026-01-20T23:03:04+00:00,SAT-65089,222.6859767028589,56.802615279680865,933.7787636339141,-3.7331715569240456,130751.4592235088,10.5,10500130751.459223,47.655,-122.3035,60.0,3.066666666666667
2026-01-20T23:03:05+00:00,SAT-65089,222.96906202226901,57.15826762045692,930.0555472011418,-3.6949362295194517,129412.29632252538,10.5,10500129412.296322,47.655,-122.3035,60.0,3.0833333333333335
2026-01-20T23:03:06+00:00,SAT-65089,223.26051787233652,57.51578600946434,926.3704641349011,-3.656238495926409,128056.93800084623,10.5,10500128056.938002,47.655,-122.3035,60.0,3.1
2026-01-20T23:03:07+00:00,SAT-65089,223.56067662286017,57.875130071093,922.7239756082971,-3.617075936422299,126685.29950954983,10.5,10500126685.29951,47.655,-122.3035,60.0,3.1166666666666667
2026-01-20T23:03:08+00:00,SAT-65089,223.86988730270355,58.23625607780897,919.1165452077053,-3.577446233642756,125297.29968473369,10.5,10500125297.299685,47.655,-122.3035,60.0,3.1333333333333333
2026-01-20T23:03:09+00:00,SAT-65089,224.1885165599764,58.59911675416622,915.5486388306855,-3.5373472631018394,123892.86411791357,10.5,10500123892.864119,47.655,-122.3035,60.0,3.15
2026-01-20T23:03:10+00:00,SAT-65089,224.51694968773597,58.963661076918285,912.0207244936187,-3.4967770427042097,122471.92338772646,10.5,10500122471.923388,47.655,-122.3035,60.0,3.1666666666666665
2026-01-20T23:03:11+00:00,SAT-65089,224.85559170639976,59.3298340563598,908.533272189695,-3.455733784842482,121034.41488460013,10.5,10500121034.414885,47.655,-122.3035,60.0,3.183333333333333
2026-01-20T23:03:12+00:00,SAT-65089,225.20486851496602,59.697576508238235,905.0867536949455,-3.414215851196922,119580.28122764743,10.5,10500119580.281227,47.655,-122.3035,60.0,3.2
2026-01-20T23:03:13+00:00,SAT-65089,225.56522810485353,60.066824805061536,901.6816424193518,-3.372221813296947,118109.47238578612,10.5,10500118109.472385,47.655,-122.3035,60.0,3.216666666666667
2026-01-20T23:03:14+00:00,SAT-65089,225.9371418495775,60.437510616713375,898.3184131975569,-3.3297504197516234,116621.94453001232,10.5,10500116621.94453,47.655,-122.3035,60.0,3.2333333333333334
2026-01-20T23:03:15+00:00,SAT-65089,226.32110586367787,60.80956062924871,894.9975421122579,-3.2868006406552435,115117.66158867165,10.5,10500115117.661589,47.655,-122.3035,60.0,3.25
2026-01-20T23:03:16+00:00,SAT-65089,226.7176424415594,61.182896248836215,891.7195062733111,-3.243371639376297,113596.59425938966,10.5,10500113596.59426,47.655,-122.3035,60.0,3.2666666666666666
2026-01-20T23:03:17+00:00,SAT-65089,227.12730157026604,61.55743328140455,888.4847836249731,-3.1994627971832625,112058.72087157128,10.5,10500112058.720871,47.655,-122.3035,60.0,3.283333333333333
2026-01-20T23:03:18+00:00,SAT-65089,227.55066252355144,61.933081592202306,885.2938527285824,-3.1550737401676754,110504.0283293604,10.5,10500110504.02833,47.655,-122.3035,60.0,3.3
2026-01-20T23:03:19+00:00,SAT-65089,227.98833553919448,62.309744744088235,882.1471925183885,-3.1102043057257633,108932.51093768515,10.5,10500108932.510937,47.655,-122.3035,60.0,3.316666666666667
2026-01-20T23:03:20+00:00,SAT-65089,228.44096357133515,62.68731960562886,879.0452820908113,-3.0648545710074484,107344.1713986621,10.5,10500107344.171398,47.655,-122.3035,60.0,3.3333333333333335
2026-01-20T23:03:21+00:00,SAT-65089,228.90922412458644,63.065695934232835,875.9886004653266,-3.019024885396542,105739.02194919022,10.5,10500105739.02195,47.655,-122.3035,60.0,3.35
2026-01-20T23:03:22+00:00,SAT-65089,229.39383116888442,63.44475593310269,872.9776263129577,-2.9727158494652373,104117.08362384816,10.5,10500104117.083624,47.655,-122.3035,60.0,3.3666666666666667
2026-01-20T23:03:23+00:00,SAT-65089,229.89553712284805,63.82437377336015,870.0128377057576,-2.92592830500754,102478.3859058228,10.5,10500102478.385906,47.655,-122.3035,60.0,3.3833333333333333
2026-01-20T23:03:24+00:00,SAT-65089,230.41513489937608,64.20441508015166,867.0947118762302,-2.8786633839954443,100822.96844156155,10.5,10500100822.968441,47.655,-122.3035,60.0,3.4
2026-01-20T23:03:25+00:00,SAT-65089,230.9534600142264,64.58473638801625,864.2237249279253,-2.8309224946041582,99150.8805513168,10.5,10500099150.88055,47.655,-122.3035,60.0,3.4166666666666665
2026-01-20T23:03:26+00:00,SAT-65089,231.51139273450664,64.96518455525361,861.4003515599735,-2.782707338444054,97462.18183268163,10.5,10500097462.181833,47.655,-122.3035,60.0,3.433333333333333
2026-01-20T23:03:27+00:00,SAT-65089,232.08986025530587,65.34559613889796,858.625064774432,-2.734019900167836,95756.94179658874,10.5,10500095756.941797,47.655,-122.3035,60.0,3.45
2026-01-20T23:03:28+00:00,SAT-65089,232.6898388767398,65.72579672418104,855.898335593998,-2.6848624556392746,94035.24015341434,10.5,10500094035.240154,47.655,-122.3035,60.0,3.466666666666667
2026-01-20T23:03:29+00:00,SAT-65089,233.31235615616845,66.10560020856346,853.2206327715737,-2.635237616564186,92297.16837614359,10.5,10500092297.168377,47.655,-122.3035,60.0,3.4833333333333334
2026-01-20T23:03:30+00:00,SAT-65089,233.95849300903012,66.48480804346227,850.5924224553204,-2.5851482774514656,90542.82784272174,10.5,10500090542.827843,47.655,-122.3035,60.0,3.5
2026-01-20T23:03:31+00:00,SAT-65089,234.6293856913253,66.86320841797358,848.0141679066088,-2.534597664645376,88772.33155337234,10.5,10500088772.331553,47.655,-122.3035,60.0,3.5166666666666666
2026-01-20T23:03:32+00:00,SAT-65089,235.32622763186944,67.24057539731767,845.4863291690691,-2.4835893203788753,86985.80357207714,10.5,10500086985.803572,47.655,-122.3035,60.0,3.533333333333333
2026-01-20T23:03:33+00:00,SAT-65089,236.05027103195238,67.61666800576057,843.0093627535446,-2.4321271362814385,85183.38020016202,10.5,10500085183.3802,47.655,-122.3035,60.0,3.55
2026-01-20T23:03:34+00:00,SAT-65089,236.8028281640391,67.99122926091678,840.5837212896265,-2.3802153132762,83365.20857172499,10.5,10500083365.208572,47.655,-122.3035,60.0,3.566666666666667
2026-01-20T23:03:35+00:00,SAT-65089,237.585272249671,68.36398514885977,838.2098532171857,-2.327858400817311,81531.44802789456,10.5,10500081531.448029,47.655,-122.3035,60.0,3.5833333333333335
2026-01-20T23:03:36+00:00,SAT-65089,238.39903782122866,68.73464355371456,835.8882024387707,-2.2750612914073924,79682.26992480784,10.5,10500079682.269924,47.655,-122.3035,60.0,3.6
2026-01-20T23:03:37+00:00,SAT-65089,239.2456204152429,69.1028931383787,833.6192079774736,-2.2218292283170147,77817.85790397921,10.5,10500077817.857904,47.655,-122.3035,60.0,3.6166666666666667
2026-01-20T23:03:38+00:00,SAT-65089,240.1265754361175,69.4684021836381,831.4033036270988,-2.1681677984492906,75938.40764238824,10.5,10500075938.407642,47.655,-122.3035,60.0,3.6333333333333333
2026-01-20T23:03:39+00:00,SAT-65089,241.04351599182567,69.83081739101553,829.2409176094454,-2.1140829272702555,74044.12667492016,10.5,10500074044.126675,47.655,-122.3035,60.0,3.65
2026-01-20T23:03:40+00:00,SAT-65089,241.99810947688542,70.18976266025187,827.1324722366478,-2.0595809215411283,72135.23589103048,10.5,10500072135.235891,47.655,-122.3035,60.0,3.6666666666666665
2026-01-20T23:03:41+00:00,SAT-65089,242.99207266864104,70.54483786413756,825.0783835308976,-2.0046684175821765,70211.96772272653,10.5,10500070211.967722,47.655,-122.3035,60.0,3.683333333333333
2026-01-20T23:03:42+00:00,SAT-65089,244.02716500446695,70.89561762364679,823.0790608957622,-1.9493524367361363,68274.56808713124,10.5,10500068274.568087,47.655,-122.3035,60.0,3.7
2026-01-20T23:03:43+00:00,SAT-65089,245.10517976447397,71.24165012595336,821.1349067321908,-1.8936403096603642,66323.29373487382,10.5,10500066323.293736,47.655,-122.3035,60.0,3.716666666666667
2026-01-20T23:03:44+00:00,SAT-65089,246.22793273502725,71.5824559928922,819.2463161300227,-1.8375397712514918,64358.41557475293,10.5,10500064358.415575,47.655,-122.3035,60.0,3.7333333333333334
2026-01-20T23:03:45+00:00,SAT-65089,247.39724805916893,71.91752726776811,817.413676464828,-1.781058890634721,62380.21622166549,10.5,10500062380.21622,47.655,-122.3035,60.0,3.75
2026-01-20T23:03:46+00:00,SAT-65089,248.61494077948322,72.24632653715867,815.6373670645683,-1.7242060785732876,60388.99025611752,10.5,10500060388.990255,47.655,-122.3035,60.0,3.7666666666666666
2026-01-20T23:03:47+00:00,SAT-65089,249.88279569846588,72.56828625613366,813.9177588688711,-1.6669901207953537,58385.04539147284,10.5,10500058385.045391,47.655,-122.3035,60.0,3.783333333333333
2026-01-20T23:03:48+00:00,SAT-65089,251.20254217900808,72.88280834669996,812.2552140550646,-1.6094201342339987,56368.70094129248,10.5,10500056368.700941,47.655,-122.3035,60.0,3.8
2026-01-20T23:03:49+00:00,SAT-65089,252.57582446836506,73.18926413005556,810.6500857078552,-1.551505584603872,54340.2884349434,10.5,10500054340.288435,47.655,-122.3035,60.0,3.816666666666667
2026-01-20T23:03:50+00:00,SAT-65089,254.00416729772184,73.48699468906963,809.102717471477,-1.4932562750036045,52300.151218406725,10.5,10500052300.151218,47.655,-122.3035,60.0,3.8333333333333335
2026-01-20T23:03:51+00:00,SAT-65089,255.4889365639519,73.77531175012336,807.6134432132067,-1.4346823505146875,50248.64461534993,10.5,10500050248.644615,47.655,-122.3035,60.0,3.85
2026-01-20T23:03:52+00:00,SAT-65089,257.031295105657,74.05349918965683,806.1825866822935,-1.3757942773736103,48186.13519764699,10.5,10500048186.135199,47.655,-122.3035,60.0,3.8666666666666667
2026-01-20T23:03:53+00:00,SAT-65089,258.6321537784306,74.32081526771017,804.8104611896595,-1.316602845507623,46113.00087419157,10.5,10500046113.000874,47.655,-122.3035,60.0,3.8833333333333333
2026-01-20T23:03:54+00:00,SAT-65089,260.29211838105545,74.57649570082157,803.4973692850731,-1.2571191632050365,44029.63070422834,10.5,10500044029.630705,47.655,-122.3035,60.0,3.9
2026-01-20T23:03:55+00:00,SAT-65089,262.0114333267523,74.81975767523257,802.2436024396367,-1.1973546411533096,41936.42433829923,10.5,10500041936.424337,47.655,-122.3035,60.0,3.9166666666666665
2026-01-20T23:03:56+00:00,SAT-65089,263.7899233767982,75.0498048876096,801.0494407441931,-1.1373209925154075,39833.79202091795,10.5,10500039833.79202,47.655,-122.3035,60.0,3.933333333333333
2026-01-20T23:03:57+00:00,SAT-65089,265.62693526956923,75.26583368301102,799.9151526076577,-1.0770302160862588,37722.15400063773,10.5,10500037722.154001,47.655,-122.3035,60.0,3.95
2026-01-20T23:03:58+00:00,SAT-65089,267.52128153226784,75.46704031963002,798.8409944721477,-1.0164945878904812,35601.94023576821,10.5,10500035601.940235,47.655,-122.3035,60.0,3.966666666666667
2026-01-20T23:03:59+00:00,SAT-65089,269.4711892716674,75.6526293493544,797.8272105364916,-0.9557266603450911,33473.590365050004,10.5,10500033473.590364,47.655,-122.3035,60.0,3.9833333333333334
2026-01-20T23:04:00+00:00,SAT-65089,271.4742571434719,75.82182304557742,796.8740324805741,-0.8947392318638971,31337.552643071893,10.5,10500031337.552643,47.655,-122.3035,60.0,4.0
2026-01-20T23:04:01+00:00,SAT-65089,273.5274238723989,75.9738717357263,795.9816792199952,-0.8335453497492682,29194.284041552895,10.5,10500029194.284042,47.655,-122.3035,60.0,4.016666666666667
2026-01-20T23:04:02+00:00,SAT-65089,275.62695184493793,76.10806483367081,795.1503566578452,-0.7721582936028251,27044.249668314416,10.5,10500027044.249668,47.655,-122.3035,60.0,4.033333333333333
2026-01-20T23:04:03+00:00,SAT-65089,277.7684289458398,76.22374228168383,794.3802574530254,-0.7105915615740298,24887.92228564774,10.5,10500024887.922285,47.655,-122.3035,60.0,4.05
2026-01-20T23:04:04+00:00,SAT-65089,279.94679126224923,76.32030604550474,793.6715608022822,-0.6488588522258877,22725.781675174163,10.5,10500022725.781675,47.655,-122.3035,60.0,4.066666666666666
2026-01-20T23:04:05+00:00,SAT-65089,282.15636832995176,76.3972312478916,793.0244322403289,-0.5869740599677035,20558.31447788085,10.5,10500020558.314478,47.655,-122.3035,60.0,4.083333333333333
2026-01-20T23:04:06+00:00,SAT-65089,284.3909514120484,76.45407649270123,792.4390234445211,-0.524951249843061,18386.013311089166,10.5,10500018386.013311,47.655,-122.3035,60.0,4.1
2026-01-20T23:04:07+00:00,SAT-65089,286.64388371817995,76.49049292008775,791.9154720646776,-0.4628046488275757,16209.376463665223,10.5,10500016209.376463,47.655,-122.3035,60.0,4.116666666666666
2026-01-20T23:04:08+00:00,SAT-65089,288.9081700185602,76.50623156534293,791.4539015615802,-0.4005486282002763,14028.907278591048,10.5,10500014028.907278,47.655,-122.3035,60.0,4.133333333333334
2026-01-20T23:04:09+00:00,SAT-65089,291.17660152494756,76.50114865261504,791.0544210630552,-0.33819768354985713,11845.113452698999,10.5,10500011845.113453,47.655,-122.3035,60.0,4.15
2026-01-20T23:04:10+00:00,SAT-65089,293.4418906586338,76.47520855121765,790.7171252399949,-0.2757664268521676,9658.506759191921,10.5,10500009658.50676,47.655,-122.3035,60.0,4.166666666666667
2026-01-20T23:04:11+00:00,SAT-65089,295.69680958084683,76.42848424117118,790.4420941902808,-0.2132695609134918,7469.602152538688,10.5,10500007469.602152,47.655,-122.3035,60.0,4.183333333333334
2026-01-20T23:04:12+00:00,SAT-65089,297.9343258552406,76.36115526966044,790.2293933481965,-0.1507218667625054,5278.917326887213,10.5,10500005278.917326,47.655,-122.3035,60.0,4.2
2026-01-20T23:04:13+00:00,SAT-65089,300.147729040557,76.27350331563184,790.079073406412,-0.08813818586372708,3086.9720931042716,10.5,10500003086.972094,47.655,-122.3035,60.0,4.216666666666667
2026-01-20T23:04:14+00:00,SAT-65089,302.33074268727904,76.16590560379713,789.9911702557106,-0.025533401752997408,894.2877355722965,10.5,10500000894.287735,47.655,-122.3035,60.0,4.233333333333333
2026-01-20T23:04:15+00:00,SAT-65089,304.47761742767176,76.03882651193494,789.965704943029,0.03707757690987179,-1298.613581378534,10.5,10499998701.38642,47.655,-122.3035,60.0,4.25
2026-01-20T23:04:16+00:00,SAT-65089,306.5832023830531,75.89280778285281,790.0026836464004,0.09967983405090454,-3491.2094337426515,10.5,10499996508.790565,47.655,-122.3035,60.0,4.266666666666667
2026-01-20T23:04:17+00:00,SAT-65089,308.64299357883533,75.7284577937358,790.1020976675605,0.16225846405846414,-5682.977763949864,10.5,10499994317.022236,47.655,-122.3035,60.0,4.283333333333333
2026-01-20T23:04:18+00:00,SAT-65089,310.6531597090839,75.54644032756104,790.2639234423815,0.22479858970168443,-7873.397508444614,10.5,10499992126.602491,47.655,-122.3035,60.0,4.3
2026-01-20T23:04:19+00:00,SAT-65089,312.6105467054815,75.34746327303623,790.4881225691773,0.2872853788627165,-10061.949183720035,10.5,10499989938.050816,47.655,-122.3035,60.0,4.316666666666666
2026-01-20T23:04:20+00:00,SAT-65089,314.51266365905406,75.13226762076384,790.7746418536964,0.34970406234297036,-12248.115509967862,10.5,10499987751.884491,47.655,-122.3035,60.0,4.333333333333333
2026-01-20T23:04:21+00:00,SAT-65089,316.35765323470065,74.90161705854915,791.1234133718731,0.4120399517054406,-14431.382035992134,10.5,10499985568.617964,47.655,-122.3035,60.0,4.35
2026-01-20T23:04:22+00:00,SAT-65089,318.14425001964594,74.65628839485683,791.534354550374,0.47427845620553977,-16611.237732198613,10.5,10499983388.762268,47.655,-122.3035,60.0,4.366666666666666
2026-01-20T23:04:23+00:00,SAT-65089,319.8717302475226,74.39706296648116,792.0073682640297,0.5364050984637067,-18787.175539515807,10.5,10499981212.824461,47.655,-122.3035,60.0,4.383333333333334
2026-01-20T23:04:24+00:00,SAT-65089,321.5398561231029,74.12471911791393,792.5423429488975,0.5984055309911882,-20958.69294819777,10.5,10499979041.307053,47.655,-122.3035,60.0,4.4
2026-01-20T23:04:25+00:00,SAT-65089,323.1488175985811,73.84002578002938,793.139152731806,0.6602655565801984,-23125.292711973703,10.5,10499976874.707289,47.655,-122.3035,60.0,4.416666666666667
2026-01-20T23:04:26+00:00,SAT-65089,324.6991739872265,73.543737126808,793.7976575802353,0.7219711341154105,-25286.48305159101,10.5,10499974713.516949,47.655,-122.3035,60.0,4.433333333333334
2026-01-20T23:04:27+00:00,SAT-65089,326.1917972586413,73.23658826092202,794.5177034579931,0.7835084103670431,-27441.77876834364,10.5,10499972558.221231,47.655,-122.3035,60.0,4.45
2026-01-20T23:04:28+00:00,SAT-65089,327.62781847334236,72.91929183569007,795.2991225125992,0.8448637105308567,-29590.700912742763,10.5,10499970409.299088,47.655,-122.3035,60.0,4.466666666666667
2026-01-20T23:04:29+00:00,SAT-65089,329.00857822451275,72.59253553456813,796.1417332532352,0.9060235815969611,-31732.77830347584,10.5,10499968267.221697,47.655,-122.3035,60.0,4.483333333333333
2026-01-20T23:04:30+00:00,SAT-65089,330.3355817670353,72.25698028303255,797.045340771948,0.9669747807098032,-33867.547119724186,10.5,10499966132.45288,47.655,-122.3035,60.0,4.5
2026-01-20T23:04:31+00:00,SAT-65089,331.6104590003489,71.91325911017437,798.0097369532425,1.027704300200787,-35994.55177791118,10.5,10499964005.448221,47.655,-122.3035,60.0,4.516666666666667
2026-01-20T23:04:32+00:00,SAT-65089,332.83492939776227,71.5619765445246,799.0347007086428,1.0881993865030681,-38113.345594178405,10.5,10499961886.654406,47.655,-122.3035,60.0,4.533333333333333
2026-01-20T23:04:33+00:00,SAT-65089,334.0107717110605,71.20370845321948,800.1199982301151,1.148447536506477,-40223.49065671962,10.5,10499959776.509344,47.655,-122.3035,60.0,4.55
2026-01-20T23:04:34+00:00,SAT-65089,335.13979815052954,70.83900224634765,801.2653832398577,1.2084365195134994,-42324.55859477207,10.5,10499957675.441404,47.655,-122.3035,60.0,4.566666666666666
2026-01-20T23:04:35+00:00,SAT-65089,336.22383271680997,70.4683773621319,802.4705972619857,1.2681543852936732,-44416.130860715544,10.5,10499955583.869139,47.655,-122.3035,60.0,4.583333333333333
2026-01-20T23:04:36+00:00,SAT-65089,337.2646932699196,70.09232597188218,803.7353699022519,1.3275894716607612,-46497.79899545703,10.5,10499953502.201004,47.655,-122.3035,60.0,4.6
2026-01-20T23:04:37+00:00,SAT-65089,338.2641769244954,69.71131384843926,805.0594191353216,1.3867304216930185,-48569.16523155728,10.5,10499951430.834768,47.655,-122.3035,60.0,4.616666666666666
2026-01-20T23:04:38+00:00,SAT-65089,339.2240483709279,69.32578134815205,806.4424516092236,1.4455661867307972,-50629.842598219635,10.5,10499949370.157402,47.655,-122.3035,60.0,4.633333333333334
2026-01-20T23:04:39+00:00,SAT-65089,340.14603072168154,68.93614447151607,807.8841629527897,1.50408602096477,-52679.45473174674,10.5,10499947320.545269,47.655,-122.3035,60.0,4.65
2026-01-20T23:04:40+00:00,SAT-65089,341.03179851925637,68.54279597228025,809.3842380776985,1.5622795226150707,-54717.63731780819,10.5,10499945282.362682,47.655,-122.3035,60.0,4.666666666666667
2026-01-20T23:04:41+00:00,SAT-65089,341.8829726033372,68.14610647753429,810.9423515215866,1.6201366056638582,-56744.03710139536,10.5,10499943255.962898,47.655,-122.3035,60.0,4.683333333333334
2026-01-20T23:04:42+00:00,SAT-65089,342.70111649929095,67.74642561681397,812.5581677629687,1.6776475234106667,-58758.312711829465,10.5,10499941241.687288,47.655,-122.3035,60.0,4.7
2026-01-20T23:04:43+00:00,SAT-65089,343.4877340995847,67.34408313096283,814.2313415596502,1.734802869620092,-60760.13470295829,10.5,10499939239.865297,47.655,-122.3035,60.0,4.716666666666667
2026-01-20T23:04:44+00:00,SAT-65089,344.24426839618775,66.93938995492096,815.9615182882848,1.79159357700031,-62749.185499867555,10.5,10499937250.8145,47.655,-122.3035,60.0,4.733333333333333
2026-01-20T23:04:45+00:00,SAT-65089,344.9721010669568,66.53263926624373,817.748334282413,1.8480109493634778,-64725.16052527417,10.5,10499935274.839476,47.655,-122.3035,60.0,4.75
2026-01-20T23:04:46+00:00,SAT-65089,345.6725527606758,66.12410748575557,819.5914172025783,1.9040466085207053,-66687.7663395635,10.5,10499933312.23366,47.655,-122.3035,60.0,4.766666666666667
2026-01-20T23:04:47+00:00,SAT-65089,346.34688390348816,65.7140552454498,821.4903863534762,1.9596925503507678,-68636.72260455285,10.5,10499931363.277395,47.655,-122.3035,60.0,4.783333333333333
2026-01-20T23:04:48+00:00,SAT-65089,346.9962959502047,65.3027282966406,823.4448530570261,2.0149411273970066,-70571.76147396133,10.5,10499929428.238525,47.655,-122.3035,60.0,4.8
2026-01-20T23:04:49+00:00,SAT-65089,347.6219329486092,64.89035837417141,825.4544210080834,2.0697850389025403,-72492.62724440076,10.5,10499927507.372755,47.655,-122.3035,60.0,4.816666666666666
2026-01-20T23:04:50+00:00,SAT-65089,348.22488333863186,64.47716401417942,827.5186866202155,2.1242173422225905,-74399.07675508368,10.5,10499925600.923244,47.655,-122.3035,60.0,4.833333333333333
2026-01-20T23:04:51+00:00,SAT-65089,348.8061819237895,64.06335132186358,829.6372393828589,2.1782314537723146,-76290.87942102033,10.5,10499923709.120579,47.655,-122.3035,60.0,4.85
2026-01-20T23:04:52+00:00,SAT-65089,349.36681195461057,63.64911469263697,831.809662219421,2.2318211448702017,-78167.81708743692,10.5,10499921832.182913,47.655,-122.3035,60.0,4.866666666666666
2026-01-20T23:04:53+00:00,SAT-65089,349.90770727693507,63.2346374892881,834.0355318412383,2.2849805347872785,-80029.68378632935,10.5,10499919970.316214,47.655,-122.3035,60.0,4.883333333333334
2026-01-20T23:04:54+00:00,SAT-65089,350.4297545079768,62.82009267742422,836.3144190945994,2.337704103130009,-81876.28617016475,10.5,10499918123.713829,47.655,-122.3035,60.0,4.9
2026-01-20T23:04:55+00:00,SAT-65089,350.93379521555727,62.40564341767526,838.6458893201211,2.3899866622570527,-83707.44254579964,10.5,10499916292.557455,47.655,-122.3035,60.0,4.916666666666667
2026-01-20T23:04:56+00:00,SAT-65089,351.42062806837714,61.99144362404034,841.0295026846122,2.441823391943658,-85522.98408857374,10.5,10499914477.015911,47.655,-122.3035,60.0,4.933333333333334
2026-01-20T23:04:57+00:00,SAT-65089,351.891010953175,61.577638479530826,843.4648145475106,2.4932097892287626,-87322.7530857431,10.5,10499912677.246914,47.655,-122.3035,60.0,4.95
2026-01-20T23:04:58+00:00,SAT-65089,352.34566302771157,61.16436492602153,845.9513757773015,2.5441417092684886,-89106.60436734247,10.5,10499910893.395632,47.655,-122.3035,60.0,4.966666666666667
2026-01-20T23:04:59+00:00,SAT-65089,352.7852667181118,60.751752114797014,848.4887331086786,2.5946153369969234,-90874.40431362584,10.5,10499909125.595686,47.655,-122.3035,60.0,4.983333333333333
2026-01-20T23:05:00+00:00,SAT-65089,353.2104696396648,60.339921831736085,851.0764294714435,2.6446271651373525,-92626.03008492697,10.5,10499907373.969915,47.655,-122.3035,60.0,5.0
2026-01-20T23:05:01+00:00,SAT-65089,353.6218864390258,59.928988897501675,853.7140042974738,2.6941740360412005,-94361.37108703583,10.5,10499905638.628914,47.655,-122.3035,60.0,5.016666666666667
2026-01-20T23:05:02+00:00,SAT-65089,354.02010056491537,59.51906153480471,856.4009938694188,2.7432530983438705,-96080.32745310305,10.5,10499903919.672546,47.655,-122.3035,60.0,5.033333333333333
2026-01-20T23:05:03+00:00,SAT-65089,354.405665952067,59.11024171792234,859.1369316261671,2.7918618075621584,-97782.81006456362,10.5,10499902217.189936,47.655,-122.3035,60.0,5.05
2026-01-20T23:05:04+00:00,SAT-65089,354.7791086259578,58.70262549908696,861.9213484689092,2.8399979332661225,-99468.74080232627,10.5,10499900531.259197,47.655,-122.3035,60.0,5.066666666666666
2026-01-20T23:05:05+00:00,SAT-65089,355.14092822960407,58.29630331248829,864.7537730743533,2.887659534659377,-101138.05169149206,10.5,10499898861.948309,47.655,-122.3035,60.0,5.083333333333333
2026-01-20T23:05:06+00:00,SAT-65089,355.49159946964767,57.891360262015716,867.6337321835869,2.9348449694851375,-102790.68521328158,10.5,10499897209.314787,47.655,-122.3035,60.0,5.1
2026-01-20T23:05:07+00:00,SAT-65089,355.8315734883362,57.48787638919548,870.56075089982,2.9815528812156487,-104426.59385635481,10.5,10499895573.406143,47.655,-122.3035,60.0,5.116666666666666
2026-01-20T23:05:08+00:00,SAT-65089,356.1612791608619,57.08592692583171,873.5343529733524,3.0277821879855757,-106045.7397292114,10.5,10499893954.260271,47.655,-122.3035,60.0,5.133333333333334
2026-01-20T23:05:09+00:00,SAT-65089,356.4811243212851,56.685582532092056,876.5540610755033,3.0735320709963307,-107648.09415406131,10.5,10499892351.905846,47.655,-122.3035,60.0,5.15
2026-01-20T23:05:10+00:00,SAT-65089,356.79149691995065,56.28690952121328,879.619397060977,3.1188019814687795,-109233.6379103379,10.5,10499890766.36209,47.655,-122.3035,60.0,5.166666666666667
2026-01-20T23:05:11+00:00,SAT-65089,357.09276611734464,55.88997006937801,882.729882237162,3.1635916429030333,-110802.3613138455,10.5,10499889197.638685,47.655,-122.3035,60.0,5.183333333333334
2026-01-20T23:05:12+00:00,SAT-65089,357.3852833165388,55.494822412556054,885.885037635684,3.207900996580143,-112354.26230799808,10.5,10499887645.737692,47.655,-122.3035,60.0,5.2
2026-01-20T23:05:13+00:00,SAT-65089,357.66938313227024,55.10152103807136,889.0843842296065,3.251730237740229,-113889.34773093059,10.5,10499886110.65227,47.655,-122.3035,60.0,5.216666666666667
2026-01-20T23:05:14+00:00,SAT-65089,357.94538430831176,54.71011686032802,892.3274431867127,3.2950797954258495,-115407.63260952823,10.5,10499884592.36739,47.655,-122.3035,60.0,5.233333333333333
2026-01-20T23:05:15+00:00,SAT-65089,358.21359058060983,54.320657388524175,895.6137361026841,3.3379503298528554,-116909.14006734279,10.5,10499883090.859932,47.655,-122.3035,60.0,5.25
2026-01-20T23:05:16+00:00,SAT-65089,358.47429149062447,53.933186884957934,898.9427852316574,3.380342682675872,-118393.89958267949,10.5,10499881606.100418,47.655,-122.3035,60.0,5.266666666666667
2026-01-20T23:05:17+00:00,SAT-65089,358.72776314823153,53.547746519762676,902.3141136671795,3.4222579589430624,-119861.9498589993,10.5,10499880138.05014,47.655,-122.3035,60.0,5.283333333333333
2026-01-20T23:05:18+00:00,SAT-65089,358.97426895687755,53.1643745076833,905.7272456048987,3.4636974267647727,-121313.33531089067,10.5,10499878686.66469,47.655,-122.3035,60.0,5.3
2026-01-20T23:05:19+00:00,SAT-65089,359.2140602895664,52.78310624824372,909.1817065051921,3.50466254745351,-122748.10711969897,10.5,10499877251.89288,47.655,-122.3035,60.0,5.316666666666666
2026-01-20T23:05:20+00:00,SAT-65089,359.44737712829954,52.40397445477006,912.6770232858524,3.5451549808047216,-124166.32341848165,10.5,10499875833.676582,47.655,-122.3035,60.0,5.333333333333333
2026-01-20T23:05:21+00:00,SAT-65089,359.6744486671231,52.02700927572531,916.2127245200417,3.585176565729819,-125568.04861369495,10.5,10499874431.951385,47.655,-122.3035,60.0,5.35
2026-01-20T23:05:22+00:00,SAT-65089,359.8954938791725,51.65223841157018,919.7883406149294,3.624729287959691,-126953.35225403421,10.5,10499873046.647745,47.655,-122.3035,60.0,5.366666666666666
2026-01-20T23:05:23+00:00,SAT-65089,0.11072204942173461,51.279687228545114,923.4034039581213,3.6638153239702715,-128322.31056889314,10.5,10499871677.68943,47.655,-122.3035,60.0,5.383333333333334
2026-01-20T23:05:24+00:00,SAT-65089,0.3203332796004034,50.90937886200288,927.0574491078943,3.7024369952234455,-129675.00486568671,10.5,10499870324.995134,47.655,-122.3035,60.0,5.4
2026-01-20T23:05:25+00:00,SAT-65089,0.5245189616498517,50.54133431885765,930.7500129377971,3.74059674829947,-131011.52083400456,10.5,10499868988.479166,47.655,-122.3035,60.0,5.416666666666667
2026-01-20T23:05:26+00:00,SAT-65089,0.7234622233700114,50.17557257658649,934.4806347614345,3.778297214449529,-132331.95063139332,10.5,10499867668.049368,47.655,-122.3035,60.0,5.433333333333334
2026-01-20T23:05:27+00:00,SAT-65089,0.9173383519735597,49.812110671408355,938.2488565166456,3.815541119557868,-133636.38972984976,10.5,10499866363.61027,47.655,-122.3035,60.0,5.45
2026-01-20T23:05:28+00:00,SAT-65089,1.106315189120141,49.45096379050591,942.0542228598845,3.852331321078701,-134924.93820950747,10.5,10499865075.06179,47.655,-122.3035,60.0,5.466666666666667
2026-01-20T23:05:29+00:00,SAT-65089,1.2905535057898747,49.0921453560425,945.8962812974403,3.8886708023586287,-136197.70055978393,10.5,10499863802.29944,47.655,-122.3035,60.0,5.483333333333333
2026-01-20T23:05:30+00:00,SAT-65089,1.470207355909269,48.73566710551025,949.7745823109926,3.924562682125106,-137454.78601170686,10.5,10499862545.213987,47.655,-122.3035,60.0,5.5
2026-01-20T23:05:31+00:00,SAT-65089,1.645424410690345,48.3815391672505,953.6886794926321,3.960010131693374,-138696.3056381506,10.5,10499861303.694363,47.655,-122.3035,60.0,5.516666666666667
2026-01-20T23:05:32+00:00,SAT-65089,1.8163462708646514,48.029770139557606,957.6381295973076,3.9950164718739325,-139922.3757479459,10.5,10499860077.624252,47.655,-122.3035,60.0,5.533333333333333
2026-01-20T23:05:33+00:00,SAT-65089,1.983108765968555,47.680367157383984,961.6224926919233,4.02958508946085,-141133.1149609472,10.5,10499858866.885038,47.655,-122.3035,60.0,5.55
2026-01-20T23:05:34+00:00,SAT-65089,2.1458422337090903,47.33333596303341,965.6413322211455,4.063719461009719,-142328.64504083706,10.5,10499857671.35496,47.655,-122.3035,60.0,5.566666666666666
2026-01-20T23:05:35+00:00,SAT-65089,2.3046717851476433,46.98868097134477,969.6942150969259,4.097423152070368,-143509.0908682528,10.5,10499856490.909132,47.655,-122.3035,60.0,5.583333333333333
2026-01-20T23:05:36+00:00,SAT-65089,2.4597175554604456,46.64640533184715,973.7807117872575,4.130699802163122,-144674.57991459136,10.5,10499855325.420086,47.655,-122.3035,60.0,5.6
2026-01-20T23:05:37+00:00,SAT-65089,2.6110949406747683,46.30651098912454,977.9003963899481,4.1635531070978375,-145825.2416227472,10.5,10499854174.758377,47.655,-122.3035,60.0,5.616666666666666
2026-01-20T23:05:38+00:00,SAT-65089,2.758914821074809,45.96899874175057,982.0528466887604,4.195986858708689,-146961.20879879248,10.5,10499853038.7912,47.655,-122.3035,60.0,5.633333333333334
2026-01-20T23:05:39+00:00,SAT-65089,2.9032837741210464,45.633868295252505,986.2376442491792,4.228004861489345,-148082.61469218857,10.5,10499851917.385307,47.655,-122.3035,60.0,5.65
2026-01-20T23:05:40+00:00,SAT-65089,3.044304273263992,45.301118319111794,990.4543744310378,4.259611004799829,-149189.59552477533,10.5,10499850810.404476,47.655,-122.3035,60.0,5.666666666666667
2026-01-20T23:05:41+00:00,SAT-65089,3.182074878771597,44.97074649542792,994.7026264731583,4.29080923601929,-150282.28955046806,10.5,10499849717.71045,47.655,-122.3035,60.0,5.683333333333334
2026-01-20T23:05:42+00:00,SAT-65089,3.316690417602006,44.64274956744972,998.9819935512148,4.32160351583525,-151360.8354892975,10.5,10499848639.16451,47.655,-122.3035,60.0,5.7
2026-01-20T23:05:43+00:00,SAT-65089,3.4482421526002693,44.31712338910946,1003.2920727910079,4.351997849194565,-152425.37361144333,10.5,10499847574.626389,47.655,-122.3035,60.0,5.716666666666667
2026-01-20T23:05:44+00:00,SAT-65089,3.576817943927516,43.993862969958926,1007.6324653126046,4.381996323159956,-153476.0470631304,10.5,10499846523.952936,47.655,-122.3035,60.0,5.733333333333333
2026-01-20T23:05:45+00:00,SAT-65089,3.7025024032821277,43.67296251525395,1012.002776312236,4.411602990334935,-154512.99778367614,10.5,10499845487.002216,47.655,-122.3035,60.0,5.75
2026-01-20T23:05:46+00:00,SAT-65089,3.825377036863164,43.3544154726134,1016.4026150279301,4.440821958096148,-155536.3696307849,10.5,10499844463.63037,47.655,-122.3035,60.0,5.766666666666667
2026-01-20T23:05:47+00:00,SAT-65089,3.94552038371434,43.03821457005694,1020.831594794138,4.469657372545443,-156546.30781848138,10.5,10499843453.69218,47.655,-122.3035,60.0,5.783333333333333
2026-01-20T23:05:48+00:00,SAT-65089,4.063008146571034,42.72435185348894,1025.2893330803565,4.498113380116405,-157542.95757240916,10.5,10499842457.042427,47.655,-122.3035,60.0,5.8
2026-01-20T23:05:49+00:00,SAT-65089,4.177913315116202,42.41281872508894,1029.7754514914593,4.526194123037488,-158526.46397093026,10.5,10499841473.53603,47.655,-122.3035,60.0,5.816666666666666
2026-01-20T23:05:50+00:00,SAT-65089,4.290306283093139,42.10360598018134,1034.2895757635022,4.5539038207173,-159496.97479558227,10.5,10499840503.025204,47.655,-122.3035,60.0,5.833333333333333
2026-01-20T23:05:51+00:00,SAT-65089,4.400254961569414,41.796703836963125,1038.8313358406974,4.581246624824859,-160454.63545537565,10.5,10499839545.364544,47.655,-122.3035,60.0,5.85
2026-01-20T23:05:52+00:00,SAT-65089,4.507824883125484,41.492101974484996,1043.4003658078561,4.608226737540121,-161399.59312842775,10.5,10499838600.406872,47.655,-122.3035,60.0,5.866666666666666
2026-01-20T23:05:53+00:00,SAT-65089,4.6130793038247155,41.189789561054106,1047.9963039407628,4.634848356890258,-162331.99484740774,10.5,10499837668.005152,47.655,-122.3035,60.0,5.883333333333334
2026-01-20T23:05:54+00:00,SAT-65089,4.716079298886072,40.88975528493095,1052.6187927020349,4.661115675854164,-163251.98746817283,10.5,10499836748.012531,47.655,-122.3035,60.0,5.9
2026-01-20T23:05:55+00:00,SAT-65089,4.816883853773141,40.59198738361891,1057.2674787360866,4.687032864452036,-164159.71704246933,10.5,10499835840.282957,47.655,-122.3035,60.0,5.916666666666667
2026-01-20T23:05:56+00:00,SAT-65089,4.915549950535031,40.296473672907446,1061.9420128462336,4.712604134509716,-165055.33108625442,10.5,10499834944.668913,47.655,-122.3035,60.0,5.933333333333334
2026-01-20T23:05:57+00:00,SAT-65089,5.012132651380492,40.003201570568145,1066.6420500363845,4.737833654421225,-165938.97559431888,10.5,10499834061.024406,47.655,-122.3035,60.0,5.95
