satellites_20260120_184412/SAT-66456.csv

timestamp,satellite,azimuth_deg,elevation_deg,distance_km,relative_velocity_kms,doppler_shift_hz,tx_freq_ghz,rx_freq_hz,ue_lat,ue_lon,ue_alt_m,time_minutes
2026-01-20T23:06:55+00:00,SAT-66456,139.4859923137436,40.01274082860895,18842.040295197352,-27.355324610793172,958099.1807783514,10.5,10500958099.180779,47.655,-122.3035,60.0,6.916666666666667
2026-01-20T23:06:56+00:00,SAT-66456,138.34706319678415,40.01989618759558,18814.757918118856,-26.309106596532295,921456.200421123,10.5,10500921456.20042,47.655,-122.3035,60.0,6.933333333333334
2026-01-20T23:06:57+00:00,SAT-66456,137.20609739230719,40.0153688721273,18788.518969139914,-25.254998707958453,884536.8832913194,10.5,10500884536.883291,47.655,-122.3035,60.0,6.95
