satellites_20260120_184412/SAT-64046.csv

timestamp,satellite,azimuth_deg,elevation_deg,distance_km,relative_velocity_kms,doppler_shift_hz,tx_freq_ghz,rx_freq_hz,ue_lat,ue_lon,ue_alt_m,time_minutes
2026-01-20T23:09:08+00:00,SAT-64046,264.56395906185816,40.019166795988085,2856.6587496707743,-3.7688059863032195,131999.52767385432,10.5,10500131999.527674,47.655,-122.3035,60.0,9.133333333333333
2026-01-20T23:09:09+00:00,SAT-64046,264.70677630081207,40.08015420903735,2852.8999938337683,-3.758441313515382,131636.5129903018,10.5,10500131636.51299,47.655,-122.3035,60.0,9.15
2026-01-20T23:09:10+00:00,SAT-64046,264.8502726645262,40.14097824643937,2849.151575030422,-3.748031336816469,131271.9115721481,10.5,10500131271.911572,47.655,-122.3035,60.0,9.166666666666666
2026-01-20T23:09:11+00:00,SAT-64046,264.99445024774275,40.20163624564913,2845.413538443837,-3.73757595098466,130905.71973407993,10.5,10500130905.719734,47.655,-122.3035,60.0,9.183333333333334
2026-01-20T23:09:12+00:00,SAT-64046,265.1393111224828,40.262125521946224,2841.685929362055,-3.7270750392198733,130537.93338526439,10.5,10500130537.933386,47.655,-122.3035,60.0,9.2
2026-01-20T23:09:13+00:00,SAT-64046,265.28485733685665,40.322443368217996,2837.968793189606,-3.716528482522958,130168.5483578478,10.5,10500130168.548357,47.655,-122.3035,60.0,9.216666666666667
2026-01-20T23:09:14+00:00,SAT-64046,265.43109091418114,40.38258705490073,2834.262175449703,-3.7059361915814035,129797.5615237283,10.5,10500129797.561523,47.655,-122.3035,60.0,9.233333333333333
2026-01-20T23:09:15+00:00,SAT-64046,265.57801385342776,40.44255383043891,2830.5661217546326,-3.6952980682813514,129424.96944654355,10.5,10500129424.969446,47.655,-122.3035,60.0,9.25
2026-01-20T23:09:16+00:00,SAT-64046,265.7256281280904,40.50234092112782,2826.8806778145336,-3.6846139936866704,129050.76796064709,10.5,10500129050.767962,47.655,-122.3035,60.0,9.266666666666667
2026-01-20T23:09:17+00:00,SAT-64046,265.8739356845375,40.56194553076376,2823.2058894581637,-3.6738838688698423,128674.9536011788,10.5,10500128674.953602,47.655,-122.3035,60.0,9.283333333333333
2026-01-20T23:09:18+00:00,SAT-64046,266.0229384420386,40.62136484096137,2819.541802612944,-3.663107598874067,128297.52304234986,10.5,10500128297.523043,47.655,-122.3035,60.0,9.3
2026-01-20T23:09:19+00:00,SAT-64046,266.17263829210367,40.680596011215115,2815.8884633010002,-3.652285087084736,127918.47290030801,10.5,10500127918.4729,47.655,-122.3035,60.0,9.316666666666666
2026-01-20T23:09:20+00:00,SAT-64046,266.3230370976221,40.73963617887387,2812.2459176408147,-3.641416212591791,127537.79894027156,10.5,10500127537.79894,47.655,-122.3035,60.0,9.333333333333334
2026-01-20T23:09:21+00:00,SAT-64046,266.4741366909677,40.79848245875512,2808.6142118714565,-3.6305009089861544,127155.49883631371,10.5,10500127155.498837,47.655,-122.3035,60.0,9.35
2026-01-20T23:09:22+00:00,SAT-64046,266.62593887549735,40.85713194403813,2804.9933922982273,-3.6195390547921233,126771.56833384147,10.5,10500126771.568335,47.655,-122.3035,60.0,9.366666666666667
2026-01-20T23:09:23+00:00,SAT-64046,266.77844542233,40.915581705389485,2801.383505347581,-3.6085305702649317,126386.00463985582,10.5,10500126386.00464,47.655,-122.3035,60.0,9.383333333333333
2026-01-20T23:09:24+00:00,SAT-64046,266.93165807128,40.97382879165982,2797.784597525504,-3.5974753519854143,125998.80413218017,10.5,10500125998.804132,47.655,-122.3035,60.0,9.4
2026-01-20T23:09:25+00:00,SAT-64046,267.08557852895575,41.03187022952802,2794.1967154411236,-3.5863733070621784,125609.96355736499,10.5,10500125609.963558,47.655,-122.3035,60.0,9.416666666666666
2026-01-20T23:09:26+00:00,SAT-64046,267.24020846833054,41.08970302370352,2790.6199057962135,-3.5752243531483763,125219.48003127535,10.5,10500125219.480032,47.655,-122.3035,60.0,9.433333333333334
2026-01-20T23:09:27+00:00,SAT-64046,267.39554952830713,41.14732415713416,2787.0542153746737,-3.564028393853013,124827.35017789084,10.5,10500124827.350178,47.655,-122.3035,60.0,9.45
2026-01-20T23:09:28+00:00,SAT-64046,267.55160331220793,41.20473059082261,2783.4996910565374,-3.552785333912833,124433.57066068934,10.5,10500124433.570662,47.655,-122.3035,60.0,9.466666666666667
2026-01-20T23:09:29+00:00,SAT-64046,267.70837138687295,41.261919263893134,2779.9563798168483,-3.5414950920279202,124038.1386322039,10.5,10500124038.138632,47.655,-122.3035,60.0,9.483333333333333
2026-01-20T23:09:30+00:00,SAT-64046,267.86585528238714,41.31888709387228,2776.424328711733,-3.5301575876007196,123641.05126956715,10.5,10500123641.05127,47.655,-122.3035,60.0,9.5
2026-01-20T23:09:31+00:00,SAT-64046,268.0240564911655,41.37563097675968,2772.903584877699,-3.5187727268895848,123242.30528955015,10.5,10500123242.30529,47.655,-122.3035,60.0,9.516666666666667
2026-01-20T23:09:32+00:00,SAT-64046,268.1829764664103,41.43214778688345,2769.3941955447476,-3.507340429252746,122841.89786773697,10.5,10500122841.897867,47.655,-122.3035,60.0,9.533333333333333
2026-01-20T23:09:33+00:00,SAT-64046,268.34261662174833,41.488434377183346,2765.8962080233064,-3.495860615627977,122439.8262350341,10.5,10500122439.826235,47.655,-122.3035,60.0,9.55
2026-01-20T23:09:34+00:00,SAT-64046,268.5029783303488,41.54448757931509,2762.4096697026534,-3.4843331993297566,122036.08735534783,10.5,10500122036.087355,47.655,-122.3035,60.0,9.566666666666666
2026-01-20T23:09:35+00:00,SAT-64046,268.66406292357067,41.60030420361337,2758.9346280585214,-3.4727580983527595,121630.67835650481,10.5,10500121630.678356,47.655,-122.3035,60.0,9.583333333333334
2026-01-20T23:09:36+00:00,SAT-64046,268.82587169020917,41.65588103925842,2755.4711306484314,-3.461135249702638,121223.59703217652,10.5,10500121223.597033,47.655,-122.3035,60.0,9.6
2026-01-20T23:09:37+00:00,SAT-64046,268.98840587639467,41.71121485467963,2752.0192250927275,-3.449464565481258,120814.84030379847,10.5,10500120814.840303,47.655,-122.3035,60.0,9.616666666666667
2026-01-20T23:09:38+00:00,SAT-64046,269.1516666834157,41.76630239726071,2748.5789590994214,-3.4377459798899155,120404.40586682173,10.5,10500120404.405867,47.655,-122.3035,60.0,9.633333333333333
2026-01-20T23:09:39+00:00,SAT-64046,269.31565526775114,41.821140393806296,2745.1503804421445,-3.4259794023694354,119992.29054948097,10.5,10500119992.29055,47.655,-122.3035,60.0,9.65
2026-01-20T23:09:40+00:00,SAT-64046,269.4803727388463,41.87572555026358,2741.733536984848,-3.4141647760911935,119578.49236139734,10.5,10500119578.492361,47.655,-122.3035,60.0,9.666666666666666
2026-01-20T23:09:41+00:00,SAT-64046,269.64582015972445,41.930054552388384,2738.3284766481597,-3.4023020370718453,119163.00906160346,10.5,10500119163.009062,47.655,-122.3035,60.0,9.683333333333334
2026-01-20T23:09:42+00:00,SAT-64046,269.81199854562027,41.9841240657631,2734.93524741652,-3.390391102572196,118745.83775222275,10.5,10500118745.837751,47.655,-122.3035,60.0,9.7
2026-01-20T23:09:43+00:00,SAT-64046,269.97890886197706,42.03793073563733,2731.553897356888,-3.378431912026171,118326.97631197513,10.5,10500118326.976313,47.655,-122.3035,60.0,9.716666666666667
2026-01-20T23:09:44+00:00,SAT-64046,270.1465520245093,42.091471187430194,2728.184474596627,-3.366424400555959,117906.42246856514,10.5,10500117906.422468,47.655,-122.3035,60.0,9.733333333333333
2026-01-20T23:09:45+00:00,SAT-64046,270.31492889790593,42.14474202681547,2724.8270273278063,-3.354368502401989,117484.17391881447,10.5,10500117484.17392,47.655,-122.3035,60.0,9.75
2026-01-20T23:09:46+00:00,SAT-64046,270.4840402947348,42.197739839872106,2721.481603808077,-3.3422641647068625,117060.22881143347,10.5,10500117060.228811,47.655,-122.3035,60.0,9.766666666666667
2026-01-20T23:09:47+00:00,SAT-64046,270.65388697500714,42.25046119345738,2718.1482523478094,-3.330111319449939,116634.58476405153,10.5,10500116634.584764,47.655,-122.3035,60.0,9.783333333333333
2026-01-20T23:09:48+00:00,SAT-64046,270.8244696443258,42.30290263514616,2714.8270213252117,-3.3179099116916433,116207.23985245237,10.5,10500116207.239853,47.655,-122.3035,60.0,9.8
2026-01-20T23:09:49+00:00,SAT-64046,270.9957889534529,42.355060693623784,2711.5179591732845,-3.305659888501904,115778.192222801,10.5,10500115778.192223,47.655,-122.3035,60.0,9.816666666666666
2026-01-20T23:09:50+00:00,SAT-64046,271.1678454973359,42.406931878913134,2708.2211143778186,-3.293361181636971,115347.43948491257,10.5,10500115347.439486,47.655,-122.3035,60.0,9.833333333333334
2026-01-20T23:09:51+00:00,SAT-64046,271.34063981315734,42.4585126823343,2704.936535492666,-3.2810137643863366,114914.98070327217,10.5,10500114914.980703,47.655,-122.3035,60.0,9.85
2026-01-20T23:09:52+00:00,SAT-64046,271.51417238148815,42.50979957737062,2701.6642710983174,-3.2686175694606887,114480.81352112343,10.5,10500114480.81352,47.655,-122.3035,60.0,9.866666666666667
2026-01-20T23:09:53+00:00,SAT-64046,271.68844362295226,42.56078901924847,2698.4043698423757,-3.256172548722974,114044.93625250316,10.5,10500114044.936253,47.655,-122.3035,60.0,9.883333333333333
2026-01-20T23:09:54+00:00,SAT-64046,271.8634538981574,42.61147744546632,2695.1568804204494,-3.243678655773237,113607.34727228858,10.5,10500113607.347273,47.655,-122.3035,60.0,9.9
2026-01-20T23:09:55+00:00,SAT-64046,272.0392035066384,42.66186127605905,2691.9218515744246,-3.231135851834817,113168.04522235706,10.5,10500113168.045223,47.655,-122.3035,60.0,9.916666666666666
2026-01-20T23:09:56+00:00,SAT-64046,272.21569268617725,42.71193691396103,2688.6993320848615,-3.218544086262598,112727.02832890238,10.5,10500112727.02833,47.655,-122.3035,60.0,9.933333333333334
2026-01-20T23:09:57+00:00,SAT-64046,272.39292161097336,42.761700745075366,2685.4893707828287,-3.2059033433078654,112284.29604033797,10.5,10500112284.29604,47.655,-122.3035,60.0,9.95
2026-01-20T23:09:58+00:00,SAT-64046,272.5708903925154,42.81114913907753,2682.292016515103,-3.1932135438158986,111839.84558433066,10.5,10500111839.845585,47.655,-122.3035,60.0,9.966666666666667
2026-01-20T23:09:59+00:00,SAT-64046,272.7495990747866,42.86027844870428,2679.107318207404,-3.1804746816265657,111393.67674512658,10.5,10500111393.676744,47.655,-122.3035,60.0,9.983333333333333
2026-01-20T23:10:00+00:00,SAT-64046,272.9290476373133,42.90908501116656,2675.935324791595,-3.1676867144747867,110945.78804242387,10.5,10500110945.788042,47.655,-122.3035,60.0,10.0
2026-01-20T23:10:01+00:00,SAT-64046,273.1092359919288,42.95756514787767,2672.7760852416927,-3.1548496131668924,110496.17845373672,10.5,10500110496.178453,47.655,-122.3035,60.0,10.016666666666667
2026-01-20T23:10:02+00:00,SAT-64046,273.29016398240185,43.00571516495588,2669.6296485608273,-3.1419633425544053,110044.84674801677,10.5,10500110044.846748,47.655,-122.3035,60.0,10.033333333333333
2026-01-20T23:10:03+00:00,SAT-64046,273.4718313829015,43.05353135344043,2666.4960637871864,-3.129027875232589,109591.79196543424,10.5,10500109591.791965,47.655,-122.3035,60.0,10.05
2026-01-20T23:10:04+00:00,SAT-64046,273.6542378973232,43.10100998972927,2663.3753799862875,-3.116043193747145,109137.01349466576,10.5,10500109137.013494,47.655,-122.3035,60.0,10.066666666666666
2026-01-20T23:10:05+00:00,SAT-64046,273.8373831587069,43.14814733605656,2660.2676462410573,-3.1030092671271596,108680.51025097894,10.5,10500108680.51025,47.655,-122.3035,60.0,10.083333333333334
2026-01-20T23:10:06+00:00,SAT-64046,274.02126672729145,43.19493964062417,2657.172911665309,-3.0899260745966095,108222.28150670955,10.5,10500108222.281507,47.655,-122.3035,60.0,10.1
2026-01-20T23:10:07+00:00,SAT-64046,274.20588808994756,43.2413831381032,2654.091225393578,-3.0767936055748675,107762.32689127926,10.5,10500107762.32689,47.655,-122.3035,60.0,10.116666666666667
2026-01-20T23:10:08+00:00,SAT-64046,274.39124665966983,43.28747405014387,2651.0226365709514,-3.063611835939281,107300.64555981076,10.5,10500107300.64556,47.655,-122.3035,60.0,10.133333333333333
2026-01-20T23:10:09+00:00,SAT-64046,274.57734177357094,43.33320858553616,2647.967194366575,-3.050380757215795,106837.23721550677,10.5,10500106837.237215,47.655,-122.3035,60.0,10.15
2026-01-20T23:10:10+00:00,SAT-64046,274.76417269271815,43.37858294082187,2644.924947958045,-3.037100347635832,106372.10109593962,10.5,10500106372.101095,47.655,-122.3035,60.0,10.166666666666666
2026-01-20T23:10:11+00:00,SAT-64046,274.95173860011914,43.423593300481315,2641.895946544669,-3.0237706111157325,105905.23733827617,10.5,10500105905.237339,47.655,-122.3035,60.0,10.183333333333334
2026-01-20T23:10:12+00:00,SAT-64046,275.14003860122335,43.46823583771071,2638.88023932185,-3.01039154345811,105436.64579550616,10.5,10500105436.645796,47.655,-122.3035,60.0,10.2
2026-01-20T23:10:13+00:00,SAT-64046,275.32907172225555,43.512506714705914,2635.8778754891746,-2.996963120301959,104966.32561440412,10.5,10500104966.325615,47.655,-122.3035,60.0,10.216666666666667
2026-01-20T23:10:14+00:00,SAT-64046,275.5188369077802,43.55640208278057,2632.8889042705264,-2.983485355251305,104494.27727144057,10.5,10500104494.277271,47.655,-122.3035,60.0,10.233333333333333
2026-01-20T23:10:15+00:00,SAT-64046,275.70933302198966,43.599918083352385,2629.9133748762224,-2.969958254264009,104020.50097528503,10.5,10500104020.500975,47.655,-122.3035,60.0,10.25
2026-01-20T23:10:16+00:00,SAT-64046,275.90055884713394,43.64305084826389,2626.9513365106363,-2.956381805637802,103544.99631607451,10.5,10500103544.996317,47.655,-122.3035,60.0,10.266666666666667
2026-01-20T23:10:17+00:00,SAT-64046,276.0925130811843,43.68579649996973,2624.002838389814,-2.9427560254527583,103067.76385700125,10.5,10500103067.763857,47.655,-122.3035,60.0,10.283333333333333
2026-01-20T23:10:18+00:00,SAT-64046,276.285194338577,43.72815115239865,2621.067929713762,-2.9290809222530685,102588.80389731893,10.5,10500102588.803898,47.655,-122.3035,60.0,10.3
2026-01-20T23:10:19+00:00,SAT-64046,276.47860114858815,43.77011091130745,2618.1466596739683,-2.915356502329985,102108.11665737382,10.5,10500102108.116657,47.655,-122.3035,60.0,10.316666666666666
2026-01-20T23:10:20+00:00,SAT-64046,276.67273195408995,43.81167187472563,2615.2390774556443,-2.901582777093549,101625.70253679385,10.5,10500101625.702538,47.655,-122.3035,60.0,10.333333333333334
2026-01-20T23:10:21+00:00,SAT-64046,276.8675851107642,43.85283013351548,2612.3452322326234,-2.8877597729905014,101141.56246185575,10.5,10500101141.562462,47.655,-122.3035,60.0,10.35
2026-01-20T23:10:22+00:00,SAT-64046,277.06315888709537,43.893581772082804,2609.465173152361,-2.873887511544458,100655.69718640756,10.5,10500100655.697186,47.655,-122.3035,60.0,10.366666666666667
2026-01-20T23:10:23+00:00,SAT-64046,277.25945146293196,43.933922868810065,2606.5989493408474,-2.8599659977242835,100168.10688447999,10.5,10500100168.106884,47.655,-122.3035,60.0,10.383333333333333
2026-01-20T23:10:24+00:00,SAT-64046,277.45646092725843,43.973849496341,2603.746609919117,-2.8459952660065895,99678.79276358978,10.5,10500099678.792763,47.655,-122.3035,60.0,10.4
2026-01-20T23:10:25+00:00,SAT-64046,277.65418527919553,44.013357722524,2600.9082039738196,-2.83197534866689,99187.75595416196,10.5,10500099187.755955,47.655,-122.3035,60.0,10.416666666666666
2026-01-20T23:10:26+00:00,SAT-64046,277.852622426831,44.052443610915546,2598.083780559416,-2.8179062663973533,98694.99718092376,10.5,10500098694.99718,47.655,-122.3035,60.0,10.433333333333334
2026-01-20T23:10:27+00:00,SAT-64046,278.05177018533016,44.091103221165355,2595.2733887097293,-2.8037880618533704,98200.51793784749,10.5,10500098200.517939,47.655,-122.3035,60.0,10.45
2026-01-20T23:10:28+00:00,SAT-64046,278.2516262775249,44.12933260987777,2592.4770774160406,-2.789620766179159,97704.31931573532,10.5,10500097704.319315,47.655,-122.3035,60.0,10.466666666666667
2026-01-20T23:10:29+00:00,SAT-64046,278.4521883320453,44.16712783101879,2589.6948956385713,-2.775404411273132,97206.40243180463,10.5,10500097206.402431,47.655,-122.3035,60.0,10.483333333333333
2026-01-20T23:10:30+00:00,SAT-64046,278.6534538823878,44.2044849365048,2586.926892305728,-2.7611390505598608,96706.76915720987,10.5,10500096706.769157,47.655,-122.3035,60.0,10.5
2026-01-20T23:10:31+00:00,SAT-64046,278.855420367521,44.24139997708117,2584.173116292636,-2.7468247286457927,96205.42105425756,10.5,10500096205.421055,47.655,-122.3035,60.0,10.516666666666667
2026-01-20T23:10:32+00:00,SAT-64046,279.0580851303041,44.27786900279657,2581.433616429934,-2.7324614815479564,95702.35938441633,10.5,10500095702.359385,47.655,-122.3035,60.0,10.533333333333333
2026-01-20T23:10:33+00:00,SAT-64046,279.2614454158433,44.31388806349545,2578.7084415123363,-2.7180493691381957,95197.58624465148,10.5,10500095197.586245,47.655,-122.3035,60.0,10.55
2026-01-20T23:10:34+00:00,SAT-64046,279.4654983724023,44.34945320975341,2575.9976402748493,-2.7035884471936322,94691.1035885137,10.5,10500094691.103588,47.655,-122.3035,60.0,10.566666666666666
2026-01-20T23:10:35+00:00,SAT-64046,279.6702410501721,44.38456049344353,2573.301261396848,-2.6890787564882297,94182.91284407966,10.5,10500094182.912844,47.655,-122.3035,60.0,10.583333333333334
2026-01-20T23:10:36+00:00,SAT-64046,279.87567039921487,44.41920596817894,2570.6193535170437,-2.6745203747913,93673.01673515968,10.5,10500093673.016735,47.655,-122.3035,60.0,10.6
2026-01-20T23:10:37+00:00,SAT-64046,280.0817832714627,44.45338569043734,2567.951965196585,-2.6599133624793545,93161.41737639451,10.5,10500093161.417376,47.655,-122.3035,60.0,10.616666666666667
2026-01-20T23:10:38+00:00,SAT-64046,280.28857641854756,44.487095719985746,2565.2991449364063,-2.645257774150948,92648.11668005656,10.5,10500092648.11668,47.655,-122.3035,60.0,10.633333333333333
2026-01-20T23:10:39+00:00,SAT-64046,280.49604649044625,44.520332120472005,2562.660941182986,-2.630553689900502,92133.11745139123,10.5,10500092133.11745,47.655,-122.3035,60.0,10.65
2026-01-20T23:10:40+00:00,SAT-64046,280.7041900367608,44.5530909604209,2560.0374023029253,-2.615801172924634,91616.42190381141,10.5,10500091616.421904,47.655,-122.3035,60.0,10.666666666666666
2026-01-20T23:10:41+00:00,SAT-64046,280.9130035045203,44.58536831370001,2557.428576599795,-2.601000302889845,91098.0328275749,10.5,10500091098.032827,47.655,-122.3035,60.0,10.683333333333334
2026-01-20T23:10:42+00:00,SAT-64046,281.12248323879174,44.617160260417165,2554.834512297713,-2.5861511668424906,90577.95327141335,10.5,10500090577.953272,47.655,-122.3035,60.0,10.7
2026-01-20T23:10:43+00:00,SAT-64046,281.3326254825485,44.648462887704355,2552.255257533982,-2.5712538311225295,90056.1855588327,10.5,10500090056.185558,47.655,-122.3035,60.0,10.716666666666667
2026-01-20T23:10:44+00:00,SAT-64046,281.5434263742196,44.67927229017314,2549.6908603797424,-2.5563083785504723,89532.73259055757,10.5,10500089532.73259,47.655,-122.3035,60.0,10.733333333333333
2026-01-20T23:10:45+00:00,SAT-64046,281.7548819483402,44.70958457083359,2547.141368823535,-2.5413149229121514,89007.5983518491,10.5,10500089007.598352,47.655,-122.3035,60.0,10.75
2026-01-20T23:10:46+00:00,SAT-64046,281.96698813759406,44.7393958421827,2544.6068307404175,-2.5262735255547746,88480.78499134602,10.5,10500088480.784992,47.655,-122.3035,60.0,10.766666666666667
2026-01-20T23:10:47+00:00,SAT-64046,282.17974076761516,44.76870222631195,2542.087293944264,-2.511184300279929,87952.29649486131,10.5,10500087952.296495,47.655,-122.3035,60.0,10.783333333333333
2026-01-20T23:10:48+00:00,SAT-64046,282.3931355609442,44.79749985626641,2539.5828061354514,-2.4960473344465273,87422.13592207358,10.5,10500087422.135921,47.655,-122.3035,60.0,10.8
2026-01-20T23:10:49+00:00,SAT-64046,282.6071681341107,44.825784876480874,2537.0934149272302,-2.4808627397577165,86890.30718529958,10.5,10500086890.307186,47.655,-122.3035,60.0,10.816666666666666
2026-01-20T23:10:50+00:00,SAT-64046,282.8218339992533,44.853553443812366,2534.619167821445,-2.465630610354095,86356.81358174124,10.5,10500086356.813581,47.655,-122.3035,60.0,10.833333333333334
2026-01-20T23:10:51+00:00,SAT-64046,283.0371285620013,44.88080172810153,2532.1601122260518,-2.450351052268599,85821.65882512058,10.5,10500085821.658825,47.655,-122.3035,60.0,10.85
2026-01-20T23:10:52+00:00,SAT-64046,283.2530471220335,44.90752591307813,2529.716295443256,-2.435024193237189,85284.84738929117,10.5,10500085284.84739,47.655,-122.3035,60.0,10.866666666666667
2026-01-20T23:10:53+00:00,SAT-64046,283.4695848746112,44.93372219736979,2527.2877646478673,-2.419650133639366,84746.3827899678,10.5,10500084746.38279,47.655,-122.3035,60.0,10.883333333333333
2026-01-20T23:10:54+00:00,SAT-64046,283.68673690764155,44.959386794983715,2524.8745669145846,-2.404228997744011,84206.26937957232,10.5,10500084206.269379,47.655,-122.3035,60.0,10.9
2026-01-20T23:10:55+00:00,SAT-64046,283.90449820345157,44.9845159363536,2522.4767491941675,-2.388760903132343,83664.51127629635,10.5,10500083664.511276,47.655,-122.3035,60.0,10.916666666666666
2026-01-20T23:10:56+00:00,SAT-64046,284.1228636378157,45.009105869060804,2520.0943583201106,-2.373245970964461,83121.11272367914,10.5,10500083121.112724,47.655,-122.3035,60.0,10.933333333333334
2026-01-20T23:10:57+00:00,SAT-64046,284.34182797990906,45.033152858673716,2517.727441005068,-2.3576843475959715,82576.07884771304,10.5,10500082576.078848,47.655,-122.3035,60.0,10.95
2026-01-20T23:10:58+00:00,SAT-64046,284.56138589447187,45.05665318980605,2515.376043815733,-2.3420761471908196,82029.41364690237,10.5,10500082029.413647,47.655,-122.3035,60.0,10.966666666666667
2026-01-20T23:10:59+00:00,SAT-64046,284.7815319383965,45.07960316659906,2513.0402132049344,-2.3264215093117455,81481.12200932462,10.5,10500081481.12201,47.655,-122.3035,60.0,10.983333333333333
2026-01-20T23:11:00+00:00,SAT-64046,285.00226056296447,45.101999113795486,2510.7199954863145,-2.310720574972964,80931.2088738941,10.5,10500080931.208874,47.655,-122.3035,60.0,11.0
2026-01-20T23:11:01+00:00,SAT-64046,285.22356611377603,45.12383737757001,2508.4154368328745,-2.2949734944022047,80379.67950222133,10.5,10500080379.679502,47.655,-122.3035,60.0,11.016666666666667
2026-01-20T23:11:02+00:00,SAT-64046,285.44544283154306,45.145114326435866,2506.126583267791,-2.2791803983562837,79826.53847396313,10.5,10500079826.538473,47.655,-122.3035,60.0,11.033333333333333
2026-01-20T23:11:03+00:00,SAT-64046,285.66788484995163,45.16582635189305,2503.85348068383,-2.2633414424078784,79271.79123793275,10.5,10500079271.791239,47.655,-122.3035,60.0,11.05
2026-01-20T23:11:04+00:00,SAT-64046,285.89088619810474,45.18596986949185,2501.596174818602,-2.2474567929334017,78715.44362133593,10.5,10500078715.44362,47.655,-122.3035,60.0,11.066666666666666
2026-01-20T23:11:05+00:00,SAT-64046,286.11444080157503,45.20554131975714,2499.354711243783,-2.231526582415584,78157.50026427828,10.5,10500078157.500265,47.655,-122.3035,60.0,11.083333333333334
2026-01-20T23:11:06+00:00,SAT-64046,286.33854247889155,45.22453716872978,2497.1291353989204,-2.2155509882556497,77597.96738010108,10.5,10500077597.96738,47.655,-122.3035,60.0,11.1
2026-01-20T23:11:07+00:00,SAT-64046,286.56318494618495,45.24295390920026,2494.9194925466336,-2.199530178049233,77036.85083871237,10.5,10500077036.85084,47.655,-122.3035,60.0,11.116666666666667
2026-01-20T23:11:08+00:00,SAT-64046,286.78836181631937,45.26078806145734,2492.7258277823926,-2.1834643030699796,76474.15593835515,10.5,10500076474.15594,47.655,-122.3035,60.0,11.133333333333333
2026-01-20T23:11:09+00:00,SAT-64046,287.0140665971504,45.27803617400471,2490.5481860507975,-2.167353547472848,75909.88912891499,10.5,10500075909.88913,47.655,-122.3035,60.0,11.15
2026-01-20T23:11:10+00:00,SAT-64046,287.2402926952392,45.29469482467344,2488.3866121127844,-2.151198087959752,75344.05659924039,10.5,10500075344.056599,47.655,-122.3035,60.0,11.166666666666666
2026-01-20T23:11:11+00:00,SAT-64046,287.4670334152216,45.31076062140336,2486.2411505530595,-2.1349980853710684,74776.66398264168,10.5,10500074776.663982,47.655,-122.3035,60.0,11.183333333333334
2026-01-20T23:11:12+00:00,SAT-64046,287.6942819582589,45.326230202979716,2484.111845795916,-2.1187537452207077,74207.71847708533,10.5,10500074207.718477,47.655,-122.3035,60.0,11.2
2026-01-20T23:11:13+00:00,SAT-64046,287.9220314272401,45.3411002402087,2481.998742060682,-2.102465241011848,73637.22615938658,10.5,10500073637.22616,47.655,-122.3035,60.0,11.216666666666667
2026-01-20T23:11:14+00:00,SAT-64046,288.15027482353287,45.355367436531914,2479.9018833936466,-2.08613276081833,73065.19361668687,10.5,10500073065.193617,47.655,-122.3035,60.0,11.233333333333333
2026-01-20T23:11:15+00:00,SAT-64046,288.3790050489009,45.369028528984884,2477.8213136535237,-2.0697565015443136,72491.62774540276,10.5,10500072491.627745,47.655,-122.3035,60.0,11.25
2026-01-20T23:11:16+00:00,SAT-64046,288.6082149069257,45.382080289102255,2475.75707650265,-2.0533366654297556,71916.53562883304,10.5,10500071916.53563,47.655,-122.3035,60.0,11.266666666666667
2026-01-20T23:11:17+00:00,SAT-64046,288.83789710401817,45.39451952379564,2473.7092154016614,-2.0368734430006574,71339.9239400042,10.5,10500071339.92394,47.655,-122.3035,60.0,11.283333333333333
2026-01-20T23:11:18+00:00,SAT-64046,289.0680442485328,45.40634307613001,2471.677773621175,-2.0203670456444254,70761.80008259736,10.5,10500070761.800083,47.655,-122.3035,60.0,11.3
2026-01-20T23:11:19+00:00,SAT-64046,289.2986488536693,45.41754782629428,2469.662794220986,-2.003817683215165,70182.171406591,10.5,10500070182.171406,47.655,-122.3035,60.0,11.316666666666666
2026-01-20T23:11:20+00:00,SAT-64046,289.5297033378848,45.42813069242858,2467.6643200515928,-1.9872255577617448,69601.04498859114,10.5,10500069601.044989,47.655,-122.3035,60.0,11.333333333333334
2026-01-20T23:11:21+00:00,SAT-64046,289.76120002446817,45.438088631429416,2465.6823937619856,-1.9705908933536864,69018.42867646026,10.5,10500069018.428677,47.655,-122.3035,60.0,11.35
2026-01-20T23:11:22+00:00,SAT-64046,289.9931311448578,45.44741863989848,2463.7170577776806,-1.9539139125821001,68434.33026628058,10.5,10500068434.330267,47.655,-122.3035,60.0,11.366666666666667
2026-01-20T23:11:23+00:00,SAT-64046,290.2254888391183,45.45611775496216,2461.7683543021985,-1.9371948288977645,67848.75723400128,10.5,10500067848.757235,47.655,-122.3035,60.0,11.383333333333333
2026-01-20T23:11:24+00:00,SAT-64046,290.4582651555191,45.46418305506332,2459.8363253261778,-1.920433877366552,67261.71781262355,10.5,10500067261.717813,47.655,-122.3035,60.0,11.4
2026-01-20T23:11:25+00:00,SAT-64046,290.6914520539086,45.471611660882445,2457.9210126058174,-1.9036312837498486,66673.21990926606,10.5,10500066673.21991,47.655,-122.3035,60.0,11.416666666666666
2026-01-20T23:11:26+00:00,SAT-64046,290.9250414054128,45.47840073611546,2456.022457672158,-1.8867872825951428,66083.27173877403,10.5,10500066083.271738,47.655,-122.3035,60.0,11.433333333333334
2026-01-20T23:11:27+00:00,SAT-64046,291.15902499426903,45.48454748832918,2454.1407018223163,-1.8699021167084953,65491.881805242745,10.5,10500065491.881805,47.655,-122.3035,60.0,11.45
2026-01-20T23:11:28+00:00,SAT-64046,291.3933945198024,45.490049169794176,2452.2757861112523,-1.8529760248134357,64899.05846978003,10.5,10500064899.05847,47.655,-122.3035,60.0,11.466666666666667
2026-01-20T23:11:29+00:00,SAT-64046,291.6281415967994,45.494903078275065,2450.4277513558386,-1.8360092480820982,64304.81017925418,10.5,10500064304.810179,47.655,-122.3035,60.0,11.483333333333333
2026-01-20T23:11:30+00:00,SAT-64046,291.8632577566918,45.49910655784408,2448.596638132418,-1.8190020434886938,63709.14593398906,10.5,10500063709.145933,47.655,-122.3035,60.0,11.5
2026-01-20T23:11:31+00:00,SAT-64046,292.09873445069616,45.502656999704676,2446.782486761045,-1.8019546640743203,63112.074596554274,10.5,10500063112.074596,47.655,-122.3035,60.0,11.516666666666667
2026-01-20T23:11:32+00:00,SAT-64046,292.3345630502665,45.50555184296426,2444.9853373094084,-1.784867359239189,62513.60490200018,10.5,10500062513.604902,47.655,-122.3035,60.0,11.533333333333333
2026-01-20T23:11:33+00:00,SAT-64046,292.5707348476541,45.50778857540993,2443.205229596461,-1.7677403941367997,61913.74613712396,10.5,10500061913.746138,47.655,-122.3035,60.0,11.55
2026-01-20T23:11:34+00:00,SAT-64046,292.8072410591057,45.509364734302814,2441.442203176708,-1.750574037313528,61312.50770755562,10.5,10500061312.507708,47.655,-122.3035,60.0,11.566666666666666
2026-01-20T23:11:35+00:00,SAT-64046,293.04407282653256,45.51027790713067,2439.6962973368277,-1.733368548257747,60709.89870167562,10.5,10500060709.898703,47.655,-122.3035,60.0,11.583333333333334
2026-01-20T23:11:36+00:00,SAT-64046,293.28122121728893,45.51052573236481,2437.9675511046985,-1.7161242029643011,60105.92878599087,10.5,10500060105.928785,47.655,-122.3035,60.0,11.6
2026-01-20T23:11:37+00:00,SAT-64046,293.51867722779855,45.51010590020254,2436.256003232942,-1.698841278433801,59500.607662234484,10.5,10500059500.607662,47.655,-122.3035,60.0,11.616666666666667
2026-01-20T23:11:38+00:00,SAT-64046,293.75643178482636,45.50901615330178,2434.5616921979176,-1.6815200563516268,58893.94519621999,10.5,10500058893.945196,47.655,-122.3035,60.0,11.633333333333333
2026-01-20T23:11:39+00:00,SAT-64046,293.9944757475514,45.50725428749015,2432.884656195049,-1.6641608100698801,58285.950961894254,10.5,10500058285.950962,47.655,-122.3035,60.0,11.65
2026-01-20T23:11:40+00:00,SAT-64046,294.23279990745846,45.50481815250153,2431.2249331471394,-1.6467638289795696,57676.63509495452,10.5,10500057676.635096,47.655,-122.3035,60.0,11.666666666666666
2026-01-20T23:11:41+00:00,SAT-64046,294.4713949921187,45.50170565265692,2429.5825606883704,-1.6293294140428514,57066.00813636859,10.5,10500057066.008137,47.655,-122.3035,60.0,11.683333333333334
2026-01-20T23:11:42+00:00,SAT-64046,294.71025166831015,45.49791474751964,2427.9575761527653,-1.611857847002027,56454.07995394361,10.5,10500056454.079954,47.655,-122.3035,60.0,11.7
2026-01-20T23:11:43+00:00,SAT-64046,294.9493605404386,45.493443452622465,2426.350016593355,-1.594349428224635,55840.86106782136,10.5,10500055840.861069,47.655,-122.3035,60.0,11.716666666666667
2026-01-20T23:11:44+00:00,SAT-64046,295.1887121547701,45.48828984009546,2424.759918763606,-1.5768044626613413,55226.36215866406,10.5,10500055226.362158,47.655,-122.3035,60.0,11.733333333333333
2026-01-20T23:11:45+00:00,SAT-64046,295.428297001685,45.48245203929179,2423.1873191128448,-1.5592232501242012,54610.59372715811,10.5,10500054610.593727,47.655,-122.3035,60.0,11.75
2026-01-20T23:11:46+00:00,SAT-64046,295.66810551619506,45.47592823746221,2421.6322537913875,-1.5416061040506406,53993.56675120802,10.5,10500053993.566751,47.655,-122.3035,60.0,11.766666666666667
2026-01-20T23:11:47+00:00,SAT-64046,295.90812808172774,45.4687166803176,2420.0947586369475,-1.523953331411499,53375.29198223106,10.5,10500053375.291983,47.655,-122.3035,60.0,11.783333333333333
2026-01-20T23:11:48+00:00,SAT-64046,296.148355030507,45.46081567268221,2418.574869181087,-1.5062652518302546,52755.780614793424,10.5,10500052755.780615,47.655,-122.3035,60.0,11.8
2026-01-20T23:11:49+00:00,SAT-64046,296.38877664722907,45.45222357902684,2417.072620636595,-1.4885421853745693,52135.04385901855,10.5,10500052135.04386,47.655,-122.3035,60.0,11.816666666666666
2026-01-20T23:11:50+00:00,SAT-64046,296.6293831706631,45.44293882405177,2415.588047897048,-1.470784447662641,51513.09276919078,10.5,10500051513.09277,47.655,-122.3035,60.0,11.833333333333334
2026-01-20T23:11:51+00:00,SAT-64046,296.87016479446805,45.432959893298296,2414.1211855412457,-1.452992372239104,50889.93902745409,10.5,10500050889.939028,47.655,-122.3035,60.0,11.85
2026-01-20T23:11:52+00:00,SAT-64046,297.11111167186925,45.42228533358172,2412.672067815333,-1.4351662876273807,50265.594140088404,10.5,10500050265.594141,47.655,-122.3035,60.0,11.866666666666667
2026-01-20T23:11:53+00:00,SAT-64046,297.35221391643296,45.41091375356672,2411.2407286378057,-1.4173065271418819,49640.06978117428,10.5,10500049640.06978,47.655,-122.3035,60.0,11.883333333333333
2026-01-20T23:11:54+00:00,SAT-64046,297.5934616045186,45.398843824261625,2409.827201594736,-1.3994134207092246,49013.377506137454,10.5,10500049013.377506,47.655,-122.3035,60.0,11.9
2026-01-20T23:11:55+00:00,SAT-64046,297.834844776303,45.38607427957257,2408.431519943149,-1.381487318916685,48385.52959402731,10.5,10500048385.529594,47.655,-122.3035,60.0,11.916666666666666
2026-01-20T23:11:56+00:00,SAT-64046,298.0763534412073,45.3726039166005,2407.0537165904157,-1.363528559688734,47756.53788038826,10.5,10500047756.53788,47.655,-122.3035,60.0,11.933333333333334
2026-01-20T23:11:57+00:00,SAT-64046,298.31797757729214,45.35843159624479,2405.693824106886,-1.3455374913536116,47126.414565148676,10.5,10500047126.414566,47.655,-122.3035,60.0,11.95
2026-01-20T23:11:58+00:00,SAT-64046,298.5597071348235,45.343556243567654,2404.3518747155094,-1.327514464340028,46495.1719218043,10.5,10500046495.171923,47.655,-122.3035,60.0,11.966666666666667
2026-01-20T23:11:59+00:00,SAT-64046,298.8015320384366,45.32797684821364,2403.027900289741,-1.3094598336491485,45862.8223839976,10.5,10500045862.822384,47.655,-122.3035,60.0,11.983333333333333
2026-01-20T23:12:00+00:00,SAT-64046,299.04344218968396,45.31169246479005,2401.7219323489817,-1.291373952277718,45229.37831516775,10.5,10500045229.378315,47.655,-122.3035,60.0,12.0
2026-01-20T23:12:01+00:00,SAT-64046,299.2854274683784,45.29470221331113,2400.434002060577,-1.2732571880843528,44594.85259927955,10.5,10500044594.8526,47.655,-122.3035,60.0,12.016666666666667
2026-01-20T23:12:02+00:00,SAT-64046,299.52747773728316,45.27700527938901,2399.164140224994,-1.2551098976721264,43959.25772608105,10.5,10500043959.257727,47.655,-122.3035,60.0,12.033333333333333
2026-01-20T23:12:03+00:00,SAT-64046,299.7695828415792,45.25860091477936,2397.912377287049,-1.2369324532632298,43322.60673236787,10.5,10500043322.606731,47.655,-122.3035,60.0,12.05
2026-01-20T23:12:04+00:00,SAT-64046,300.0117326137816,45.23948843750857,2396.6787433203276,-1.2187252230735575,42684.91251461821,10.5,10500042684.912514,47.655,-122.3035,60.0,12.066666666666666
2026-01-20T23:12:05+00:00,SAT-64046,300.2539168747135,45.219667232276855,2395.4632680311825,-1.2004885770896425,42046.18803132549,10.5,10500042046.188032,47.655,-122.3035,60.0,12.083333333333334
2026-01-20T23:12:06+00:00,SAT-64046,300.4961254354601,45.199136750781996,2394.265980756965,-1.1822229004460152,41406.446771530056,10.5,10500041406.446772,47.655,-122.3035,60.0,12.1
2026-01-20T23:12:07+00:00,SAT-64046,300.73834810260155,45.17789651172378,2393.08691045092,-1.1639285647229853,40765.70174954617,10.5,10500040765.70175,47.655,-122.3035,60.0,12.116666666666667
2026-01-20T23:12:08+00:00,SAT-64046,300.98057467678757,45.15594610137864,2391.926085695703,-1.1456059620639432,40123.96669989411,10.5,10500040123.9667,47.655,-122.3035,60.0,12.133333333333333
2026-01-20T23:12:09+00:00,SAT-64046,301.22279495922805,45.13328517344213,2390.7835346828715,-1.1272554668535544,39481.25473510852,10.5,10500039481.254736,47.655,-122.3035,60.0,12.15
2026-01-20T23:12:10+00:00,SAT-64046,301.46499874925223,45.10991344967915,2389.659285230596,-1.1088774772372845,38837.57979992774,10.5,10500038837.5798,47.655,-122.3035,60.0,12.166666666666666
2026-01-20T23:12:11+00:00,SAT-64046,301.7071758516147,45.085830719630756,2388.5533647599646,-1.0904723845402893,38192.95560021405,10.5,10500038192.9556,47.655,-122.3035,60.0,12.183333333333334
2026-01-20T23:12:12+00:00,SAT-64046,301.9493160765862,45.06103684098431,2387.4658003017835,-1.0720405795830619,37547.395824154286,10.5,10500037547.395824,47.655,-122.3035,60.0,12.2
2026-01-20T23:12:13+00:00,SAT-64046,302.19140924156744,45.03553173979143,2386.3966184970786,-1.0535824640833449,36900.91454160305,10.5,10500036900.914541,47.655,-122.3035,60.0,12.216666666666667
2026-01-20T23:12:14+00:00,SAT-64046,302.4334451753862,45.00931541038213,2385.3458455862333,-1.035098437436824,36253.5257410867,10.5,10500036253.525742,47.655,-122.3035,60.0,12.233333333333333
2026-01-20T23:12:15+00:00,SAT-64046,302.6754137194761,44.98238791558118,2384.313507411296,-1.016588905234892,35605.24362813145,10.5,10500035605.243628,47.655,-122.3035,60.0,12.25
2026-01-20T23:12:16+00:00,SAT-64046,302.91730473111306,44.95474938667985,2383.299629409809,-0.9980542742353063,34956.08244911457,10.5,10500034956.082449,47.655,-122.3035,60.0,12.266666666666667
2026-01-20T23:12:17+00:00,SAT-64046,303.1591080854151,44.926400023523385,2382.304236613638,-0.979494954113514,34306.05655260312,10.5,10500034306.056553,47.655,-122.3035,60.0,12.283333333333333
2026-01-20T23:12:18+00:00,SAT-64046,303.40081367770955,44.89734009453605,2381.327353646069,-0.9609113535163256,33655.180251137,10.5,10500033655.180252,47.655,-122.3035,60.0,12.3
2026-01-20T23:12:19+00:00,SAT-64046,303.64241142488316,44.867569936850884,2380.3690047228283,-0.9423038922876484,33003.46824942577,10.5,10500033003.46825,47.655,-122.3035,60.0,12.316666666666666
2026-01-20T23:12:20+00:00,SAT-64046,303.8838912700445,44.83708995600861,2379.4292136409204,-0.9236729872291882,32350.935145628235,10.5,10500032350.935146,47.655,-122.3035,60.0,12.333333333333334
2026-01-20T23:12:21+00:00,SAT-64046,304.12524318343304,44.80590062608465,2378.508003781657,-0.905019056395919,31697.595581797952,10.5,10500031697.595581,47.655,-122.3035,60.0,12.35
2026-01-20T23:12:22+00:00,SAT-64046,304.3664571640783,44.77400248972544,2377.6053981094115,-0.8863425267915487,31043.464513411014,10.5,10500031043.464514,47.655,-122.3035,60.0,12.366666666666667
2026-01-20T23:12:23+00:00,SAT-64046,304.6075232442748,44.741396157771554,2376.7214191626913,-0.8676438235612264,30388.556830848884,10.5,10500030388.556831,47.655,-122.3035,60.0,12.383333333333333
2026-01-20T23:12:24+00:00,SAT-64046,304.8484314903531,44.70808230935463,2375.8560890559925,-0.8489233689888235,29732.887324279007,10.5,10500029732.887323,47.655,-122.3035,60.0,12.4
2026-01-20T23:12:25+00:00,SAT-64046,305.0891720033335,44.67406169200633,2375.0094294826545,-0.8301816017909888,29076.471359414194,10.5,10500029076.47136,47.655,-122.3035,60.0,12.416666666666666
2026-01-20T23:12:26+00:00,SAT-64046,305.3297349255443,44.63933512089482,2374.1814616984684,-0.8114189517432615,28419.32398881177,10.5,10500028419.323988,47.655,-122.3035,60.0,12.433333333333334
2026-01-20T23:12:27+00:00,SAT-64046,305.57011043932823,44.603903479150254,2373.3722065305965,-0.7926358534314805,27761.46043350612,10.5,10500027761.460434,47.655,-122.3035,60.0,12.45
2026-01-20T23:12:28+00:00,SAT-64046,305.81028876985306,44.56776771760024,2372.5816843727744,-0.7738327469378815,27102.896107038676,10.5,10500027102.896107,47.655,-122.3035,60.0,12.466666666666667
2026-01-20T23:12:29+00:00,SAT-64046,306.0502601885873,44.530928854359054,2371.8099151798283,-0.7550100710766923,26443.646378539877,10.5,10500026443.64638,47.655,-122.3035,60.0,12.483333333333333
2026-01-20T23:12:30+00:00,SAT-64046,306.2900150139541,44.49338797483218,2371.056918468941,-0.7361682682948949,25783.72674437459,10.5,10500025783.726744,47.655,-122.3035,60.0,12.5
2026-01-20T23:12:31+00:00,SAT-64046,306.5295436141285,44.45514623136185,2370.322713316028,-0.7173077850457682,25123.152841225132,10.5,10500025123.152842,47.655,-122.3035,60.0,12.516666666666667
2026-01-20T23:12:32+00:00,SAT-64046,306.7688364097401,44.416204842856715,2369.607318351743,-0.698429067047197,24461.940280017214,10.5,10500024461.94028,47.655,-122.3035,60.0,12.533333333333333
2026-01-20T23:12:33+00:00,SAT-64046,307.0078838749286,44.37656509466536,2368.9107517622074,-0.6795325620209769,23800.10474186198,10.5,10500023800.104742,47.655,-122.3035,60.0,12.55
2026-01-20T23:12:34+00:00,SAT-64046,307.24667653915395,44.33622833831078,2368.2330312870185,-0.6606187235857769,23137.66211440402,10.5,10500023137.662115,47.655,-122.3035,60.0,12.566666666666666
2026-01-20T23:12:35+00:00,SAT-64046,307.4852049908965,44.295195990874696,2367.5741742133623,-0.6416880047966508,22474.62826554774,10.5,10500022474.628265,47.655,-122.3035,60.0,12.583333333333334
2026-01-20T23:12:36+00:00,SAT-64046,307.7234598785764,44.25346953481993,2366.9341973765786,-0.6227408584758874,21811.019055045133,10.5,10500021811.019054,47.655,-122.3035,60.0,12.6
2026-01-20T23:12:37+00:00,SAT-64046,307.9614319114763,44.21105051780781,2366.313117160392,-0.6037777436770583,21146.850560894072,10.5,10500021146.850561,47.655,-122.3035,60.0,12.616666666666667
2026-01-20T23:12:38+00:00,SAT-64046,308.19911186350384,44.16794055198563,2365.710949490698,-0.5847991191640497,20482.138850946416,10.5,10500020482.138851,47.655,-122.3035,60.0,12.633333333333333
2026-01-20T23:12:39+00:00,SAT-64046,308.43649057425466,44.12414131371906,2365.1277098358514,-0.5658054442181156,19816.900011174446,10.5,10500019816.900011,47.655,-122.3035,60.0,12.65
2026-01-20T23:12:40+00:00,SAT-64046,308.67355895000725,44.079654543328346,2364.563413206152,-0.5467971838085057,19151.150326768093,10.5,10500019151.150328,47.655,-122.3035,60.0,12.666666666666666
2026-01-20T23:12:41+00:00,SAT-64046,308.91030796760197,44.034482044258894,2364.0180741481663,-0.5277748005671667,18484.906001055075,10.5,10500018484.906,47.655,-122.3035,60.0,12.683333333333334
2026-01-20T23:12:42+00:00,SAT-64046,309.14672867413043,43.98862568300578,2363.491706747068,-0.5087387615262128,17818.183391475555,10.5,10500017818.183392,47.655,-122.3035,60.0,12.7
2026-01-20T23:12:43+00:00,SAT-64046,309.38281219011975,43.94208738836105,2362.9843246222385,-0.4896895319760877,17150.998794469077,10.5,10500017150.998795,47.655,-122.3035,60.0,12.716666666666667
2026-01-20T23:12:44+00:00,SAT-64046,309.61854970913487,43.89486915133043,2362.4959409290145,-0.47062758400569227,16483.36874458586,10.5,10500016483.368744,47.655,-122.3035,60.0,12.733333333333333
2026-01-20T23:12:45+00:00,SAT-64046,309.85393250273995,43.84697302396081,2362.0265683518996,-0.45155338697732794,15815.309680879109,10.5,10500015815.30968,47.655,-122.3035,60.0,12.75
2026-01-20T23:12:46+00:00,SAT-64046,310.0889519194065,43.79840111934836,2361.5762191072877,-0.4324674123405543,15146.838115506629,10.5,10500015146.838116,47.655,-122.3035,60.0,12.766666666666667
2026-01-20T23:12:47+00:00,SAT-64046,310.32359938651024,43.74915561101312,2361.14490494138,-0.4133701349301832,14477.970679192082,10.5,10500014477.970678,47.655,-122.3035,60.0,12.783333333333333
2026-01-20T23:12:48+00:00,SAT-64046,310.5578664130555,43.69923873208914,2360.7326371268095,-0.39426202842431823,13808.723962146312,10.5,10500013808.723963,47.655,-122.3035,60.0,12.8
2026-01-20T23:12:49+00:00,SAT-64046,310.7917445897616,43.648652775035956,2360.3394264637946,-0.3751435697008147,13139.114666649,10.5,10500013139.114666,47.655,-122.3035,60.0,12.816666666666666
2026-01-20T23:12:50+00:00,SAT-64046,311.02522559125845,43.597400090894816,2359.9652832769457,-0.3560152356893662,12469.15949679543,10.5,10500012469.159496,47.655,-122.3035,60.0,12.833333333333334
2026-01-20T23:12:51+00:00,SAT-64046,311.25830117733864,43.54548308870584,2359.6102174152184,-0.3368775054048921,11798.875229714307,10.5,10500011798.875229,47.655,-122.3035,60.0,12.85
2026-01-20T23:12:52+00:00,SAT-64046,311.4909631942427,43.49290423490801,2359.274238249828,-0.3177308581713093,11128.278653356741,10.5,10500011128.278654,47.655,-122.3035,60.0,12.866666666666667
2026-01-20T23:12:53+00:00,SAT-64046,311.7232035760199,43.43966605268833,2358.9573546739452,-0.2985757749759381,10457.386613933266,10.5,10500010457.386614,47.655,-122.3035,60.0,12.883333333333333
2026-01-20T23:12:54+00:00,SAT-64046,311.9550143457479,43.385771121346465,2358.6595751010354,-0.27941273720454335,9786.215971609616,10.5,10500009786.215971,47.655,-122.3035,60.0,12.9
2026-01-20T23:12:55+00:00,SAT-64046,312.18638761657394,43.3312220756721,2358.3809074644637,-0.26024222808976005,9114.783651236752,10.5,10500009114.783651,47.655,-122.3035,60.0,12.916666666666666
2026-01-20T23:12:56+00:00,SAT-64046,312.417315593466,43.27602160513939,2358.1213592156487,-0.24106473101313172,8443.106582881026,10.5,10500008443.106583,47.655,-122.3035,60.0,12.933333333333334
2026-01-20T23:12:57+00:00,SAT-64046,312.64779057395805,43.2201724533037,2357.8809373239187,-0.2218807303726417,7771.201732208813,10.5,10500007771.201733,47.655,-122.3035,60.0,12.95
2026-01-20T23:12:58+00:00,SAT-64046,312.8778049490018,43.163677417161125,2357.6596482754935,-0.20269071119443266,7099.0860868872915,10.5,10500007099.086086,47.655,-122.3035,60.0,12.966666666666667
2026-01-20T23:12:59+00:00,SAT-64046,313.1073512040369,43.10653934643395,2357.457498072862,-0.18349515956428564,6426.776671696655,10.5,10500006426.776672,47.655,-122.3035,60.0,12.983333333333333
2026-01-20T23:13:00+00:00,SAT-64046,313.33642191974536,43.04876114291153,2357.2744922337233,-0.1642945622373071,5754.290534859701,10.5,10500005754.290535,47.655,-122.3035,60.0,13.0
2026-01-20T23:13:01+00:00,SAT-64046,313.56500977522916,42.99034575914793,2357.1106357903186,-0.14508940614038174,5081.6447306156315,10.5,10500005081.644732,47.655,-122.3035,60.0,13.016666666666667
2026-01-20T23:13:02+00:00,SAT-64046,313.7931075454733,42.93129619858881,2356.9659332892616,-0.12588017912230492,4408.85634549286,10.5,10500004408.856346,47.655,-122.3035,60.0,13.033333333333333
2026-01-20T23:13:03+00:00,SAT-64046,314.0207081034357,42.871615514520236,2356.8403887906165,-0.1066673694816465,3735.9424817728013,10.5,10500003735.942482,47.655,-122.3035,60.0,13.05
2026-01-20T23:13:04+00:00,SAT-64046,314.24780442281536,42.811306808782994,2356.7340058674536,-0.08745146563640806,3062.9202459198777,10.5,10500003062.920246,47.655,-122.3035,60.0,13.066666666666666
2026-01-20T23:13:05+00:00,SAT-64046,314.47438957644465,42.75037323161908,2356.646787605726,-0.06823295681316872,2389.806772718317,10.5,10500002389.806772,47.655,-122.3035,60.0,13.083333333333334
2026-01-20T23:13:06+00:00,SAT-64046,314.70045673739645,42.68881798079994,2356.578736603464,-0.049012332032170446,1716.6191897255458,10.5,10500001716.61919,47.655,-122.3035,60.0,13.1
2026-01-20T23:13:07+00:00,SAT-64046,314.9259991810459,42.62664430045654,2356.529854970984,-0.029790081359063234,1043.3746611136025,10.5,10500001043.37466,47.655,-122.3035,60.0,13.116666666666667
2026-01-20T23:13:08+00:00,SAT-64046,315.1510102831272,42.56385548098804,2356.5001443298415,-0.010566693673312144,370.0903095093123,10.5,10500000370.09031,47.655,-122.3035,60.0,13.133333333333333
2026-01-20T23:13:09+00:00,SAT-64046,315.37548352386995,42.50045485727368,2356.4896058140184,0.008657340311960818,-303.21667823807826,10.5,10499999696.783321,47.655,-122.3035,60.0,13.15
2026-01-20T23:13:10+00:00,SAT-64046,315.5994124851654,42.43644580880113,2356.4982400680897,0.027881531127755658,-976.5291588537374,10.5,10499999023.47084,47.655,-122.3035,60.0,13.166666666666666
2026-01-20T23:13:11+00:00,SAT-64046,315.8227908526833,42.37183175839497,2356.526047248468,0.047105388854789654,-1649.8299732920277,10.5,10499998350.170027,47.655,-122.3035,60.0,13.183333333333334
2026-01-20T23:13:12+00:00,SAT-64046,316.045612416655,42.30661617129486,2356.5730270229524,0.06632842358038696,-2323.1019627387122,10.5,10499997676.898037,47.655,-122.3035,60.0,13.2
2026-01-20T23:13:13+00:00,SAT-64046,316.26787107133924,42.24080255459366,2356.639178570736,0.08555014480691076,-2996.3279478917475,10.5,10499997003.672052,47.655,-122.3035,60.0,13.216666666666667
2026-01-20T23:13:14+00:00,SAT-64046,316.48956081499614,42.17439445652539,2356.7245005818236,0.10477006464846564,-3669.4908409233203,10.5,10499996330.50916,47.655,-122.3035,60.0,13.233333333333333
2026-01-20T23:13:15+00:00,SAT-64046,316.71067575272326,42.10739546487093,2356.8289912596333,0.12398769244681732,-4342.5734569065835,10.5,10499995657.426542,47.655,-122.3035,60.0,13.25
2026-01-20T23:13:16+00:00,SAT-64046,316.93121009380985,42.03980920698641,2356.9526483182335,0.1432025389159249,-5015.558658974709,10.5,10499994984.441341,47.655,-122.3035,60.0,13.266666666666667
2026-01-20T23:13:17+00:00,SAT-64046,317.15115815279785,41.97163934871496,2357.095468983712,0.1624141166435539,-5688.42937588949,10.5,10499994311.570623,47.655,-122.3035,60.0,13.283333333333333
2026-01-20T23:13:18+00:00,SAT-64046,317.37051435134975,41.902889593012105,2357.2574499960447,0.1816219360834548,-6361.168461670492,10.5,10499993638.83154,47.655,-122.3035,60.0,13.3
2026-01-20T23:13:19+00:00,SAT-64046,317.58927321577494,41.833563679903044,2357.438587606965,0.200825510089192,-7033.7588543889115,10.5,10499992966.241146,47.655,-122.3035,60.0,13.316666666666666
2026-01-20T23:13:20+00:00,SAT-64046,317.80742937919996,41.76366538498351,2357.638877582361,0.2200243509502058,-7706.183472357938,10.5,10499992293.816528,47.655,-122.3035,60.0,13.333333333333334
2026-01-20T23:13:21+00:00,SAT-64046,318.024977580535,41.69319851890658,2357.8583152017086,0.23921797338776837,-8378.42531906379,10.5,10499991621.57468,47.655,-122.3035,60.0,13.35
2026-01-20T23:13:22+00:00,SAT-64046,318.24191266580556,41.62216692609465,2358.096895260501,0.2584058887622942,-9050.467280281244,10.5,10499990949.53272,47.655,-122.3035,60.0,13.366666666666667
2026-01-20T23:13:23+00:00,SAT-64046,318.4582295855396,41.55057448472653,2358.354612066893,0.27758761374763574,-9722.292427884142,10.5,10499990277.707573,47.655,-122.3035,60.0,13.383333333333333
2026-01-20T23:13:24+00:00,SAT-64046,318.6739233977105,41.478425104891436,2358.631459447004,0.2967626635387257,-10393.883781948309,10.5,10499989606.116219,47.655,-122.3035,60.0,13.4
2026-01-20T23:13:25+00:00,SAT-64046,318.8889892661775,41.40572272820572,2358.9274307434403,0.31593055336962994,-11065.22436392017,10.5,10499988934.775637,47.655,-122.3035,60.0,13.416666666666666
2026-01-20T23:13:26+00:00,SAT-64046,319.1034224601821,41.33247132707036,2359.242518815334,0.3350908010632856,-11736.297285919376,10.5,10499988263.702715,47.655,-122.3035,60.0,13.433333333333334
2026-01-20T23:13:27+00:00,SAT-64046,319.31721835515145,41.25867490348727,2359.5767160409273,0.3542429266589764,-12407.085737691414,10.5,10499987592.914263,47.655,-122.3035,60.0,13.45
2026-01-20T23:13:28+00:00,SAT-64046,319.5303724330338,41.18433748799183,2359.930014319782,0.3733864440663473,-13077.572694295886,10.5,10499986922.427305,47.655,-122.3035,60.0,13.466666666666667
2026-01-20T23:13:29+00:00,SAT-64046,319.7428802787841,41.1094631399363,2360.3024050666645,0.39252087859593743,-13747.741530099942,10.5,10499986252.25847,47.655,-122.3035,60.0,13.483333333333333
2026-01-20T23:13:30+00:00,SAT-64046,319.9547375848854,41.03405594495171,2360.6938792229175,0.4116457491765702,-14417.57539595605,10.5,10499985582.424604,47.655,-122.3035,60.0,13.5
2026-01-20T23:13:31+00:00,SAT-64046,320.16594014757237,40.958120015294284,2361.1044272500963,0.4307605793506881,-15087.057604305128,10.5,10499984912.942396,47.655,-122.3035,60.0,13.516666666666667
2026-01-20T23:13:32+00:00,SAT-64046,320.3764838681489,40.88165948840369,2361.5340391345685,0.44986489034833393,-15756.171386598076,10.5,10499984243.828613,47.655,-122.3035,60.0,13.533333333333333
2026-01-20T23:13:33+00:00,SAT-64046,320.58636475102344,40.8046785266144,2361.982704385209,0.468958209928141,-16424.900202944667,10.5,10499983575.099796,47.655,-122.3035,60.0,13.55
2026-01-20T23:13:34+00:00,SAT-64046,320.7955789056515,40.72718131545051,2362.450412039911,0.48804006320193466,-17093.227420752242,10.5,10499982906.77258,47.655,-122.3035,60.0,13.566666666666666
2026-01-20T23:13:35+00:00,SAT-64046,321.0041225443397,40.64917206340931,2362.937150662944,0.5071099760591166,-17761.136434662156,10.5,10499982238.863565,47.655,-122.3035,60.0,13.583333333333334
2026-01-20T23:13:36+00:00,SAT-64046,321.2119919817812,40.57065500111423,2363.442908345734,0.5261674815112795,-18428.610888765037,10.5,10499981571.38911,47.655,-122.3035,60.0,13.6
2026-01-20T23:13:37+00:00,SAT-64046,321.419183636411,40.49163437977386,2363.967672713961,0.5452121055464197,-19095.63418115544,10.5,10499980904.365818,47.655,-122.3035,60.0,13.616666666666667
2026-01-20T23:13:38+00:00,SAT-64046,321.62569402717884,40.41211447135478,2364.5114309205596,0.5642433844012932,-19762.190068882846,10.5,10499980237.80993,47.655,-122.3035,60.0,13.633333333333333
2026-01-20T23:13:39+00:00,SAT-64046,321.8315197757359,40.33209956669922,2365.0741696559357,0.5832608501610083,-20428.262163588475,10.5,10499979571.737837,47.655,-122.3035,60.0,13.65
2026-01-20T23:13:40+00:00,SAT-64046,322.03665760408165,40.25159397536602,2365.6558751438297,0.6022640374766755,-21093.834166785782,10.5,10499978906.165833,47.655,-122.3035,60.0,13.666666666666666
2026-01-20T23:13:41+00:00,SAT-64046,322.2411043343312,40.17060202465496,2366.2565331438727,0.6212524822816432,-21758.889824897644,10.5,10499978241.110174,47.655,-122.3035,60.0,13.683333333333334
2026-01-20T23:13:42+00:00,SAT-64046,322.44485688796544,40.089128058835065,2366.876128952869,0.6402257291195198,-22423.413185914626,10.5,10499977576.586815,47.655,-122.3035,60.0,13.7
2026-01-20T23:13:43+00:00,SAT-64046,322.64791228710857,40.007176437539194,2367.514647413377,0.6591833130510399,-23087.387965696984,10.5,10499976912.612034,47.655,-122.3035,60.0,13.716666666666667
