satellites_20260120_184412/SAT-53487.csv

timestamp,satellite,azimuth_deg,elevation_deg,distance_km,relative_velocity_kms,doppler_shift_hz,tx_freq_ghz,rx_freq_hz,ue_lat,ue_lon,ue_alt_m,time_minutes
2026-01-20T23:00:00+00:00,SAT-53487,285.4045635578394,47.25110868660126,2253.989450098817,-6.475587741488238,226802.47441590574,10.5,10500226802.474417,47.655,-122.3035,60.0,0.0
2026-01-20T23:00:01+00:00,SAT-53487,285.2856985294916,47.32112208786032,2247.5311305913065,-6.4710729572757595,226644.34757526644,10.5,10500226644.347576,47.655,-122.3035,60.0,0.016666666666666666
2026-01-20T23:00:02+00:00,SAT-53487,285.1658378357243,47.39122057003885,2241.0773138285836,-6.466511075768903,226484.5711881567,10.5,10500226484.571188,47.655,-122.3035,60.0,0.03333333333333333
2026-01-20T23:00:03+00:00,SAT-53487,285.0449708152939,47.46140290353602,2234.6280467823503,-6.461901613708608,226323.12832879997,10.5,10500226323.128328,47.655,-122.3035,60.0,0.05
2026-01-20T23:00:04+00:00,SAT-53487,284.9230866772739,47.53166781468556,2228.183376906278,-6.457244081752418,226160.0018583536,10.5,10500226160.001858,47.655,-122.3035,60.0,0.06666666666666667
2026-01-20T23:00:05+00:00,SAT-53487,284.8001744996758,47.60201398465174,2221.743352142077,-6.452537952122747,225995.1732918139,10.5,10500225995.173292,47.655,-122.3035,60.0,0.08333333333333333
2026-01-20T23:00:06+00:00,SAT-53487,284.67622322849684,47.672440047943,2215.308020957826,-6.447782733779178,225828.62543086847,10.5,10500225828.625431,47.655,-122.3035,60.0,0.1
2026-01-20T23:00:07+00:00,SAT-53487,284.55122167558363,47.742944591723294,2208.8774323113375,-6.4429779185796985,225660.34047823458,10.5,10500225660.340479,47.655,-122.3035,60.0,0.11666666666666667
2026-01-20T23:00:08+00:00,SAT-53487,284.4251585173197,47.813526154510434,2202.451635667207,-6.438122991922065,225490.3004103648,10.5,10500225490.300411,47.655,-122.3035,60.0,0.13333333333333333
2026-01-20T23:00:09+00:00,SAT-53487,284.29802229321024,47.88418322496311,2196.030681003264,-6.433217395194485,225318.4856623114,10.5,10500225318.485662,47.655,-122.3035,60.0,0.15
2026-01-20T23:00:10+00:00,SAT-53487,284.1698014050621,47.954914240227886,2189.6146188544562,-6.4282606275085135,225144.87869084216,10.5,10500225144.87869,47.655,-122.3035,60.0,0.16666666666666666
2026-01-20T23:00:11+00:00,SAT-53487,284.04048411442903,48.02571758537716,2183.2035002552875,-6.423252149046583,224969.46058926245,10.5,10500224969.460588,47.655,-122.3035,60.0,0.18333333333333332
2026-01-20T23:00:12+00:00,SAT-53487,283.9100585416966,48.09659159175795,2176.7973767786384,-6.418191391917822,224792.21146763183,10.5,10500224792.211468,47.655,-122.3035,60.0,0.2
2026-01-20T23:00:13+00:00,SAT-53487,283.77851266506093,48.167534535427,2170.3963005637656,-6.413077802733417,224613.11194393318,10.5,10500224613.111944,47.655,-122.3035,60.0,0.21666666666666667
2026-01-20T23:00:14+00:00,SAT-53487,283.64583431868675,48.238544636027655,2164.00032430184,-6.407910847867947,224432.14332834695,10.5,10500224432.143328,47.655,-122.3035,60.0,0.23333333333333334
2026-01-20T23:00:15+00:00,SAT-53487,283.51201119079445,48.309620055698566,2157.6095012162327,-6.40268994384954,224249.28518522027,10.5,10500224249.285185,47.655,-122.3035,60.0,0.25
2026-01-20T23:00:16+00:00,SAT-53487,283.3770308229937,48.38075889717772,2151.2238851122333,-6.397414500213481,224064.516833981,10.5,10500224064.516834,47.655,-122.3035,60.0,0.26666666666666666
2026-01-20T23:00:17+00:00,SAT-53487,283.24088060893064,48.45195920234963,2144.8435303840206,-6.392083961791163,223877.81883027626,10.5,10500223877.81883,47.655,-122.3035,60.0,0.2833333333333333
2026-01-20T23:00:18+00:00,SAT-53487,283.1035477920069,48.52321895123333,2138.468491979461,-6.3866977341875515,223689.17035587766,10.5,10500223689.170357,47.655,-122.3035,60.0,0.3
2026-01-20T23:00:19+00:00,SAT-53487,282.96501946464485,48.594536060108,2132.098825439231,-6.381255220815913,223498.55051579408,10.5,10500223498.550516,47.655,-122.3035,60.0,0.31666666666666665
2026-01-20T23:00:20+00:00,SAT-53487,282.8252825667611,48.66590838001765,2125.734586899004,-6.375755780501865,223305.9368533867,10.5,10500223305.936853,47.655,-122.3035,60.0,0.3333333333333333
2026-01-20T23:00:21+00:00,SAT-53487,282.6843238851932,48.737333694765034,2119.375833133917,-6.3701988652848875,223111.31017676007,10.5,10500223111.310177,47.655,-122.3035,60.0,0.35
2026-01-20T23:00:22+00:00,SAT-53487,282.5421300502773,48.80880972042024,2113.0226214656063,-6.364583808057671,222914.64712099443,10.5,10500222914.647121,47.655,-122.3035,60.0,0.36666666666666664
2026-01-20T23:00:23+00:00,SAT-53487,282.39868753681174,48.88033410240961,2106.6750098810367,-6.3589100134061995,222715.92683217232,10.5,10500222715.926832,47.655,-122.3035,60.0,0.38333333333333336
2026-01-20T23:00:24+00:00,SAT-53487,282.25398266109227,48.95190441471226,2100.3330569609993,-6.353176814467867,222515.1259539445,10.5,10500222515.125954,47.655,-122.3035,60.0,0.4
2026-01-20T23:00:25+00:00,SAT-53487,282.1080015809544,49.0235181574084,2093.9968219513703,-6.347383583991741,222312.2225173299,10.5,10500222312.222517,47.655,-122.3035,60.0,0.4166666666666667
2026-01-20T23:00:26+00:00,SAT-53487,281.96073029350356,49.09517275544414,2087.6663647236023,-6.341529691893811,222107.19445412137,10.5,10500222107.194454,47.655,-122.3035,60.0,0.43333333333333335
2026-01-20T23:00:27+00:00,SAT-53487,281.8121546337904,49.16686555688178,2081.3417457775536,-6.3356144258331755,221900.01681512728,10.5,10500221900.016815,47.655,-122.3035,60.0,0.45
2026-01-20T23:00:28+00:00,SAT-53487,281.6622602751364,49.23859383020606,2075.0230263235226,-6.329637160319117,221690.66769301693,10.5,10500221690.667692,47.655,-122.3035,60.0,0.4666666666666667
2026-01-20T23:00:29+00:00,SAT-53487,281.51103272597663,49.31035476351367,2068.710268195631,-6.323597224361783,221479.1235868873,10.5,10500221479.123587,47.655,-122.3035,60.0,0.48333333333333334
2026-01-20T23:00:30+00:00,SAT-53487,281.358457329462,49.38214546216039,2062.403533897201,-6.31749391734261,221265.35995811276,10.5,10500221265.359959,47.655,-122.3035,60.0,0.5
2026-01-20T23:00:31+00:00,SAT-53487,281.204519262845,49.45396294654598,2056.1028866303045,-6.311326524740945,221049.35178115766,10.5,10500221049.351782,47.655,-122.3035,60.0,0.5166666666666667
2026-01-20T23:00:32+00:00,SAT-53487,281.0492035365109,49.52580415003415,2049.80839030963,-6.305094365495541,220831.07520237612,10.5,10500220831.075203,47.655,-122.3035,60.0,0.5333333333333333
2026-01-20T23:00:33+00:00,SAT-53487,280.8924949920527,49.597665917375664,2043.5201095291088,-6.298796754808468,220610.50623724802,10.5,10500220610.506237,47.655,-122.3035,60.0,0.55
2026-01-20T23:00:34+00:00,SAT-53487,280.7343783011508,49.66954500266505,2037.2381095656465,-6.292432925280324,220387.61800820022,10.5,10500220387.618008,47.655,-122.3035,60.0,0.5666666666666667
2026-01-20T23:00:35+00:00,SAT-53487,280.5748379662852,49.741438066344614,2030.9624564615,-6.28600216888398,220162.38571712765,10.5,10500220162.385717,47.655,-122.3035,60.0,0.5833333333333334
2026-01-20T23:00:36+00:00,SAT-53487,280.41385831838335,49.81334167379888,2024.6932169650665,-6.279503757670847,219934.78386819156,10.5,10500219934.783869,47.655,-122.3035,60.0,0.6
2026-01-20T23:00:37+00:00,SAT-53487,280.2514235161434,49.88525229298807,2018.4304585507496,-6.272936928278065,219704.7857251955,10.5,10500219704.785725,47.655,-122.3035,60.0,0.6166666666666667
2026-01-20T23:00:38+00:00,SAT-53487,280.0875175459449,49.95716629186353,2012.17424945428,-6.266300934038296,219472.36513669102,10.5,10500219472.365137,47.655,-122.3035,60.0,0.6333333333333333
2026-01-20T23:00:39+00:00,SAT-53487,279.9221242205016,50.02907993633248,2005.924658656066,-6.259594987392081,219237.49451901438,10.5,10500219237.494518,47.655,-122.3035,60.0,0.65
2026-01-20T23:00:40+00:00,SAT-53487,279.7552271790162,50.100989387514566,1999.6817559219737,-6.25281834331846,219000.1477783802,10.5,10500219000.147778,47.655,-122.3035,60.0,0.6666666666666666
2026-01-20T23:00:41+00:00,SAT-53487,279.5868098853043,50.17289069991232,1993.445611760904,-6.245970205289929,218760.29701702588,10.5,10500218760.297016,47.655,-122.3035,60.0,0.6833333333333333
2026-01-20T23:00:42+00:00,SAT-53487,279.4168556283967,50.24477981845274,1987.2162974761616,-6.239049740713673,218517.91307402923,10.5,10500218517.913074,47.655,-122.3035,60.0,0.7
2026-01-20T23:00:43+00:00,SAT-53487,279.2453475227053,50.316652575645925,1980.9938852014232,-6.232056206090343,218272.9699088981,10.5,10500218272.96991,47.655,-122.3035,60.0,0.7166666666666667
2026-01-20T23:00:44+00:00,SAT-53487,279.0722685052939,50.38850469015847,1974.7784478118822,-6.224988743442312,218025.4374716267,10.5,10500218025.437471,47.655,-122.3035,60.0,0.7333333333333333
2026-01-20T23:00:45+00:00,SAT-53487,278.89760133821005,50.46033176296738,1968.5700590384226,-6.217846541960078,217775.28736423657,10.5,10500217775.287365,47.655,-122.3035,60.0,0.75
2026-01-20T23:00:46+00:00,SAT-53487,278.72132860694535,50.53212927534399,1962.3687934205743,-6.2106287439231735,217522.48954572872,10.5,10500217522.489546,47.655,-122.3035,60.0,0.7666666666666667
2026-01-20T23:00:47+00:00,SAT-53487,278.5434327212986,50.60389258568942,1956.1747263533016,-6.203334533072204,217267.0154272465,10.5,10500217267.015427,47.655,-122.3035,60.0,0.7833333333333333
2026-01-20T23:00:48+00:00,SAT-53487,278.36389591411364,50.675616927351626,1949.987934045651,-6.195963035769004,217008.83441028572,10.5,10500217008.83441,47.655,-122.3035,60.0,0.8
2026-01-20T23:00:49+00:00,SAT-53487,278.18270024265945,50.74729740523615,1943.8084935779775,-6.188513377976197,216747.91588236042,10.5,10500216747.915882,47.655,-122.3035,60.0,0.8166666666666667
2026-01-20T23:00:50+00:00,SAT-53487,277.9998275886656,50.81892899302789,1937.6364829023426,-6.180984674827771,216484.22885171982,10.5,10500216484.228851,47.655,-122.3035,60.0,0.8333333333333334
2026-01-20T23:00:51+00:00,SAT-53487,277.8152596587232,50.8905065302379,1931.4719808533143,-6.173376071703906,216217.74338596273,10.5,10500216217.743385,47.655,-122.3035,60.0,0.85
2026-01-20T23:00:52+00:00,SAT-53487,277.6289779837296,50.9620247196812,1925.3150671178014,-6.1656866099092476,215948.42590752267,10.5,10500215948.425907,47.655,-122.3035,60.0,0.8666666666666667
2026-01-20T23:00:53+00:00,SAT-53487,277.44096392207615,51.03347812332233,1919.1658223388522,-6.157915427855012,215676.24623991584,10.5,10500215676.24624,47.655,-122.3035,60.0,0.8833333333333333
2026-01-20T23:00:54+00:00,SAT-53487,277.2511986575223,51.104861160427106,1913.0243280188045,-6.150061575131607,215401.17109577812,10.5,10500215401.171095,47.655,-122.3035,60.0,0.9
2026-01-20T23:00:55+00:00,SAT-53487,277.0596632022678,51.17616810347902,1906.8906666078733,-6.142124120793497,215123.16786945894,10.5,10500215123.16787,47.655,-122.3035,60.0,0.9166666666666666
2026-01-20T23:00:56+00:00,SAT-53487,276.8663383972546,51.247393075311095,1900.7649214847354,-6.13410212718766,214842.20372038323,10.5,10500214842.20372,47.655,-122.3035,60.0,0.9333333333333333
2026-01-20T23:00:57+00:00,SAT-53487,276.6712049132543,51.31853004587302,1894.64717696322,-6.125994598961868,214558.2437871056,10.5,10500214558.243788,47.655,-122.3035,60.0,0.95
2026-01-20T23:00:58+00:00,SAT-53487,276.47424325374914,51.38957282835005,1888.5375183498554,-6.117800605476279,214271.2554746822,10.5,10500214271.255474,47.655,-122.3035,60.0,0.9666666666666667
2026-01-20T23:00:59+00:00,SAT-53487,276.27543375423147,51.460515076654225,1882.4360318793272,-6.10951915807573,213981.20415622718,10.5,10500213981.204157,47.655,-122.3035,60.0,0.9833333333333333
2026-01-20T23:01:00+00:00,SAT-53487,276.0747565854663,51.531350281430925,1876.3428047723396,-6.1011492352618655,213688.05405454725,10.5,10500213688.054054,47.655,-122.3035,60.0,1.0
2026-01-20T23:01:01+00:00,SAT-53487,275.87219175604315,51.60207176629055,1870.2579252683718,-6.09268984957384,213391.7705845866,10.5,10500213391.770584,47.655,-122.3035,60.0,1.0166666666666666
2026-01-20T23:01:02+00:00,SAT-53487,275.66771911332967,51.67267268478694,1864.1814825917302,-6.084139980239796,213092.317994597,10.5,10500213092.317995,47.655,-122.3035,60.0,1.0333333333333334
2026-01-20T23:01:03+00:00,SAT-53487,275.46131834642637,51.743146016532634,1858.113566984771,-6.07549857387364,212789.65939054146,10.5,10500212789.659391,47.655,-122.3035,60.0,1.05
2026-01-20T23:01:04+00:00,SAT-53487,275.2529689895377,51.81348456327937,1852.0542697404276,-6.066764625210058,212483.75956377664,10.5,10500212483.759563,47.655,-122.3035,60.0,1.0666666666666667
2026-01-20T23:01:05+00:00,SAT-53487,275.0426504229192,51.883680945884805,1846.0036831542182,-6.057937019687016,212174.5794776254,10.5,10500212174.579477,47.655,-122.3035,60.0,1.0833333333333333
2026-01-20T23:01:06+00:00,SAT-53487,274.83034187910283,51.953727599378986,1839.9619006332503,-6.049014741337118,211862.08354861193,10.5,10500211862.08355,47.655,-122.3035,60.0,1.1
2026-01-20T23:01:07+00:00,SAT-53487,274.6160224426868,52.023616770414556,1833.92901659789,-6.03999665987197,211546.2321892557,10.5,10500211546.23219,47.655,-122.3035,60.0,1.1166666666666667
2026-01-20T23:01:08+00:00,SAT-53487,274.39967105734155,52.093340512171366,1827.905126595778,-6.030881717561215,211226.9883533653,10.5,10500211226.988354,47.655,-122.3035,60.0,1.1333333333333333
2026-01-20T23:01:09+00:00,SAT-53487,274.1812665268394,52.16289068138784,1821.8903272294635,-6.021668767645569,210904.3118765799,10.5,10500210904.311876,47.655,-122.3035,60.0,1.15
2026-01-20T23:01:10+00:00,SAT-53487,273.9607875218535,52.23225893345783,1815.8847162451982,-6.012356705339623,210578.16406464114,10.5,10500210578.164064,47.655,-122.3035,60.0,1.1666666666666667
2026-01-20T23:01:11+00:00,SAT-53487,273.7382125825789,52.301436719003306,1809.8883924910729,-6.002944387007101,210248.50486256916,10.5,10500210248.504862,47.655,-122.3035,60.0,1.1833333333333333
2026-01-20T23:01:12+00:00,SAT-53487,273.51352012444585,52.37041527945456,1803.9014559557645,-5.993430665254972,209915.2940838065,10.5,10500209915.294085,47.655,-122.3035,60.0,1.2
2026-01-20T23:01:13+00:00,SAT-53487,273.2866884428777,52.439185642986594,1797.9240077722834,-5.983814363865249,209578.49053222386,10.5,10500209578.490532,47.655,-122.3035,60.0,1.2166666666666666
2026-01-20T23:01:14+00:00,SAT-53487,273.057695719345,52.507738620122296,1791.956150246722,-5.974094297436922,209238.0526900636,10.5,10500209238.05269,47.655,-122.3035,60.0,1.2333333333333334
2026-01-20T23:01:15+00:00,SAT-53487,272.82652002698046,52.5760647995084,1785.9979868674116,-5.964269301667215,208893.93977851758,10.5,10500208893.93978,47.655,-122.3035,60.0,1.25
2026-01-20T23:01:16+00:00,SAT-53487,272.5931393355509,52.64415454400913,1780.049622283882,-5.954338127687109,208546.10805690996,10.5,10500208546.108057,47.655,-122.3035,60.0,1.2666666666666666
2026-01-20T23:01:17+00:00,SAT-53487,272.35753152046993,52.71199798551475,1774.111162391202,-5.944299592421715,208194.5160889538,10.5,10500208194.516088,47.655,-122.3035,60.0,1.2833333333333334
2026-01-20T23:01:18+00:00,SAT-53487,272.1196743669175,52.77958502147123,1768.1827142643604,-5.934152423195475,207839.11930016763,10.5,10500207839.1193,47.655,-122.3035,60.0,1.3
2026-01-20T23:01:19+00:00,SAT-53487,271.87954557984756,52.84690530955103,1762.2643862476266,-5.923895392651805,207479.8747033321,10.5,10500207479.874702,47.655,-122.3035,60.0,1.3166666666666667
2026-01-20T23:01:20+00:00,SAT-53487,271.6371227895855,52.91394826386214,1756.3562879093552,-5.9135272137897,207116.73722222808,10.5,10500207116.737223,47.655,-122.3035,60.0,1.3333333333333333
2026-01-20T23:01:21+00:00,SAT-53487,271.39238356165015,52.98070304990146,1750.4585301014688,-5.903046619544096,206749.66247887732,10.5,10500206749.66248,47.655,-122.3035,60.0,1.35
2026-01-20T23:01:22+00:00,SAT-53487,271.14530540407213,53.04715858039725,1744.5712249395767,-5.892452307883135,206378.60487061657,10.5,10500206378.60487,47.655,-122.3035,60.0,1.3666666666666667
2026-01-20T23:01:23+00:00,SAT-53487,270.8958657771995,53.11330351048659,1738.694485837848,-5.881742971699877,206003.51861703172,10.5,10500206003.518618,47.655,-122.3035,60.0,1.3833333333333333
2026-01-20T23:01:24+00:00,SAT-53487,270.6440421028884,53.17912623321469,1732.8284275140727,-5.870917273657708,205624.3568789377,10.5,10500205624.356878,47.655,-122.3035,60.0,1.4
2026-01-20T23:01:25+00:00,SAT-53487,270.3898117750704,53.24461487471648,1726.9731660198115,-5.859973871168838,205241.0726332308,10.5,10500205241.072634,47.655,-122.3035,60.0,1.4166666666666667
2026-01-20T23:01:26+00:00,SAT-53487,270.1331521699383,53.309757289671765,1721.1288187456323,-5.848911420762435,204853.61882587976,10.5,10500204853.618826,47.655,-122.3035,60.0,1.4333333333333333
2026-01-20T23:01:27+00:00,SAT-53487,269.8740406563461,53.37454105678861,1715.295504421992,-5.837728533947283,204461.9468260488,10.5,10500204461.946827,47.655,-122.3035,60.0,1.45
2026-01-20T23:01:28+00:00,SAT-53487,269.61245460857987,53.43895347377045,1709.4733431641353,-5.826423816459038,204066.0078007029,10.5,10500204066.007801,47.655,-122.3035,60.0,1.4666666666666666
2026-01-20T23:01:29+00:00,SAT-53487,269.348371418073,53.502981552728436,1703.6624564778535,-5.814995887625694,203665.75339286818,10.5,10500203665.753393,47.655,-122.3035,60.0,1.4833333333333334
2026-01-20T23:01:30+00:00,SAT-53487,269.0817685048595,53.566612015807344,1697.862967245928,-5.803443316516633,203261.1334853015,10.5,10500203261.133486,47.655,-122.3035,60.0,1.5
2026-01-20T23:01:31+00:00,SAT-53487,268.8126233321911,53.62983129008236,1692.0749997782557,-5.7917646467366275,202852.09706888153,10.5,10500202852.097069,47.655,-122.3035,60.0,1.5166666666666666
2026-01-20T23:01:32+00:00,SAT-53487,268.540913420849,53.69262550275824,1686.2986798372433,-5.779958435045212,202438.59359522222,10.5,10500202438.593596,47.655,-122.3035,60.0,1.5333333333333334
2026-01-20T23:01:33+00:00,SAT-53487,268.2666163622938,53.75498047680532,1680.5341346246917,-5.7680232365301345,202020.57245738455,10.5,10500202020.572458,47.655,-122.3035,60.0,1.55
2026-01-20T23:01:34+00:00,SAT-53487,267.9897098330625,53.816881726446226,1674.781492783459,-5.755957531808933,201597.98044016774,10.5,10500201597.98044,47.655,-122.3035,60.0,1.5666666666666667
2026-01-20T23:01:35+00:00,SAT-53487,267.71017161298005,53.87831445185406,1669.040884471735,-5.743759843529689,201170.76580045832,10.5,10500201170.7658,47.655,-122.3035,60.0,1.5833333333333333
2026-01-20T23:01:36+00:00,SAT-53487,267.4279795989486,53.93926353518501,1663.3124413211212,-5.731428639110456,200738.8748607538,10.5,10500200738.87486,47.655,-122.3035,60.0,1.6
2026-01-20T23:01:37+00:00,SAT-53487,267.1431118236042,53.99971353555917,1657.596296491715,-5.718962379379461,200302.25371274794,10.5,10500200302.253714,47.655,-122.3035,60.0,1.6166666666666667
2026-01-20T23:01:38+00:00,SAT-53487,266.85554647258266,54.05964868463312,1651.8925846786806,-5.706359546974925,199860.84921201292,10.5,10500199860.849213,47.655,-122.3035,60.0,1.6333333333333333
2026-01-20T23:01:39+00:00,SAT-53487,266.5652619010074,54.11905288252404,1646.2014420904977,-5.693618526562752,199414.60478271573,10.5,10500199414.604782,47.655,-122.3035,60.0,1.65
2026-01-20T23:01:40+00:00,SAT-53487,266.2722366563908,54.177909692499696,1640.5230065466724,-5.680737767533937,198963.46611596996,10.5,10500198963.466116,47.655,-122.3035,60.0,1.6666666666666667
2026-01-20T23:01:41+00:00,SAT-53487,265.9764494944696,54.23620233749008,1634.8574174131854,-5.667715659719418,198507.37681684404,10.5,10500198507.376818,47.655,-122.3035,60.0,1.6833333333333333
2026-01-20T23:01:42+00:00,SAT-53487,265.6778794017432,54.293913695341914,1629.2048156618919,-5.654550590390741,198046.28040076574,10.5,10500198046.280401,47.655,-122.3035,60.0,1.7
2026-01-20T23:01:43+00:00,SAT-53487,265.37650561591045,54.351026294763436,1623.5653438730753,-5.641240916059958,197580.1193058351,10.5,10500197580.119307,47.655,-122.3035,60.0,1.7166666666666666
2026-01-20T23:01:44+00:00,SAT-53487,265.0723076485373,54.40752231107217,1617.939146266125,-5.62778498588696,197108.83571264852,10.5,10500197108.835712,47.655,-122.3035,60.0,1.7333333333333334
2026-01-20T23:01:45+00:00,SAT-53487,264.7652653072091,54.463383562290076,1612.326368706867,-5.614181146685188,196632.37171961967,10.5,10500196632.37172,47.655,-122.3035,60.0,1.75
2026-01-20T23:01:46+00:00,SAT-53487,264.4553587182697,54.51859150541122,1606.7271587099062,-5.600427699786477,196150.6678322041,10.5,10500196150.667831,47.655,-122.3035,60.0,1.7666666666666666
2026-01-20T23:01:47+00:00,SAT-53487,264.142568352339,54.57312723232769,1601.1416654839861,-5.586522939608843,195663.66431370613,10.5,10500195663.664314,47.655,-122.3035,60.0,1.7833333333333334
2026-01-20T23:01:48+00:00,SAT-53487,263.82687504886644,54.626971466322786,1595.5700399388827,-5.572465171833975,195171.30182193153,10.5,10500195171.301823,47.655,-122.3035,60.0,1.8
2026-01-20T23:01:49+00:00,SAT-53487,263.5082600402702,54.68010455886831,1590.0124346741736,-5.558252652511329,194673.51927635536,10.5,10500194673.519276,47.655,-122.3035,60.0,1.8166666666666667
2026-01-20T23:01:50+00:00,SAT-53487,263.1867049801474,54.73250648597611,1584.4690040287358,-5.5438836069631385,194170.25452025534,10.5,10500194170.25452,47.655,-122.3035,60.0,1.8333333333333333
2026-01-20T23:01:51+00:00,SAT-53487,262.8621919712381,54.784156844913895,1578.9399041113911,-5.529356295638519,193661.44662720116,10.5,10500193661.446627,47.655,-122.3035,60.0,1.85
2026-01-20T23:01:52+00:00,SAT-53487,262.53470359073253,54.83503485177854,1573.4252927658742,-5.514668924489413,193147.0327620411,10.5,10500193147.032763,47.655,-122.3035,60.0,1.8666666666666667
2026-01-20T23:01:53+00:00,SAT-53487,262.2042229209118,54.88511933833857,1567.9253296251834,-5.4998197018419175,192626.9501727763,10.5,10500192626.950172,47.655,-122.3035,60.0,1.8833333333333333
2026-01-20T23:01:54+00:00,SAT-53487,261.87073357772266,54.934388749689084,1562.440176109213,-5.484806782298215,192101.13422576917,10.5,10500192101.134226,47.655,-122.3035,60.0,1.9
2026-01-20T23:01:55+00:00,SAT-53487,261.5342197430626,54.982821141569275,1556.9699954783343,-5.4696283598345605,191569.52166642863,10.5,10500191569.521666,47.655,-122.3035,60.0,1.9166666666666667
2026-01-20T23:01:56+00:00,SAT-53487,261.1946661926834,55.0303941788258,1551.514952794126,-5.454282583991013,191032.0476838201,10.5,10500191032.047684,47.655,-122.3035,60.0,1.9333333333333333
2026-01-20T23:01:57+00:00,SAT-53487,260.8520583294004,55.0770851333112,1546.0752149636924,-5.438767565466176,190488.64610661697,10.5,10500190488.646107,47.655,-122.3035,60.0,1.95
2026-01-20T23:01:58+00:00,SAT-53487,260.50638221694305,55.12287088214275,1540.6509507784008,-5.423081430867449,189939.25132068602,10.5,10500189939.25132,47.655,-122.3035,60.0,1.9666666666666666
2026-01-20T23:01:59+00:00,SAT-53487,260.1576246111467,55.16772790672834,1535.2423308980158,-5.407222304537108,189383.79763255967,10.5,10500189383.797632,47.655,-122.3035,60.0,1.9833333333333334
2026-01-20T23:02:00+00:00,SAT-53487,259.80577299291986,55.211632291930826,1529.8495278529574,-5.391188249223978,188822.2171915071,10.5,10500188822.217192,47.655,-122.3035,60.0,2.0
2026-01-20T23:02:01+00:00,SAT-53487,259.45081560540365,55.254559725019995,1524.4727161057313,-5.374977326007388,188254.4420883249,10.5,10500188254.44209,47.655,-122.3035,60.0,2.0166666666666666
2026-01-20T23:02:02+00:00,SAT-53487,259.09274148828075,55.29648549551104,1519.1120720525932,-5.358587612051565,187680.40497717066,10.5,10500187680.404978,47.655,-122.3035,60.0,2.033333333333333
2026-01-20T23:02:03+00:00,SAT-53487,258.7315405113985,55.33738449547922,1513.7677740075071,-5.3420171420935345,187100.03702622204,10.5,10500187100.037025,47.655,-122.3035,60.0,2.05
2026-01-20T23:02:04+00:00,SAT-53487,258.36720341270217,55.377231219755615,1508.4400022444593,-5.325263935722834,186513.26887312738,10.5,10500186513.268873,47.655,-122.3035,60.0,2.066666666666667
2026-01-20T23:02:05+00:00,SAT-53487,257.99972183494356,55.4159997667398,1503.1289390125648,-5.308325988839348,185920.03032582343,10.5,10500185920.030325,47.655,-122.3035,60.0,2.0833333333333335
2026-01-20T23:02:06+00:00,SAT-53487,257.6290883635279,55.453663839556334,1497.834768559696,-5.291201318555551,185320.25193520138,10.5,10500185320.251936,47.655,-122.3035,60.0,2.1
2026-01-20T23:02:07+00:00,SAT-53487,257.2552965618049,55.490196747979624,1492.557677111323,-5.273887896306898,184713.86265235007,10.5,10500184713.862652,47.655,-122.3035,60.0,2.1166666666666667
2026-01-20T23:02:08+00:00,SAT-53487,256.8783410111915,55.52557141027706,1487.297852916073,-5.256383701566603,184100.79170987458,10.5,10500184100.79171,47.655,-122.3035,60.0,2.1333333333333333
2026-01-20T23:02:09+00:00,SAT-53487,256.49821734802595,55.55976035591327,1482.0554862377105,-5.238686651386537,183480.96615412066,10.5,10500183480.966154,47.655,-122.3035,60.0,2.15
2026-01-20T23:02:10+00:00,SAT-53487,256.11492230560873,55.59273572823042,1476.8307694173943,-5.220794707019472,182854.3145795364,10.5,10500182854.314579,47.655,-122.3035,60.0,2.1666666666666665
2026-01-20T23:02:11+00:00,SAT-53487,255.72845374915582,55.62446928838797,1471.6238968295936,-5.202705820865491,182220.76527051142,10.5,10500182220.76527,47.655,-122.3035,60.0,2.183333333333333
2026-01-20T23:02:12+00:00,SAT-53487,255.33881071454323,55.65493241941691,1466.4350648909171,-5.184417844304824,181580.2429732927,10.5,10500181580.242973,47.655,-122.3035,60.0,2.2
2026-01-20T23:02:13+00:00,SAT-53487,254.94599345357648,55.68409613018022,1461.264472160864,-5.165928739823432,180932.67632551995,10.5,10500180932.676325,47.655,-122.3035,60.0,2.216666666666667
2026-01-20T23:02:14+00:00,SAT-53487,254.5500034645816,55.71193106133544,1456.1123192310133,-5.147236360961731,180277.990149099,10.5,10500180277.990149,47.655,-122.3035,60.0,2.2333333333333334
2026-01-20T23:02:15+00:00,SAT-53487,254.15084353829045,55.738407490359386,1450.978808833681,-5.128338593885811,179616.1104086248,10.5,10500179616.110409,47.655,-122.3035,60.0,2.25
2026-01-20T23:02:16+00:00,SAT-53487,253.7485177937638,55.763495338121956,1445.8641458093787,-5.109233304736382,178946.96236731883,10.5,10500178946.962368,47.655,-122.3035,60.0,2.2666666666666666
2026-01-20T23:02:17+00:00,SAT-53487,253.34303171775912,55.78716417568937,1440.7685371267883,-5.089918344963041,178270.47077385758,10.5,10500178270.470774,47.655,-122.3035,60.0,2.283333333333333
2026-01-20T23:02:18+00:00,SAT-53487,252.93439220355327,55.80938323180055,1435.692191897412,-5.0703915726865345,177586.5606105695,10.5,10500177586.56061,47.655,-122.3035,60.0,2.3
2026-01-20T23:02:19+00:00,SAT-53487,252.52260758763276,55.83012140105513,1430.635321368919,-5.050650811151027,176895.15563825754,10.5,10500176895.155638,47.655,-122.3035,60.0,2.316666666666667
2026-01-20T23:02:20+00:00,SAT-53487,252.10768768929364,55.849347252572514,1425.598138959931,-5.030693891474787,176196.17989350908,10.5,10500176196.179893,47.655,-122.3035,60.0,2.3333333333333335
2026-01-20T23:02:21+00:00,SAT-53487,251.68964384624053,55.86702903949594,1420.5808602521668,-5.010518632131318,175489.5569700384,10.5,10500175489.55697,47.655,-122.3035,60.0,2.35
2026-01-20T23:02:22+00:00,SAT-53487,251.268488951218,55.883134709083315,1415.5837030030546,-4.990122839570409,174775.21004043837,10.5,10500174775.210041,47.655,-122.3035,60.0,2.3666666666666667
2026-01-20T23:02:23+00:00,SAT-53487,250.84423748776845,55.897631913481945,1410.6068871577231,-4.969504330133582,174053.06262375225,10.5,10500174053.062624,47.655,-122.3035,60.0,2.3833333333333333
2026-01-20T23:02:24+00:00,SAT-53487,250.4169055634622,55.910488021307096,1405.6506348391363,-4.948660887953681,173323.0371109391,10.5,10500173323.037111,47.655,-122.3035,60.0,2.4
2026-01-20T23:02:25+00:00,SAT-53487,249.98651094535145,55.92167012972165,1400.7151703802172,-4.927590304480385,172585.05614922458,10.5,10500172585.056149,47.655,-122.3035,60.0,2.4166666666666665
2026-01-20T23:02:26+00:00,SAT-53487,249.55307309137598,55.931145077445485,1395.800720316549,-4.9062903824750785,171839.04278201796,10.5,10500171839.042782,47.655,-122.3035,60.0,2.433333333333333
2026-01-20T23:02:27+00:00,SAT-53487,249.11661317998423,55.93887945844014,1390.9075133750937,-4.884758878950216,171084.91845040765,10.5,10500171084.918451,47.655,-122.3035,60.0,2.45
2026-01-20T23:02:28+00:00,SAT-53487,248.67715414332872,55.94483963619543,1386.0357805198207,-4.86299358472986,170322.60577970755,10.5,10500170322.60578,47.655,-122.3035,60.0,2.466666666666667
2026-01-20T23:02:29+00:00,SAT-53487,248.23472069225363,55.94899175896198,1381.1857549179833,-4.840992284209606,169552.0271700793,10.5,10500169552.02717,47.655,-122.3035,60.0,2.4833333333333334
2026-01-20T23:02:30+00:00,SAT-53487,247.78933934322208,55.95130177564208,1376.3576719465318,-4.818752742744076,168773.10435478936,10.5,10500168773.104355,47.655,-122.3035,60.0,2.5
2026-01-20T23:02:31+00:00,SAT-53487,247.34103844436115,55.9517354523391,1371.5517692111016,-4.796272721521265,167985.75892117101,10.5,10500167985.75892,47.655,-122.3035,60.0,2.5166666666666666
2026-01-20T23:02:32+00:00,SAT-53487,246.88984819879494,55.95025838978915,1366.7682865501713,-4.773550022358283,167189.9138795612,10.5,10500167189.91388,47.655,-122.3035,60.0,2.533333333333333
2026-01-20T23:02:33+00:00,SAT-53487,246.435800681835,55.94683604152177,1362.0074659945392,-4.750582387200138,166385.4901433226,10.5,10500166385.490143,47.655,-122.3035,60.0,2.55
2026-01-20T23:02:34+00:00,SAT-53487,245.97892986510107,55.94143373268883,1357.2695518270382,-4.727367616685127,165572.410681505,10.5,10500165572.41068,47.655,-122.3035,60.0,2.566666666666667
2026-01-20T23:02:35+00:00,SAT-53487,245.5192716278329,55.93401667971588,1352.5547905239976,-4.703903486714708,164750.59759676954,10.5,10500164750.597597,47.655,-122.3035,60.0,2.5833333333333335
2026-01-20T23:02:36+00:00,SAT-53487,245.056863773523,55.92455001067072,1347.863430779914,-4.6801877766315005,163919.9731123014,10.5,10500163919.973112,47.655,-122.3035,60.0,2.6
2026-01-20T23:02:37+00:00,SAT-53487,244.59174604131198,55.91299878630455,1343.1957235040204,-4.656218268266868,163080.45953845215,10.5,10500163080.459538,47.655,-122.3035,60.0,2.6166666666666667
2026-01-20T23:02:38+00:00,SAT-53487,244.12396011539204,55.89932802193122,1338.5519218178022,-4.63199276902631,162231.9800812876,10.5,10500162231.980082,47.655,-122.3035,60.0,2.6333333333333333
2026-01-20T23:02:39+00:00,SAT-53487,243.65354962914586,55.88350270986375,1333.9322810294934,-4.607509079023126,161374.45769147007,10.5,10500161374.457691,47.655,-122.3035,60.0,2.65
2026-01-20T23:02:40+00:00,SAT-53487,243.1805601700309,55.86548784268288,1329.3370586413475,-4.5827650065758325,160507.8156070432,10.5,10500160507.815607,47.655,-122.3035,60.0,2.6666666666666665
2026-01-20T23:02:41+00:00,SAT-53487,242.70503927978635,55.845248437065436,1324.7665143414558,-4.557758387001098,159631.97801164005,10.5,10500159631.978012,47.655,-122.3035,60.0,2.683333333333333
2026-01-20T23:02:42+00:00,SAT-53487,242.2270364502899,55.82274955833792,1320.22090997682,-4.532487043047317,158746.86864869975,10.5,10500158746.868649,47.655,-122.3035,60.0,2.7
2026-01-20T23:02:43+00:00,SAT-53487,241.74660311985355,55.79795634565353,1315.7005095658876,-4.50694883019834,157852.41240819532,10.5,10500157852.412409,47.655,-122.3035,60.0,2.716666666666667
2026-01-20T23:02:44+00:00,SAT-53487,241.2637926621981,55.7708340377216,1311.205579265903,-4.4811415958435985,156948.53389659917,10.5,10500156948.533897,47.655,-122.3035,60.0,2.7333333333333334
2026-01-20T23:02:45+00:00,SAT-53487,240.77866037639262,55.74134799929666,1306.7363873809818,-4.455063244999559,156035.15973872624,10.5,10500156035.159739,47.655,-122.3035,60.0,2.75
2026-01-20T23:02:46+00:00,SAT-53487,240.2912634666713,55.709463747871155,1302.2932043046355,-4.428711650749216,155112.21544094605,10.5,10500155112.21544,47.655,-122.3035,60.0,2.7666666666666666
2026-01-20T23:02:47+00:00,SAT-53487,239.80166102826556,55.67514698137256,1297.8763025516216,-4.4020847319443055,154179.62811264323,10.5,10500154179.628113,47.655,-122.3035,60.0,2.783333333333333
2026-01-20T23:02:48+00:00,SAT-53487,239.30991402188238,55.638363605975584,1293.4859567122958,-4.375180428465939,153237.3255997399,10.5,10500153237.3256,47.655,-122.3035,60.0,2.8
2026-01-20T23:02:49+00:00,SAT-53487,238.8160852474254,55.59907976451909,1289.122443431639,-4.347996709224734,152285.23676489457,10.5,10500152285.236765,47.655,-122.3035,60.0,2.816666666666667
2026-01-20T23:02:50+00:00,SAT-53487,238.32023931325173,55.5572618652272,1284.7860413803057,-4.320531530584641,151323.29003132804,10.5,10500151323.290031,47.655,-122.3035,60.0,2.8333333333333335
2026-01-20T23:02:51+00:00,SAT-53487,237.82244260675373,55.51287661123346,1280.4770312671358,-4.2927829301439635,150351.41666743203,10.5,10500150351.416668,47.655,-122.3035,60.0,2.85
2026-01-20T23:02:52+00:00,SAT-53487,237.32276325127248,55.465891029695,1276.195695758139,-4.264748914203051,149369.54684541142,10.5,10500149369.546844,47.655,-122.3035,60.0,2.8666666666666667
2026-01-20T23:02:53+00:00,SAT-53487,236.82127107190777,55.416272502149184,1271.9423195077072,-4.236427573470189,148377.61369379406,10.5,10500148377.613693,47.655,-122.3035,60.0,2.8833333333333333
2026-01-20T23:02:54+00:00,SAT-53487,236.31803754523,55.36398879414163,1267.717189074433,-4.207816993510987,147375.55016098957,10.5,10500147375.550161,47.655,-122.3035,60.0,2.9
2026-01-20T23:02:55+00:00,SAT-53487,235.81313575560608,55.30900808590295,1263.520592926238,-4.1789152932046045,146363.29036218897,10.5,10500146363.290361,47.655,-122.3035,60.0,2.9166666666666665
2026-01-20T23:02:56+00:00,SAT-53487,235.3066403439275,55.251299002861636,1259.3528214071487,-4.149720662921988,145340.7709165281,10.5,10500145340.770916,47.655,-122.3035,60.0,2.933333333333333
2026-01-20T23:02:57+00:00,SAT-53487,234.79862744888936,55.19083064588478,1255.2141666659943,-4.120231279678827,144307.9279753852,10.5,10500144307.927975,47.655,-122.3035,60.0,2.95
2026-01-20T23:02:58+00:00,SAT-53487,234.28917465462877,55.12757262251817,1251.104922669728,-4.090445399657224,143264.70046288104,10.5,10500143264.700462,47.655,-122.3035,60.0,2.966666666666667
2026-01-20T23:02:59+00:00,SAT-53487,233.7783609249305,55.06149507726786,1247.02538512447,-4.0603612986585915,142211.0279902879,10.5,10500142211.02799,47.655,-122.3035,60.0,2.9833333333333334
2026-01-20T23:03:00+00:00,SAT-53487,233.26626654113522,54.992568722517305,1242.9758514559412,-4.029977317650069,141146.8524512572,10.5,10500141146.852451,47.655,-122.3035,60.0,3.0
2026-01-20T23:03:01+00:00,SAT-53487,232.7529730321359,54.92076486886979,1238.9566207444714,-3.999291811378148,140072.1162220517,10.5,10500140072.116222,47.655,-122.3035,60.0,3.0166666666666666
2026-01-20T23:03:02+00:00,SAT-53487,232.23856310748874,54.84605545602134,1234.967993711257,-3.9683032007943564,138986.76399771453,10.5,10500138986.763998,47.655,-122.3035,60.0,3.033333333333333
2026-01-20T23:03:03+00:00,SAT-53487,231.72312058207686,54.768413082848866,1231.0102726523312,-3.93700997374642,137890.74281627664,10.5,10500137890.742817,47.655,-122.3035,60.0,3.05
2026-01-20T23:03:04+00:00,SAT-53487,231.2067302979536,54.68781103712273,1227.0837613718481,-3.905410640052666,136784.00048527235,10.5,10500136784.000484,47.655,-122.3035,60.0,3.066666666666667
2026-01-20T23:03:05+00:00,SAT-53487,230.68947804960249,54.604223325770775,1223.188765160169,-3.8735037880267225,135666.48756147356,10.5,10500135666.487562,47.655,-122.3035,60.0,3.0833333333333335
2026-01-20T23:03:06+00:00,SAT-53487,230.17145050013522,54.51762470385178,1219.3255907155772,-3.8412880337815856,134538.15557530354,10.5,10500134538.155575,47.655,-122.3035,60.0,3.1
2026-01-20T23:03:07+00:00,SAT-53487,229.65273510210093,54.42799070416855,1215.4945461165523,-3.8087620894761653,133398.9594211197,10.5,10500133398.959421,47.655,-122.3035,60.0,3.1166666666666667
2026-01-20T23:03:08+00:00,SAT-53487,229.13342000787023,54.33529766508733,1211.6959407259812,-3.7759247193967114,132248.85581899952,10.5,10500132248.85582,47.655,-122.3035,60.0,3.1333333333333333
2026-01-20T23:03:09+00:00,SAT-53487,228.61359398419182,54.2395227587719,1207.9300851391695,-3.742774726239961,131087.80283431808,10.5,10500131087.802834,47.655,-122.3035,60.0,3.15
2026-01-20T23:03:10+00:00,SAT-53487,228.09334632725682,54.1406440192478,1204.1972911455332,-3.7093110130750366,129915.7620479161,10.5,10500129915.762049,47.655,-122.3035,60.0,3.1666666666666665
2026-01-20T23:03:11+00:00,SAT-53487,227.5727667689231,54.03864036863297,1200.497871628493,-3.675532539076748,128732.6970056927,10.5,10500128732.697006,47.655,-122.3035,60.0,3.183333333333333
2026-01-20T23:03:12+00:00,SAT-53487,227.0519453876424,53.93349164364862,1196.8321405095203,-3.641438326711307,127538.57347027962,10.5,10500127538.573471,47.655,-122.3035,60.0,3.2
2026-01-20T23:03:13+00:00,SAT-53487,226.53097251815805,53.82517862145967,1193.2004126850136,-3.60702749220156,126333.36048806265,10.5,10500126333.360489,47.655,-122.3035,60.0,3.216666666666667
2026-01-20T23:03:14+00:00,SAT-53487,226.00993865669693,53.7136830440281,1189.6030039327914,-3.5722992138262786,125117.0292788884,10.5,10500125117.02928,47.655,-122.3035,60.0,3.2333333333333334
2026-01-20T23:03:15+00:00,SAT-53487,225.48893437043057,53.598987642594295,1186.0402308502019,-3.5372527710223243,123889.55460558787,10.5,10500123889.554605,47.655,-122.3035,60.0,3.25
2026-01-20T23:03:16+00:00,SAT-53487,224.9680502016361,53.48107616027353,1182.5124107532354,-3.501887483557613,122650.91264355602,10.5,10500122650.912643,47.655,-122.3035,60.0,3.2666666666666666
2026-01-20T23:03:17+00:00,SAT-53487,224.44737658086117,53.3599333757213,1179.019861636301,-3.4662028055909007,121401.08427512363,10.5,10500121401.084274,47.655,-122.3035,60.0,3.283333333333333
2026-01-20T23:03:18+00:00,SAT-53487,223.92700372763514,53.235545123193326,1175.5629020381914,-3.43019824890544,120140.05240087502,10.5,10500120140.0524,47.655,-122.3035,60.0,3.3
2026-01-20T23:03:19+00:00,SAT-53487,223.40702156276276,53.107898314018584,1172.1418509846164,-3.393873439652483,118867.80392704565,10.5,10500118867.803926,47.655,-122.3035,60.0,3.316666666666667
2026-01-20T23:03:20+00:00,SAT-53487,222.8875196137111,52.97698095541369,1168.7570278741364,-3.3572280534887127,117584.32749376065,10.5,10500117584.327494,47.655,-122.3035,60.0,3.3333333333333335
2026-01-20T23:03:21+00:00,SAT-53487,222.36858693079,52.842782170630755,1165.4087524287904,-3.3202619235965836,116289.61725836388,10.5,10500116289.617258,47.655,-122.3035,60.0,3.35
2026-01-20T23:03:22+00:00,SAT-53487,221.8503119892539,52.705292214412175,1162.09734453699,-3.2829749237149906,114983.66879865737,10.5,10500114983.668798,47.655,-122.3035,60.0,3.3666666666666667
2026-01-20T23:03:23+00:00,SAT-53487,221.332782610248,52.564502491628375,1158.8231242130717,-3.2453670835412476,113666.4831547667,10.5,10500113666.483154,47.655,-122.3035,60.0,3.3833333333333333
2026-01-20T23:03:24+00:00,SAT-53487,220.81608586688617,52.42040557074276,1155.586411441753,-3.2074384685925073,112338.06262137965,10.5,10500112338.062622,47.655,-122.3035,60.0,3.4
2026-01-20T23:03:25+00:00,SAT-53487,220.3003080103413,52.272995200866916,1152.38752614241,-3.169189327385949,110998.41590261908,10.5,10500110998.415903,47.655,-122.3035,60.0,3.4166666666666665
2026-01-20T23:03:26+00:00,SAT-53487,219.78553437650316,52.12226632207343,1149.2267879865637,-3.1306199723123207,109647.55393973044,10.5,10500109647.55394,47.655,-122.3035,60.0,3.433333333333333
2026-01-20T23:03:27+00:00,SAT-53487,219.27184931300465,51.96821507936544,1146.1045163341778,-3.0917308113633375,108285.49102230932,10.5,10500108285.491022,47.655,-122.3035,60.0,3.45
2026-01-20T23:03:28+00:00,SAT-53487,218.75933610437608,51.810838834495904,1143.0210301383113,-3.0525224220486895,106912.24737718799,10.5,10500106912.247377,47.655,-122.3035,60.0,3.466666666666667
2026-01-20T23:03:29+00:00,SAT-53487,218.2480768889849,51.650136173540886,1139.9766477760547,-3.012995459544718,105527.84595141328,10.5,10500105527.845951,47.655,-122.3035,60.0,3.4833333333333334
2026-01-20T23:03:30+00:00,SAT-53487,217.73815259288355,51.48610691730425,1136.971686971069,-2.973150709606958,104132.31426546781,10.5,10500104132.314266,47.655,-122.3035,60.0,3.5
2026-01-20T23:03:31+00:00,SAT-53487,217.22964285906374,51.318752128495646,1134.006464663354,-2.9329890556748492,102725.68326113767,10.5,10500102725.683262,47.655,-122.3035,60.0,3.5166666666666666
2026-01-20T23:03:32+00:00,SAT-53487,216.7226259850617,51.14807411935976,1131.0812969118278,-2.8925115455635115,101307.98963734061,10.5,10500101307.989637,47.655,-122.3035,60.0,3.533333333333333
2026-01-20T23:03:33+00:00,SAT-53487,216.21717885380326,50.974076455126706,1128.1964987303857,-2.851719340711392,99879.27407256395,10.5,10500099879.274073,47.655,-122.3035,60.0,3.55
2026-01-20T23:03:34+00:00,SAT-53487,215.71337687551411,50.79676395854526,1125.3523839745828,-2.810613717202172,98439.581260656,10.5,10500098439.58126,47.655,-122.3035,60.0,3.566666666666667
2026-01-20T23:03:35+00:00,SAT-53487,215.21129393384027,50.61614271380209,1122.5492652272933,-2.7691960710419896,96988.96009565688,10.5,10500096988.960096,47.655,-122.3035,60.0,3.5833333333333335
2026-01-20T23:03:36+00:00,SAT-53487,214.71100233442024,50.432220068915846,1119.7874536791073,-2.727467972033279,95527.46555868805,10.5,10500095527.465559,47.655,-122.3035,60.0,3.6
2026-01-20T23:03:37+00:00,SAT-53487,214.2125727488322,50.24500463428311,1117.0672589549995,-2.685431095446402,94055.15632480393,10.5,10500094055.156324,47.655,-122.3035,60.0,3.6166666666666667
2026-01-20T23:03:38+00:00,SAT-53487,213.71607417305083,50.054506283692895,1114.388989009141,-2.643087252788157,92572.09584063535,10.5,10500092572.09584,47.655,-122.3035,60.0,3.6333333333333333
2026-01-20T23:03:39+00:00,SAT-53487,213.22157388542774,49.86073615306921,1111.7529499890268,-2.600438404686809,91078.35277567756,10.5,10500091078.352776,47.655,-122.3035,60.0,3.65
2026-01-20T23:03:40+00:00,SAT-53487,212.72913740572542,49.66370663699498,1109.1594460867527,-2.557486656897353,89574.00088237779,10.5,10500089574.000883,47.655,-122.3035,60.0,3.6666666666666665
2026-01-20T23:03:41+00:00,SAT-53487,212.23882845907403,49.463431384666386,1106.6087793942736,-2.5142342288550297,88059.1178947464,10.5,10500088059.117895,47.655,-122.3035,60.0,3.683333333333333
2026-01-20T23:03:42+00:00,SAT-53487,211.75070894907083,49.25992529688272,1104.101249790029,-2.4706835093115465,86533.78747697262,10.5,10500086533.787477,47.655,-122.3035,60.0,3.7
2026-01-20T23:03:43+00:00,SAT-53487,211.26483892523117,49.05320451846654,1101.6371547700755,-2.426837034977268,84998.09847538365,10.5,10500084998.098475,47.655,-122.3035,60.0,3.716666666666667
2026-01-20T23:03:44+00:00,SAT-53487,210.78127655764004,48.84328643087751,1099.2167893005249,-2.3826974623602495,83452.14393212862,10.5,10500083452.143932,47.655,-122.3035,60.0,3.7333333333333334
2026-01-20T23:03:45+00:00,SAT-53487,210.30007812068965,48.630189646170884,1096.8404456980643,-2.338267623495583,81896.02303705593,10.5,10500081896.023037,47.655,-122.3035,60.0,3.75
2026-01-20T23:03:46+00:00,SAT-53487,209.82129797032093,48.413933995807255,1094.508413454898,-2.293550470383765,80329.83918170993,10.5,10500080329.839182,47.655,-122.3035,60.0,3.7666666666666666
2026-01-20T23:03:47+00:00,SAT-53487,209.3449885350093,48.194540522762374,1092.220979119102,-2.248549131593544,78753.70194180206,10.5,10500078753.701942,47.655,-122.3035,60.0,3.783333333333333
2026-01-20T23:03:48+00:00,SAT-53487,208.87120029982216,47.972031468280285,1089.978426118526,-2.2032668702471407,77167.72560567543,10.5,10500077167.725605,47.655,-122.3035,60.0,3.8
2026-01-20T23:03:49+00:00,SAT-53487,208.39998180166737,47.746430261021345,1087.7810346265994,-2.157707098058545,75572.02966598554,10.5,10500075572.029667,47.655,-122.3035,60.0,3.816666666666667
2026-01-20T23:03:50+00:00,SAT-53487,207.93137962531836,47.51776150428991,1085.629081414136,-2.111873382020167,73966.73905389494,10.5,10500073966.739054,47.655,-122.3035,60.0,3.8333333333333335
2026-01-20T23:03:51+00:00,SAT-53487,207.46543840141166,47.286050961814766,1083.5228396944676,-2.0657694429110833,72351.98408682575,10.5,10500072351.984087,47.655,-122.3035,60.0,3.85
2026-01-20T23:03:52+00:00,SAT-53487,207.00220080745987,47.05132554250707,1081.462578970071,-2.019399147317732,70727.90018899071,10.5,10500070727.900188,47.655,-122.3035,60.0,3.8666666666666667
2026-01-20T23:03:53+00:00,SAT-53487,206.54170757371028,46.81361328533384,1079.4485648871462,-1.972766516194368,69094.62819121641,10.5,10500069094.628191,47.655,-122.3035,60.0,3.8833333333333333
2026-01-20T23:03:54+00:00,SAT-53487,206.08399748985957,46.572943342348516,1077.4810590816614,-1.925875714467806,67452.31396685757,10.5,10500067452.313967,47.655,-122.3035,60.0,3.9
2026-01-20T23:03:55+00:00,SAT-53487,205.62910741676396,46.329345962055896,1075.5603190357658,-1.8787310712248042,65801.10913884446,10.5,10500065801.109138,47.655,-122.3035,60.0,3.9166666666666665
2026-01-20T23:03:56+00:00,SAT-53487,205.17707229617196,46.082852469594144,1073.6865979140641,-1.8313370446344759,64141.169851117455,10.5,10500064141.169851,47.655,-122.3035,60.0,3.933333333333333
2026-01-20T23:03:57+00:00,SAT-53487,204.72792517044556,45.83349525002964,1071.8601444348822,-1.7836982660372473,62472.658312808846,10.5,10500062472.658314,47.655,-122.3035,60.0,3.95
2026-01-20T23:03:58+00:00,SAT-53487,204.28169719487136,45.581307725770145,1070.081202697554,-1.735819494078404,60795.74119180557,10.5,10500060795.741192,47.655,-122.3035,60.0,3.966666666666667
2026-01-20T23:03:59+00:00,SAT-53487,203.83841766189013,45.32632433831185,1068.3500120554602,-1.6877056494972584,59110.59083321307,10.5,10500059110.590834,47.655,-122.3035,60.0,3.9833333333333334
2026-01-20T23:04:00+00:00,SAT-53487,203.39811401961006,45.06858052511006,1066.6668069543614,-1.6393617873882615,57417.38428782203,10.5,10500057417.384287,47.655,-122.3035,60.0,4.0
2026-01-20T23:04:01+00:00,SAT-53487,202.96081189817622,44.808112698939134,1065.0318167984062,-1.5907931129797,55716.303864745154,10.5,10500055716.303865,47.655,-122.3035,60.0,4.016666666666667
2026-01-20T23:04:02+00:00,SAT-53487,202.52653513393892,44.544958224301325,1063.4452658003945,-1.5420049713294155,54007.536770517625,10.5,10500054007.53677,47.655,-122.3035,60.0,4.033333333333333
2026-01-20T23:04:03+00:00,SAT-53487,202.0953057975181,44.27915539444333,1061.9073728423218,-1.49300285314824,52291.27531305848,10.5,10500052291.275312,47.655,-122.3035,60.0,4.05
2026-01-20T23:04:04+00:00,SAT-53487,201.6671442212919,44.01074340639587,1060.4183513301155,-1.4437923795888514,50567.71636891192,10.5,10500050567.71637,47.655,-122.3035,60.0,4.066666666666666
2026-01-20T23:04:05+00:00,SAT-53487,201.2420690319214,43.739762337580935,1058.9784090635387,-1.3943793114661498,48837.06170618399,10.5,10500048837.061707,47.655,-122.3035,60.0,4.083333333333333
2026-01-20T23:04:06+00:00,SAT-53487,200.82009718097336,43.466253119831585,1057.5877480969034,-1.3447695479050132,47099.51793718119,10.5,10500047099.517937,47.655,-122.3035,60.0,4.1
2026-01-20T23:04:07+00:00,SAT-53487,200.40124397681458,43.19025751288248,1056.2465646011258,-1.2949691089750615,45355.29591020648,10.5,10500045355.29591,47.655,-122.3035,60.0,4.116666666666666
2026-01-20T23:04:08+00:00,SAT-53487,199.98552312106585,42.91181807943153,1054.9550487431084,-1.24498415505002,43604.611387606055,10.5,10500043604.611387,47.655,-122.3035,60.0,4.133333333333334
2026-01-20T23:04:09+00:00,SAT-53487,199.57294674048487,42.63097815620947,1053.713384545805,-1.1948209547218978,41847.68392198822,10.5,10500041847.683922,47.655,-122.3035,60.0,4.15
2026-01-20T23:04:10+00:00,SAT-53487,199.16352542728785,42.34778182937562,1052.5217497802957,-1.1444859230431288,40084.738195624835,10.5,10500040084.738195,47.655,-122.3035,60.0,4.166666666666667
2026-01-20T23:04:11+00:00,SAT-53487,198.75726826896621,42.06227390209057,1051.380315819714,-1.0939855610635392,38316.00190278023,10.5,10500038316.001904,47.655,-122.3035,60.0,4.183333333333334
2026-01-20T23:04:12+00:00,SAT-53487,198.35418289468944,41.77449987218886,1050.2892475534798,-1.0433265184032525,36541.707941279004,10.5,10500036541.707941,47.655,-122.3035,60.0,4.2
2026-01-20T23:04:13+00:00,SAT-53487,197.954275503367,41.48450589676483,1049.2487032391257,-0.9925155311064363,34762.09223588134,10.5,10500034762.092236,47.655,-122.3035,60.0,4.216666666666667
2026-01-20T23:04:14+00:00,SAT-53487,197.5575509089679,41.192338767690764,1048.2588344161022,-0.9415594479537425,32977.39465985598,10.5,10500032977.394659,47.655,-122.3035,60.0,4.233333333333333
2026-01-20T23:04:15+00:00,SAT-53487,197.164012577769,40.89804588114621,1047.319785793343,-0.8904652323405617,31187.859100764632,10.5,10500031187.8591,47.655,-122.3035,60.0,4.25
2026-01-20T23:04:16+00:00,SAT-53487,196.77366266299646,40.601675204548286,1046.4316951349554,-0.8392399268929842,29393.732221163264,10.5,10500029393.732222,47.655,-122.3035,60.0,4.266666666666667
2026-01-20T23:04:17+00:00,SAT-53487,196.38650205074623,40.30327525126802,1045.5946931812007,-0.7878906845263803,27595.264546404946,10.5,10500027595.264547,47.655,-122.3035,60.0,4.283333333333333
2026-01-20T23:04:18+00:00,SAT-53487,196.0025303929822,40.002895045473714,1044.8089035384999,-0.7364247383063167,25792.709409041654,10.5,10500025792.70941,47.655,-122.3035,60.0,4.3
