satellites_20260120_184412/SAT-66332.csv

timestamp,satellite,azimuth_deg,elevation_deg,distance_km,relative_velocity_kms,doppler_shift_hz,tx_freq_ghz,rx_freq_hz,ue_lat,ue_lon,ue_alt_m,time_minutes
2026-01-20T23:00:00+00:00,SAT-66332,168.7683413427366,41.07599922280177,461112.4059440547,-72.52217677691102,2540033.39923103,10.5,10502540033.399231,47.655,-122.3035,60.0,0.0
2026-01-20T23:00:01+00:00,SAT-66332,166.27640904997398,40.621304973805415,461040.0771597492,-69.0422638524894,2418152.128600709,10.5,10502418152.128601,47.655,-122.3035,60.0,0.016666666666666666
2026-01-20T23:00:02+00:00,SAT-66332,163.82003674236495,40.11335764767217,460971.21900860034,-65.48381203243335,2293520.0936260717,10.5,10502293520.093626,47.655,-122.3035,60.0,0.03333333333333333
2026-01-20T23:02:50+00:00,SAT-66332,210.53868335171111,40.30092221387702,462942.19200939045,-115.74402510360419,4053845.3558689724,10.5,10504053845.35587,47.655,-122.3035,60.0,2.8333333333333335
2026-01-20T23:02:51+00:00,SAT-66332,208.0741306927438,40.78859260913706,462826.7566350204,-114.10873712357565,3996570.6535470756,10.5,10503996570.653547,47.655,-122.3035,60.0,2.85
2026-01-20T23:02:52+00:00,SAT-66332,205.57467700921757,41.222726038939875,462712.9521878626,-112.34424020462129,3934770.5076307273,10.5,10503934770.507631,47.655,-122.3035,60.0,2.8666666666666667
2026-01-20T23:02:53+00:00,SAT-66332,203.04351237363198,41.60175746938786,462600.9075322985,-110.452530502716,3868514.831945899,10.5,10503868514.831945,47.655,-122.3035,60.0,2.8833333333333333
2026-01-20T23:02:54+00:00,SAT-66332,200.48425624739605,41.92427271316214,462490.74954187707,-108.435744515154,3797878.455665209,10.5,10503797878.455666,47.655,-122.3035,60.0,2.9
2026-01-20T23:02:55+00:00,SAT-66332,197.90092681161798,42.189030741744055,462382.6029593473,-106.29615711083528,3722941.054320221,10.5,10503722941.05432,47.655,-122.3035,60.0,2.9166666666666665
2026-01-20T23:02:56+00:00,SAT-66332,195.2978978191266,42.394984306472374,462276.59025865543,-104.03617899407831,3643787.060973436,10.5,10503643787.060974,47.655,-122.3035,60.0,2.933333333333333
2026-01-20T23:02:57+00:00,SAT-66332,192.67984357641717,42.54129809877638,462172.831509472,-101.65835366401835,3560505.5597235626,10.5,10503560505.559723,47.655,-122.3035,60.0,2.95
2026-01-20T23:02:58+00:00,SAT-66332,190.05167336583645,42.627363729115395,462071.4442447511,-99.16535477557265,3473190.1932753515,10.5,10503473190.193275,47.655,-122.3035,60.0,2.966666666666667
2026-01-20T23:02:59+00:00,SAT-66332,187.41845726635455,42.652810902429984,461972.5433309216,-96.55998319739282,3381939.0598966456,10.5,10503381939.059896,47.655,-122.3035,60.0,2.9833333333333334
2026-01-20T23:03:00+00:00,SAT-66332,184.78534592347026,42.61751430776615,461876.24084101274,-93.84516402278446,3286854.6087281383,10.5,10503286854.608728,47.655,-122.3035,60.0,3.0
2026-01-20T23:03:01+00:00,SAT-66332,182.15748723284506,42.52159591866614,461782.64593076066,-91.02394361003036,3188043.536122976,10.5,10503188043.536123,47.655,-122.3035,60.0,3.0166666666666666
2026-01-20T23:03:02+00:00,SAT-66332,179.53994311826304,42.36542260261088,461691.86471766693,-88.09948504389862,3085616.626689573,10.5,10503085616.62669,47.655,-122.3035,60.0,3.033333333333333
2026-01-20T23:03:03+00:00,SAT-66332,176.93760962405813,42.14959915159445,461604.00016458315,-85.07506665544634,2979688.701448876,10.5,10502979688.701448,47.655,-122.3035,60.0,3.05
2026-01-20T23:03:04+00:00,SAT-66332,174.35514317745188,41.87495703964308,461519.1519647721,-81.9540766708966,2870378.4304153984,10.5,10502870378.430416,47.655,-122.3035,60.0,3.066666666666667
2026-01-20T23:03:05+00:00,SAT-66332,171.7968956418723,41.542539401137375,461437.4164323057,-78.74001055731618,2757808.239631632,10.5,10502757808.239632,47.655,-122.3035,60.0,3.0833333333333335
2026-01-20T23:03:06+00:00,SAT-66332,169.26686001147223,41.15358285273229,461358.8863951098,-75.43646659763976,2642104.156186669,10.5,10502642104.156187,47.655,-122.3035,60.0,3.1
2026-01-20T23:03:07+00:00,SAT-66332,166.7686280523624,40.70949688535104,461283.6510924231,-72.04714271892304,2523395.697128218,10.5,10502523395.697128,47.655,-122.3035,60.0,3.1166666666666667
2026-01-20T23:03:08+00:00,SAT-66332,164.30536040410888,40.21184158785484,461211.7960754181,-68.57583174926188,2401815.703339841,10.5,10502401815.70334,47.655,-122.3035,60.0,3.1333333333333333
2026-01-20T23:05:56+00:00,SAT-66332,210.94761179948216,40.211029373633195,463222.2269004053,-116.88078355041787,4093659.44515985,10.5,10504093659.44516,47.655,-122.3035,60.0,5.933333333333334
2026-01-20T23:05:57+00:00,SAT-66332,208.4896340060722,40.70725102699975,463105.65779894433,-115.37544734726777,4040936.2037597075,10.5,10504040936.20376,47.655,-122.3035,60.0,5.95
2026-01-20T23:05:58+00:00,SAT-66332,205.9962815009067,41.150228138615525,462990.5900194567,-113.73954011285188,3983639.8125297227,10.5,10503983639.81253,47.655,-122.3035,60.0,5.966666666666667
2026-01-20T23:05:59+00:00,SAT-66332,203.4706680882257,41.5383735610258,462877.15378478414,-111.97490467273684,3921834.815016383,10.5,10503921834.815016,47.655,-122.3035,60.0,5.983333333333333
2026-01-20T23:06:00+00:00,SAT-66332,200.9163404514654,41.87024696860473,462765.4774798572,-110.0835260540393,3855590.73526597,10.5,10503855590.735266,47.655,-122.3035,60.0,6.0
2026-01-20T23:06:01+00:00,SAT-66332,198.3372496026443,42.14457735450213,462655.6875098726,-108.06752908766937,3784981.9938449836,10.5,10503784981.993845,47.655,-122.3035,60.0,6.016666666666667
2026-01-20T23:06:02+00:00,SAT-66332,195.73770985109502,42.36028396664015,462547.9081608625,-105.92917559300481,3710087.809235516,10.5,10503710087.809235,47.655,-122.3035,60.0,6.033333333333333
2026-01-20T23:06:03+00:00,SAT-66332,193.1223457828801,42.51649491335202,462442.2614630711,-103.67086286991717,3630992.1450196397,10.5,10503630992.14502,47.655,-122.3035,60.0,6.05
2026-01-20T23:06:04+00:00,SAT-66332,190.49602839743466,42.61256271104178,462338.8670558355,-101.2951203279008,3547783.591817238,10.5,10503547783.591818,47.655,-122.3035,60.0,6.066666666666666
2026-01-20T23:06:05+00:00,SAT-66332,187.86380230255304,42.648076127878404,462237.8420558284,-98.80460707010174,3460555.2826684793,10.5,10503460555.28267,47.655,-122.3035,60.0,6.083333333333333
2026-01-20T23:06:06+00:00,SAT-66332,185.23080639711532,42.62286781808731,462139.30092771054,-96.20210858788877,3369404.777263717,10.5,10503369404.777264,47.655,-122.3035,60.0,6.1
2026-01-20T23:06:07+00:00,SAT-66332,182.60219096505185,42.537017411420194,462043.3553580789,-93.49053466845177,3274433.988658726,10.5,10503274433.988659,47.655,-122.3035,60.0,6.116666666666666
2026-01-20T23:06:08+00:00,SAT-66332,179.9830343036254,42.39084992119342,461950.1141315029,-90.67291525130614,3175749.0381519687,10.5,10503175749.038153,47.655,-122.3035,60.0,6.133333333333334
2026-01-20T23:06:09+00:00,SAT-66332,177.37826212750974,42.18492954526397,461859.68301069224,-87.75239784227558,3073460.1647113278,10.5,10503073460.164711,47.655,-122.3035,60.0,6.15
2026-01-20T23:06:10+00:00,SAT-66332,174.79257269899784,41.92004913665849,461772.1646192442,-84.73224353926223,2967681.585779764,10.5,10502967681.58578,47.655,-122.3035,60.0,6.166666666666667
2026-01-20T23:06:11+00:00,SAT-66332,172.23037031444804,41.597215805049146,461687.6583283544,-81.61582428366407,2858531.401008336,10.5,10502858531.401009,47.655,-122.3035,60.0,6.183333333333334
2026-01-20T23:06:12+00:00,SAT-66332,169.69570914300587,41.21763325159436,461606.2601462688,-78.40661863608467,2746131.444303676,10.5,10502746131.444304,47.655,-122.3035,60.0,6.2
2026-01-20T23:06:13+00:00,SAT-66332,167.19224882896657,40.78268154902764,461528.0626119491,-75.10820830033788,2630607.1620839364,10.5,10502630607.162085,47.655,-122.3035,60.0,6.216666666666667
2026-01-20T23:06:14+00:00,SAT-66332,164.72322250648907,40.293895126636926,461453.15469220426,-71.72427405437165,2512087.4707625313,10.5,10502512087.470762,47.655,-122.3035,60.0,6.233333333333333
2026-01-20T23:09:02+00:00,SAT-66332,211.2861835151627,40.13483365290588,463501.3809423668,-118.03152566854882,4133963.30177113,10.5,10504133963.301771,47.655,-122.3035,60.0,9.033333333333333
2026-01-20T23:09:03+00:00,SAT-66332,208.83381366881565,40.63806764112935,463383.66416743334,-116.65470998605682,4085741.3926456966,10.5,10504085741.392645,47.655,-122.3035,60.0,9.05
2026-01-20T23:09:04+00:00,SAT-66332,206.34568814881086,41.088306284754246,463267.3205366739,-115.1459197374586,4032897.1759633636,10.5,10504032897.175962,47.655,-122.3035,60.0,9.066666666666666
2026-01-20T23:09:05+00:00,SAT-66332,203.82485668030273,41.48394472554339,463152.4816727224,-113.50684666260133,3975489.9036096297,10.5,10503975489.90361,47.655,-122.3035,60.0,9.083333333333334
2026-01-20T23:09:06+00:00,SAT-66332,201.27480441390372,41.82352153518817,463039.2775109842,-111.73932548422336,3913583.8353356617,10.5,10503913583.835335,47.655,-122.3035,60.0,9.1
2026-01-20T23:09:07+00:00,SAT-66332,198.6994251583768,42.105741341410905,462927.8361570346,-109.84533315816329,3847248.212497442,10.5,10503847248.212498,47.655,-122.3035,60.0,9.116666666666667
2026-01-20T23:09:08+00:00,SAT-66332,196.1029821049952,42.32949600803831,462818.2837447649,-107.82698517930976,3776557.128674506,10.5,10503776557.128674,47.655,-122.3035,60.0,9.133333333333333
2026-01-20T23:09:09+00:00,SAT-66332,193.49005649481805,42.49388359105364,462710.74429821275,-105.6865345374497,3701589.493099329,10.5,10503701589.4931,47.655,-122.3035,60.0,9.15
2026-01-20T23:09:10+00:00,SAT-66332,190.86548524720655,42.59822434051643,462605.3395944341,-103.42636816926003,3622428.906391069,10.5,10503622428.906391,47.655,-122.3035,60.0,9.166666666666666
2026-01-20T23:09:11+00:00,SAT-66332,188.23428937126783,42.642073087074095,462502.1890299132,-101.0490058219772,3539163.6207564655,10.5,10503539163.620756,47.655,-122.3035,60.0,9.183333333333334
2026-01-20T23:09:12+00:00,SAT-66332,185.60159547285514,42.625227488021466,462401.4094881068,-98.5570961594415,3451886.403607044,10.5,10503451886.403606,47.655,-122.3035,60.0,9.2
2026-01-20T23:09:13+00:00,SAT-66332,182.97255326937972,42.547731769251236,462303.11521087046,-95.95341440844612,3360694.455124299,10.5,10503360694.455124,47.655,-122.3035,60.0,9.216666666666667
2026-01-20T23:09:14+00:00,SAT-66332,180.3522522019418,42.40987580040286,462207.4176722338,-93.24085933654514,3265689.302409749,10.5,10503265689.30241,47.655,-122.3035,60.0,9.233333333333333
2026-01-20T23:09:15+00:00,SAT-66332,177.74564035268526,42.21218954649061,462114.4254551888,-90.4224504930627,3166976.702853407,10.5,10503166976.702854,47.655,-122.3035,60.0,9.25
2026-01-20T23:09:16+00:00,SAT-66332,175.15744868671763,41.95543314429707,462024.24413123034,-87.50132463109568,3064666.518817177,10.5,10503064666.518818,47.655,-122.3035,60.0,9.266666666666667
2026-01-20T23:09:17+00:00,SAT-66332,172.59212329599347,41.64058303930472,461936.97614346497,-84.48073213224855,2958872.5924139484,10.5,10502958872.592415,47.655,-122.3035,60.0,9.283333333333333
2026-01-20T23:09:18+00:00,SAT-66332,170.05376776093502,41.268814771167506,461852.72069328505,-81.36403454323937,2849712.659229117,10.5,10502849712.65923,47.655,-122.3035,60.0,9.3
2026-01-20T23:09:19+00:00,SAT-66332,167.54609706025883,40.84148309776694,461771.57362950064,-78.15470009836164,2737308.191498257,10.5,10502737308.191498,47.655,-122.3035,60.0,9.316666666666666
2026-01-20T23:09:20+00:00,SAT-66332,165.0724038554681,40.36010022041406,461693.6273419358,-74.85630033885523,2621784.2797031933,10.5,10502621784.279703,47.655,-122.3035,60.0,9.333333333333334
2026-01-20T23:12:08+00:00,SAT-66332,211.5544895801752,40.073013789320584,463777.06809367804,-119.16087133767918,4173517.764231519,10.5,10504173517.76423,47.655,-122.3035,60.0,12.133333333333333
2026-01-20T23:12:09+00:00,SAT-66332,209.10669704206086,40.58173940923305,463658.22498466395,-117.90807192919515,4129639.429610164,10.5,10504129639.42961,47.655,-122.3035,60.0,12.15
2026-01-20T23:12:10+00:00,SAT-66332,206.622855326964,41.03767270641311,463540.63133425993,-116.52189394657526,4081089.613131763,10.5,10504081089.613132,47.655,-122.3035,60.0,12.166666666666666
2026-01-20T23:12:11+00:00,SAT-66332,204.1059626852914,41.439195224673625,463424.4201653639,-115.00388382909827,4027922.4776412877,10.5,10504027922.477642,47.655,-122.3035,60.0,12.183333333333334
2026-01-20T23:12:12+00:00,SAT-66332,201.5594545641851,41.78482920227171,463309.7229585583,-113.35573254190548,3970197.2478907644,10.5,10503970197.24789,47.655,-122.3035,60.0,12.2
2026-01-20T23:12:13+00:00,SAT-66332,198.98717824216828,42.07326028674685,463196.66950796987,-111.57927408643724,3907978.15836845,10.5,10503907978.15837,47.655,-122.3035,60.0,12.216666666666667
2026-01-20T23:12:14+00:00,SAT-66332,196.39335499337759,42.303358889685285,463085.3877786143,-109.67648356981564,3841334.385680457,10.5,10503841334.385681,47.655,-122.3035,60.0,12.233333333333333
2026-01-20T23:12:15+00:00,SAT-66332,193.78253010009144,42.474199410464706,462976.0037656673,-107.64947530076883,3770339.981861961,10.5,10503770339.981861,47.655,-122.3035,60.0,12.25
2026-01-20T23:12:16+00:00,SAT-66332,191.1595117113777,42.58507658661374,462868.641355634,-105.50050038146598,3695073.7900330797,10.5,10503695073.790033,47.655,-122.3035,60.0,12.266666666666667
2026-01-20T23:12:17+00:00,SAT-66332,188.52930024639488,42.63551830315471,462763.42218992027,-103.23194405202456,3615619.3513922817,10.5,10503615619.351393,47.655,-122.3035,60.0,12.283333333333333
2026-01-20T23:12:18+00:00,SAT-66332,185.8970106544158,42.62529431768268,462660.4655310523,-100.84632401984126,3532064.846702492,10.5,10503532064.846703,47.655,-122.3035,60.0,12.3
2026-01-20T23:12:19+00:00,SAT-66332,183.26779030208442,42.55442052075046,462559.88813056325,-98.34628695907197,3444502.9736880697,10.5,10503444502.973688,47.655,-122.3035,60.0,12.316666666666666
2026-01-20T23:12:20+00:00,SAT-66332,180.64673563429517,42.42315854324332,462461.8041003694,-95.73460637399451,3353030.8722007354,10.5,10503353030.8722,47.655,-122.3035,60.0,12.333333333333334
2026-01-20T23:12:21+00:00,SAT-66332,178.0388107645822,42.23201073123086,462366.32478627906,-93.01417896565196,3257749.996964052,10.5,10503257749.996964,47.655,-122.3035,60.0,12.35
2026-01-20T23:12:22+00:00,SAT-66332,175.44877108549713,41.98171071583364,462273.558645124,-90.18802273499763,3158766.0511375344,10.5,10503158766.051138,47.655,-122.3035,60.0,12.366666666666667
2026-01-20T23:12:23+00:00,SAT-66332,172.88109455373873,41.67320998911997,462183.611123783,-87.25927276992397,3056188.8387605855,10.5,10503056188.83876,47.655,-122.3035,60.0,12.383333333333333
2026-01-20T23:12:24+00:00,SAT-66332,170.33992289112678,41.307661060692546,462096.5845424071,-84.23117855080321,2950132.1703811297,10.5,10502950132.170382,47.655,-122.3035,60.0,12.4
2026-01-20T23:12:25+00:00,SAT-66332,167.82901419888066,40.886397875975184,462012.5779803324,-81.10710014428737,2840713.729746388,10.5,10502840713.729746,47.655,-122.3035,60.0,12.416666666666666
2026-01-20T23:12:26+00:00,SAT-66332,165.35170786165395,40.410914249456326,461931.68716578855,-77.89050538043603,2728054.9749339535,10.5,10502728054.974934,47.655,-122.3035,60.0,12.433333333333334
