satellites_20260120_184412/SAT-53490.csv

timestamp,satellite,azimuth_deg,elevation_deg,distance_km,relative_velocity_kms,doppler_shift_hz,tx_freq_ghz,rx_freq_hz,ue_lat,ue_lon,ue_alt_m,time_minutes
2026-01-20T23:07:44+00:00,SAT-53490,290.0241925983878,40.02648340735654,3012.902372168607,-6.63177747305583,232272.89949731226,10.5,10500232272.899498,47.655,-122.3035,60.0,7.733333333333333
2026-01-20T23:07:45+00:00,SAT-53490,289.9593251356615,40.083241242546436,3006.2882794354796,-6.62984514200844,232205.22109028048,10.5,10500232205.22109,47.655,-122.3035,60.0,7.75
2026-01-20T23:07:46+00:00,SAT-53490,289.8940524727327,40.14006768567316,2999.676113880516,-6.627891860971769,232136.80892600567,10.5,10500232136.808926,47.655,-122.3035,60.0,7.766666666666667
2026-01-20T23:07:47+00:00,SAT-53490,289.82837134301286,40.19696271690836,2993.0658963978403,-6.6259174247907096,232067.65581908816,10.5,10500232067.655819,47.655,-122.3035,60.0,7.783333333333333
2026-01-20T23:07:48+00:00,SAT-53490,289.7622784481867,40.253926310295476,2986.4576480861824,-6.62392169793423,231997.75702265804,10.5,10500231997.757023,47.655,-122.3035,60.0,7.8
2026-01-20T23:07:49+00:00,SAT-53490,289.69577045727226,40.31095843422349,2979.8513901794427,-6.621904499401386,231927.1061972965,10.5,10500231927.106197,47.655,-122.3035,60.0,7.816666666666666
2026-01-20T23:07:50+00:00,SAT-53490,289.6288440066089,40.368059050914475,2973.24714409204,-6.619865662895044,231855.69751857454,10.5,10500231855.69752,47.655,-122.3035,60.0,7.833333333333333
2026-01-20T23:07:51+00:00,SAT-53490,289.561495699402,40.42522811642125,2966.6449314042457,-6.617805042432634,231783.52587356503,10.5,10500231783.525873,47.655,-122.3035,60.0,7.85
2026-01-20T23:07:52+00:00,SAT-53490,289.49372210512513,40.4824655806749,2960.044773841926,-6.615722429955082,231710.5839751591,10.5,10500231710.583975,47.655,-122.3035,60.0,7.866666666666666
2026-01-20T23:07:53+00:00,SAT-53490,289.4255197597289,40.53977138681675,2953.446693338451,-6.613617686949121,231636.86697203628,10.5,10500231636.866972,47.655,-122.3035,60.0,7.883333333333334
2026-01-20T23:07:54+00:00,SAT-53490,289.3568851646024,40.59714547166355,2946.8507119653336,-6.6114906238111715,231562.36822347713,10.5,10500231562.368223,47.655,-122.3035,60.0,7.9
2026-01-20T23:07:55+00:00,SAT-53490,289.2878147866751,40.654587765128845,2940.256851983186,-6.609341093022822,231487.08256276292,10.5,10500231487.082563,47.655,-122.3035,60.0,7.916666666666667
2026-01-20T23:07:56+00:00,SAT-53490,289.218305057613,40.712098190446845,2933.665135799745,-6.607168873985691,231411.00226360516,10.5,10500231411.002264,47.655,-122.3035,60.0,7.933333333333334
2026-01-20T23:07:57+00:00,SAT-53490,289.14835237411603,40.769676663395146,2927.075586042756,-6.604973810094398,231334.12184102103,10.5,10500231334.121841,47.655,-122.3035,60.0,7.95
2026-01-20T23:07:58+00:00,SAT-53490,289.07795309691767,40.827323092702635,2920.488225496156,-6.60275573736167,231256.43555148254,10.5,10500231256.43555,47.655,-122.3035,60.0,7.966666666666667
2026-01-20T23:07:59+00:00,SAT-53490,289.00710355044873,40.88503737983721,2913.9030771074267,-6.600514435265868,231177.9356713891,10.5,10500231177.93567,47.655,-122.3035,60.0,7.983333333333333
2026-01-20T23:08:00+00:00,SAT-53490,288.93580002295363,40.942819418359626,2907.320164043988,-6.598249757938262,231098.61709180076,10.5,10500231098.617092,47.655,-122.3035,60.0,8.0
2026-01-20T23:08:01+00:00,SAT-53490,288.86403876538907,41.00066909441861,2900.739509618738,-6.595961486572962,231018.47214920967,10.5,10500231018.472149,47.655,-122.3035,60.0,8.016666666666667
2026-01-20T23:08:02+00:00,SAT-53490,288.7918159916772,41.05858628595473,2894.1611373627957,-6.593649471483493,230937.4956009623,10.5,10500230937.495602,47.655,-122.3035,60.0,8.033333333333333
2026-01-20T23:08:03+00:00,SAT-53490,288.71912787763983,41.116570863142485,2887.58507095657,-6.591313500870281,230855.68002894174,10.5,10500230855.680029,47.655,-122.3035,60.0,8.05
2026-01-20T23:08:04+00:00,SAT-53490,288.64597056116475,41.17462268768001,2881.0113342917016,-6.588953355573717,230773.01775725136,10.5,10500230773.017757,47.655,-122.3035,60.0,8.066666666666666
2026-01-20T23:08:05+00:00,SAT-53490,288.5723401418518,41.232741612554065,2874.4399514784095,-6.586568890921419,230689.5037188524,10.5,10500230689.50372,47.655,-122.3035,60.0,8.083333333333334
2026-01-20T23:08:06+00:00,SAT-53490,288.4982326798347,41.290927482522015,2867.870946771197,-6.584159883695642,230605.13009571523,10.5,10500230605.130096,47.655,-122.3035,60.0,8.1
2026-01-20T23:08:07+00:00,SAT-53490,288.4236441961465,41.349180133244076,2861.3043446471916,-6.581726136022035,230519.88995744308,10.5,10500230519.889957,47.655,-122.3035,60.0,8.116666666666667
2026-01-20T23:08:08+00:00,SAT-53490,288.34857067198595,41.407499391325345,2854.7401697808655,-6.579267464287913,230433.77687314298,10.5,10500230433.776873,47.655,-122.3035,60.0,8.133333333333333
2026-01-20T23:08:09+00:00,SAT-53490,288.27300804816144,41.465885074258274,2848.1784470298157,-6.576783644619924,230346.78300182323,10.5,10500230346.783,47.655,-122.3035,60.0,8.15
2026-01-20T23:08:10+00:00,SAT-53490,288.19695222501696,41.52433698987857,2841.619201474915,-6.574274500085424,230258.90214655417,10.5,10500230258.902147,47.655,-122.3035,60.0,8.166666666666666
2026-01-20T23:08:11+00:00,SAT-53490,288.12039906153296,41.58285493658812,2835.062458373496,-6.5717397917169365,230170.12593768394,10.5,10500230170.125938,47.655,-122.3035,60.0,8.183333333333334
2026-01-20T23:08:12+00:00,SAT-53490,288.0433443754544,41.641438702609456,2828.508243221224,-6.569179338274649,230080.44802742774,10.5,10500230080.448027,47.655,-122.3035,60.0,8.2
2026-01-20T23:08:13+00:00,SAT-53490,287.9657839422814,41.70008806629778,2821.956581694518,-6.566592896464107,229989.85989458454,10.5,10500229989.859894,47.655,-122.3035,60.0,8.216666666666667
2026-01-20T23:08:14+00:00,SAT-53490,287.88771349540264,41.75880279538454,2815.4074997124444,-6.563980313308616,229898.35618126346,10.5,10500229898.356182,47.655,-122.3035,60.0,8.233333333333333
2026-01-20T23:08:15+00:00,SAT-53490,287.80912872470304,41.81758264757426,2808.861023346638,-6.561341297514901,229805.92668514184,10.5,10500229805.926685,47.655,-122.3035,60.0,8.25
2026-01-20T23:08:16+00:00,SAT-53490,287.7300252775209,41.87642736909695,2802.3171789592493,-6.55867568616346,229712.56570008956,10.5,10500229712.5657,47.655,-122.3035,60.0,8.266666666666667
2026-01-20T23:08:17+00:00,SAT-53490,287.6503987568378,41.935336695637666,2795.7759930749157,-6.555983254187137,229618.2653433027,10.5,10500229618.265343,47.655,-122.3035,60.0,8.283333333333333
2026-01-20T23:08:18+00:00,SAT-53490,287.5702447214061,41.994310351559164,2789.23749244274,-6.553263763294385,229523.0172688035,10.5,10500229523.01727,47.655,-122.3035,60.0,8.3
2026-01-20T23:08:19+00:00,SAT-53490,287.4895586854448,42.05334804955711,2782.701704049481,-6.55051696746618,229426.8128599649,10.5,10500229426.81286,47.655,-122.3035,60.0,8.316666666666666
2026-01-20T23:08:20+00:00,SAT-53490,287.4083361182052,42.11244949035747,2776.1686551272614,-6.547742699859563,229329.64627324085,10.5,10500229329.646273,47.655,-122.3035,60.0,8.333333333333334
2026-01-20T23:08:21+00:00,SAT-53490,287.3265724426117,42.17161436319487,2769.6383730746015,-6.5449406879350756,229231.50796314658,10.5,10500229231.507963,47.655,-122.3035,60.0,8.35
2026-01-20T23:08:22+00:00,SAT-53490,287.24426303591224,42.23084234461869,2763.110885561834,-6.542110716503321,229132.39039283927,10.5,10500229132.390392,47.655,-122.3035,60.0,8.366666666666667
2026-01-20T23:08:23+00:00,SAT-53490,287.16140322855364,42.29013309876556,2756.5862204739083,-6.53925253536618,229032.28479932237,10.5,10500229032.2848,47.655,-122.3035,60.0,8.383333333333333
2026-01-20T23:08:24+00:00,SAT-53490,287.0779883040342,42.34948627679095,2750.064405945303,-6.536365924399444,228931.183472915,10.5,10500228931.183474,47.655,-122.3035,60.0,8.4
2026-01-20T23:08:25+00:00,SAT-53490,286.9940134980733,42.40890151688569,2743.545470330035,-6.533450650129491,228829.0782363833,10.5,10500228829.078236,47.655,-122.3035,60.0,8.416666666666666
2026-01-20T23:08:26+00:00,SAT-53490,286.9094739982106,42.46837844389413,2737.0294422149727,-6.530506438526762,228725.95949205302,10.5,10500228725.959492,47.655,-122.3035,60.0,8.433333333333334
2026-01-20T23:08:27+00:00,SAT-53490,286.82436494378356,42.52791666867894,2730.516350460282,-6.527533072744557,228621.8196450354,10.5,10500228621.819645,47.655,-122.3035,60.0,8.45
2026-01-20T23:08:28+00:00,SAT-53490,286.73868142469644,42.587515788367796,2724.0062241423984,-6.524530306125016,228516.6500563289,10.5,10500228516.650057,47.655,-122.3035,60.0,8.466666666666667
2026-01-20T23:08:29+00:00,SAT-53490,286.6524184812736,42.64717538580599,2717.4990925837565,-6.52149790026428,228410.44237602182,10.5,10500228410.442375,47.655,-122.3035,60.0,8.483333333333333
2026-01-20T23:08:30+00:00,SAT-53490,286.5655711035822,42.70689502934744,2710.9949853445596,-6.518435565342401,228303.18645339375,10.5,10500228303.186453,47.655,-122.3035,60.0,8.5
2026-01-20T23:08:31+00:00,SAT-53490,286.47813423153036,42.76667427209606,2704.493932274058,-6.5153430630536056,228194.8739419684,10.5,10500228194.873941,47.655,-122.3035,60.0,8.516666666666667
2026-01-20T23:08:32+00:00,SAT-53490,286.39010275369003,42.82651265208023,2697.9959634591723,-6.512220157705388,228085.49658679732,10.5,10500228085.496586,47.655,-122.3035,60.0,8.533333333333333
2026-01-20T23:08:33+00:00,SAT-53490,286.3014715067329,42.8864096919768,2691.501109221888,-6.5090665729949215,227975.04471058666,10.5,10500227975.04471,47.655,-122.3035,60.0,8.55
2026-01-20T23:08:34+00:00,SAT-53490,286.212235275334,42.946364898431625,2685.009400159754,-6.505882040688895,227863.5089186713,10.5,10500227863.508919,47.655,-122.3035,60.0,8.566666666666666
2026-01-20T23:08:35+00:00,SAT-53490,286.1223887915574,43.00637776181886,2678.52086713784,-6.502666289722193,227750.87971720434,10.5,10500227750.879717,47.655,-122.3035,60.0,8.583333333333334
2026-01-20T23:08:36+00:00,SAT-53490,286.03192673429567,43.06644775589456,2672.0355412915574,-6.499419089390998,227637.14902596208,10.5,10500227637.149027,47.655,-122.3035,60.0,8.6
2026-01-20T23:08:37+00:00,SAT-53490,285.94084372822584,43.12657433784326,2665.5534539864043,-6.496140108910306,227522.3052594546,10.5,10500227522.30526,47.655,-122.3035,60.0,8.616666666666667
2026-01-20T23:08:38+00:00,SAT-53490,285.84913434446867,43.18675694701987,2659.074636917785,-6.492829133338734,227406.34088952534,10.5,10500227406.340889,47.655,-122.3035,60.0,8.633333333333333
2026-01-20T23:08:39+00:00,SAT-53490,285.75679309858566,43.24699500568063,2652.599121995468,-6.489485842245745,227289.24469334158,10.5,10500227289.244694,47.655,-122.3035,60.0,8.65
2026-01-20T23:08:40+00:00,SAT-53490,285.66381445131253,43.307287917660375,2646.1269414488015,-6.486109987741563,227171.0079887547,10.5,10500227171.007988,47.655,-122.3035,60.0,8.666666666666666
2026-01-20T23:08:41+00:00,SAT-53490,285.5701928070755,43.3676350686901,2639.658127754361,-6.482701248842709,227051.6195335656,10.5,10500227051.619534,47.655,-122.3035,60.0,8.683333333333334
2026-01-20T23:08:42+00:00,SAT-53490,285.4759225143223,43.42803582535763,2633.1927137088487,-6.4792593661858335,226931.0702437726,10.5,10500226931.070244,47.655,-122.3035,60.0,8.7
2026-01-20T23:08:43+00:00,SAT-53490,285.3809978641891,43.48848953531077,2626.730732367639,-6.475784061094724,226809.350358956,10.5,10500226809.350359,47.655,-122.3035,60.0,8.716666666666667
2026-01-20T23:08:44+00:00,SAT-53490,285.2854130900952,43.54899552670406,2620.272217064041,-6.4722750141354695,226686.44869118897,10.5,10500226686.44869,47.655,-122.3035,60.0,8.733333333333333
2026-01-20T23:08:45+00:00,SAT-53490,285.189162367743,43.60955310743348,2613.817201449943,-6.4687319403741474,226562.35526088034,10.5,10500226562.35526,47.655,-122.3035,60.0,8.75
2026-01-20T23:08:46+00:00,SAT-53490,285.0922398140311,43.67016156506778,2607.3657194614098,-6.465154540914517,226437.05959941936,10.5,10500226437.059599,47.655,-122.3035,60.0,8.766666666666667
2026-01-20T23:08:47+00:00,SAT-53490,284.9946394866755,43.73082016631806,2600.9178053326045,-6.461542513618397,226310.55112464895,10.5,10500226310.551125,47.655,-122.3035,60.0,8.783333333333333
2026-01-20T23:08:48+00:00,SAT-53490,284.896355383619,43.791528156601515,2594.4734935990223,-6.457895553098567,226182.81914061678,10.5,10500226182.819141,47.655,-122.3035,60.0,8.8
2026-01-20T23:08:49+00:00,SAT-53490,284.79738144251144,43.85228475959469,2588.032819100732,-6.454213345254877,226053.85264620703,10.5,10500226053.852646,47.655,-122.3035,60.0,8.816666666666666
2026-01-20T23:08:50+00:00,SAT-53490,284.6977115401909,43.913089176728235,2581.595816991064,-6.450495583403635,225923.6409000595,10.5,10500225923.6409,47.655,-122.3035,60.0,8.833333333333334
2026-01-20T23:08:51+00:00,SAT-53490,284.59733949200137,43.97394058682462,2575.1625227292166,-6.44674196815054,225792.17341611933,10.5,10500225792.173416,47.655,-122.3035,60.0,8.85
2026-01-20T23:08:52+00:00,SAT-53490,284.4962590510603,44.03483814572674,2568.7329720729813,-6.442952153824836,225659.43808753448,10.5,10500225659.438087,47.655,-122.3035,60.0,8.866666666666667
2026-01-20T23:08:53+00:00,SAT-53490,284.39446390831887,44.0957809854111,2562.3072011248996,-6.439125834120946,225525.42418618794,10.5,10500225525.424187,47.655,-122.3035,60.0,8.883333333333333
2026-01-20T23:08:54+00:00,SAT-53490,284.2919476913684,44.156768213901614,2555.885246293003,-6.435262667148755,225390.11973764174,10.5,10500225390.119738,47.655,-122.3035,60.0,8.9
2026-01-20T23:08:55+00:00,SAT-53490,284.18870396438626,44.21779891446478,2549.4671443263,-6.431362344875756,225253.51395329443,10.5,10500225253.513954,47.655,-122.3035,60.0,8.916666666666666
2026-01-20T23:08:56+00:00,SAT-53490,284.0847262269753,44.27887214545425,2543.0529322810107,-6.427424502251755,225115.59404754415,10.5,10500225115.594048,47.655,-122.3035,60.0,8.933333333333334
2026-01-20T23:08:57+00:00,SAT-53490,283.9800079144279,44.339986939282724,2536.6426475774315,-6.423448845386472,224976.3497271101,10.5,10500224976.349728,47.655,-122.3035,60.0,8.95
2026-01-20T23:08:58+00:00,SAT-53490,283.8745423960372,44.40114230260318,2530.2363279289666,-6.419435012609886,224835.76832477818,10.5,10500224835.768324,47.655,-122.3035,60.0,8.966666666666667
2026-01-20T23:08:59+00:00,SAT-53490,283.76832297549703,44.46233721515815,2523.834011409723,-6.415382654528527,224693.8376033113,10.5,10500224693.837603,47.655,-122.3035,60.0,8.983333333333333
2026-01-20T23:09:00+00:00,SAT-53490,283.6613428900909,44.52357062938129,2517.4357364422735,-6.4112914340910425,224550.54575774536,10.5,10500224550.545757,47.655,-122.3035,60.0,9.0
2026-01-20T23:09:01+00:00,SAT-53490,283.5535953099307,44.584841469988426,2511.0415417853396,-6.407160983665486,224405.87991205437,10.5,10500224405.879911,47.655,-122.3035,60.0,9.016666666666667
2026-01-20T23:09:02+00:00,SAT-53490,283.4450733377504,44.64614863315034,2504.6514665642976,-6.402990958537061,224259.82799286814,10.5,10500224259.827993,47.655,-122.3035,60.0,9.033333333333333
2026-01-20T23:09:03+00:00,SAT-53490,283.3357700079977,44.70749098616394,2498.2655502483167,-6.398781010014659,224112.37778754902,10.5,10500224112.377787,47.655,-122.3035,60.0,9.05
2026-01-20T23:09:04+00:00,SAT-53490,283.22567828624324,44.768867366859276,2491.8838326543287,-6.394530753580218,223963.51582864803,10.5,10500223963.51583,47.655,-122.3035,60.0,9.066666666666666
2026-01-20T23:09:05+00:00,SAT-53490,283.11479106915874,44.8302765826857,2485.5063539827584,-6.390239848557767,223813.23018425153,10.5,10500223813.230185,47.655,-122.3035,60.0,9.083333333333334
2026-01-20T23:09:06+00:00,SAT-53490,283.0031011831835,44.89171741055574,2479.1331547737964,-6.385907891846189,223661.50673605333,10.5,10500223661.506737,47.655,-122.3035,60.0,9.1
2026-01-20T23:09:07+00:00,SAT-53490,282.89060138496114,44.953188595652925,2472.764275969662,-6.381534539963121,223508.33345384814,10.5,10500223508.333454,47.655,-122.3035,60.0,9.116666666666667
2026-01-20T23:09:08+00:00,SAT-53490,282.77728435972557,45.01468885140487,2466.3997588551383,-6.377119371000264,223353.6955606227,10.5,10500223353.69556,47.655,-122.3035,60.0,9.133333333333333
2026-01-20T23:09:09+00:00,SAT-53490,282.66314272201157,45.07621685811337,2460.039645135794,-6.372662043835937,223197.58110885276,10.5,10500223197.581108,47.655,-122.3035,60.0,9.15
2026-01-20T23:09:10+00:00,SAT-53490,282.54816901371856,45.137771263108704,2453.683976857408,-6.368162160016695,223039.97614301322,10.5,10500223039.976143,47.655,-122.3035,60.0,9.166666666666666
2026-01-20T23:09:11+00:00,SAT-53490,282.4323557044762,45.1993506795599,2447.332796463152,-6.363619316852569,222880.86655919798,10.5,10500222880.86656,47.655,-122.3035,60.0,9.183333333333334
2026-01-20T23:09:12+00:00,SAT-53490,282.3156951910956,45.26095368578318,2440.986146797811,-6.359033123272006,222720.2386604271,10.5,10500222720.23866,47.655,-122.3035,60.0,9.2
2026-01-20T23:09:13+00:00,SAT-53490,282.19817979683233,45.322578824693124,2434.644071096201,-6.354403178530506,222558.0784109329,10.5,10500222558.078411,47.655,-122.3035,60.0,9.216666666666667
2026-01-20T23:09:14+00:00,SAT-53490,282.07980177094174,45.38422460303431,2428.3066129928134,-6.349729093334774,222394.3721760176,10.5,10500222394.372175,47.655,-122.3035,60.0,9.233333333333333
2026-01-20T23:09:15+00:00,SAT-53490,281.96055328792653,45.44588949080608,2421.973816510394,-6.345010405208888,222229.1037578181,10.5,10500222229.103758,47.655,-122.3035,60.0,9.25
2026-01-20T23:09:16+00:00,SAT-53490,281.8404264482106,45.50757191984921,2415.6457261329324,-6.340246763488322,222062.26087457937,10.5,10500222062.260874,47.655,-122.3035,60.0,9.266666666666667
2026-01-20T23:09:17+00:00,SAT-53490,281.7194132756747,45.56927028422225,2409.3223866941466,-6.335437712513397,221893.82756717203,10.5,10500221893.827568,47.655,-122.3035,60.0,9.283333333333333
2026-01-20T23:09:18+00:00,SAT-53490,281.5975057189192,45.630982938451766,2403.0038434822,-6.330582855361931,221723.78993370233,10.5,10500221723.789934,47.655,-122.3035,60.0,9.3
2026-01-20T23:09:19+00:00,SAT-53490,281.47469564966815,45.69270819736407,2396.690142181119,-6.325681732507203,221552.1318796006,10.5,10500221552.13188,47.655,-122.3035,60.0,9.316666666666666
2026-01-20T23:09:20+00:00,SAT-53490,281.3509748633906,45.754444334720866,2390.381328933232,-6.320733937594977,221378.83917262277,10.5,10500221378.839172,47.655,-122.3035,60.0,9.333333333333334
2026-01-20T23:09:21+00:00,SAT-53490,281.22633507777545,45.816189582969386,2384.077450286137,-6.315739017445692,221203.89594050348,10.5,10500221203.89594,47.655,-122.3035,60.0,9.35
2026-01-20T23:09:22+00:00,SAT-53490,281.1007679331013,45.8779421320028,2377.7785532394046,-6.310696524551508,221027.28650962538,10.5,10500221027.28651,47.655,-122.3035,60.0,9.366666666666667
2026-01-20T23:09:23+00:00,SAT-53490,280.97426499160497,45.93970012841755,2371.4846852389187,-6.305606043377715,220848.99632620515,10.5,10500220848.996326,47.655,-122.3035,60.0,9.383333333333333
2026-01-20T23:09:24+00:00,SAT-53490,280.8468177364231,46.0014616750169,2365.1958941449902,-6.300467079824922,220669.00808479203,10.5,10500220669.008085,47.655,-122.3035,60.0,9.4
2026-01-20T23:09:25+00:00,SAT-53490,280.71841757253924,46.063224829212196,2358.9122283107113,-6.295279224132809,220487.30743384644,10.5,10500220487.307434,47.655,-122.3035,60.0,9.416666666666666
2026-01-20T23:09:26+00:00,SAT-53490,280.5890558247647,46.12498760301004,2352.6337364978426,-6.290041961791371,220303.87635305154,10.5,10500220303.876352,47.655,-122.3035,60.0,9.433333333333334
2026-01-20T23:09:27+00:00,SAT-53490,280.4587237392367,46.18674796112576,2346.3604679812825,-6.2847548676452965,220118.69995166993,10.5,10500220118.699951,47.655,-122.3035,60.0,9.45
2026-01-20T23:09:28+00:00,SAT-53490,280.32741248132857,46.24850382099047,2340.0924724599513,-6.279417443134041,219931.76076800248,10.5,10500219931.760769,47.655,-122.3035,60.0,9.466666666666667
2026-01-20T23:09:29+00:00,SAT-53490,280.19511313656017,46.310253051138716,2333.829800129999,-6.274029226560274,219743.04263145564,10.5,10500219743.042631,47.655,-122.3035,60.0,9.483333333333333
2026-01-20T23:09:30+00:00,SAT-53490,280.0618167095628,46.37199347066977,2327.572501648043,-6.2685897350857385,219552.5286309913,10.5,10500219552.528631,47.655,-122.3035,60.0,9.5
2026-01-20T23:09:31+00:00,SAT-53490,279.92751412402276,46.43372284811735,2321.3206281522507,-6.2630984702439125,219360.2013082033,10.5,10500219360.201307,47.655,-122.3035,60.0,9.516666666666667
2026-01-20T23:09:32+00:00,SAT-53490,279.79219622267874,46.495438900359765,2315.074231277927,-6.257554933356345,219166.04319726292,10.5,10500219166.043198,47.655,-122.3035,60.0,9.533333333333333
2026-01-20T23:09:33+00:00,SAT-53490,279.65585376694463,46.55713929166391,2308.833363157727,-6.251958656870506,218970.03792250273,10.5,10500218970.037922,47.655,-122.3035,60.0,9.55
2026-01-20T23:09:34+00:00,SAT-53490,279.51847743597875,46.61882163302415,2302.5980763906077,-6.246309099862683,218772.16653848634,10.5,10500218772.166538,47.655,-122.3035,60.0,9.566666666666666
2026-01-20T23:09:35+00:00,SAT-53490,279.38005782781573,46.680483480449,2296.3684241150113,-6.240605773301456,218572.41191726475,10.5,10500218572.411917,47.655,-122.3035,60.0,9.583333333333334
2026-01-20T23:09:36+00:00,SAT-53490,279.2405854580764,46.74212233447113,2290.1444599571055,-6.234848166797973,218370.7561828614,10.5,10500218370.756184,47.655,-122.3035,60.0,9.6
2026-01-20T23:09:37+00:00,SAT-53490,279.10005076009344,46.8037356389147,2283.9262380520854,-6.229035738380575,218167.1803531363,10.5,10500218167.180353,47.655,-122.3035,60.0,9.616666666666667
2026-01-20T23:09:38+00:00,SAT-53490,278.9584440853679,46.86532077954346,2277.713813075674,-6.2231679663123725,217961.6661546566,10.5,10500217961.666155,47.655,-122.3035,60.0,9.633333333333333
2026-01-20T23:09:39+00:00,SAT-53490,278.81575570292284,46.92687508320445,2271.5072402239384,-6.217244317889601,217754.19492988318,10.5,10500217754.19493,47.655,-122.3035,60.0,9.65
2026-01-20T23:09:40+00:00,SAT-53490,278.67197579936044,46.98839581664532,2265.30657522423,-6.211264285608828,217544.74890389902,10.5,10500217544.748903,47.655,-122.3035,60.0,9.666666666666666
2026-01-20T23:09:41+00:00,SAT-53490,278.52709447815135,47.049880185672095,2259.111874310049,-6.205227267977728,217333.30700989862,10.5,10500217333.30701,47.655,-122.3035,60.0,9.683333333333334
2026-01-20T23:09:42+00:00,SAT-53490,278.3811017615374,47.11132533310386,2252.923194314786,-6.199132771486446,217119.85196307933,10.5,10500217119.851963,47.655,-122.3035,60.0,9.7
2026-01-20T23:09:43+00:00,SAT-53490,278.2339875881106,47.172728338718,2246.7405925640237,-6.192980198201463,216904.36282128002,10.5,10500216904.362822,47.655,-122.3035,60.0,9.716666666666667
2026-01-20T23:09:44+00:00,SAT-53490,278.0857418150281,47.23408621706319,2240.564126979684,-6.186769021677489,216686.82114615984,10.5,10500216686.821146,47.655,-122.3035,60.0,9.733333333333333
2026-01-20T23:09:45+00:00,SAT-53490,277.9363542163992,47.295395917004235,2234.3938560087313,-6.180498626709158,216467.20539062447,10.5,10500216467.20539,47.655,-122.3035,60.0,9.75
2026-01-20T23:09:46+00:00,SAT-53490,277.7858144853035,47.35665431965292,2228.2298387116934,-6.174168464052948,216245.49631784254,10.5,10500216245.496317,47.655,-122.3035,60.0,9.766666666666667
2026-01-20T23:09:47+00:00,SAT-53490,277.63411223233794,47.4178582378201,2222.0721346968776,-6.1677779627572376,216021.67393067305,10.5,10500216021.673931,47.655,-122.3035,60.0,9.783333333333333
2026-01-20T23:09:48+00:00,SAT-53490,277.4812369862179,47.47900441457673,2215.920804142021,-6.161326545337747,215795.71800317385,10.5,10500215795.718002,47.655,-122.3035,60.0,9.8
2026-01-20T23:09:49+00:00,SAT-53490,277.3271781940125,47.54008952194448,2209.7759078008044,-6.154813566373669,215567.6059299781,10.5,10500215567.60593,47.655,-122.3035,60.0,9.816666666666666
2026-01-20T23:09:50+00:00,SAT-53490,277.1719252229319,47.60111015895708,2203.6375070706076,-6.148238461196501,215337.3179340064,10.5,10500215337.317934,47.655,-122.3035,60.0,9.833333333333334
2026-01-20T23:09:51+00:00,SAT-53490,277.01546735863985,47.66206285118106,2197.5056639119744,-6.141600638191423,215104.8332944051,10.5,10500215104.833294,47.655,-122.3035,60.0,9.85
2026-01-20T23:09:52+00:00,SAT-53490,276.85779380619516,47.72294404915016,2191.3804408754845,-6.134899437332914,214870.1288942886,10.5,10500214870.128895,47.655,-122.3035,60.0,9.866666666666667
2026-01-20T23:09:53+00:00,SAT-53490,276.6988936919048,47.7837501263548,2185.2619011699844,-6.128134258841349,214633.18372683733,10.5,10500214633.183727,47.655,-122.3035,60.0,9.883333333333333
2026-01-20T23:09:54+00:00,SAT-53490,276.5387560623447,47.84447737850711,2179.1501086025005,-6.1213045164102615,214393.9772571188,10.5,10500214393.977257,47.655,-122.3035,60.0,9.9
2026-01-20T23:09:55+00:00,SAT-53490,276.3773698843796,47.905122022312035,2173.0451275648006,-6.114409519786236,214152.4853095386,10.5,10500214152.48531,47.655,-122.3035,60.0,9.916666666666666
2026-01-20T23:09:56+00:00,SAT-53490,276.21472404818417,47.96568019304864,2166.947023137067,-6.107448643473725,213908.68597659687,10.5,10500213908.685976,47.655,-122.3035,60.0,9.933333333333334
2026-01-20T23:09:57+00:00,SAT-53490,276.05080736618345,48.026147943815296,2160.855861023309,-6.100421249909252,213662.55692812373,10.5,10500213662.556929,47.655,-122.3035,60.0,9.95
2026-01-20T23:09:58+00:00,SAT-53490,275.88560857396567,48.08652124398892,2154.7717075634,-6.093326679112781,213414.07504882663,10.5,10500213414.075048,47.655,-122.3035,60.0,9.966666666666667
2026-01-20T23:09:59+00:00,SAT-53490,275.71911633144504,48.14679597755841,2148.6946297554314,-6.086164264169619,213163.2169805319,10.5,10500213163.21698,47.655,-122.3035,60.0,9.983333333333333
2026-01-20T23:10:00+00:00,SAT-53490,275.5513192237919,48.206967941595906,2142.624695262633,-6.078933351232414,212909.9598227396,10.5,10500212909.959824,47.655,-122.3035,60.0,10.0
2026-01-20T23:10:01+00:00,SAT-53490,275.3822057618403,48.26703284490427,2136.561972400337,-6.071633248827517,212654.27935711757,10.5,10500212654.279358,47.655,-122.3035,60.0,10.016666666666667
2026-01-20T23:10:02+00:00,SAT-53490,275.2117643839331,48.32698630614194,2130.5065301735062,-6.06426328354366,212396.15199795464,10.5,10500212396.151999,47.655,-122.3035,60.0,10.033333333333333
2026-01-20T23:10:03+00:00,SAT-53490,275.0399834563381,48.38682385248021,2124.4584382587186,-6.05682274934339,212135.55301683274,10.5,10500212135.553017,47.655,-122.3035,60.0,10.05
2026-01-20T23:10:04+00:00,SAT-53490,274.86685127514215,48.44654091773915,2118.417767036707,-6.049310968137784,211872.4586642094,10.5,10500211872.458664,47.655,-122.3035,60.0,10.066666666666666
2026-01-20T23:10:05+00:00,SAT-53490,274.6923560665285,48.506132841103096,2112.3845875644843,-6.041727213956505,211606.8435135326,10.5,10500211606.843513,47.655,-122.3035,60.0,10.083333333333334
2026-01-20T23:10:06+00:00,SAT-53490,274.5164859892392,48.56559486506531,2106.358971623098,-6.034070788614601,211338.68311141207,10.5,10500211338.683111,47.655,-122.3035,60.0,10.1
2026-01-20T23:10:07+00:00,SAT-53490,274.3392291350323,48.62492213410325,2100.34099168992,-6.026340961133228,211067.95185587657,10.5,10500211067.951857,47.655,-122.3035,60.0,10.116666666666667
2026-01-20T23:10:08+00:00,SAT-53490,274.1605735309047,48.68410969273543,2094.33072097135,-6.018537022941712,210794.62492978384,10.5,10500210794.62493,47.655,-122.3035,60.0,10.133333333333333
2026-01-20T23:10:09+00:00,SAT-53490,273.9805071398399,48.7431524841028,2088.328233380469,-6.0106582075612955,210518.67548780565,10.5,10500210518.675488,47.655,-122.3035,60.0,10.15
2026-01-20T23:10:10+00:00,SAT-53490,273.7990178639458,48.8020453477395,2082.3336035947946,-6.00270379592936,210240.07834532743,10.5,10500210240.078346,47.655,-122.3035,60.0,10.166666666666666
2026-01-20T23:10:11+00:00,SAT-53490,273.61609354468953,48.86078301836761,2076.3469070089877,-5.994673020927045,209958.80663460176,10.5,10500209958.806635,47.655,-122.3035,60.0,10.183333333333334
2026-01-20T23:10:12+00:00,SAT-53490,273.4317219659389,48.91936012372509,2070.3682197827834,-5.986565112475617,209674.833384214,10.5,10500209674.833384,47.655,-122.3035,60.0,10.2
2026-01-20T23:10:13+00:00,SAT-53490,273.24589085580556,48.977771182824455,2064.397618843941,-5.97837934775951,209388.13327810552,10.5,10500209388.133278,47.655,-122.3035,60.0,10.216666666666667
2026-01-20T23:10:14+00:00,SAT-53490,273.0585878872338,49.036010604695356,2058.4351818411087,-5.970114900451497,209098.67737480145,10.5,10500209098.677374,47.655,-122.3035,60.0,10.233333333333333
2026-01-20T23:10:15+00:00,SAT-53490,272.86980068287426,49.09407268560711,2052.4809872470582,-5.96177101647313,208806.4392632848,10.5,10500208806.439262,47.655,-122.3035,60.0,10.25
2026-01-20T23:10:16+00:00,SAT-53490,272.6795168151911,49.151951608025726,2046.5351142866293,-5.953346883317198,208511.39048611617,10.5,10500208511.390486,47.655,-122.3035,60.0,10.266666666666667
2026-01-20T23:10:17+00:00,SAT-53490,272.48772381031483,49.209641438253755,2040.597642995001,-5.944841720267423,208213.503699309,10.5,10500208213.5037,47.655,-122.3035,60.0,10.283333333333333
2026-01-20T23:10:18+00:00,SAT-53490,272.2944091494654,49.26713612494874,2034.6686541859876,-5.936254693327032,207912.7496927686,10.5,10500207912.749693,47.655,-122.3035,60.0,10.3
2026-01-20T23:10:19+00:00,SAT-53490,272.09956027296573,49.32442949678794,2028.748229505176,-5.927585019910258,207609.10105703096,10.5,10500207609.101057,47.655,-122.3035,60.0,10.316666666666666
2026-01-20T23:10:20+00:00,SAT-53490,271.9031645812902,49.38151526114751,2022.836451378652,-5.918831844173994,207302.52781685034,10.5,10500207302.527817,47.655,-122.3035,60.0,10.333333333333334
2026-01-20T23:10:21+00:00,SAT-53490,271.7052094399396,49.43838700154224,2016.9334030860628,-5.909994341763669,206993.00109984263,10.5,10500206993.0011,47.655,-122.3035,60.0,10.35
2026-01-20T23:10:22+00:00,SAT-53490,271.50568218138403,49.495038176085025,2011.0391687292106,-5.901071669586139,206680.49137731965,10.5,10500206680.491377,47.655,-122.3035,60.0,10.366666666666667
2026-01-20T23:10:23+00:00,SAT-53490,271.30457010853206,49.55146211543354,2005.153833250743,-5.892062971073576,206364.96864865278,10.5,10500206364.968649,47.655,-122.3035,60.0,10.383333333333333
2026-01-20T23:10:24+00:00,SAT-53490,271.1018604983004,49.607652020782496,1999.2774824475925,-5.882967390777763,206046.4029524269,10.5,10500206046.402952,47.655,-122.3035,60.0,10.4
2026-01-20T23:10:25+00:00,SAT-53490,270.897540604789,49.66360096198477,1993.4102029698568,-5.8737840792886375,205724.7645387086,10.5,10500205724.764538,47.655,-122.3035,60.0,10.416666666666666
2026-01-20T23:10:26+00:00,SAT-53490,270.6915976624853,49.71930187571088,1987.5520823147795,-5.864512119221745,205400.02127681384,10.5,10500205400.021276,47.655,-122.3035,60.0,10.433333333333334
2026-01-20T23:10:27+00:00,SAT-53490,270.4840188919749,49.774747562879874,1981.7032088945425,-5.855150643507658,205072.1427983035,10.5,10500205072.142797,47.655,-122.3035,60.0,10.45
2026-01-20T23:10:28+00:00,SAT-53490,270.27479150204493,49.82993068723236,1975.8636719860842,-5.845698766145257,204741.09807167063,10.5,10500204741.098072,47.655,-122.3035,60.0,10.466666666666667
2026-01-20T23:10:29+00:00,SAT-53490,270.06390269408405,49.884843773220325,1970.033561749982,-5.836155562842616,204406.8547243022,10.5,10500204406.854725,47.655,-122.3035,60.0,10.483333333333333
2026-01-20T23:10:30+00:00,SAT-53490,269.8513396674168,49.93947920371029,1964.2129692686403,-5.82652013932124,204069.38143478252,10.5,10500204069.381435,47.655,-122.3035,60.0,10.5
2026-01-20T23:10:31+00:00,SAT-53490,269.63708962241856,49.99382921833353,1958.401986516357,-5.816791558088451,203728.64536815244,10.5,10500203728.645369,47.655,-122.3035,60.0,10.516666666666667
2026-01-20T23:10:32+00:00,SAT-53490,269.421139766361,50.04788591113612,1952.6007064024236,-5.806968887091046,203384.6138799662,10.5,10500203384.61388,47.655,-122.3035,60.0,10.533333333333333
2026-01-20T23:10:33+00:00,SAT-53490,269.2034773177094,50.10164122868669,1946.809222765698,-5.797051204659517,203037.25468945896,10.5,10500203037.25469,47.655,-122.3035,60.0,10.55
2026-01-20T23:10:34+00:00,SAT-53490,268.98408951047344,50.15508696823564,1941.027630364251,-5.787037526156686,202686.53331047174,10.5,10500202686.53331,47.655,-122.3035,60.0,10.566666666666666
2026-01-20T23:10:35+00:00,SAT-53490,268.76296360123104,50.20821477516987,1935.256024938164,-5.776926926070395,202332.41732765388,10.5,10500202332.417328,47.655,-122.3035,60.0,10.583333333333334
2026-01-20T23:10:36+00:00,SAT-53490,268.5400868721869,50.26101614164163,1929.4945031505633,-5.766718415721595,201974.87211328294,10.5,10500201974.872114,47.655,-122.3035,60.0,10.6
2026-01-20T23:10:37+00:00,SAT-53490,268.3154466385431,50.31348240402515,1923.7431626506168,-5.756411016787486,201613.8634023562,10.5,10500201613.863401,47.655,-122.3035,60.0,10.616666666666667
2026-01-20T23:10:38+00:00,SAT-53490,268.0890302536602,50.36560474109127,1918.0021020632075,-5.746003751031412,201249.35693288798,10.5,10500201249.356934,47.655,-122.3035,60.0,10.633333333333333
2026-01-20T23:10:39+00:00,SAT-53490,267.86082511461746,50.41737417207868,1912.2714209888454,-5.73549562116686,200881.3177756861,10.5,10500200881.317776,47.655,-122.3035,60.0,10.65
2026-01-20T23:10:40+00:00,SAT-53490,267.63081866877815,50.468781554603176,1906.5512200226683,-5.724885620301966,200509.71066513835,10.5,10500200509.710665,47.655,-122.3035,60.0,10.666666666666666
2026-01-20T23:10:41+00:00,SAT-53490,267.3989984201264,50.51981758266056,1900.8416007640205,-5.714172703382384,200134.49899902096,10.5,10500200134.498999,47.655,-122.3035,60.0,10.683333333333334
2026-01-20T23:10:42+00:00,SAT-53490,267.1653519370018,50.57047278438887,1895.1426658545138,-5.703355887697854,199755.64835866375,10.5,10500199755.64836,47.655,-122.3035,60.0,10.7
2026-01-20T23:10:43+00:00,SAT-53490,266.92986685614557,50.620737520758844,1889.45451891585,-5.692434109062355,199373.12147177075,10.5,10500199373.121471,47.655,-122.3035,60.0,10.716666666666667
2026-01-20T23:10:44+00:00,SAT-53490,266.69253089248116,50.67060198297149,1883.7772646310784,-5.681406341463014,198986.88240303117,10.5,10500198986.882402,47.655,-122.3035,60.0,10.733333333333333
2026-01-20T23:10:45+00:00,SAT-53490,266.4533318445024,50.720056190961344,1878.1110087065258,-5.670271511167158,198596.89354578478,10.5,10500198596.893545,47.655,-122.3035,60.0,10.75
2026-01-20T23:10:46+00:00,SAT-53490,266.21225760326087,50.76908999115064,1872.4558579193886,-5.659028577529501,198203.1184522319,10.5,10500198203.118452,47.655,-122.3035,60.0,10.766666666666667
2026-01-20T23:10:47+00:00,SAT-53490,265.9692961583399,50.81769305494753,1866.8119200847325,-5.647676438029514,197805.51850743988,10.5,10500197805.518507,47.655,-122.3035,60.0,10.783333333333333
2026-01-20T23:10:48+00:00,SAT-53490,265.7244356078995,50.86585487642904,1861.1793041172043,-5.636214032647815,197404.05658504608,10.5,10500197404.056585,47.655,-122.3035,60.0,10.8
2026-01-20T23:10:49+00:00,SAT-53490,265.4776641647231,50.913564770980415,1855.5581199886435,-5.624640244271359,196998.69355902632,10.5,10500196998.69356,47.655,-122.3035,60.0,10.816666666666666
2026-01-20T23:10:50+00:00,SAT-53490,265.22897016655133,50.960811873085,1849.9484787850236,-5.612953998083692,196589.3917847619,10.5,10500196589.391785,47.655,-122.3035,60.0,10.833333333333334
2026-01-20T23:10:51+00:00,SAT-53490,264.9783420825698,51.00758513502419,1844.3504926642681,-5.60115416229972,196176.11162235128,10.5,10500196176.111622,47.655,-122.3035,60.0,10.85
2026-01-20T23:10:52+00:00,SAT-53490,264.7257685242337,51.05387332474837,1838.764274913068,-5.58923962368335,195758.81408155765,10.5,10500195758.814081,47.655,-122.3035,60.0,10.866666666666667
2026-01-20T23:10:53+00:00,SAT-53490,264.47123825320637,51.0996650244469,1833.189939928381,-5.57720923116509,195337.45884705824,10.5,10500195337.458847,47.655,-122.3035,60.0,10.883333333333333
2026-01-20T23:10:54+00:00,SAT-53490,264.2147401919285,51.14494862868044,1827.6276032551657,-5.565061875528611,194912.0070694054,10.5,10500194912.007069,47.655,-122.3035,60.0,10.9
2026-01-20T23:10:55+00:00,SAT-53490,263.9562634309884,51.18971234323697,1822.0773815446387,-5.55279637215277,194482.41725815556,10.5,10500194482.417257,47.655,-122.3035,60.0,10.916666666666666
2026-01-20T23:10:56+00:00,SAT-53490,263.6957972418098,51.23394418304638,1816.539392629478,-5.540411578303381,194048.64938992396,10.5,10500194048.64939,47.655,-122.3035,60.0,10.933333333333334
2026-01-20T23:10:57+00:00,SAT-53490,263.4333310844917,51.27763197114208,1811.0137554820503,-5.52790631817361,193610.66228298147,10.5,10500193610.662283,47.655,-122.3035,60.0,10.95
2026-01-20T23:10:58+00:00,SAT-53490,263.168854619199,51.3207633370537,1805.5005902473918,-5.515279406274521,193168.41441649102,10.5,10500193168.414417,47.655,-122.3035,60.0,10.966666666666667
2026-01-20T23:10:59+00:00,SAT-53490,262.9023577167027,51.36332571545332,1800.0000182528672,-5.5025296753648165,192721.86490872485,10.5,10500192721.864908,47.655,-122.3035,60.0,10.983333333333333
2026-01-20T23:11:00+00:00,SAT-53490,262.63383046799197,51.405306345102154,1794.51216198997,-5.489655888266308,192270.97042846965,10.5,10500192270.970428,47.655,-122.3035,60.0,11.0
2026-01-20T23:11:01+00:00,SAT-53490,262.36326319804135,51.44669226714776,1789.0371451840726,-5.476656849483977,191815.6891044329,10.5,10500191815.689104,47.655,-122.3035,60.0,11.016666666666667
2026-01-20T23:11:02+00:00,SAT-53490,262.0906464748605,51.48747032440993,1783.5750927528538,-5.463531353428547,191355.97871177847,10.5,10500191355.978712,47.655,-122.3035,60.0,11.033333333333333
2026-01-20T23:11:03+00:00,SAT-53490,261.81597112096097,51.527627160302,1778.126130816368,-5.4502781762470995,190891.7963860003,10.5,10500190891.796387,47.655,-122.3035,60.0,11.05
2026-01-20T23:11:04+00:00,SAT-53490,261.5392282256396,51.56714921779992,1772.6903867152573,-5.436896043015966,190423.09747387856,10.5,10500190423.097473,47.655,-122.3035,60.0,11.066666666666666
2026-01-20T23:11:05+00:00,SAT-53490,261.26040915890894,51.6060227382297,1767.2679890616894,-5.42338373401863,189949.83925578147,10.5,10500189949.839256,47.655,-122.3035,60.0,11.083333333333334
2026-01-20T23:11:06+00:00,SAT-53490,260.9795055807722,51.64423376098253,1761.8590676842948,-5.409740006011555,189471.97818806145,10.5,10500189471.978188,47.655,-122.3035,60.0,11.1
2026-01-20T23:11:07+00:00,SAT-53490,260.696509454275,51.68176812269704,1756.4637536516327,-5.3959635522359335,188989.46850249748,10.5,10500188989.468502,47.655,-122.3035,60.0,11.116666666666667
2026-01-20T23:11:08+00:00,SAT-53490,260.41141306096944,51.71861145627968,1751.082179335536,-5.382053129221816,188502.2666475121,10.5,10500188502.266647,47.655,-122.3035,60.0,11.133333333333333
2026-01-20T23:11:09+00:00,SAT-53490,260.124209010194,51.75474919094308,1745.714478347992,-5.368007448377984,188010.32749119005,10.5,10500188010.327492,47.655,-122.3035,60.0,11.15
2026-01-20T23:11:10+00:00,SAT-53490,259.83489025406806,51.790166551582445,1740.360785586143,-5.353825207337661,187513.6054191378,10.5,10500187513.60542,47.655,-122.3035,60.0,11.166666666666666
2026-01-20T23:11:11+00:00,SAT-53490,259.54345010102736,51.82484855848023,1735.021237246025,-5.339505104133535,187012.05483095278,10.5,10500187012.05483,47.655,-122.3035,60.0,11.183333333333334
2026-01-20T23:11:12+00:00,SAT-53490,259.2498822289548,51.85878002724947,1729.695970822169,-5.325045836973628,186505.63013237345,10.5,10500186505.630133,47.655,-122.3035,60.0,11.2
2026-01-20T23:11:13+00:00,SAT-53490,258.95418069843936,51.8919455688939,1724.3851251074275,-5.3104460817690935,185994.28494820732,10.5,10500185994.284948,47.655,-122.3035,60.0,11.216666666666667
2026-01-20T23:11:14+00:00,SAT-53490,258.6563399673934,51.924329589837996,1719.08884021521,-5.2957045148313036,185477.9729172796,10.5,10500185477.972918,47.655,-122.3035,60.0,11.233333333333333
2026-01-20T23:11:15+00:00,SAT-53490,258.35635490466217,51.955916292258834,1713.8072575790848,-5.280819786358538,184956.64676382436,10.5,10500184956.646765,47.655,-122.3035,60.0,11.25
2026-01-20T23:11:16+00:00,SAT-53490,258.05422080527325,51.98668967438955,1708.540519978823,-5.265790569262436,184430.26000759358,10.5,10500184430.260008,47.655,-122.3035,60.0,11.266666666666667
2026-01-20T23:11:17+00:00,SAT-53490,257.7499334031417,52.01663353127745,1703.2887715177455,-5.250615497329592,183898.76479801477,10.5,10500183898.764797,47.655,-122.3035,60.0,11.283333333333333
2026-01-20T23:11:18+00:00,SAT-53490,257.4434888873349,52.04573145530887,1698.052157661742,-5.235293213907483,183362.11361937787,10.5,10500183362.113619,47.655,-122.3035,60.0,11.3
2026-01-20T23:11:19+00:00,SAT-53490,257.1348839157607,52.073966837193936,1692.8308252297384,-5.219822350385936,182820.2585371655,10.5,10500182820.258537,47.655,-122.3035,60.0,11.316666666666666
2026-01-20T23:11:20+00:00,SAT-53490,256.8241156302504,52.10132286699691,1687.62492240562,-5.2042015257044145,182273.15118079574,10.5,10500182273.15118,47.655,-122.3035,60.0,11.333333333333334
2026-01-20T23:11:21+00:00,SAT-53490,256.5111816716584,52.12778253531277,1682.4345987506508,-5.188429364851974,181720.74339156898,10.5,10500181720.743391,47.655,-122.3035,60.0,11.35
2026-01-20T23:11:22+00:00,SAT-53490,256.19608019415614,52.15332863475163,1677.2600051974384,-5.172504476396832,181162.98643565856,10.5,10500181162.986435,47.655,-122.3035,60.0,11.366666666666667
2026-01-20T23:11:23+00:00,SAT-53490,255.87880988073033,52.17794376145378,1672.101294066312,-5.156425453371694,180599.83103511826,10.5,10500180599.831036,47.655,-122.3035,60.0,11.383333333333333
2026-01-20T23:11:24+00:00,SAT-53490,255.5593699588565,52.20161031682287,1666.9586190808159,-5.140190894565107,180031.2281135959,10.5,10500180031.228113,47.655,-122.3035,60.0,11.4
2026-01-20T23:11:25+00:00,SAT-53490,255.23776021481297,52.22431050953938,1661.8321353619697,-5.123799388516097,179457.12823575773,10.5,10500179457.128235,47.655,-122.3035,60.0,11.416666666666666
2026-01-20T23:11:26+00:00,SAT-53490,254.9139810092137,52.24602635773196,1656.7219994384898,-5.1072495122024515,178877.48156134647,10.5,10500178877.481562,47.655,-122.3035,60.0,11.433333333333334
2026-01-20T23:11:27+00:00,SAT-53490,254.5880332923213,52.26673969129253,1651.6283692583197,-5.09053984974778,178292.2385003818,10.5,10500178292.2385,47.655,-122.3035,60.0,11.45
2026-01-20T23:11:28+00:00,SAT-53490,254.25991861846,52.28643215453283,1646.5514041815047,-5.073668966394063,177701.3488015688,10.5,10500177701.3488,47.655,-122.3035,60.0,11.466666666666667
2026-01-20T23:11:29+00:00,SAT-53490,253.92963916189467,52.305085208918186,1641.491264999021,-5.05663543435173,177104.7624576772,10.5,10500177104.762457,47.655,-122.3035,60.0,11.483333333333333
2026-01-20T23:11:30+00:00,SAT-53490,253.59719773103683,52.3226801361333,1636.4481139258273,-5.039437794964995,176502.4283804112,10.5,10500176502.428381,47.655,-122.3035,60.0,11.5
2026-01-20T23:11:31+00:00,SAT-53490,253.2625977850047,52.339198041227135,1631.422114631649,-5.022074601441188,175894.29589697174,10.5,10500175894.295897,47.655,-122.3035,60.0,11.516666666666667
2026-01-20T23:11:32+00:00,SAT-53490,252.92584344736792,52.35461985615972,1626.4134322291452,-5.004544423743905,175280.31492143474,10.5,10500175280.314922,47.655,-122.3035,60.0,11.533333333333333
2026-01-20T23:11:33+00:00,SAT-53490,252.58693951953825,52.36892634360902,1621.4222332571978,-4.986845784315393,174660.4337034777,10.5,10500174660.433704,47.655,-122.3035,60.0,11.55
2026-01-20T23:11:34+00:00,SAT-53490,252.2458914979046,52.382098100743136,1616.4486857283073,-4.96897724430087,174034.60184831978,10.5,10500174034.601849,47.655,-122.3035,60.0,11.566666666666666
2026-01-20T23:11:35+00:00,SAT-53490,251.90270558552388,52.39411556359942,1611.4929590899912,-4.950937309755545,173402.76703169505,10.5,10500173402.767033,47.655,-122.3035,60.0,11.583333333333334
2026-01-20T23:11:36+00:00,SAT-53490,251.55738870942486,52.404959011340374,1606.5552242797282,-4.932724547221424,172764.879047841,10.5,10500172764.879047,47.655,-122.3035,60.0,11.6
2026-01-20T23:11:37+00:00,SAT-53490,251.20994853047398,52.41460857120644,1601.6356536646329,-4.914337456226904,172120.88534389512,10.5,10500172120.885344,47.655,-122.3035,60.0,11.616666666666667
2026-01-20T23:11:38+00:00,SAT-53490,250.86039346095566,52.423044223247594,1596.734421108289,-4.895774580594021,171470.7349183455,10.5,10500171470.734919,47.655,-122.3035,60.0,11.633333333333333
2026-01-20T23:11:39+00:00,SAT-53490,250.5087326749445,52.43024580573688,1591.8517019265769,-4.877034440047576,170814.37592569305,10.5,10500170814.375925,47.655,-122.3035,60.0,11.65
2026-01-20T23:11:40+00:00,SAT-53490,250.15497612251983,52.43619302057191,1586.9876729117027,-4.858115553017675,170151.75647509313,10.5,10500170151.756475,47.655,-122.3035,60.0,11.666666666666666
2026-01-20T23:11:41+00:00,SAT-53490,249.7991345424225,52.440865439074926,1582.142512333493,-4.839016452607749,169482.82518962288,10.5,10500169482.82519,47.655,-122.3035,60.0,11.683333333333334
2026-01-20T23:11:42+00:00,SAT-53490,249.4412194730486,52.444242508052746,1577.3163999247588,-4.819735646374033,168807.52979758868,10.5,10500168807.529799,47.655,-122.3035,60.0,11.7
2026-01-20T23:11:43+00:00,SAT-53490,249.08124326592448,52.446303556080295,1572.5095169067754,-4.800271657468254,168125.81857351682,10.5,10500168125.818573,47.655,-122.3035,60.0,11.716666666666667
2026-01-20T23:11:44+00:00,SAT-53490,248.7192190958162,52.44702780011631,1567.7220459737268,-4.780623009413388,167437.63980493657,10.5,10500167437.639805,47.655,-122.3035,60.0,11.733333333333333
2026-01-20T23:11:45+00:00,SAT-53490,248.3551609715712,52.44639435240354,1562.9541712923385,-4.760788209105496,166742.94119703208,10.5,10500166742.941196,47.655,-122.3035,60.0,11.75
2026-01-20T23:11:46+00:00,SAT-53490,247.98908374743294,52.444382227577606,1558.2060785184574,-4.740765789292508,166041.6713604294,10.5,10500166041.67136,47.655,-122.3035,60.0,11.766666666666667
2026-01-20T23:11:47+00:00,SAT-53490,247.6210031310753,52.440970350162104,1553.4779547712697,-4.720554263576189,165333.77823517492,10.5,10500165333.778234,47.655,-122.3035,60.0,11.783333333333333
2026-01-20T23:11:48+00:00,SAT-53490,247.25093569409705,52.43613756226735,1548.7699886523963,-4.700152171852836,164619.21068226063,10.5,10500164619.210682,47.655,-122.3035,60.0,11.8
2026-01-20T23:11:49+00:00,SAT-53490,246.87889887875056,52.42986263161395,1544.0823702196683,-4.679558016090553,163897.916234273,10.5,10500163897.916235,47.655,-122.3035,60.0,11.816666666666666
2026-01-20T23:11:50+00:00,SAT-53490,246.5049110086565,52.422124259818,1539.415291024954,-4.658770341769701,163169.84394778157,10.5,10500163169.843948,47.655,-122.3035,60.0,11.833333333333334
2026-01-20T23:11:51+00:00,SAT-53490,246.1289912929862,52.412901090981876,1534.7689440707625,-4.637787689649024,162434.94271398502,10.5,10500162434.942715,47.655,-122.3035,60.0,11.85
2026-01-20T23:11:52+00:00,SAT-53490,245.75115983337508,52.40217172053661,1530.1435238149525,-4.616608553626353,161693.1597828145,10.5,10500161693.159782,47.655,-122.3035,60.0,11.866666666666667
2026-01-20T23:11:53+00:00,SAT-53490,245.37143763348183,52.38991470445473,1525.5392262174691,-4.595231535001857,160944.44616588554,10.5,10500160944.446165,47.655,-122.3035,60.0,11.883333333333333
2026-01-20T23:11:54+00:00,SAT-53490,244.98984659592898,52.37610856854726,1520.9562486332272,-4.5736551461606245,160188.74976063124,10.5,10500160188.749762,47.655,-122.3035,60.0,11.9
2026-01-20T23:11:55+00:00,SAT-53490,244.6064095335693,52.360731818286084,1516.3947899007896,-4.551877952740027,159426.0203296051,10.5,10500159426.02033,47.655,-122.3035,60.0,11.916666666666666
2026-01-20T23:11:56+00:00,SAT-53490,244.22115016894554,52.34376294870436,1511.855050289257,-4.529898511906429,158656.20733866995,10.5,10500158656.207338,47.655,-122.3035,60.0,11.933333333333334
2026-01-20T23:11:57+00:00,SAT-53490,243.8340931377977,52.32518045468019,1507.3372315067159,-4.5077153728817025,157879.25997543902,10.5,10500157879.259975,47.655,-122.3035,60.0,11.95
2026-01-20T23:11:58+00:00,SAT-53490,243.4452639915969,52.30496284148881,1502.8415367081618,-4.4853271551790925,157095.1298894266,10.5,10500157095.129889,47.655,-122.3035,60.0,11.966666666666667
2026-01-20T23:11:59+00:00,SAT-53490,243.05468919300802,52.283088635404056,1498.3681704253963,-4.462732421435438,156303.76673809483,10.5,10500156303.766739,47.655,-122.3035,60.0,11.983333333333333
2026-01-20T23:12:00+00:00,SAT-53490,242.6623961205268,52.259536394894276,1493.9173386237514,-4.4399297563895495,155505.12095301034,10.5,10500155505.120953,47.655,-122.3035,60.0,12.0
2026-01-20T23:12:01+00:00,SAT-53490,242.268413066034,52.23428472190718,1489.4892486800456,-4.4169177780013,154699.14412928175,10.5,10500154699.144129,47.655,-122.3035,60.0,12.016666666666667
2026-01-20T23:12:02+00:00,SAT-53490,241.8727692302841,52.20731227329196,1485.0841093494523,-4.3936951082099105,153885.78800139148,10.5,10500153885.788002,47.655,-122.3035,60.0,12.033333333333333
2026-01-20T23:12:03+00:00,SAT-53490,241.47549471991044,52.17859777258902,1480.702130761531,-4.370260380953175,153065.0047240626,10.5,10500153065.004725,47.655,-122.3035,60.0,12.05
2026-01-20T23:12:04+00:00,SAT-53490,241.07662054269022,52.14812002200429,1476.3435244082605,-4.346612210095978,152236.74574898003,10.5,10500152236.745749,47.655,-122.3035,60.0,12.066666666666666
2026-01-20T23:12:05+00:00,SAT-53490,240.67617860469102,52.115857914822826,1472.0085031640579,-4.32274930120994,151400.96573978645,10.5,10500151400.96574,47.655,-122.3035,60.0,12.083333333333334
2026-01-20T23:12:06+00:00,SAT-53490,240.27420169659953,52.08179044736615,1467.6972811943178,-4.298670289913277,150557.61691006052,10.5,10500150557.61691,47.655,-122.3035,60.0,12.1
2026-01-20T23:12:07+00:00,SAT-53490,239.87072349319342,52.04589673214312,1463.410074025178,-4.274373875209377,149706.65369339762,10.5,10500149706.653694,47.655,-122.3035,60.0,12.116666666666667
2026-01-20T23:12:08+00:00,SAT-53490,239.46577853997084,52.00815601035096,1459.1470984803025,-4.2498587585842795,148848.03061034624,10.5,10500148848.030611,47.655,-122.3035,60.0,12.133333333333333
2026-01-20T23:12:09+00:00,SAT-53490,239.0594022442607,51.968547664999384,1454.9085726784076,-4.225123669857024,147981.70317379615,10.5,10500147981.703175,47.655,-122.3035,60.0,12.15
2026-01-20T23:12:10+00:00,SAT-53490,238.6516308628161,51.92705123398404,1450.6947160050036,-4.200167357624097,147107.627554303,10.5,10500147107.627554,47.655,-122.3035,60.0,12.166666666666666
2026-01-20T23:12:11+00:00,SAT-53490,238.2425014892989,51.8836464234245,1446.5057490936665,-4.174988546485377,146225.7590819595,10.5,10500146225.759083,47.655,-122.3035,60.0,12.183333333333334
2026-01-20T23:12:12+00:00,SAT-53490,237.83205204450348,51.83831312149161,1442.3418938499717,-4.149586061410075,145336.05660221705,10.5,10500145336.056602,47.655,-122.3035,60.0,12.2
2026-01-20T23:12:13+00:00,SAT-53490,237.42032125433298,51.79103141137623,1438.203373351392,-4.123958687312319,144438.47755762874,10.5,10500144438.477558,47.655,-122.3035,60.0,12.216666666666667
2026-01-20T23:12:14+00:00,SAT-53490,237.00734863935614,51.74178158552107,1434.0904118872456,-4.098105246656564,143532.98070591863,10.5,10500143532.980705,47.655,-122.3035,60.0,12.233333333333333
2026-01-20T23:12:15+00:00,SAT-53490,236.59317449641395,51.69054415936905,1430.003234921247,-4.0720245927251995,142619.5258841855,10.5,10500142619.525885,47.655,-122.3035,60.0,12.25
2026-01-20T23:12:16+00:00,SAT-53490,236.17783987967297,51.637299885233446,1425.9420690607692,-4.045715596619311,141698.0735536141,10.5,10500141698.073553,47.655,-122.3035,60.0,12.266666666666667
2026-01-20T23:12:17+00:00,SAT-53490,235.76138658192696,51.58202976639066,1421.9071420390742,-4.019177162184073,140768.5853222257,10.5,10500140768.585321,47.655,-122.3035,60.0,12.283333333333333
2026-01-20T23:12:18+00:00,SAT-53490,235.34385711340974,51.524715071078525,1417.8986826826558,-3.992408234272408,139831.0242343064,10.5,10500139831.024235,47.655,-122.3035,60.0,12.3
2026-01-20T23:12:19+00:00,SAT-53490,234.92529467888411,51.46533734646268,1413.9169208703415,-3.965407727094634,138885.35226090864,10.5,10500138885.35226,47.655,-122.3035,60.0,12.316666666666666
2026-01-20T23:12:20+00:00,SAT-53490,234.50574316069077,51.403878433523154,1409.9620875638525,-3.938174667558041,137931.5353202095,10.5,10500137931.53532,47.655,-122.3035,60.0,12.333333333333334
2026-01-20T23:12:21+00:00,SAT-53490,234.08524708700526,51.340320480239015,1406.034414695408,-3.9107080434159056,136969.537959047,10.5,10500136969.537958,47.655,-122.3035,60.0,12.35
2026-01-20T23:12:22+00:00,SAT-53490,233.6638516137811,51.274645956606236,1402.1341352067743,-3.8830069164251624,135999.3273161802,10.5,10500135999.327316,47.655,-122.3035,60.0,12.366666666666667
2026-01-20T23:12:23+00:00,SAT-53490,233.2416024950617,51.206837668332305,1398.2614829754596,-3.8550703564356392,135020.8708138155,10.5,10500135020.870813,47.655,-122.3035,60.0,12.383333333333333
2026-01-20T23:12:24+00:00,SAT-53490,232.81854605858592,51.136878771255546,1394.4166928066413,-3.8268974950120693,134034.1380356764,10.5,10500134034.138035,47.655,-122.3035,60.0,12.4
2026-01-20T23:12:25+00:00,SAT-53490,232.39472917550702,51.06475278507279,1390.6000003716158,-3.7984874784242684,133039.09908052062,10.5,10500133039.099081,47.655,-122.3035,60.0,12.416666666666666
2026-01-20T23:12:26+00:00,SAT-53490,231.9701992338809,50.99044360763691,1386.8116421931343,-3.769839470572961,132035.7246646148,10.5,10500132035.724665,47.655,-122.3035,60.0,12.433333333333334
2026-01-20T23:12:27+00:00,SAT-53490,231.5450041114096,50.91393552928052,1383.051855627816,-3.7409527156194775,131023.9883152915,10.5,10500131023.988316,47.655,-122.3035,60.0,12.45
2026-01-20T23:12:28+00:00,SAT-53490,231.11919214078185,50.8352132459257,1379.3208787861047,-3.711826484206701,130003.86448737932,10.5,10500130003.864487,47.655,-122.3035,60.0,12.466666666666667
2026-01-20T23:12:29+00:00,SAT-53490,230.69281208014854,50.75426187305178,1375.618950505856,-3.682460060692843,128975.32811607573,10.5,10500128975.328115,47.655,-122.3035,60.0,12.483333333333333
2026-01-20T23:12:30+00:00,SAT-53490,230.2659130841581,50.6710669597204,1371.9463103386583,-3.6528528012119907,127938.35665047287,10.5,10500127938.356651,47.655,-122.3035,60.0,12.5
2026-01-20T23:12:31+00:00,SAT-53490,229.83854466859776,50.58561450153791,1368.3031984782497,-3.6230041011551615,126892.92891460663,10.5,10500126892.928915,47.655,-122.3035,60.0,12.516666666666667
2026-01-20T23:12:32+00:00,SAT-53490,229.4107566777525,50.49789095394966,1364.6898557213642,-3.5929133847723764,125839.0247432774,10.5,10500125839.024744,47.655,-122.3035,60.0,12.533333333333333
2026-01-20T23:12:33+00:00,SAT-53490,228.98259925265955,50.407883245672096,1361.1065234389512,-3.5625801375254254,124776.62611518055,10.5,10500124776.626116,47.655,-122.3035,60.0,12.55
2026-01-20T23:12:34+00:00,SAT-53490,228.5541227953311,50.31557879123872,1357.553443515126,-3.5320038798159525,123705.71623275292,10.5,10500123705.716232,47.655,-122.3035,60.0,12.566666666666666
2026-01-20T23:12:35+00:00,SAT-53490,228.12537793570314,50.22096550395792,1354.0308583123228,-3.5011841835552,122626.28010251546,10.5,10500122626.280102,47.655,-122.3035,60.0,12.583333333333334
2026-01-20T23:12:36+00:00,SAT-53490,227.6964154964132,50.12403180828603,1350.5390106199236,-3.470120688755352,121538.30511617205,10.5,10500121538.305117,47.655,-122.3035,60.0,12.6
2026-01-20T23:12:37+00:00,SAT-53490,227.26728645552586,50.024766651564434,1347.0781435863382,-3.4388130558038834,120441.77937905554,10.5,10500120441.779379,47.655,-122.3035,60.0,12.616666666666667
2026-01-20T23:12:38+00:00,SAT-53490,226.8380419145243,49.923159516661485,1343.6485006986834,-3.4072610252728985,119336.69380490365,10.5,10500119336.693806,47.655,-122.3035,60.0,12.633333333333333
2026-01-20T23:12:39+00:00,SAT-53490,226.40873305952312,49.81920043294856,1340.250325702811,-3.3754643730166434,118223.0405431839,10.5,10500118223.040543,47.655,-122.3035,60.0,12.65
2026-01-20T23:12:40+00:00,SAT-53490,225.97941112749118,49.71287998807216,1336.8838625681226,-3.343422933421034,117100.81379339054,10.5,10500117100.813793,47.655,-122.3035,60.0,12.666666666666666
2026-01-20T23:12:41+00:00,SAT-53490,225.55012737000933,49.60418933891794,1333.5493554291907,-3.31113660338632,115970.00994453422,10.5,10500115970.009945,47.655,-122.3035,60.0,12.683333333333334
2026-01-20T23:12:42+00:00,SAT-53490,225.1209330166084,49.49312022214544,1330.2470485234132,-3.2786053288788306,114830.62710412723,10.5,10500114830.627104,47.655,-122.3035,60.0,12.7
2026-01-20T23:12:43+00:00,SAT-53490,224.69187923992772,49.37966496479371,1326.9771861420782,-3.2458291350081794,113682.66615161441,10.5,10500113682.666151,47.655,-122.3035,60.0,12.716666666666667
2026-01-20T23:12:44+00:00,SAT-53490,224.26301711743938,49.263816493657714,1323.74001255143,-3.2128080846995974,112526.12929090357,10.5,10500112526.129292,47.655,-122.3035,60.0,12.733333333333333
2026-01-20T23:12:45+00:00,SAT-53490,223.83439759862455,49.14556834562483,1320.5357719549563,-3.1795423054862617,111361.020988746,10.5,10500111361.020988,47.655,-122.3035,60.0,12.75
2026-01-20T23:12:46+00:00,SAT-53490,223.40607146917498,49.02491467683726,1317.3647084289512,-3.1460319997954085,110187.34833499977,10.5,10500110187.348335,47.655,-122.3035,60.0,12.766666666666667
2026-01-20T23:12:47+00:00,SAT-53490,222.9780893144949,48.90185027120898,1314.227065847822,-3.1122774364414996,109005.12074468446,10.5,10500109005.120745,47.655,-122.3035,60.0,12.783333333333333
2026-01-20T23:12:48+00:00,SAT-53490,222.5505014845493,48.776370548734945,1311.1230878178778,-3.0782789289935906,107814.34920031477,10.5,10500107814.349201,47.655,-122.3035,60.0,12.8
2026-01-20T23:12:49+00:00,SAT-53490,222.1233580622997,48.648471574344775,1308.0530176326947,-3.0440368759966074,106615.04766061985,10.5,10500106615.04766,47.655,-122.3035,60.0,12.816666666666666
2026-01-20T23:12:50+00:00,SAT-53490,221.6967088273035,48.51815006478757,1305.0170981883675,-3.0095517377167336,105407.23224606838,10.5,10500105407.232246,47.655,-122.3035,60.0,12.833333333333334
2026-01-20T23:12:51+00:00,SAT-53490,221.2706032234311,48.38540339618244,1302.0155719219513,-2.9748240555505787,104190.92191865972,10.5,10500104190.921919,47.655,-122.3035,60.0,12.85
2026-01-20T23:12:52+00:00,SAT-53490,220.8450903242477,48.25022961015923,1299.048680730549,-2.9398544089151804,102966.13697202948,10.5,10500102966.136972,47.655,-122.3035,60.0,12.866666666666667
2026-01-20T23:12:53+00:00,SAT-53490,220.42021880538513,48.11262742157672,1296.1166659333908,-2.904643505623711,101732.90219678897,10.5,10500101732.902197,47.655,-122.3035,60.0,12.883333333333333
2026-01-20T23:12:54+00:00,SAT-53490,219.9960369053858,47.97259622197603,1293.2197681437822,-2.8691920623989433,100491.24269560144,10.5,10500100491.242695,47.655,-122.3035,60.0,12.9
2026-01-20T23:12:55+00:00,SAT-53490,219.5725924035853,47.83013608764474,1290.3582272602162,-2.8335009260569834,99241.18812754899,10.5,10500099241.188128,47.655,-122.3035,60.0,12.916666666666666
2026-01-20T23:12:56+00:00,SAT-53490,219.14993258249586,47.68524778208588,1287.5322823366287,-2.797570968628755,97982.7690348432,10.5,10500097982.769035,47.655,-122.3035,60.0,12.933333333333334
2026-01-20T23:12:57+00:00,SAT-53490,218.72810420553122,47.53793276267471,1284.7421715572495,-2.761403183414548,96716.0202070619,10.5,10500096716.020206,47.655,-122.3035,60.0,12.95
2026-01-20T23:12:58+00:00,SAT-53490,218.30715348246264,47.38819318254329,1281.9881321156574,-2.72499861156329,95440.9781096446,10.5,10500095440.97811,47.655,-122.3035,60.0,12.966666666666667
