satellites_20260120_184412/SAT-51989.csv

timestamp,satellite,azimuth_deg,elevation_deg,distance_km,relative_velocity_kms,doppler_shift_hz,tx_freq_ghz,rx_freq_hz,ue_lat,ue_lon,ue_alt_m,time_minutes
2026-01-20T23:07:45+00:00,SAT-51989,208.43077765355048,40.07699500431175,1251.2780180366694,-5.055741952485529,177073.46894329827,10.5,10500177073.468943,47.655,-122.3035,60.0,7.75
2026-01-20T23:07:46+00:00,SAT-51989,208.4846383879771,40.31463868219241,1246.2357580627238,-5.037709556897405,176441.8981728445,10.5,10500176441.898172,47.655,-122.3035,60.0,7.766666666666667
2026-01-20T23:07:47+00:00,SAT-51989,208.53962683321652,40.55394992868479,1241.2114823979782,-5.0194517250637345,175802.43167147724,10.5,10500175802.431671,47.655,-122.3035,60.0,7.783333333333333
2026-01-20T23:07:48+00:00,SAT-51989,208.59576881096885,40.79494143262086,1236.2054158775145,-5.000965628601235,175154.97037725002,10.5,10500175154.970377,47.655,-122.3035,60.0,7.8
2026-01-20T23:07:49+00:00,SAT-51989,208.6530909299501,41.037625839181,1231.2177861572561,-4.982248426829235,174499.4147975096,10.5,10500174499.414797,47.655,-122.3035,60.0,7.816666666666666
2026-01-20T23:07:50+00:00,SAT-51989,208.71162061590053,41.2820157427526,1226.2488237262319,-4.963297240535618,173835.66409006855,10.5,10500173835.66409,47.655,-122.3035,60.0,7.833333333333333
2026-01-20T23:07:51+00:00,SAT-51989,208.771386142631,41.528123678112614,1221.2987619450043,-4.94410919289461,173163.61749631944,10.5,10500173163.617496,47.655,-122.3035,60.0,7.85
2026-01-20T23:07:52+00:00,SAT-51989,208.83241666497236,41.775962113246095,1216.367837043291,-4.9246813727110625,172483.17305389373,10.5,10500172483.173054,47.655,-122.3035,60.0,7.866666666666666
2026-01-20T23:07:53+00:00,SAT-51989,208.89474225280568,42.02554343995928,1211.4562881542404,-4.905010842983444,171794.22789657422,10.5,10500171794.227896,47.655,-122.3035,60.0,7.883333333333334
2026-01-20T23:07:54+00:00,SAT-51989,208.95839392672923,42.276879964476485,1206.5643573401715,-4.885094634105634,171096.6780161933,10.5,10500171096.678017,47.655,-122.3035,60.0,7.9
2026-01-20T23:07:55+00:00,SAT-51989,209.02340369530714,42.52998389721878,1201.6922896250903,-4.864929811097291,170390.42061732436,10.5,10500170390.420618,47.655,-122.3035,60.0,7.916666666666667
2026-01-20T23:07:56+00:00,SAT-51989,209.0898045949723,42.78486734560569,1196.8403329601558,-4.844513352591636,169675.3498789225,10.5,10500169675.349878,47.655,-122.3035,60.0,7.933333333333334
2026-01-20T23:07:57+00:00,SAT-51989,209.15763073013565,43.04154230015963,1192.0087383098378,-4.82384224859382,168951.36037823575,10.5,10500168951.360378,47.655,-122.3035,60.0,7.95
2026-01-20T23:07:58+00:00,SAT-51989,209.2269173165494,43.30002062510656,1187.1977596405736,-4.802913500710377,168218.34709884186,10.5,10500168218.3471,47.655,-122.3035,60.0,7.966666666666667
2026-01-20T23:07:59+00:00,SAT-51989,209.2977007267941,43.56031404857839,1182.4076539091984,-4.781724027416303,167476.20211270015,10.5,10500167476.202112,47.655,-122.3035,60.0,7.983333333333333
2026-01-20T23:08:00+00:00,SAT-51989,209.37001853648823,43.82243414718937,1177.6386811458551,-4.760270790383239,166724.81900469962,10.5,10500166724.819004,47.655,-122.3035,60.0,8.0
2026-01-20T23:08:01+00:00,SAT-51989,209.44390957468636,44.08639233679819,1172.8911044109132,-4.738550707238216,165964.08981710026,10.5,10500165964.089817,47.655,-122.3035,60.0,8.016666666666667
2026-01-20T23:08:02+00:00,SAT-51989,209.5194139753587,44.35219985802237,1168.165189838894,-4.716560703230543,165193.90685912687,10.5,10500165193.906858,47.655,-122.3035,60.0,8.033333333333333
2026-01-20T23:08:03+00:00,SAT-51989,209.59657323224945,44.61986776394749,1163.461206630872,-4.694297662948139,164414.16101587005,10.5,10500164414.161016,47.655,-122.3035,60.0,8.05
2026-01-20T23:08:04+00:00,SAT-51989,209.6754302556113,44.88940690451774,1158.7794270950253,-4.6717584962305825,163624.74405684054,10.5,10500163624.744057,47.655,-122.3035,60.0,8.066666666666666
2026-01-20T23:08:05+00:00,SAT-51989,209.75602943291665,45.16082791397683,1154.1201266214512,-4.648940062454786,162825.545984133,10.5,10500162825.545984,47.655,-122.3035,60.0,8.083333333333334
2026-01-20T23:08:06+00:00,SAT-51989,209.83841669127744,45.434141193318396,1149.4835837324963,-4.625839234282275,162016.45726512535,10.5,10500162016.457266,47.655,-122.3035,60.0,8.1
2026-01-20T23:08:07+00:00,SAT-51989,209.92263956413126,45.70935689562485,1144.8700800695053,-4.602452899965991,161197.36891327304,10.5,10500161197.368914,47.655,-122.3035,60.0,8.116666666666667
2026-01-20T23:08:08+00:00,SAT-51989,210.00874726141558,45.98648491090285,1140.2799003772727,-4.578777887327231,160368.16982545945,10.5,10500160368.169825,47.655,-122.3035,60.0,8.133333333333333
2026-01-20T23:08:09+00:00,SAT-51989,210.09679074187915,46.26553484558817,1135.7133325643117,-4.554811075728647,159528.75070376453,10.5,10500159528.750704,47.655,-122.3035,60.0,8.15
2026-01-20T23:08:10+00:00,SAT-51989,210.1868227912698,46.54651600790872,1131.1706676514516,-4.530549315227295,158679.001223862,10.5,10500158679.001225,47.655,-122.3035,60.0,8.166666666666666
2026-01-20T23:08:11+00:00,SAT-51989,210.27889810304063,46.82943738758058,1126.652199801065,-4.5059894578448745,157818.81113023593,10.5,10500157818.81113,47.655,-122.3035,60.0,8.183333333333334
2026-01-20T23:08:12+00:00,SAT-51989,210.3730733638825,47.11430763649677,1122.1582263151076,-4.481128335442012,156948.06946124416,10.5,10500156948.069462,47.655,-122.3035,60.0,8.2
2026-01-20T23:08:13+00:00,SAT-51989,210.46940734328774,47.40113504705338,1117.689047655227,-4.45596283992143,156066.66735817288,10.5,10500156066.667358,47.655,-122.3035,60.0,8.216666666666667
2026-01-20T23:08:14+00:00,SAT-51989,210.5679609896553,47.689927534628886,1113.2449673828785,-4.4304898152566645,155174.4942836253,10.5,10500155174.494284,47.655,-122.3035,60.0,8.233333333333333
2026-01-20T23:08:15+00:00,SAT-51989,210.6687975291461,47.98069261222149,1108.8262922071292,-4.404706130280947,154271.44057089637,10.5,10500154271.44057,47.655,-122.3035,60.0,8.25
2026-01-20T23:08:16+00:00,SAT-51989,210.77198257151827,48.27343736863104,1104.4333319598625,-4.37860867772705,153357.39739034406,10.5,10500153357.39739,47.655,-122.3035,60.0,8.266666666666667
2026-01-20T23:08:17+00:00,SAT-51989,210.877584221714,48.56816844553383,1100.0663995719426,-4.352194338744915,152432.25550664653,10.5,10500152432.255507,47.655,-122.3035,60.0,8.283333333333333
2026-01-20T23:08:18+00:00,SAT-51989,210.9856731967203,48.86489201109055,1095.7258110847677,-4.325460011312138,151495.9062738578,10.5,10500151495.906275,47.655,-122.3035,60.0,8.3
2026-01-20T23:08:19+00:00,SAT-51989,211.09632294956506,49.16361373416482,1091.4118856334856,-4.298402627454892,150548.2422385568,10.5,10500150548.242239,47.655,-122.3035,60.0,8.316666666666666
2026-01-20T23:08:20+00:00,SAT-51989,211.20960980067304,49.46433875851672,1087.1249454130375,-4.271019130238128,149589.15633394735,10.5,10500149589.156334,47.655,-122.3035,60.0,8.333333333333334
2026-01-20T23:08:21+00:00,SAT-51989,211.32561307604044,49.767071674131664,1082.8653156671467,-4.243306450933561,148618.5410801842,10.5,10500148618.54108,47.655,-122.3035,60.0,8.35
2026-01-20T23:08:22+00:00,SAT-51989,211.44441525250815,50.07181648548526,1078.633324700082,-4.21526162271529,147636.29256647459,10.5,10500147636.292566,47.655,-122.3035,60.0,8.366666666666667
2026-01-20T23:08:23+00:00,SAT-51989,211.56610211458477,50.378576586444765,1074.4293037750274,-4.1868816232078485,146642.3049364451,10.5,10500146642.304937,47.655,-122.3035,60.0,8.383333333333333
2026-01-20T23:08:24+00:00,SAT-51989,211.69076291575968,50.687354722487626,1070.2535871694815,-4.158163486757162,145636.47432034533,10.5,10500145636.47432,47.655,-122.3035,60.0,8.4
2026-01-20T23:08:25+00:00,SAT-51989,211.81849055236847,50.99815295922619,1066.1065121186891,-4.129104315566278,144618.6992250683,10.5,10500144618.699224,47.655,-122.3035,60.0,8.416666666666666
2026-01-20T23:08:26+00:00,SAT-51989,211.94938174806958,51.31097265026993,1061.9884187479643,-4.099701204357633,143588.87789550444,10.5,10500143588.877895,47.655,-122.3035,60.0,8.433333333333334
2026-01-20T23:08:27+00:00,SAT-51989,212.0835372468045,51.62581439773837,1057.8996500801516,-4.069951296855699,142546.9102928028,10.5,10500142546.910294,47.655,-122.3035,60.0,8.45
2026-01-20T23:08:28+00:00,SAT-51989,212.22106201895053,51.9426780150655,1053.8405519867542,-4.03985178327474,141492.69800638137,10.5,10500141492.698006,47.655,-122.3035,60.0,8.466666666666667
2026-01-20T23:08:29+00:00,SAT-51989,212.36206547976047,52.2615624877031,1049.811473141568,-4.009399908696169,140426.14454733804,10.5,10500140426.144547,47.655,-122.3035,60.0,8.483333333333333
2026-01-20T23:08:30+00:00,SAT-51989,212.5066617212681,52.58246593247858,1045.8127649659618,-3.9785929426715416,139347.15428381853,10.5,10500139347.154284,47.655,-122.3035,60.0,8.5
2026-01-20T23:08:31+00:00,SAT-51989,212.65496975717997,52.90538555236633,1041.8447816044707,-3.9474282345170044,138255.63437766186,10.5,10500138255.634378,47.655,-122.3035,60.0,8.516666666666667
2026-01-20T23:08:32+00:00,SAT-51989,212.8071137847806,53.23031759336826,1037.9078798452458,-3.9159031659137873,137151.4931242692,10.5,10500137151.493124,47.655,-122.3035,60.0,8.533333333333333
2026-01-20T23:08:33+00:00,SAT-51989,212.96322346119615,53.55725729518801,1034.0024190877743,-3.884015183980862,136034.64111094832,10.5,10500136034.641111,47.655,-122.3035,60.0,8.55
2026-01-20T23:08:34+00:00,SAT-51989,213.1234341981115,53.88619884200148,1030.1287612776175,-3.851761827098606,134904.99212136737,10.5,10500134904.99212,47.655,-122.3035,60.0,8.566666666666666
2026-01-20T23:08:35+00:00,SAT-51989,213.28788747607032,54.217135312761,1026.2872708153911,-3.8191406496347184,133762.4604991382,10.5,10500133762.460499,47.655,-122.3035,60.0,8.583333333333334
2026-01-20T23:08:36+00:00,SAT-51989,213.45673117537964,54.55005862227156,1022.4783145408221,-3.7861493048211488,132606.96405051678,10.5,10500132606.96405,47.655,-122.3035,60.0,8.6
2026-01-20T23:08:37+00:00,SAT-51989,213.63011993162286,54.88495946617142,1018.7022616341471,-3.7527855500710823,131438.42423062678,10.5,10500131438.42423,47.655,-122.3035,60.0,8.616666666666667
2026-01-20T23:08:38+00:00,SAT-51989,213.80821551435687,55.22182726336384,1014.9594835122097,-3.7190471603337008,130256.7631087766,10.5,10500130256.76311,47.655,-122.3035,60.0,8.633333333333333
2026-01-20T23:08:39+00:00,SAT-51989,213.99118722611763,55.560650087317065,1011.2503538109701,-3.684932036640653,129061.90717021593,10.5,10500129061.90717,47.655,-122.3035,60.0,8.65
2026-01-20T23:08:40+00:00,SAT-51989,214.17921233256016,55.90141460327381,1007.5752482597605,-3.650438177563029,127853.7863164383,10.5,10500127853.786316,47.655,-122.3035,60.0,8.666666666666666
2026-01-20T23:08:41+00:00,SAT-51989,214.37247651955298,56.24410599919543,1003.9345445840044,-3.6155636286324424,126632.33209369346,10.5,10500126632.332094,47.655,-122.3035,60.0,8.683333333333334
2026-01-20T23:08:42+00:00,SAT-51989,214.57117437766905,56.58870790780517,1000.3286224583816,-3.5803065626984525,125397.48050744408,10.5,10500125397.480507,47.655,-122.3035,60.0,8.7
2026-01-20T23:08:43+00:00,SAT-51989,214.7755099231376,56.935202331559495,996.7578633798503,-3.5446652647077634,124149.17148926914,10.5,10500124149.17149,47.655,-122.3035,60.0,8.716666666666667
2026-01-20T23:08:44+00:00,SAT-51989,214.98569715300584,57.28356956164413,993.2226505558484,-3.508638098591546,122887.34773711764,10.5,10500122887.347736,47.655,-122.3035,60.0,8.733333333333333
2026-01-20T23:08:45+00:00,SAT-51989,215.20196063569688,57.633788088628734,989.7233688255199,-3.472223554087727,121611.95635522336,10.5,10500121611.956356,47.655,-122.3035,60.0,8.75
2026-01-20T23:08:46+00:00,SAT-51989,215.42453614437275,57.985834512175444,986.260404534243,-3.4354202336675406,120322.94839621743,10.5,10500120322.948397,47.655,-122.3035,60.0,8.766666666666667
2026-01-20T23:08:47+00:00,SAT-51989,215.65367133277937,58.339683443657066,982.8341454211985,-3.398226859591654,119020.27910826351,10.5,10500119020.279108,47.655,-122.3035,60.0,8.783333333333333
2026-01-20T23:08:48+00:00,SAT-51989,215.8896264579087,58.69530740318066,979.4449804998991,-3.3606422797103517,117703.90813820505,10.5,10500117703.908138,47.655,-122.3035,60.0,8.8
2026-01-20T23:08:49+00:00,SAT-51989,216.1326751529665,59.05267671042591,976.0932999329347,-3.3226654739993684,116373.79976047752,10.5,10500116373.79976,47.655,-122.3035,60.0,8.816666666666666
2026-01-20T23:08:50+00:00,SAT-51989,216.38310525446556,59.41175936888735,972.7794949001993,-3.2842955462579932,115029.92258634114,10.5,10500115029.922586,47.655,-122.3035,60.0,8.833333333333334
2026-01-20T23:08:51+00:00,SAT-51989,216.64121968634765,59.77252094131968,969.503957475398,-3.2455317568673903,113672.25071121569,10.5,10500113672.250711,47.655,-122.3035,60.0,8.85
2026-01-20T23:08:52+00:00,SAT-51989,216.9073374086291,60.134924420216365,966.2670804698822,-3.2063735022495004,112300.76299524438,10.5,10500112300.762995,47.655,-122.3035,60.0,8.866666666666667
2026-01-20T23:08:53+00:00,SAT-51989,217.18179443122253,60.49893008691179,963.0692572969721,-3.1668203197935942,110915.44323584264,10.5,10500110915.443235,47.655,-122.3035,60.0,8.883333333333333
2026-01-20T23:08:54+00:00,SAT-51989,217.46494489962615,60.86449536118676,959.9108818313646,-3.1268719187487934,109516.28124968485,10.5,10500109516.28125,47.655,-122.3035,60.0,8.9
2026-01-20T23:08:55+00:00,SAT-51989,217.75716226029616,61.2315746435991,956.7923482377324,-3.086528155599427,108103.27201024511,10.5,10500108103.27201,47.655,-122.3035,60.0,8.916666666666666
2026-01-20T23:08:56+00:00,SAT-51989,218.0588405065531,61.600119143356096,953.7140508238813,-3.045789057135029,106676.41645580625,10.5,10500106676.416456,47.655,-122.3035,60.0,8.933333333333334
2026-01-20T23:08:57+00:00,SAT-51989,218.37039551522724,61.970076696119335,950.6763838708986,-3.004654808315577,105235.72106444906,10.5,10500105235.721064,47.655,-122.3035,60.0,8.95
2026-01-20T23:08:58+00:00,SAT-51989,218.69226647712793,62.34139156655482,947.6797414754053,-2.9631257841282324,103781.1989698101,10.5,10500103781.198969,47.655,-122.3035,60.0,8.966666666666667
2026-01-20T23:08:59+00:00,SAT-51989,219.02491743261527,62.71400423972538,944.7245173600346,-2.9212025271526123,102312.86917532272,10.5,10500102312.869175,47.655,-122.3035,60.0,8.983333333333333
2026-01-20T23:09:00+00:00,SAT-51989,219.3688389138249,63.08785119344466,941.8111047062879,-2.878885771635288,100830.75739740767,10.5,10500100830.757397,47.655,-122.3035,60.0,9.0
2026-01-20T23:09:01+00:00,SAT-51989,219.72454970584533,63.46286465579189,938.9398959633769,-2.8361764189132948,99334.89520470056,10.5,10500099334.895205,47.655,-122.3035,60.0,9.016666666666667
2026-01-20T23:09:02+00:00,SAT-51989,220.0925987289136,63.83897234004737,936.1112826815806,-2.7930755934107987,97825.32197929204,10.5,10500097825.32198,47.655,-122.3035,60.0,9.033333333333333
2026-01-20T23:09:03+00:00,SAT-51989,220.473567059554,64.216097165723,933.3256552897523,-2.749584598475184,96302.08336992064,10.5,10500096302.08337,47.655,-122.3035,60.0,9.05
2026-01-20T23:09:04+00:00,SAT-51989,220.8680700863902,64.59415695080301,930.5834029168731,-2.70570493666277,94765.23200246446,10.5,10500094765.232002,47.655,-122.3035,60.0,9.066666666666666
2026-01-20T23:09:05+00:00,SAT-51989,221.27675981649082,64.97306408133613,927.8849131933747,-2.661438322761434,93214.82793604853,10.5,10500093214.827936,47.655,-122.3035,60.0,9.083333333333334
2026-01-20T23:09:06+00:00,SAT-51989,221.70032733976228,65.35272515529957,925.230572039474,-2.6167866747543385,91650.93834655626,10.5,10500091650.938347,47.655,-122.3035,60.0,9.1
2026-01-20T23:09:07+00:00,SAT-51989,222.13950545583938,65.7330405951454,922.620763462519,-2.571752141004352,90073.63847874284,10.5,10500090073.63848,47.655,-122.3035,60.0,9.116666666666667
2026-01-20T23:09:08+00:00,SAT-51989,222.5950714763813,66.1139042314429,920.055869327224,-2.5263370625917854,88483.01032714354,10.5,10500088483.010326,47.655,-122.3035,60.0,9.133333333333333
2026-01-20T23:09:09+00:00,SAT-51989,223.06785019802362,66.49520284520057,917.5362691634658,-2.4805440038498916,86879.143705556,10.5,10500086879.143705,47.655,-122.3035,60.0,9.15
2026-01-20T23:09:10+00:00,SAT-51989,223.55871706177382,66.87681567536599,915.0623399436262,-2.43437578746074,85262.13747624622,10.5,10500085262.137476,47.655,-122.3035,60.0,9.166666666666666
2026-01-20T23:09:11+00:00,SAT-51989,224.06860150461554,67.25861388920694,912.6344558249319,-2.3878354154083694,83632.09678139361,10.5,10500083632.09678,47.655,-122.3035,60.0,9.183333333333334
2026-01-20T23:09:12+00:00,SAT-51989,224.598490480309,67.6404599940954,910.2529879706314,-2.340926147951307,81989.13580904268,10.5,10500081989.135809,47.655,-122.3035,60.0,9.2
2026-01-20T23:09:13+00:00,SAT-51989,225.14943217732224,68.02220721075895,907.9183042924079,-2.2936514713053855,80333.37666121857,10.5,10500080333.376661,47.655,-122.3035,60.0,9.216666666666667
2026-01-20T23:09:14+00:00,SAT-51989,225.72253990431378,68.4036987866827,905.630769225026,-2.246015106691197,78664.94967080717,10.5,10500078664.94967,47.655,-122.3035,60.0,9.233333333333333
2026-01-20T23:09:15+00:00,SAT-51989,226.3189961375043,68.78476725131365,903.3907434919527,-2.1980210105964626,76983.99341074436,10.5,10500076983.99341,47.655,-122.3035,60.0,9.25
2026-01-20T23:09:16+00:00,SAT-51989,226.94005670662398,69.16523360684748,901.1985838707178,-2.149673386242992,75290.65509563759,10.5,10500075290.655096,47.655,-122.3035,60.0,9.266666666666667
2026-01-20T23:09:17+00:00,SAT-51989,227.58705509172,69.54490645153479,899.0546429468382,-2.100976666091731,73585.0899690184,10.5,10500073585.08997,47.655,-122.3035,60.0,9.283333333333333
2026-01-20T23:09:18+00:00,SAT-51989,228.26140677933097,69.92358102534826,896.9592688851893,-2.051935531943991,71867.4620073728,10.5,10500071867.462008,47.655,-122.3035,60.0,9.3
2026-01-20T23:09:19+00:00,SAT-51989,228.9646136302275,70.30103817941314,894.9128051813306,-2.0025549070303788,70137.94364306182,10.5,10500070137.943644,47.655,-122.3035,60.0,9.316666666666666
2026-01-20T23:09:20+00:00,SAT-51989,229.69826817365785,70.67704325942485,892.9155904207189,-1.9528399575734416,68396.71581905219,10.5,10500068396.715818,47.655,-122.3035,60.0,9.333333333333334
2026-01-20T23:09:21+00:00,SAT-51989,230.46405773002067,71.0513449000997,890.9679580363655,-1.9027960940835007,66643.96803430178,10.5,10500066643.968035,47.655,-122.3035,60.0,9.35
2026-01-20T23:09:22+00:00,SAT-51989,231.26376823301814,71.42367372670016,889.0702360651998,-1.8524289737372492,64879.89842706823,10.5,10500064879.898428,47.655,-122.3035,60.0,9.366666666666667
2026-01-20T23:09:23+00:00,SAT-51989,232.09928758847943,71.79374096100636,887.222746902059,-1.8017444830722313,63104.71316879636,10.5,10500063104.71317,47.655,-122.3035,60.0,9.383333333333333
2026-01-20T23:09:24+00:00,SAT-51989,232.97260835544137,72.16123692631733,885.4258070709417,-1.7507487764909706,61318.627812695646,10.5,10500061318.627813,47.655,-122.3035,60.0,9.4
2026-01-20T23:09:25+00:00,SAT-51989,233.88582952076786,72.52582946343149,883.6797269578547,-1.6994482275871117,59521.865588975794,10.5,10500059521.86559,47.655,-122.3035,60.0,9.416666666666666
2026-01-20T23:09:26+00:00,SAT-51989,234.84115701370538,72.88716224363012,881.9848105922079,-1.6478494595395012,57714.658469376045,10.5,10500057714.65847,47.655,-122.3035,60.0,9.433333333333334
2026-01-20T23:09:27+00:00,SAT-51989,235.84090261551722,73.24485300192609,880.3413553978937,-1.5959593346464214,55897.246800609726,10.5,10500055897.246801,47.655,-122.3035,60.0,9.45
2026-01-20T23:09:28+00:00,SAT-51989,236.88748078627796,73.5984916948066,878.7496519548064,-1.5437849383137425,54069.87874356165,10.5,10500054069.878744,47.655,-122.3035,60.0,9.466666666666667
2026-01-20T23:09:29+00:00,SAT-51989,237.98340285462126,73.94763859978846,877.2099837763282,-1.4913336099089458,52232.811353926496,10.5,10500052232.811354,47.655,-122.3035,60.0,9.483333333333333
2026-01-20T23:09:30+00:00,SAT-51989,239.1312679578839,74.2918223941968,875.7226270560456,-1.4386129052778833,50386.30926938721,10.5,10500050386.309269,47.655,-122.3035,60.0,9.5
2026-01-20T23:09:31+00:00,SAT-51989,240.33374994039264,74.63053823516364,874.2878504518485,-1.3856306036517376,48530.644951525916,10.5,10500048530.64495,47.655,-122.3035,60.0,9.516666666666667
2026-01-20T23:09:32+00:00,SAT-51989,241.5935793847662,74.96324589995771,872.9059148631399,-1.332394712788428,46666.09886589774,10.5,10500046666.098866,47.655,-122.3035,60.0,9.533333333333333
2026-01-20T23:09:33+00:00,SAT-51989,242.9135198281527,75.28936805100868,871.5770732029189,-1.278913459304872,44792.95914342567,10.5,10500044792.959143,47.655,-122.3035,60.0,9.55
2026-01-20T23:09:34+00:00,SAT-51989,244.29633711921056,75.60828870414412,870.3015701795053,-1.2251952813833975,42911.52132494832,10.5,10500042911.521324,47.655,-122.3035,60.0,9.566666666666666
2026-01-20T23:09:35+00:00,SAT-51989,245.74476083283014,75.91935200257765,869.079642085539,-1.1712488180211147,41022.0879846874,10.5,10500041022.087984,47.655,-122.3035,60.0,9.583333333333334
2026-01-20T23:09:36+00:00,SAT-51989,247.26143665514564,76.22186142019468,867.9115165976993,-1.1170829231605863,39124.969225163615,10.5,10500039124.969225,47.655,-122.3035,60.0,9.6
2026-01-20T23:09:37+00:00,SAT-51989,248.8488687703255,76.51507954903776,866.7974125623339,-1.0627066404010663,37220.481791477214,10.5,10500037220.48179,47.655,-122.3035,60.0,9.616666666666667
2026-01-20T23:09:38+00:00,SAT-51989,250.50935139488675,76.7982286337414,865.7375398063072,-1.0081291973227005,35308.94887251752,10.5,10500035308.948872,47.655,-122.3035,60.0,9.633333333333333
2026-01-20T23:09:39+00:00,SAT-51989,252.2448890079638,77.07049205298736,864.7320989535107,-0.9533600198537737,33390.70060416471,10.5,10500033390.700603,47.655,-122.3035,60.0,9.65
2026-01-20T23:09:40+00:00,SAT-51989,254.05710537200446,77.33101696685777,863.7812812270431,-0.8984086948211367,31466.072757647344,10.5,10500031466.072758,47.655,-122.3035,60.0,9.666666666666666
2026-01-20T23:09:41+00:00,SAT-51989,255.94714205536235,77.57891833904395,862.8852682887416,-0.8432849849138501,29535.40726363245,10.5,10500029535.407263,47.655,-122.3035,60.0,9.683333333333334
2026-01-20T23:09:42+00:00,SAT-51989,257.9155483213137,77.81328456741049,862.0442320637875,-0.7879988144266014,27599.05171289971,10.5,10500027599.051712,47.655,-122.3035,60.0,9.7
2026-01-20T23:09:43+00:00,SAT-51989,259.9621653313074,78.03318491248432,861.2583345795327,-0.7325602552067946,25657.358864149086,10.5,10500025657.358864,47.655,-122.3035,60.0,9.716666666666667
2026-01-20T23:09:44+00:00,SAT-51989,262.0860090539235,78.23767887499093,860.5277278183398,-0.6769795277709808,23710.68668310294,10.5,10500023710.686684,47.655,-122.3035,60.0,9.733333333333333
2026-01-20T23:09:45+00:00,SAT-51989,264.2851578213645,78.4258276026245,859.8525535693095,-0.621266986536374,21759.39782525125,10.5,10500021759.397825,47.655,-122.3035,60.0,9.75
2026-01-20T23:09:46+00:00,SAT-51989,266.55665184201575,78.59670729025356,859.2329432947373,-0.5654331061646041,19803.859157552066,10.5,10500019803.859158,47.655,-122.3035,60.0,9.766666666666667
2026-01-20T23:09:47+00:00,SAT-51989,268.8964131666422,78.74942440378896,858.669018010189,-0.5094884878650394,17844.44197920054,10.5,10500017844.441978,47.655,-122.3035,60.0,9.783333333333333
2026-01-20T23:09:48+00:00,SAT-51989,271.2991953086563,78.88313239844057,858.1608881582916,-0.4534438313612579,15881.521039776151,10.5,10500015881.52104,47.655,-122.3035,60.0,9.8
2026-01-20T23:09:49+00:00,SAT-51989,273.758571288323,78.99704940846756,857.7086535104808,-0.39730993823373517,13915.474656317803,10.5,10500013915.474657,47.655,-122.3035,60.0,9.816666666666666
2026-01-20T23:09:50+00:00,SAT-51989,276.26696784004196,79.09047622920333,857.3124030654155,-0.3410976923044674,11946.68402631032,10.5,10500011946.684027,47.655,-122.3035,60.0,9.833333333333334
2026-01-20T23:09:51+00:00,SAT-51989,278.8157508195284,79.16281375101528,856.9722149669573,-0.28481805864784837,9975.533193041192,10.5,10500009975.533194,47.655,-122.3035,60.0,9.85
2026-01-20T23:09:52+00:00,SAT-51989,281.3953634644997,79.21357892284223,856.6881564231326,-0.2284820647729436,8002.408386524213,10.5,10500008002.408386,47.655,-122.3035,60.0,9.866666666666667
2026-01-20T23:09:53+00:00,SAT-51989,283.9955145198419,79.2424182983552,856.4602836438656,-0.1721007942321181,6027.697799646581,10.5,10500006027.6978,47.655,-122.3035,60.0,9.883333333333333
2026-01-20T23:09:54+00:00,SAT-51989,286.60540868986095,79.24911830200612,856.2886417850848,-0.11568537638040831,4051.7912294988,10.5,10500004051.79123,47.655,-122.3035,60.0,9.9
2026-01-20T23:09:55+00:00,SAT-51989,289.2140074220998,79.2336115198719,856.1732649030414,-0.059246972493245,2075.0795911586024,10.5,10500002075.079592,47.655,-122.3035,60.0,9.916666666666666
2026-01-20T23:09:56+00:00,SAT-51989,291.8103046453649,79.1959785758835,856.1141759224748,-0.0027967673216192806,97.95462191714792,10.5,10500000097.954622,47.655,-122.3035,60.0,9.933333333333334
2026-01-20T23:09:57+00:00,SAT-51989,294.38360052439816,79.13644546341587,856.1113866131993,0.053654042933159216,-1879.191539895816,10.5,10499998120.80846,47.655,-122.3035,60.0,9.95
2026-01-20T23:09:58+00:00,SAT-51989,296.9237564023676,79.05537652675544,856.1648975786848,0.11009426150807096,-3855.966736277085,10.5,10499996144.033264,47.655,-122.3035,60.0,9.966666666666667
2026-01-20T23:09:59+00:00,SAT-51989,299.42141627970824,78.95326358780139,856.2746982554954,0.1665127022528687,-5831.979180927631,10.5,10499994168.020819,47.655,-122.3035,60.0,9.983333333333333
2026-01-20T23:10:00+00:00,SAT-51989,301.86818379261734,78.83071195205068,856.4407669238757,0.22289819983411394,-7806.837816641126,10.5,10499992193.162184,47.655,-122.3035,60.0,10.0
2026-01-20T23:10:01+00:00,SAT-51989,304.2567481657843,78.6884241816035,856.6630707285102,0.2792396225773823,-9780.152765092289,10.5,10499990219.847235,47.655,-122.3035,60.0,10.016666666666667
2026-01-20T23:10:02+00:00,SAT-51989,306.58095738192037,78.52718257746484,856.941565712094,0.3355258801587885,-11751.535596226639,10.5,10499988248.464403,47.655,-122.3035,60.0,10.033333333333333
2026-01-20T23:10:03+00:00,SAT-51989,308.83584098740556,78.34783128554685,857.2761968565724,0.39174593931062895,-13720.599878338513,10.5,10499986279.400122,47.655,-122.3035,60.0,10.05
2026-01-20T23:10:04+00:00,SAT-51989,311.0175884351945,78.15125882743104,857.6668981400449,0.44788882958980303,-15686.961380105606,10.5,10499984313.03862,47.655,-122.3035,60.0,10.066666666666666
2026-01-20T23:10:05+00:00,SAT-51989,313.1234909046757,77.93838171355264,858.1135925994224,0.5039436535650788,-17650.238427390083,10.5,10499982349.761572,47.655,-122.3035,60.0,10.083333333333334
2026-01-20T23:10:06+00:00,SAT-51989,315.15185568735285,77.7101296118127,858.6161924032447,0.5598996062317229,-19610.052583221055,10.5,10499980389.947416,47.655,-122.3035,60.0,10.1
2026-01-20T23:10:07+00:00,SAT-51989,317.10190220141925,77.46743236748424,859.1745989438597,0.6157459712931105,-21566.02851756084,10.5,10499978433.971483,47.655,-122.3035,60.0,10.116666666666667
2026-01-20T23:10:08+00:00,SAT-51989,318.9736478165039,77.21120902503066,859.788702925896,0.6714721406763657,-23517.79469082521,10.5,10499976482.205309,47.655,-122.3035,60.0,10.133333333333333
2026-01-20T23:10:09+00:00,SAT-51989,320.76779061319456,76.94235884945444,860.4583844741973,0.7270676259225807,-25464.98375281708,10.5,10499974535.016247,47.655,-122.3035,60.0,10.15
2026-01-20T23:10:10+00:00,SAT-51989,322.4855945802025,76.66175425942087,861.1835132531174,0.7825220563310535,-27407.232477729853,10.5,10499972592.767523,47.655,-122.3035,60.0,10.166666666666666
2026-01-20T23:10:11+00:00,SAT-51989,324.1287812817124,76.37023551627506,861.9639485839649,0.8378251998886667,-29344.182497182766,10.5,10499970655.817503,47.655,-122.3035,60.0,10.183333333333334
2026-01-20T23:10:12+00:00,SAT-51989,325.69943074312715,76.06860695853113,862.7995395833207,0.8929669647575723,-31275.480352325972,10.5,10499968724.519648,47.655,-122.3035,60.0,10.2
2026-01-20T23:10:13+00:00,SAT-51989,327.1998930319531,75.75763457016659,863.6901253028387,0.9479374172210702,-33200.77812238104,10.5,10499966799.221878,47.655,-122.3035,60.0,10.216666666666667
2026-01-20T23:10:14+00:00,SAT-51989,328.6327111712084,75.43804465679244,864.6355348869472,1.002726773622095,-35119.73314229272,10.5,10499964880.266857,47.655,-122.3035,60.0,10.233333333333333
2026-01-20T23:10:15+00:00,SAT-51989,330.00055525606876,75.11052343018966,865.6355877225063,1.057325424503278,-37032.008848215984,10.5,10499962967.991152,47.655,-122.3035,60.0,10.25
2026-01-20T23:10:16+00:00,SAT-51989,331.3061672633079,74.77571730069536,866.6900936125443,1.111723933893531,-38937.27475252922,10.5,10499961062.725248,47.655,-122.3035,60.0,10.266666666666667
2026-01-20T23:10:17+00:00,SAT-51989,332.5523156474738,74.43423371922948,867.7988529492808,1.1659130462716742,-40835.20668772988,10.5,10499959164.793312,47.655,-122.3035,60.0,10.283333333333333
2026-01-20T23:10:18+00:00,SAT-51989,333.7417587104057,74.08664242363027,868.9616568940957,1.2198837024748588,-42725.48736361479,10.5,10499957274.512636,47.655,-122.3035,60.0,10.3
2026-01-20T23:10:19+00:00,SAT-51989,334.87721566393975,73.73347696764847,870.178287573364,1.2736270322653447,-44607.80610693722,10.5,10499955392.193893,47.655,-122.3035,60.0,10.316666666666666
2026-01-20T23:10:20+00:00,SAT-51989,335.96134428647326,73.37523644220585,871.4485182668766,1.3271343629863719,-46481.859164572124,10.5,10499953518.140835,47.655,-122.3035,60.0,10.333333333333334
2026-01-20T23:10:21+00:00,SAT-51989,336.99672417692346,73.01238730600917,872.772113604895,1.380397244401021,-48347.350573478136,10.5,10499951652.649427,47.655,-122.3035,60.0,10.35
2026-01-20T23:10:22+00:00,SAT-51989,337.9858446862676,72.6453652604996,874.1488297899776,1.4334074200295082,-50203.99115680834,10.5,10499949796.008842,47.655,-122.3035,60.0,10.366666666666667
2026-01-20T23:10:23+00:00,SAT-51989,338.93109665791553,72.27457713689168,875.5784147902204,1.4861568689157,-52051.499986750336,10.5,10499947948.500013,47.655,-122.3035,60.0,10.383333333333333
2026-01-20T23:10:24+00:00,SAT-51989,339.83476730784145,71.9004027414718,877.0606085741523,1.5386377783927636,-53889.60343066409,10.5,10499946110.39657,47.655,-122.3035,60.0,10.4
2026-01-20T23:10:25+00:00,SAT-51989,340.69903757317957,71.52319665221083,878.5951433184694,1.5908425665044206,-55718.03593636907,10.5,10499944281.964064,47.655,-122.3035,60.0,10.416666666666666
2026-01-20T23:10:26+00:00,SAT-51989,341.5259814380734,71.14328993617151,880.1817436381298,1.6427638849143809,-57536.540134045,10.5,10499942463.459866,47.655,-122.3035,60.0,10.433333333333334
2026-01-20T23:10:27+00:00,SAT-51989,342.3175667816369,70.76099178157907,881.8201268193511,1.6943946112385775,-59344.866567674166,10.5,10499940655.133432,47.655,-122.3035,60.0,10.45
2026-01-20T23:10:28+00:00,SAT-51989,343.075657379459,70.37659104020828,883.5100030449596,1.7457278547350652,-61142.77389432587,10.5,10499938857.226105,47.655,-122.3035,60.0,10.466666666666667
2026-01-20T23:10:29+00:00,SAT-51989,343.8020157678126,69.99035767368267,885.2510756254154,1.796756984007337,-62930.02985444363,10.5,10499937069.970146,47.655,-122.3035,60.0,10.483333333333333
2026-01-20T23:10:30+00:00,SAT-51989,344.4983067353861,69.60254409884935,887.0430412574655,1.847475578333641,-64706.40956719208,10.5,10499935293.590433,47.655,-122.3035,60.0,10.5
2026-01-20T23:10:31+00:00,SAT-51989,345.16610121687984,69.21338645044877,888.8855902342568,1.8978774733204873,-66471.69712943585,10.5,10499933528.30287,47.655,-122.3035,60.0,10.516666666666667
2026-01-20T23:10:32+00:00,SAT-51989,345.80688047309764,68.8231057433154,890.7784067009818,1.9479567539496963,-68225.68537221778,10.5,10499931774.314629,47.655,-122.3035,60.0,10.533333333333333
2026-01-20T23:10:33+00:00,SAT-51989,346.422040412144,68.43190894991503,892.7211689035876,1.9977077340084557,-69968.17514031252,10.5,10499930031.82486,47.655,-122.3035,60.0,10.55
2026-01-20T23:10:34+00:00,SAT-51989,347.01289595484457,68.03999000009355,894.7135494169721,2.0471249805961858,-71698.97615056063,10.5,10499928301.02385,47.655,-122.3035,60.0,10.566666666666666
2026-01-20T23:10:35+00:00,SAT-51989,347.58068538682573,67.64753069872239,896.75521539762,2.096203296543567,-73417.90637610854,10.5,10499926582.093624,47.655,-122.3035,60.0,10.583333333333334
2026-01-20T23:10:36+00:00,SAT-51989,348.12657462883794,67.25470157479894,898.8458288187061,2.1449377381876533,-75124.7926689682,10.5,10499924875.20733,47.655,-122.3035,60.0,10.6
2026-01-20T23:10:37+00:00,SAT-51989,348.65166139588916,66.86166266003293,900.9850467229253,2.1933236002594487,-76819.47023071612,10.5,10499923180.52977,47.655,-122.3035,60.0,10.616666666666667
2026-01-20T23:10:38+00:00,SAT-51989,349.1569792072098,66.46856420821638,903.1725214602507,2.2413564152236027,-78501.78258936663,10.5,10499921498.217411,47.655,-122.3035,60.0,10.633333333333333
2026-01-20T23:10:39+00:00,SAT-51989,349.64350123232686,66.07554735710713,905.4079009250337,2.2890319582247867,-80171.58177261503,10.5,10499919828.418228,47.655,-122.3035,60.0,10.65
2026-01-20T23:10:40+00:00,SAT-51989,350.1121439619521,65.68274473646298,907.6908287980366,2.336346255469761,-81828.72860141295,10.5,10499918171.271399,47.655,-122.3035,60.0,10.666666666666666
2026-01-20T23:10:41+00:00,SAT-51989,350.5637706971956,65.29028102600407,910.020944796825,2.3832955551043526,-83473.09166995689,10.5,10499916526.90833,47.655,-122.3035,60.0,10.683333333333334
2026-01-20T23:10:42+00:00,SAT-51989,350.99919484750023,64.89827347360728,912.3978848971158,2.429876341745107,-85104.54785464823,10.5,10499914895.452145,47.655,-122.3035,60.0,10.7
2026-01-20T23:10:43+00:00,SAT-51989,351.41918304754773,64.5068323698193,914.8212815686163,2.476085343649126,-86722.98256521125,10.5,10499913277.017435,47.655,-122.3035,60.0,10.716666666666667
2026-01-20T23:10:44+00:00,SAT-51989,351.8244580940939,64.11606148369877,917.2907640180157,2.5219195106913825,-88328.28897336542,10.5,10499911671.711027,47.655,-122.3035,60.0,10.733333333333333
2026-01-20T23:10:45+00:00,SAT-51989,352.2157017030559,63.72605846773958,919.8059584100118,2.567376026998299,-89920.36845530698,10.5,10499910079.631544,47.655,-122.3035,60.0,10.75
2026-01-20T23:10:46+00:00,SAT-51989,352.59355709932737,63.33691522923556,922.3664881009381,2.6124522825645644,-91499.12959760957,10.5,10499908500.870403,47.655,-122.3035,60.0,10.766666666666667
2026-01-20T23:10:47+00:00,SAT-51989,352.9586314402176,62.94871827701603,924.9719738440825,2.65714591544338,-93064.48967490534,10.5,10499906935.510324,47.655,-122.3035,60.0,10.783333333333333
2026-01-20T23:10:48+00:00,SAT-51989,353.31149809061355,62.56154903543613,927.6220340370847,2.701454767795485,-94616.37311053567,10.5,10499905383.62689,47.655,-122.3035,60.0,10.8
2026-01-20T23:10:49+00:00,SAT-51989,353.65269874521755,62.175484140789294,930.3162849254994,2.745376883522124,-96154.71139364787,10.5,10499903845.288607,47.655,-122.3035,60.0,10.816666666666666
2026-01-20T23:10:50+00:00,SAT-51989,353.9827454127851,61.79059571569135,933.0543408039989,2.788910532353774,-97679.44392288422,10.5,10499902320.556078,47.655,-122.3035,60.0,10.833333333333334
2026-01-20T23:10:51+00:00,SAT-51989,354.302122273175,61.40695161972921,935.8358142415997,2.8320541977903435,-99190.51758399674,10.5,10499900809.482416,47.655,-122.3035,60.0,10.85
2026-01-20T23:10:52+00:00,SAT-51989,354.6112874102395,61.02461568338958,938.6603162948626,2.874806540576437,-100687.88547059642,10.5,10499899312.114529,47.655,-122.3035,60.0,10.866666666666667
2026-01-20T23:10:53+00:00,SAT-51989,354.9106744261352,60.64364792980169,941.5274566846641,2.917166423069852,-102171.5077376411,10.5,10499897828.492262,47.655,-122.3035,60.0,10.883333333333333
2026-01-20T23:10:54+00:00,SAT-51989,355.2006939513919,60.26410477737558,944.4368439972725,2.959132931053487,-103641.35236538076,10.5,10499896358.647635,47.655,-122.3035,60.0,10.9
2026-01-20T23:10:55+00:00,SAT-51989,355.481735056536,59.886039225411125,947.3880859071764,3.0007052982913858,-105097.39251699102,10.5,10499894902.607483,47.655,-122.3035,60.0,10.916666666666666
2026-01-20T23:10:56+00:00,SAT-51989,355.7541665627052,59.50950103622967,950.3807893246724,3.0418829676161168,-106539.60867811166,10.5,10499893460.391321,47.655,-122.3035,60.0,10.933333333333334
2026-01-20T23:10:57+00:00,SAT-51989,356.01833827111244,59.13453689721497,953.414560604375,3.082665542875199,-107967.98697380703,10.5,10499892032.013025,47.655,-122.3035,60.0,10.95
2026-01-20T23:10:58+00:00,SAT-51989,356.274582106702,58.76119057774359,956.4890057058025,3.123052825869403,-109382.52046230172,10.5,10499890617.479538,47.655,-122.3035,60.0,10.966666666666667
2026-01-20T23:10:59+00:00,SAT-51989,356.5232131893066,58.3895030712466,959.6037303908029,3.163044772541792,-110783.20760053549,10.5,10499889216.7924,47.655,-122.3035,60.0,10.983333333333333
2026-01-20T23:11:00+00:00,SAT-51989,356.7645308305813,58.01951273310747,962.7583403772845,3.2026415031376714,-112170.05260000753,10.5,10499887829.9474,47.655,-122.3035,60.0,11.0
2026-01-20T23:11:01+00:00,SAT-51989,356.99881946636674,57.65125540842775,965.9524415030805,3.2418432923025615,-113543.06507996575,10.5,10499886456.93492,47.655,-122.3035,60.0,11.016666666666667
2026-01-20T23:11:02+00:00,SAT-51989,357.22634952736036,57.28476455278242,969.185639879937,3.2806505969280675,-114902.26104268676,10.5,10499885097.738956,47.655,-122.3035,60.0,11.033333333333333
2026-01-20T23:11:03+00:00,SAT-51989,357.4473782549788,56.920071342323084,972.4575420752732,3.31906398267232,-116247.66029991108,10.5,10499883752.3397,47.655,-122.3035,60.0,11.05
2026-01-20T23:11:04+00:00,SAT-51989,357.66215045930903,56.55720478515103,975.7677552206584,3.357084205128264,-117579.28931569977,10.5,10499882420.710684,47.655,-122.3035,60.0,11.066666666666666
2026-01-20T23:11:05+00:00,SAT-51989,357.8708992335945,56.19619181714666,979.1158872012397,3.3947121143797334,-118897.17786358455,10.5,10499881102.822136,47.655,-122.3035,60.0,11.083333333333334
2026-01-20T23:11:06+00:00,SAT-51989,358.07384661682386,55.83705740221177,982.501546749981,3.431948741986692,-120201.36207315885,10.5,10499879798.637926,47.655,-122.3035,60.0,11.1
2026-01-20T23:11:07+00:00,SAT-51989,358.27120421939213,55.4798246175137,985.9243436286557,3.468795203571322,-121491.88101823056,10.5,10499878508.118982,47.655,-122.3035,60.0,11.116666666666667
2026-01-20T23:11:08+00:00,SAT-51989,358.4631738033771,55.12451474381725,989.3838887116842,3.5052527898330688,-122768.7799045539,10.5,10499877231.220095,47.655,-122.3035,60.0,11.133333333333333
2026-01-20T23:11:09+00:00,SAT-51989,358.6499478314342,54.77114734142466,992.8797941607444,3.5413228560022008,-124032.10619802553,10.5,10499875967.893803,47.655,-122.3035,60.0,11.15
2026-01-20T23:11:10+00:00,SAT-51989,358.8317099752998,54.41974033287105,996.4116734891305,3.5770069209309776,-125281.91309527628,10.5,10499874718.086905,47.655,-122.3035,60.0,11.166666666666666
2026-01-20T23:11:11+00:00,SAT-51989,359.00863559795255,54.070310071277376,999.9791417249392,3.612306603398719,-126518.25729280537,10.5,10499873481.742706,47.655,-122.3035,60.0,11.183333333333334
2026-01-20T23:11:12+00:00,SAT-51989,359.1808922026118,53.72287141119823,1003.5818155107288,3.647223603527349,-127741.1983360741,10.5,10499872258.801664,47.655,-122.3035,60.0,11.2
2026-01-20T23:11:13+00:00,SAT-51989,359.3486398534194,53.37743777734061,1007.2193131846467,3.681759751181966,-128950.80031469851,10.5,10499871049.199686,47.655,-122.3035,60.0,11.216666666666667
2026-01-20T23:11:14+00:00,SAT-51989,359.5120315727932,53.034021225102755,1010.8912549098255,3.7159169740702627,-130147.13074515623,10.5,10499869852.869255,47.655,-122.3035,60.0,11.233333333333333
2026-01-20T23:11:15+00:00,SAT-51989,359.671213713156,52.69263250092776,1014.5972627719649,3.7496972640919015,-131330.25939219914,10.5,10499868669.740608,47.655,-122.3035,60.0,11.25
2026-01-20T23:11:16+00:00,SAT-51989,359.8263263049935,52.353281102539874,1018.3369608433526,3.7831027333098963,-132500.260229208,10.5,10499867499.73977,47.655,-122.3035,60.0,11.266666666666667
2026-01-20T23:11:17+00:00,SAT-51989,359.977503386484,52.015975331085656,1022.109975302707,3.81613556568982,-133657.20974789537,10.5,10499866342.790253,47.655,-122.3035,60.0,11.283333333333333
2026-01-20T23:11:18+00:00,SAT-51989,0.12487331160643808,51.68072234493614,1025.9159345068883,3.8487980178083747,-134801.18698312264,10.5,10499865198.813017,47.655,-122.3035,60.0,11.3
2026-01-20T23:11:19+00:00,SAT-51989,0.26855904021280813,51.34752821068894,1029.7544690633158,3.8810924258047086,-135932.2737563646,10.5,10499864067.726244,47.655,-122.3035,60.0,11.316666666666666
2026-01-20T23:11:20+00:00,SAT-51989,0.408678411443659,51.016397951067596,1033.6252119093185,3.913021220388261,-137050.5552013478,10.5,10499862949.4448,47.655,-122.3035,60.0,11.333333333333334
2026-01-20T23:11:21+00:00,SAT-51989,0.5453444018136083,50.68733558922932,1037.5277984064523,3.9445868601332768,-138156.117427742,10.5,10499861843.882572,47.655,-122.3035,60.0,11.35
2026-01-20T23:11:22+00:00,SAT-51989,0.6786653661055481,50.3603441964627,1041.4618663682918,3.975791893748934,-139249.04970212362,10.5,10499860750.950298,47.655,-122.3035,60.0,11.366666666666667
2026-01-20T23:11:23+00:00,SAT-51989,0.8087452667027508,50.03542593245853,1045.4270561503242,4.006638920249149,-140329.44305295384,10.5,10499859670.556948,47.655,-122.3035,60.0,11.383333333333333
2026-01-20T23:11:24+00:00,SAT-51989,0.9356838885704242,49.71258208691969,1049.4230107001192,4.037130607700795,-141397.39092722055,10.5,10499858602.609074,47.655,-122.3035,60.0,11.4
2026-01-20T23:11:25+00:00,SAT-51989,1.0595770427484834,49.39181311769825,1053.4493756261998,4.067269654006687,-142452.98781689236,10.5,10499857547.012182,47.655,-122.3035,60.0,11.416666666666666
2026-01-20T23:11:26+00:00,SAT-51989,1.1805167572645956,49.073118690247036,1057.5057992277955,4.0970588360933595,-143496.33098168293,10.5,10499856503.669018,47.655,-122.3035,60.0,11.433333333333334
2026-01-20T23:11:27+00:00,SAT-51989,1.298591458986999,48.75649771139535,1061.5919325736593,4.126500934708144,-144527.51781512634,10.5,10499855472.482185,47.655,-122.3035,60.0,11.45
2026-01-20T23:11:28+00:00,SAT-51989,1.4138861432549155,48.44194836732464,1065.7074295058749,4.155598819170914,-145546.64881294177,10.5,10499854453.351187,47.655,-122.3035,60.0,11.466666666666667
2026-01-20T23:11:29+00:00,SAT-51989,1.52648253668911,48.12946815341661,1069.851946728195,4.184355368930872,-146553.8248256204,10.5,10499853446.175175,47.655,-122.3035,60.0,11.483333333333333
2026-01-20T23:11:30+00:00,SAT-51989,1.6364592489614047,47.81905390858258,1074.025143816142,4.212773517889157,-147549.14861079043,10.5,10499852450.851389,47.655,-122.3035,60.0,11.5
2026-01-20T23:11:31+00:00,SAT-51989,1.7438919176359875,47.51070184478966,1078.2266832713167,4.240856184506301,-148532.7223852848,10.5,10499851467.277615,47.655,-122.3035,60.0,11.516666666666667
2026-01-20T23:11:32+00:00,SAT-51989,1.8488533434895749,47.20440758025544,1082.4562305059976,4.268606402226922,-149504.65239316554,10.5,10499850495.347607,47.655,-122.3035,60.0,11.533333333333333
2026-01-20T23:11:33+00:00,SAT-51989,1.9514136219129954,46.900166161911876,1086.7134539578185,4.296027157266398,-150465.0432243268,10.5,10499849534.956776,47.655,-122.3035,60.0,11.55
2026-01-20T23:11:34+00:00,SAT-51989,2.051640263409832,46.59797209827442,1090.9980250426654,4.323121482705463,-151414.00111008584,10.5,10499848585.99889,47.655,-122.3035,60.0,11.566666666666666
2026-01-20T23:11:35+00:00,SAT-51989,2.1495983101096527,46.29781938427414,1095.3096182014172,4.349892443280334,-152351.63339046878,10.5,10499847648.36661,47.655,-122.3035,60.0,11.583333333333334
2026-01-20T23:11:36+00:00,SAT-51989,2.2453504458728455,45.999701526039765,1099.6479109315153,4.3763431246002,-153278.04813656153,10.5,10499846721.951864,47.655,-122.3035,60.0,11.6
2026-01-20T23:11:37+00:00,SAT-51989,2.3389571004343854,45.70361156536745,1104.0125838077831,4.40247660405773,-154193.35313167272,10.5,10499845806.646868,47.655,-122.3035,60.0,11.616666666666667
2026-01-20T23:11:38+00:00,SAT-51989,2.4304765476648615,45.40954210497576,1108.4033204742302,4.4282960093029375,-155097.6579193358,10.5,10499844902.342081,47.655,-122.3035,60.0,11.633333333333333
2026-01-20T23:11:39+00:00,SAT-51989,2.519965000046768,45.11748532886038,1112.819807694175,4.453804432075412,-155991.07078534918,10.5,10499844008.929214,47.655,-122.3035,60.0,11.65
2026-01-20T23:11:40+00:00,SAT-51989,2.6074766966531597,44.82743302730261,1117.2617353144317,4.479005032595828,-156873.70241400867,10.5,10499843126.297586,47.655,-122.3035,60.0,11.666666666666666
2026-01-20T23:11:41+00:00,SAT-51989,2.6930639888010246,44.53937661412098,1121.728796333607,4.503900927648716,-157745.66196829246,10.5,10499842254.338032,47.655,-122.3035,60.0,11.683333333333334
2026-01-20T23:11:42+00:00,SAT-51989,2.776777419263651,44.25330715025134,1126.220686858782,4.528495247316178,-158607.05907691602,10.5,10499841392.940924,47.655,-122.3035,60.0,11.7
2026-01-20T23:11:43+00:00,SAT-51989,2.8586657987012245,43.96921536271801,1130.737106118772,4.552791163771327,-159458.00484280006,10.5,10499840541.995157,47.655,-122.3035,60.0,11.716666666666667
2026-01-20T23:11:44+00:00,SAT-51989,2.938776278849109,43.68709166101831,1135.277756506107,4.576791820682505,-160298.6093705076,10.5,10499839701.390629,47.655,-122.3035,60.0,11.733333333333333
2026-01-20T23:11:45+00:00,SAT-51989,3.0171544208509924,43.406926157138145,1139.8423435486009,4.600500339746693,-161128.98199507166,10.5,10499838871.018005,47.655,-122.3035,60.0,11.75
2026-01-20T23:11:46+00:00,SAT-51989,3.093844260489073,43.128708684219305,1144.4305758874414,4.62391990166087,-161949.2341179548,10.5,10499838050.765882,47.655,-122.3035,60.0,11.766666666666667
2026-01-20T23:11:47+00:00,SAT-51989,3.1688883716157403,42.85242880964959,1149.0421653360313,4.647053602934392,-162759.47419201292,10.5,10499837240.525808,47.655,-122.3035,60.0,11.783333333333333
2026-01-20T23:11:48+00:00,SAT-51989,3.2423279242036016,42.57807585597772,1153.6768267960244,4.669904619440089,-163559.8134497464,10.5,10499836440.18655,47.655,-122.3035,60.0,11.8
2026-01-20T23:11:49+00:00,SAT-51989,3.3142027423162985,42.30563891141058,1158.3342783364794,4.692476063680483,-164350.36090415946,10.5,10499835649.639095,47.655,-122.3035,60.0,11.816666666666666
2026-01-20T23:11:50+00:00,SAT-51989,3.3845513570632764,42.03510684806794,1163.0142411306567,4.7147710523808986,-165131.2257161567,10.5,10499834868.774284,47.655,-122.3035,60.0,11.833333333333334
2026-01-20T23:11:51+00:00,SAT-51989,3.453411058183877,41.76646833557621,1167.7164394602312,4.7367926923510355,-165902.51669935565,10.5,10499834097.483301,47.655,-122.3035,60.0,11.85
2026-01-20T23:11:52+00:00,SAT-51989,3.520817943003468,41.4997118548579,1172.4406007054026,4.758544112824778,-166664.34345276345,10.5,10499833335.656548,47.655,-122.3035,60.0,11.866666666666667
2026-01-20T23:11:53+00:00,SAT-51989,3.586806963596755,41.23482570955116,1177.18645536726,4.780028360604281,-167416.8126882797,10.5,10499832583.187311,47.655,-122.3035,60.0,11.883333333333333
2026-01-20T23:11:54+00:00,SAT-51989,3.6514119703362353,40.971798042641346,1181.9537369855693,4.801248539879379,-168160.03312776293,10.5,10499831839.966873,47.655,-122.3035,60.0,11.9
2026-01-20T23:11:55+00:00,SAT-51989,3.714665755396545,40.71061684479556,1186.742182196009,4.8222077028817925,-168894.11167327905,10.5,10499831105.888327,47.655,-122.3035,60.0,11.916666666666666
2026-01-20T23:11:56+00:00,SAT-51989,3.776600092796556,40.45126996819086,1191.5515306783498,4.842908903679193,-169619.15529119657,10.5,10499830380.84471,47.655,-122.3035,60.0,11.933333333333334
2026-01-20T23:11:57+00:00,SAT-51989,3.8372457773864497,40.19374513688298,1196.381525158286,4.863355141557479,-170335.26902919463,10.5,10499829664.73097,47.655,-122.3035,60.0,11.95
