satellites_20260120_184412/SAT-66196.csv

timestamp,satellite,azimuth_deg,elevation_deg,distance_km,relative_velocity_kms,doppler_shift_hz,tx_freq_ghz,rx_freq_hz,ue_lat,ue_lon,ue_alt_m,time_minutes
2026-01-20T23:01:14+00:00,SAT-66196,255.44202197204197,40.92403380442268,302242.66118155076,-142.9150560859193,5005489.794216746,10.5,10505005489.794216,47.655,-122.3035,60.0,1.2333333333333334
2026-01-20T23:01:15+00:00,SAT-66196,253.71944226450296,41.8655674271042,302100.1272322811,-142.7391701448212,4999329.524562698,10.5,10504999329.524563,47.655,-122.3035,60.0,1.25
2026-01-20T23:01:16+00:00,SAT-66196,251.9449002984017,42.780591211882005,301957.76869992336,-142.45178220722008,4989263.983338135,10.5,10504989263.983337,47.655,-122.3035,60.0,1.2666666666666666
2026-01-20T23:01:17+00:00,SAT-66196,250.11673251980943,43.66737608689122,301815.69678913534,-142.05297514165852,4975296.072949955,10.5,10504975296.07295,47.655,-122.3035,60.0,1.2833333333333334
2026-01-20T23:01:18+00:00,SAT-66196,248.23344038542268,44.52411395584666,301674.0226219274,-141.5429194240748,4957431.764186627,10.5,10504957431.764187,47.655,-122.3035,60.0,1.3
2026-01-20T23:01:19+00:00,SAT-66196,246.29373547250304,45.3489215907983,301532.8571502884,-140.92187199906454,4935680.056334766,10.5,10504935680.056335,47.655,-122.3035,60.0,1.3166666666666667
2026-01-20T23:01:20+00:00,SAT-66196,244.29658941189447,46.13984654249903,301392.311069948,-140.19017775005958,4910053.028671007,10.5,10504910053.028671,47.655,-122.3035,60.0,1.3333333333333333
2026-01-20T23:01:21+00:00,SAT-66196,242.2412880535232,46.8948753854994,301252.494732672,-139.34826824206493,4880565.796427346,10.5,10504880565.796427,47.655,-122.3035,60.0,1.35
2026-01-20T23:01:22+00:00,SAT-66196,240.1274889620342,47.61194456767738,301113.5180598119,-138.39666379369956,4847236.583362765,10.5,10504847236.583363,47.655,-122.3035,60.0,1.3666666666666667
2026-01-20T23:01:23+00:00,SAT-66196,237.95528080455588,48.28895413001215,300975.49045378825,-137.33597189187572,4810086.666238599,10.5,10504810086.666239,47.655,-122.3035,60.0,1.3833333333333333
2026-01-20T23:01:24+00:00,SAT-66196,235.72524279601998,48.923784459060144,300838.5207111548,-136.1668879276039,4769140.400589534,10.5,10504769140.400589,47.655,-122.3035,60.0,1.4
2026-01-20T23:01:25+00:00,SAT-66196,233.43850176474317,49.514316170997645,300702.7169349284,-134.8901943104379,4724425.189707734,10.5,10504724425.189707,47.655,-122.3035,60.0,1.4166666666666667
2026-01-20T23:01:26+00:00,SAT-66196,231.09678397111625,50.05845307599572,300568.1864478027,-133.5067619880276,4675971.537864003,10.5,10504675971.537865,47.655,-122.3035,60.0,1.4333333333333333
2026-01-20T23:01:27+00:00,SAT-66196,228.70245834288278,50.55414802747981,300435.03570384666,-132.01754795377687,4623812.963015425,10.5,10504623812.963015,47.655,-122.3035,60.0,1.45
2026-01-20T23:01:28+00:00,SAT-66196,226.25856765325696,50.9994312438532,300303.37020268745,-130.42359684829665,4567986.052895016,10.5,10504567986.052895,47.655,-122.3035,60.0,1.4666666666666666
2026-01-20T23:01:29+00:00,SAT-66196,223.76884401439946,51.39244051567913,300173.2944020974,-128.7260389606134,4508530.395005603,10.5,10504508530.395006,47.655,-122.3035,60.0,1.4833333333333334
2026-01-20T23:01:30+00:00,SAT-66196,221.23770547656852,51.73145246967259,300044.91163257405,-126.92609128246886,4445488.613545852,10.5,10504445488.613546,47.655,-122.3035,60.0,1.5
2026-01-20T23:01:31+00:00,SAT-66196,218.6702310329043,52.01491389001614,299918.3240108683,-125.02505566435244,4378906.3048267225,10.5,10504378906.304827,47.655,-122.3035,60.0,1.5166666666666666
2026-01-20T23:01:32+00:00,SAT-66196,216.0721124282397,52.241471922798404,299793.6323553524,-123.02431839168652,4308832.02242769,10.5,10504308832.022429,47.655,-122.3035,60.0,1.5333333333333334
2026-01-20T23:01:33+00:00,SAT-66196,213.44958239753734,52.41000191093457,299670.9361018097,-120.92535024454433,4235317.2792883115,10.5,10504235317.27929,47.655,-122.3035,60.0,1.55
2026-01-20T23:01:34+00:00,SAT-66196,210.80932051201032,52.51963159154141,299550.33321916586,-118.72970474547091,4158416.486339508,10.5,10504158416.48634,47.655,-122.3035,60.0,1.5666666666666667
2026-01-20T23:01:35+00:00,SAT-66196,208.15833948709417,52.569760471386545,299431.9201269664,-116.43901761258964,4078186.9333490413,10.5,10504078186.93335,47.655,-122.3035,60.0,1.5833333333333333
2026-01-20T23:01:36+00:00,SAT-66196,205.50385628314137,52.56007338714809,299315.79161340074,-114.05500544333769,3994688.7428203607,10.5,10503994688.74282,47.655,-122.3035,60.0,1.6
2026-01-20T23:01:37+00:00,SAT-66196,202.8531536353768,52.49054752923088,299202.04075463855,-111.5794654409216,3907984.860411921,10.5,10503907984.860413,47.655,-122.3035,60.0,1.6166666666666667
2026-01-20T23:01:38+00:00,SAT-66196,200.21343843479093,52.36145255143251,299090.75883443886,-109.01427327872099,3818140.980139569,10.5,10503818140.980139,47.655,-122.3035,60.0,1.6333333333333333
2026-01-20T23:01:39+00:00,SAT-66196,197.59170372264373,52.17334376936248,298982.03526588884,-106.36138239460308,3725225.5196604463,10.5,10503725225.51966,47.655,-122.3035,60.0,1.65
2026-01-20T23:01:40+00:00,SAT-66196,194.9946006714934,51.92704882919953,298875.9575138473,-103.62282231088632,3629309.5614310163,10.5,10503629309.561432,47.655,-122.3035,60.0,1.6666666666666667
2026-01-20T23:01:41+00:00,SAT-66196,192.42832611988945,51.62364857091127,298772.6110190626,-100.80069762974028,3530466.817521717,10.5,10503530466.817522,47.655,-122.3035,60.0,1.6833333333333333
2026-01-20T23:01:42+00:00,SAT-66196,189.89852989967534,51.26445308086964,298672.07912329317,-97.89718621413309,3428773.5659060427,10.5,10503428773.565907,47.655,-122.3035,60.0,1.7
2026-01-20T23:01:43+00:00,SAT-66196,187.410244679814,50.8509741146772,298574.44299624226,-94.91453751345452,3324308.591816784,10.5,10503324308.591816,47.655,-122.3035,60.0,1.7166666666666666
2026-01-20T23:01:44+00:00,SAT-66196,184.96783940156348,50.38489515373854,298479.7815641622,-91.85507084620484,3217153.127598529,10.5,10503217153.127598,47.655,-122.3035,60.0,1.7333333333333334
2026-01-20T23:01:45+00:00,SAT-66196,182.57499585783128,49.868040347483785,298388.1714401716,-88.7211742257388,3107390.811580248,10.5,10503107390.81158,47.655,-122.3035,60.0,1.75
2026-01-20T23:01:46+00:00,SAT-66196,180.2347066660275,49.30234349532884,298299.68685574376,-85.51530183077867,2995107.599481959,10.5,10502995107.599482,47.655,-122.3035,60.0,1.7666666666666666
2026-01-20T23:01:47+00:00,SAT-66196,177.94929196963912,48.68981807727872,298214.3995947179,-82.2399720308868,2880391.695258429,10.5,10502880391.69526,47.655,-122.3035,60.0,1.7833333333333334
2026-01-20T23:01:48+00:00,SAT-66196,175.72043155055908,48.03252913998704,298132.3789292791,-78.89776609257878,2763333.5057817805,10.5,10502763333.505781,47.655,-122.3035,60.0,1.8
2026-01-20T23:01:49+00:00,SAT-66196,173.5492087674951,47.332567630130654,298053.6915572294,-75.49132541011943,2644025.543852254,10.5,10502644025.543852,47.655,-122.3035,60.0,1.8166666666666667
2026-01-20T23:01:50+00:00,SAT-66196,171.4361628275373,46.592027577075804,297978.4015420204,-72.023349563001,2522562.360162878,10.5,10502522562.360163,47.655,-122.3035,60.0,1.8333333333333333
2026-01-20T23:01:51+00:00,SAT-66196,169.38134609608943,45.812986322800676,297906.5702547229,-68.49659405089304,2399040.4639678323,10.5,10502399040.463968,47.655,-122.3035,60.0,1.85
2026-01-20T23:01:52+00:00,SAT-66196,167.38438359233788,44.99748784429621,297838.25631825614,-64.91386821594249,2273558.250312608,10.5,10502273558.250313,47.655,-122.3035,60.0,1.8666666666666667
2026-01-20T23:01:53+00:00,SAT-66196,165.44453229531626,44.14752908046152,297773.51555368875,-61.278032500501105,2146215.9039880238,10.5,10502146215.903988,47.655,-122.3035,60.0,1.8833333333333333
2026-01-20T23:01:54+00:00,SAT-66196,163.56073842675013,43.26504909080855,297712.4009292749,-57.591996178432346,2017115.3200709927,10.5,10502017115.32007,47.655,-122.3035,60.0,1.9
2026-01-20T23:01:55+00:00,SAT-66196,161.7316913393752,42.35192079647013,297654.96251175296,-53.858714755758434,1886360.0128841917,10.5,10501886360.012884,47.655,-122.3035,60.0,1.9166666666666667
2026-01-20T23:01:56+00:00,SAT-66196,159.95587310812456,41.40994502564655,297601.2474202366,-50.081187746202694,1754055.0380861426,10.5,10501754055.038086,47.655,-122.3035,60.0,1.9333333333333333
2026-01-20T23:01:57+00:00,SAT-66196,158.2316032782239,40.440846559054094,297551.29978232435,-46.26245548890445,1620306.8812141255,10.5,10501620306.881214,47.655,-122.3035,60.0,1.95
2026-01-20T23:04:59+00:00,SAT-66196,255.50645552396324,40.879274718836236,302412.2050365435,-141.95968054922946,4972028.501687355,10.5,10504972028.501688,47.655,-122.3035,60.0,4.983333333333333
2026-01-20T23:05:00+00:00,SAT-66196,253.78577450134026,41.82175125534729,302270.62391514244,-141.80989927525727,4966782.527898688,10.5,10504966782.527899,47.655,-122.3035,60.0,5.0
2026-01-20T23:05:01+00:00,SAT-66196,252.0132131394956,42.73777204239692,302129.1921755986,-141.5493180409325,4957655.870815107,10.5,10504957655.870815,47.655,-122.3035,60.0,5.016666666666667
2026-01-20T23:05:02+00:00,SAT-66196,250.18710432111158,43.62561139807405,301988.0203224057,-141.178001650602,4944650.800158959,10.5,10504944650.80016,47.655,-122.3035,60.0,5.033333333333333
2026-01-20T23:05:03+00:00,SAT-66196,248.3059444346863,44.48346458177872,301847.2187954262,-140.69610184343392,4927772.630477769,10.5,10504927772.630478,47.655,-122.3035,60.0,5.05
2026-01-20T23:05:04+00:00,SAT-66196,246.36843827336781,45.30945162297439,301706.89788318763,-140.1038562899885,4907029.685999904,10.5,10504907029.686,47.655,-122.3035,60.0,5.066666666666666
2026-01-20T23:05:05+00:00,SAT-66196,244.37354876077757,46.1016231563185,301567.1676371811,-139.40158983581986,4882433.344190762,10.5,10504882433.34419,47.655,-122.3035,60.0,5.083333333333333
2026-01-20T23:05:06+00:00,SAT-66196,242.3205509304989,46.85796857794705,301428.1377849182,-138.589713822722,4853998.011979944,10.5,10504853998.01198,47.655,-122.3035,60.0,5.1
2026-01-20T23:05:07+00:00,SAT-66196,240.2090892602934,47.57642679748796,301289.9176436657,-137.668727338185,4821741.169522491,10.5,10504821741.169523,47.655,-122.3035,60.0,5.116666666666666
2026-01-20T23:05:08+00:00,SAT-66196,238.03923696109595,48.25489984532259,301152.6160329337,-136.63921638071113,4785683.340964724,10.5,10504785683.340965,47.655,-122.3035,60.0,5.133333333333334
2026-01-20T23:05:09+00:00,SAT-66196,235.81155538348736,48.891269508342795,301016.34118779673,-135.50185423698724,4745848.107654416,10.5,10504745848.107655,47.655,-122.3035,60.0,5.15
2026-01-20T23:05:10+00:00,SAT-66196,233.52715114121594,49.48341709071901,300881.20067183767,-134.25740056191742,4702262.075919645,10.5,10504702262.07592,47.655,-122.3035,60.0,5.166666666666667
2026-01-20T23:05:11+00:00,SAT-66196,231.1877281003854,50.02924625527507,300747.3012910106,-132.90670318934906,4654954.9404880805,10.5,10504654954.940489,47.655,-122.3035,60.0,5.183333333333334
2026-01-20T23:05:12+00:00,SAT-66196,228.7956309087447,50.52670875759331,300614.7490056964,-131.450695585217,4603959.395285316,10.5,10504603959.395285,47.655,-122.3035,60.0,5.2
2026-01-20T23:05:13+00:00,SAT-66196,226.35387660755183,50.97383266590392,300483.64884529944,-129.8903979581132,4549311.1723317215,10.5,10504549311.17233,47.655,-122.3035,60.0,5.216666666666667
2026-01-20T23:05:14+00:00,SAT-66196,223.86617070878393,51.368752486807146,300354.1048217359,-128.22691634543483,4491049.00973548,10.5,10504491049.009735,47.655,-122.3035,60.0,5.233333333333333
2026-01-20T23:05:15+00:00,SAT-66196,221.33690448874916,51.70974038148329,300226.219843834,-126.46144220049803,4429214.637231565,10.5,10504429214.637232,47.655,-122.3035,60.0,5.25
2026-01-20T23:05:16+00:00,SAT-66196,218.77113082250878,51.99523747245585,300100.09563214605,-124.59525220668426,4363852.76967236,10.5,10504363852.769672,47.655,-122.3035,60.0,5.266666666666667
2026-01-20T23:05:17+00:00,SAT-66196,216.17451686020667,52.22388408194162,299975.8326339452,-122.62970656136493,4295011.046923441,10.5,10504295011.046923,47.655,-122.3035,60.0,5.283333333333333
2026-01-20T23:05:18+00:00,SAT-66196,213.55327317842523,52.394547644595235,299853.5299399347,-120.56624979627382,4222740.062596489,10.5,10504222740.062597,47.655,-122.3035,60.0,5.3
2026-01-20T23:05:19+00:00,SAT-66196,210.91406048545406,52.506347032531416,299733.28520013794,-118.40640856592995,4147093.2865905003,10.5,10504147093.28659,47.655,-122.3035,60.0,5.316666666666666
2026-01-20T23:05:20+00:00,SAT-66196,208.26387669791964,52.55867210245955,299615.19454199483,-116.15179164510026,4068127.065002925,10.5,10504068127.065002,47.655,-122.3035,60.0,5.333333333333333
2026-01-20T23:05:21+00:00,SAT-66196,205.60992863955394,52.55119746612779,299499.3524884608,-113.80408807767657,3985900.5552955037,10.5,10503985900.555296,47.655,-122.3035,60.0,5.35
2026-01-20T23:05:22+00:00,SAT-66196,202.95949397468334,52.48388975164486,299385.85187795124,-111.36506747422368,3900475.73671566,10.5,10503900475.736715,47.655,-122.3035,60.0,5.366666666666666
2026-01-20T23:05:23+00:00,SAT-66196,200.31977974215098,52.35700796575785,299274.7837839903,-108.83657732148855,3811917.3160641342,10.5,10503811917.316065,47.655,-122.3035,60.0,5.383333333333334
2026-01-20T23:05:24+00:00,SAT-66196,197.69778426781735,52.17109694609465,299166.2374375417,-106.22054295976197,3720292.726902091,10.5,10503720292.726902,47.655,-122.3035,60.0,5.4
2026-01-20T23:05:25+00:00,SAT-66196,195.1001688107509,51.92697427014242,299060.3001493632,-103.51896504779725,3625672.04076185,10.5,10503625672.040762,47.655,-122.3035,60.0,5.416666666666667
2026-01-20T23:05:26+00:00,SAT-66196,192.5331445784284,51.625711334803235,298957.0572348888,-100.73391968627894,3528127.97147128,10.5,10503528127.971472,47.655,-122.3035,60.0,5.433333333333334
2026-01-20T23:05:27+00:00,SAT-66196,190.00237934860306,51.26860958767829,298856.59193898836,-97.86755555982272,3427735.77505455,10.5,10503427735.775055,47.655,-122.3035,60.0,5.45
2026-01-20T23:05:28+00:00,SAT-66196,187.51292653066287,50.85717308914704,298758.98536357674,-94.92209311699317,3324573.221012879,10.5,10503324573.221012,47.655,-122.3035,60.0,5.466666666666667
2026-01-20T23:05:29+00:00,SAT-66196,185.06917775313445,50.39307866066924,298664.3163960413,-91.89982235209126,3218720.5146333543,10.5,10503218720.514633,47.655,-122.3035,60.0,5.483333333333333
2026-01-20T23:05:30+00:00,SAT-66196,182.67483861886473,49.878144875744944,298572.6616398822,-88.80310187022508,3110260.26424375,10.5,10503110260.264244,47.655,-122.3035,60.0,5.5
2026-01-20T23:05:31+00:00,SAT-66196,180.33292590456662,49.31430104844499,298484.09534628363,-85.63435635281381,2999277.3924437584,10.5,10502999277.392445,47.655,-122.3035,60.0,5.516666666666667
2026-01-20T23:05:32+00:00,SAT-66196,178.04578358108003,48.703557234664395,298398.6893482144,-82.39607451696745,2885859.064633835,10.5,10502885859.064634,47.655,-122.3035,60.0,5.533333333333333
2026-01-20T23:05:33+00:00,SAT-66196,175.81511435976722,48.047976060314795,298316.5129965628,-79.09080821210789,2770094.657375046,10.5,10502770094.657375,47.655,-122.3035,60.0,5.55
2026-01-20T23:05:34+00:00,SAT-66196,173.64202317847042,47.34964697213138,298237.6330971726,-75.72116908643751,2652075.6416347,10.5,10502652075.641634,47.655,-122.3035,60.0,5.566666666666666
2026-01-20T23:05:35+00:00,SAT-66196,171.52706915904517,46.61066332759455,298162.11385120376,-72.28982739076062,2531895.5408911137,10.5,10502531895.540892,47.655,-122.3035,60.0,5.583333333333333
2026-01-20T23:05:36+00:00,SAT-66196,169.47032269840483,45.83310251787362,298090.01679668605,-68.79950885669683,2409649.8217954393,10.5,10502409649.821795,47.655,-122.3035,60.0,5.6
2026-01-20T23:05:37+00:00,SAT-66196,167.47142487038545,45.01900918918109,298021.40075318626,-65.25299354590877,2285435.853866751,10.5,10502285435.853867,47.655,-122.3035,60.0,5.616666666666666
2026-01-20T23:05:38+00:00,SAT-66196,165.5296466979212,44.17038146192714,297956.3217676232,-61.65311260426103,2159352.795808962,10.5,10502159352.795809,47.655,-122.3035,60.0,5.633333333333334
2026-01-20T23:05:39+00:00,SAT-66196,163.6439464836876,43.289159992219524,297894.8330633192,-58.00274616753198,2031501.522159993,10.5,10502031501.52216,47.655,-122.3035,60.0,5.65
2026-01-20T23:05:40+00:00,SAT-66196,161.81302379258202,42.37721962211889,297836.9849911414,-54.304820762841175,1901984.5322787685,10.5,10501901984.532278,47.655,-122.3035,60.0,5.666666666666667
2026-01-20T23:05:41+00:00,SAT-66196,160.03536917270236,41.43636334388449,297782.824983234,-50.56230710637472,1770905.8732122425,10.5,10501770905.873213,47.655,-122.3035,60.0,5.683333333333334
2026-01-20T23:05:42+00:00,SAT-66196,158.3093090558439,40.468318274653626,297732.39750894654,-46.778217115931064,1638371.0350621166,10.5,10501638371.035063,47.655,-122.3035,60.0,5.7
2026-01-20T23:08:44+00:00,SAT-66196,255.49892832981328,40.875072964739225,302573.08110662614,-140.913906521308,4935401.071609793,10.5,10504935401.07161,47.655,-122.3035,60.0,8.733333333333333
2026-01-20T23:08:45+00:00,SAT-66196,253.7779533118479,41.81741862260958,302432.5429705223,-140.78347524738854,4930832.8166733915,10.5,10504930832.816673,47.655,-122.3035,60.0,8.75
2026-01-20T23:08:46+00:00,SAT-66196,252.00510548482393,42.733289786377775,302292.1349178755,-140.54301131359756,4922410.7525506,10.5,10504922410.75255,47.655,-122.3035,60.0,8.766666666666667
2026-01-20T23:08:47+00:00,SAT-66196,250.1787202702388,43.620960704287135,302151.96668792545,-140.1925669405977,4910136.708229917,10.5,10504910136.70823,47.655,-122.3035,60.0,8.783333333333333
2026-01-20T23:08:48+00:00,SAT-66196,248.29729691133872,44.47862665849276,302012.14796783,-139.73228065481888,4894015.535492884,10.5,10504894015.535492,47.655,-122.3035,60.0,8.8
2026-01-20T23:08:49+00:00,SAT-66196,246.35954337349108,45.30440781042082,301872.7883065903,-139.16237623181652,4874055.071906023,10.5,10504874055.071905,47.655,-122.3035,60.0,8.816666666666666
2026-01-20T23:08:50+00:00,SAT-66196,244.36442606209144,46.09635505305166,301733.9970300284,-138.4831640783039,4850266.189225451,10.5,10504850266.189226,47.655,-122.3035,60.0,8.833333333333334
2026-01-20T23:08:51+00:00,SAT-66196,242.31122377885418,46.852458185710724,301595.88315438764,-137.6950404127558,4822662.764698156,10.5,10504822662.764698,47.655,-122.3035,60.0,8.85
2026-01-20T23:08:52+00:00,SAT-66196,240.19958501885583,47.57065668357573,301458.5553007493,-136.7984887374078,4791261.732617643,10.5,10504791261.732618,47.655,-122.3035,60.0,8.866666666666667
2026-01-20T23:08:53+00:00,SAT-66196,238.02958720046885,48.24885332255985,301322.12160798186,-135.79407854189765,4756083.038919963,10.5,10504756083.03892,47.655,-122.3035,60.0,8.883333333333333
2026-01-20T23:08:54+00:00,SAT-66196,235.80179599940226,48.8849308282963,301186.68964698276,-134.68246633304045,4717149.6772508025,10.5,10504717149.67725,47.655,-122.3035,60.0,8.9
2026-01-20T23:08:55+00:00,SAT-66196,233.51732236802258,49.47677165015637,301052.3663338933,-133.46439451898934,4674487.6498840675,10.5,10504674487.649883,47.655,-122.3035,60.0,8.916666666666666
2026-01-20T23:08:56+00:00,SAT-66196,231.17787440147347,50.022280809932624,300919.2578444263,-132.14069243218037,4628126.003549742,10.5,10504628126.00355,47.655,-122.3035,60.0,8.933333333333334
2026-01-20T23:08:57+00:00,SAT-66196,228.78580073846422,50.51941163424692,300787.469527174,-130.7122751908552,4578096.789559594,10.5,10504578096.78956,47.655,-122.3035,60.0,8.95
2026-01-20T23:08:58+00:00,SAT-66196,226.3441220056771,50.9661939713428,300657.10581805033,-129.18014392310045,4524435.071653985,10.5,10504524435.071653,47.655,-122.3035,60.0,8.966666666666667
2026-01-20T23:08:59+00:00,SAT-66196,223.8565467338335,51.36076430142755,300528.270154511,-127.54538446047101,4467178.880247033,10.5,10504467178.880247,47.655,-122.3035,60.0,8.983333333333333
2026-01-20T23:09:00+00:00,SAT-66196,221.32746849929515,51.701396927863094,300401.0648910757,-125.80916848687569,4406369.252665438,10.5,10504406369.252665,47.655,-122.3035,60.0,9.0
2026-01-20T23:09:01+00:00,SAT-66196,218.76194158767763,51.98653525436643,300275.59121370484,-123.97275150537264,4342050.161937072,10.5,10504342050.161938,47.655,-122.3035,60.0,9.016666666666667
2026-01-20T23:09:02+00:00,SAT-66196,216.1656335582072,52.214821979818865,300151.9490562035,-122.03747258381603,4274268.507882438,10.5,10504274268.507883,47.655,-122.3035,60.0,9.033333333333333
2026-01-20T23:09:03+00:00,SAT-66196,213.5447542894897,52.38512696401353,300030.2370168799,-120.00475414467199,4203074.109753141,10.5,10504203074.109753,47.655,-122.3035,60.0,9.05
2026-01-20T23:09:04+00:00,SAT-66196,210.90596264513428,52.49657149808571,299910.5522754129,-117.8761008145072,4128519.6659361105,10.5,10504128519.665936,47.655,-122.3035,60.0,9.066666666666666
2026-01-20T23:09:05+00:00,SAT-66196,208.25625354091338,52.5485477957754,299792.9905108673,-115.65309824960231,4050660.7128216154,10.5,10504050660.712822,47.655,-122.3035,60.0,9.083333333333334
2026-01-20T23:09:06+00:00,SAT-66196,205.6028297152732,52.54073270687972,299677.6458208796,-113.33741248269885,3969555.6019235747,10.5,10503969555.601923,47.655,-122.3035,60.0,9.1
2026-01-20T23:09:07+00:00,SAT-66196,202.95296376270647,52.47309492577788,299564.6106414969,-110.93078918146972,3885265.4739080593,10.5,10503885265.473907,47.655,-122.3035,60.0,9.116666666666667
2026-01-20T23:09:08+00:00,SAT-66196,200.31385683895536,52.345895306919665,299453.97566775326,-108.43505179297232,3797854.193604194,10.5,10503797854.193604,47.655,-122.3035,60.0,9.133333333333333
2026-01-20T23:09:09+00:00,SAT-66196,197.69250076355405,52.159680279115385,299345.8297760984,-105.8521009721005,3707388.3299861243,10.5,10503707388.329987,47.655,-122.3035,60.0,9.15
2026-01-20T23:09:10+00:00,SAT-66196,195.09554989245763,51.9152687275864,299240.25994739553,-103.18391253354847,3613937.0844421275,10.5,10503613937.084442,47.655,-122.3035,60.0,9.166666666666666
2026-01-20T23:09:11+00:00,SAT-66196,192.52920835693757,51.61373305759859,299137.35119196214,-100.43253720012393,3517572.2819594787,10.5,10503517572.28196,47.655,-122.3035,60.0,9.183333333333334
2026-01-20T23:09:12+00:00,SAT-66196,189.99913691157013,51.25637542217927,299037.1864748612,-97.6000979740566,3418368.279056554,10.5,10503418368.279057,47.655,-122.3035,60.0,9.2
2026-01-20T23:09:13+00:00,SAT-66196,187.51038219685933,50.84470029125322,298939.84664381505,-94.6887893412806,3316401.935913432,10.5,10503316401.935913,47.655,-122.3035,60.0,9.216666666666667
2026-01-20T23:09:14+00:00,SAT-66196,185.06732949752447,50.38038461629071,298845.410357912,-91.70087483093872,3211752.530895412,10.5,10503211752.530895,47.655,-122.3035,60.0,9.233333333333333
2026-01-20T23:09:15+00:00,SAT-66196,182.67367863781928,49.865246846387386,298753.9540187473,-88.63868661518164,3104501.7465362893,10.5,10503104501.746536,47.655,-122.3035,60.0,9.25
2026-01-20T23:09:16+00:00,SAT-66196,180.33244126848274,49.30121594476093,298665.55170196306,-85.50462235901863,2994733.559206802,10.5,10502994733.559206,47.655,-122.3035,60.0,9.266666666666667
2026-01-20T23:09:17+00:00,SAT-66196,178.04595695168842,48.69030142454571,298580.2750919304,-82.3011438739335,2882534.191958564,10.5,10502882534.19196,47.655,-122.3035,60.0,9.283333333333333
2026-01-20T23:09:18+00:00,SAT-66196,175.8159247189648,48.03456520872291,298498.1934177734,-79.03077547538346,2767992.056996732,10.5,10502767992.056997,47.655,-122.3035,60.0,9.3
2026-01-20T23:09:19+00:00,SAT-66196,173.6434465579732,47.33609591742573,298419.3733910326,-75.69610156793385,2651197.6711012037,10.5,10502651197.6711,47.655,-122.3035,60.0,9.316666666666666
2026-01-20T23:09:20+00:00,SAT-66196,171.52907932272635,46.596985985745256,298343.8791457356,-72.29976442249195,2532243.5777759477,10.5,10502532243.577776,47.655,-122.3035,60.0,9.333333333333334
2026-01-20T23:09:21+00:00,SAT-66196,169.47289178770487,45.81931182077262,298271.77218068484,-68.84446226344906,2411224.280252625,10.5,10502411224.280252,47.655,-122.3035,60.0,9.35
2026-01-20T23:09:22+00:00,SAT-66196,167.4745239685383,45.005117042750406,298203.11130365415,-65.3329471797916,2288236.168328864,10.5,10502288236.16833,47.655,-122.3035,60.0,9.366666666666667
2026-01-20T23:09:23+00:00,SAT-66196,165.53324633294503,44.156398729363815,298137.95257766685,-61.76802226131108,2163377.418066222,10.5,10502163377.418066,47.655,-122.3035,60.0,9.383333333333333
2026-01-20T23:09:24+00:00,SAT-66196,163.6480170588363,43.27509649591273,298076.34927013156,-58.15253973089247,2036747.9263750224,10.5,10502036747.926374,47.655,-122.3035,60.0,9.4
2026-01-20T23:09:25+00:00,SAT-66196,161.81753593953525,42.363084157600035,298018.3518038399,-54.48939797800689,1908449.207114718,10.5,10501908449.207115,47.655,-122.3035,60.0,9.416666666666666
2026-01-20T23:09:26+00:00,SAT-66196,160.04029404347537,41.42216370798793,297964.0077109232,-50.78153977075389,1778584.3284720518,10.5,10501778584.328472,47.655,-122.3035,60.0,9.433333333333334
2026-01-20T23:09:27+00:00,SAT-66196,158.31461854721283,40.45406129929539,297913.3615885918,-47.03194893397426,1647257.7966145158,10.5,10501647257.796614,47.655,-122.3035,60.0,9.45
2026-01-20T23:12:29+00:00,SAT-66196,255.41953458477474,40.911341978198244,302725.418222395,-139.78668005809516,4895920.832704868,10.5,10504895920.832705,47.655,-122.3035,60.0,12.483333333333333
2026-01-20T23:12:30+00:00,SAT-66196,253.69607778147213,41.85248246446517,302586.00430681714,-139.6689833586384,4891798.596433346,10.5,10504891798.596434,47.655,-122.3035,60.0,12.5
2026-01-20T23:12:31+00:00,SAT-66196,251.92068168495945,42.767057035327426,302446.70777408074,-139.44208076589487,4883851.507838453,10.5,10504883851.50784,47.655,-122.3035,60.0,12.516666666666667
2026-01-20T23:12:32+00:00,SAT-66196,250.0916903774281,43.65333642494238,302307.6375388635,-139.10601714482283,4872081.138280802,10.5,10504872081.13828,47.655,-122.3035,60.0,12.533333333333333
2026-01-20T23:12:33+00:00,SAT-66196,248.207613897252,44.50951262159966,302168.90247109777,-138.66092289365352,4856492.054858037,10.5,10504856492.054857,47.655,-122.3035,60.0,12.55
2026-01-20T23:12:34+00:00,SAT-66196,246.26717335502116,45.33370280916691,302030.6113106652,-138.10701349600743,4837091.804718043,10.5,10504837091.804718,47.655,-122.3035,60.0,12.566666666666666
2026-01-20T23:12:35+00:00,SAT-66196,244.26935083181135,46.12395533286315,301892.87258253846,-137.4445898752333,4813890.927469395,10.5,10504813890.92747,47.655,-122.3035,60.0,12.583333333333334
2026-01-20T23:12:36+00:00,SAT-66196,242.21344348530585,46.87825799456829,301755.7945115696,-136.67403842042899,4786902.9560927255,10.5,10504786902.956093,47.655,-122.3035,60.0,12.6
2026-01-20T23:12:37+00:00,SAT-66196,240.09912092005078,47.59454895924826,301619.4849372516,-135.79583220376182,4756144.459576428,10.5,10504756144.459576,47.655,-122.3035,60.0,12.616666666666667
2026-01-20T23:12:38+00:00,SAT-66196,237.92648440554768,48.270730523521536,301484.0512272671,-134.81052955491637,4721634.992987789,10.5,10504721634.992989,47.655,-122.3035,60.0,12.633333333333333
2026-01-20T23:12:39+00:00,SAT-66196,235.69612608877605,48.904685911502746,301349.6001924576,-133.71877513556046,4683397.13510533,10.5,10504683397.135105,47.655,-122.3035,60.0,12.65
2026-01-20T23:12:40+00:00,SAT-66196,233.40918575652216,49.494299193936286,301216.2380007224,-132.5212988568126,4641456.450503943,10.5,10504641456.450504,47.655,-122.3035,60.0,12.666666666666666
2026-01-20T23:12:41+00:00,SAT-66196,231.0674022903513,50.03747827249185,301084.0700919959,-131.21891709669262,4595841.532195158,10.5,10504595841.532196,47.655,-122.3035,60.0,12.683333333333334
2026-01-20T23:12:42+00:00,SAT-66196,228.67315648621974,50.532180729971905,300953.20109201147,-129.8125310902117,4546583.945241287,10.5,10504546583.945242,47.655,-122.3035,60.0,12.7
2026-01-20T23:12:43+00:00,SAT-66196,226.22950175823962,50.976442134539504,300823.73472767085,-128.3031276185995,4493718.250895073,10.5,10504493718.250895,47.655,-122.3035,60.0,12.716666666666667
2026-01-20T23:12:44+00:00,SAT-66196,223.74017914961112,51.368406200908005,300695.7737417259,-126.69177770761091,4437281.961008888,10.5,10504437281.961008,47.655,-122.3035,60.0,12.733333333333333
2026-01-20T23:12:45+00:00,SAT-66196,221.20961344050332,51.70635598397113,300569.41980875883,-124.97963714917967,4377315.556305244,10.5,10504377315.556305,47.655,-122.3035,60.0,12.75
2026-01-20T23:12:46+00:00,SAT-66196,218.6428877070156,51.988745100926785,300444.77345064207,-123.16794548920642,4313862.4509248575,10.5,10504313862.450924,47.655,-122.3035,60.0,12.766666666666667
2026-01-20T23:12:47+00:00,SAT-66196,216.04569473901668,52.214227812998494,300321.93395300745,-121.25802465099127,4246968.944213428,10.5,10504246968.944214,47.655,-122.3035,60.0,12.783333333333333
2026-01-20T23:12:48+00:00,SAT-66196,213.42426501282705,52.3816867135353,300200.99928308884,-119.2512798414095,4176684.252459746,10.5,10504176684.25246,47.655,-122.3035,60.0,12.8
2026-01-20T23:12:49+00:00,SAT-66196,210.78527239040315,52.490256764713344,300082.0660066604,-117.14919747314676,4103060.436123583,10.5,10504103060.436123,47.655,-122.3035,60.0,12.816666666666666
2026-01-20T23:12:50+00:00,SAT-66196,208.1357204452184,52.53934450340773,299965.22920704714,-114.95334474498266,4026152.3851354457,10.5,10504026152.385136,47.655,-122.3035,60.0,12.833333333333334
2026-01-20T23:12:51+00:00,SAT-66196,205.48281374538445,52.52864143305276,299850.5824045548,-112.66536821038372,3946017.7687626453,10.5,10503946017.768763,47.655,-122.3035,60.0,12.85
2026-01-20T23:12:52+00:00,SAT-66196,202.83381973125657,52.4581308895796,299738.21747732634,-110.28699393388857,3862717.041086571,10.5,10503862717.041086,47.655,-122.3035,60.0,12.866666666666667
2026-01-20T23:12:53+00:00,SAT-66196,200.19592757671873,52.32808801244548,299628.22458204295,-107.82002500904413,3776313.3540703123,10.5,10503776313.35407,47.655,-122.3035,60.0,12.883333333333333
2026-01-20T23:12:54+00:00,SAT-66196,197.5761107830136,52.139072831275556,299520.69207710057,-105.26634118377017,3686872.544437348,10.5,10503686872.544437,47.655,-122.3035,60.0,12.9
2026-01-20T23:12:55+00:00,SAT-66196,194.98099982034742,51.89191685482654,299415.70644616,-102.6278968984523,3594463.0649572555,10.5,10503594463.064957,47.655,-122.3035,60.0,12.916666666666666
2026-01-20T23:12:56+00:00,SAT-66196,192.41677035384146,51.587703890048935,299313.35222365323,-99.90672097466742,3499155.9735435634,10.5,10503499155.973543,47.655,-122.3035,60.0,12.933333333333334
2026-01-20T23:12:57+00:00,SAT-66196,189.88905122388502,51.22774608389629,299213.7119206012,-97.10491399137106,3401024.841356737,10.5,10503401024.841356,47.655,-122.3035,60.0,12.95
2026-01-20T23:12:58+00:00,SAT-66196,187.40285490285757,50.813556370292076,299116.8659530472,-94.22464737052476,3300145.720778973,10.5,10503300145.72078,47.655,-122.3035,60.0,12.966666666666667
2026-01-20T23:12:59+00:00,SAT-66196,184.9625314341736,50.346818577098176,299022.8925714029,-91.26816171046038,3196597.087041576,10.5,10503196597.087042,47.655,-122.3035,60.0,12.983333333333333
2026-01-20T23:13:00+00:00,SAT-66196,182.57174540462475,49.82935644019534,298931.86779145704,-88.23776495368688,3090459.774053796,10.5,10503090459.774054,47.655,-122.3035,60.0,13.0
2026-01-20T23:13:01+00:00,SAT-66196,180.2334742100707,49.26310267700315,298843.8653272099,-85.13583086480065,2981816.9210928143,10.5,10502981816.921093,47.655,-122.3035,60.0,13.016666666666667
2026-01-20T23:13:02+00:00,SAT-66196,177.950024909028,48.65006911322962,298758.95652522735,-81.96479646385355,2870753.88290943,10.5,10502870753.88291,47.655,-122.3035,60.0,13.033333333333333
2026-01-20T23:13:03+00:00,SAT-66196,175.7230663977269,47.99231867206824,298677.21030155406,-78.727161160249,2757358.1993934433,10.5,10502757358.199394,47.655,-122.3035,60.0,13.05
2026-01-20T23:13:04+00:00,SAT-66196,173.5536733109396,47.291939806890376,298598.69307949033,-75.42548386208544,2641719.4943306316,10.5,10502641719.494331,47.655,-122.3035,60.0,13.066666666666666
2026-01-20T23:13:05+00:00,SAT-66196,171.44237818901658,46.55102377906383,298523.4687302518,-72.06238142817584,2523929.4211859265,10.5,10502523929.421186,47.655,-122.3035,60.0,13.083333333333334
2026-01-20T23:13:06+00:00,SAT-66196,169.3892286214589,45.77164497149912,298451.5985151742,-68.64052583541778,2404081.5638927333,10.5,10502404081.563892,47.655,-122.3035,60.0,13.1
2026-01-20T23:13:07+00:00,SAT-66196,167.39384655925247,44.95584429096124,298383.1410307409,-65.16264290923596,2282271.3923876546,10.5,10502282271.392387,47.655,-122.3035,60.0,13.116666666666667
2026-01-20T23:13:08+00:00,SAT-66196,165.45548739910132,44.10561555680479,298318.15215487947,-61.631509270360624,2158596.1556737577,10.5,10502158596.155674,47.655,-122.3035,60.0,13.133333333333333
2026-01-20T23:13:09+00:00,SAT-66196,163.5730970499374,43.222894714167715,298256.6849963005,-58.04995026038005,2033154.8091646472,10.5,10502033154.809164,47.655,-122.3035,60.0,13.15
2026-01-20T23:13:10+00:00,SAT-66196,161.7453656067199,42.309551617669875,298198.7898459075,-54.420837375889455,1906047.9248175058,10.5,10501906047.924818,47.655,-122.3035,60.0,13.166666666666666
2026-01-20T23:13:11+00:00,SAT-66196,159.97077674101453,41.36738411052121,298144.5141307646,-50.747086041691425,1777377.6131411549,10.5,10501777377.613142,47.655,-122.3035,60.0,13.183333333333334
2026-01-20T23:13:12+00:00,SAT-66196,158.24765226902707,40.39811409701819,298093.9023702857,-47.03165284549501,1647247.4263435195,10.5,10501647247.426344,47.655,-122.3035,60.0,13.2
