satellites_20260120_184412/SAT-55403.csv

timestamp,satellite,azimuth_deg,elevation_deg,distance_km,relative_velocity_kms,doppler_shift_hz,tx_freq_ghz,rx_freq_hz,ue_lat,ue_lon,ue_alt_m,time_minutes
2026-01-20T23:06:11+00:00,SAT-55403,239.4599121222273,40.039933109117946,2137.0506835382844,-6.7057651353308,234864.26039768287,10.5,10500234864.260397,47.655,-122.3035,60.0,6.183333333333334
2026-01-20T23:06:12+00:00,SAT-55403,239.3739818759284,40.098051503410275,2130.362800443314,-6.704166775010359,234808.27905820354,10.5,10500234808.279058,47.655,-122.3035,60.0,6.2
2026-01-20T23:06:13+00:00,SAT-55403,239.28749262755997,40.15629561827725,2123.67651144637,-6.702545477233033,234751.4943519588,10.5,10500234751.494352,47.655,-122.3035,60.0,6.216666666666667
2026-01-20T23:06:14+00:00,SAT-55403,239.20043837375988,40.214666014246504,2116.991839423743,-6.700900940445094,234693.89571726148,10.5,10500234693.895718,47.655,-122.3035,60.0,6.233333333333333
2026-01-20T23:06:15+00:00,SAT-55403,239.11281302878496,40.2731632485097,2110.308807552473,-6.699232916869336,234635.47447590568,10.5,10500234635.474476,47.655,-122.3035,60.0,6.25
2026-01-20T23:06:16+00:00,SAT-55403,239.02461042252185,40.33178787521758,2103.627439256715,-6.697541143235973,234576.2214070699,10.5,10500234576.221407,47.655,-122.3035,60.0,6.266666666666667
2026-01-20T23:06:17+00:00,SAT-55403,238.93582429921668,40.390540445137496,2096.9477582231943,-6.69582535194036,234516.12713810758,10.5,10500234516.127138,47.655,-122.3035,60.0,6.283333333333333
2026-01-20T23:06:18+00:00,SAT-55403,238.8464483160834,40.44942150540047,2090.2697884055256,-6.694085236777291,234455.1809444171,10.5,10500234455.180944,47.655,-122.3035,60.0,6.3
2026-01-20T23:06:19+00:00,SAT-55403,238.7564760422624,40.50843159892839,2083.5935540627133,-6.692320533620129,234393.37357516633,10.5,10500234393.373575,47.655,-122.3035,60.0,6.316666666666666
2026-01-20T23:06:20+00:00,SAT-55403,238.66590095685098,40.567571264597916,2076.9190797171827,-6.690530973184307,234330.6955988707,10.5,10500234330.695599,47.655,-122.3035,60.0,6.333333333333333
2026-01-20T23:06:21+00:00,SAT-55403,238.57471644737743,40.62684103694714,2070.246390159927,-6.6887162254728185,234267.13545763915,10.5,10500234267.135458,47.655,-122.3035,60.0,6.35
2026-01-20T23:06:22+00:00,SAT-55403,238.48291580902253,40.68624144538618,2063.575510511055,-6.686876035344093,234202.68421533465,10.5,10500234202.684216,47.655,-122.3035,60.0,6.366666666666666
2026-01-20T23:06:23+00:00,SAT-55403,238.3904922420714,40.74577301462136,2056.906466145139,-6.6850100695584285,234137.33020049325,10.5,10500234137.3302,47.655,-122.3035,60.0,6.383333333333334
2026-01-20T23:06:24+00:00,SAT-55403,238.29743885129687,40.80543626368388,2050.239282769099,-6.683118063435479,234071.0641428896,10.5,10500234071.064142,47.655,-122.3035,60.0,6.4
2026-01-20T23:06:25+00:00,SAT-55403,238.20374864339777,40.865231706275246,2043.573986353833,-6.681199674483656,234003.87404701952,10.5,10500234003.874046,47.655,-122.3035,60.0,6.416666666666667
2026-01-20T23:06:26+00:00,SAT-55403,238.1094145263475,40.925159849782155,2036.9106032118145,-6.679254599951613,233935.74930925027,10.5,10500233935.74931,47.655,-122.3035,60.0,6.433333333333334
2026-01-20T23:06:27+00:00,SAT-55403,238.01442930712426,40.9852211953323,2030.249159957463,-6.677282527661802,233866.67899580355,10.5,10500233866.678995,47.655,-122.3035,60.0,6.45
2026-01-20T23:06:28+00:00,SAT-55403,237.91878569014054,41.04541623742446,2023.5896835165415,-6.675283116292301,233796.65115214195,10.5,10500233796.651152,47.655,-122.3035,60.0,6.466666666666667
2026-01-20T23:06:29+00:00,SAT-55403,237.82247627577925,41.10574546331816,2016.932201155226,-6.673256060910995,233725.6550982528,10.5,10500233725.655098,47.655,-122.3035,60.0,6.483333333333333
2026-01-20T23:06:30+00:00,SAT-55403,237.72549355817003,41.16620935307352,2010.276740443811,-6.6712009929231115,233653.67792438818,10.5,10500233653.677925,47.655,-122.3035,60.0,6.5
2026-01-20T23:06:31+00:00,SAT-55403,237.62782992412093,41.226808378592125,2003.6233293202022,-6.669117624997457,233580.70956699416,10.5,10500233580.709566,47.655,-122.3035,60.0,6.516666666666667
2026-01-20T23:06:32+00:00,SAT-55403,237.52947765020988,41.28754300404854,1996.9719960088714,-6.667005566818199,233506.73635555932,10.5,10500233506.736355,47.655,-122.3035,60.0,6.533333333333333
2026-01-20T23:06:33+00:00,SAT-55403,237.43042890218993,41.348413684544596,1990.3227691235647,-6.664864503176002,233431.74725011934,10.5,10500233431.74725,47.655,-122.3035,60.0,6.55
2026-01-20T23:06:34+00:00,SAT-55403,237.33067573208666,41.40942086645631,1983.6756775923973,-6.662694044007621,233355.72858900946,10.5,10500233355.728588,47.655,-122.3035,60.0,6.566666666666666
2026-01-20T23:06:35+00:00,SAT-55403,237.230210077163,41.470564986319644,1977.030750732507,-6.6604938573561,233278.66874569288,10.5,10500233278.668745,47.655,-122.3035,60.0,6.583333333333333
2026-01-20T23:06:36+00:00,SAT-55403,237.1290237571689,41.53184647099776,1970.3880181921036,-6.658263547336282,233200.5538545968,10.5,10500233200.553854,47.655,-122.3035,60.0,6.6
2026-01-20T23:06:37+00:00,SAT-55403,237.02710847309174,41.59326573663395,1963.747510014227,-6.656002770107253,233121.37187295803,10.5,10500233121.371874,47.655,-122.3035,60.0,6.616666666666666
2026-01-20T23:06:38+00:00,SAT-55403,236.92445580438573,41.654823188733864,1957.1092565848398,-6.653711141051088,233041.10932982984,10.5,10500233041.10933,47.655,-122.3035,60.0,6.633333333333334
2026-01-20T23:06:39+00:00,SAT-55403,236.8210572073637,41.71651922131794,1950.4732886734985,-6.651388258481048,232959.75215644354,10.5,10500232959.752157,47.655,-122.3035,60.0,6.65
2026-01-20T23:06:40+00:00,SAT-55403,236.7169040132832,41.77835421629846,1943.8396374503732,-6.6490337541385465,232877.28745482562,10.5,10500232877.287455,47.655,-122.3035,60.0,6.666666666666667
2026-01-20T23:06:41+00:00,SAT-55403,236.6119874256342,41.840328543320474,1937.2083344529124,-6.646647213370632,232793.70070207582,10.5,10500232793.700703,47.655,-122.3035,60.0,6.683333333333334
2026-01-20T23:06:42+00:00,SAT-55403,236.50629851854455,41.902442558811984,1930.5794116321108,-6.644228244250925,232708.97817127444,10.5,10500232708.97817,47.655,-122.3035,60.0,6.7
2026-01-20T23:06:43+00:00,SAT-55403,236.39982823416054,41.964696605702734,1923.9529013298445,-6.641776419228619,232623.10488778376,10.5,10500232623.104887,47.655,-122.3035,60.0,6.716666666666667
2026-01-20T23:06:44+00:00,SAT-55403,236.2925673808117,42.02709101253385,1917.3288363144004,-6.639291338014831,232536.06683179378,10.5,10500232536.066832,47.655,-122.3035,60.0,6.733333333333333
2026-01-20T23:06:45+00:00,SAT-55403,236.18450663020275,42.089626093172846,1910.707249753287,-6.636772571733826,232447.84898226216,10.5,10500232447.848982,47.655,-122.3035,60.0,6.75
2026-01-20T23:06:46+00:00,SAT-55403,236.07563651544734,42.15230214597804,1904.0881752417447,-6.6342196775681295,232358.43582984785,10.5,10500232358.43583,47.655,-122.3035,60.0,6.766666666666667
2026-01-20T23:06:47+00:00,SAT-55403,235.9659474287384,42.21511945305066,1897.47164681665,-6.631632258043888,232267.8134533352,10.5,10500232267.813454,47.655,-122.3035,60.0,6.783333333333333
2026-01-20T23:06:48+00:00,SAT-55403,235.8554296181979,42.2780782800952,1890.8576989112942,-6.629009816652496,232175.96446289253,10.5,10500232175.964462,47.655,-122.3035,60.0,6.8
2026-01-20T23:06:49+00:00,SAT-55403,235.74407318675262,42.341178874791204,1884.2463664541526,-6.626351935227171,232082.87421255038,10.5,10500232082.874212,47.655,-122.3035,60.0,6.816666666666666
2026-01-20T23:06:50+00:00,SAT-55403,235.63186808836682,42.404421466925506,1877.637684790753,-6.62365812532831,231988.5255950877,10.5,10500231988.525595,47.655,-122.3035,60.0,6.833333333333333
2026-01-20T23:06:51+00:00,SAT-55403,235.51880412641378,42.46780626701025,1871.0316897537587,-6.6209279537549754,231892.9034379752,10.5,10500231892.903439,47.655,-122.3035,60.0,6.85
2026-01-20T23:06:52+00:00,SAT-55403,235.40487095015237,42.531333466145334,1864.4284176078804,-6.618160922350912,231795.99029367368,10.5,10500231795.990294,47.655,-122.3035,60.0,6.866666666666666
2026-01-20T23:06:53+00:00,SAT-55403,235.29005805292326,42.59500323463575,1857.8279051146558,-6.615356553605021,231697.76943772455,10.5,10500231697.769438,47.655,-122.3035,60.0,6.883333333333334
2026-01-20T23:06:54+00:00,SAT-55403,235.17435476904552,42.65881572145417,1851.2301895118605,-6.612514356349834,231598.22366736544,10.5,10500231598.223667,47.655,-122.3035,60.0,6.9
2026-01-20T23:06:55+00:00,SAT-55403,235.05775027115246,42.72277105333133,1844.6353085271276,-6.609633819766546,231497.335091561,10.5,10500231497.33509,47.655,-122.3035,60.0,6.916666666666667
2026-01-20T23:06:56+00:00,SAT-55403,234.94023356759175,42.78686933375345,1838.043300397547,-6.606714486825316,231395.08770319304,10.5,10500231395.087704,47.655,-122.3035,60.0,6.933333333333334
2026-01-20T23:06:57+00:00,SAT-55403,234.82179349857444,42.85111064268134,1831.45420381602,-6.603755744975465,231291.46004814564,10.5,10500231291.460049,47.655,-122.3035,60.0,6.95
2026-01-20T23:06:58+00:00,SAT-55403,234.7024187356869,42.91549503411164,1824.8680580863643,-6.600757170829777,231186.4372976076,10.5,10500231186.437298,47.655,-122.3035,60.0,6.966666666666667
2026-01-20T23:06:59+00:00,SAT-55403,234.5820977757115,42.98002253711875,1818.2849029346567,-6.597718168143039,231079.9985685494,10.5,10500231079.99857,47.655,-122.3035,60.0,6.983333333333333
2026-01-20T23:07:00+00:00,SAT-55403,234.46081894033588,43.04469315317226,1811.7047786816288,-6.594638205411395,230972.12524545784,10.5,10500230972.125246,47.655,-122.3035,60.0,7.0
2026-01-20T23:07:01+00:00,SAT-55403,234.33857037190037,43.10950685585772,1805.1277261780986,-6.591516735755563,230862.798174307,10.5,10500230862.798174,47.655,-122.3035,60.0,7.016666666666667
2026-01-20T23:07:02+00:00,SAT-55403,234.2153400303983,43.174463589728184,1798.553786820305,-6.58835320313966,230751.9978803684,10.5,10500230751.99788,47.655,-122.3035,60.0,7.033333333333333
2026-01-20T23:07:03+00:00,SAT-55403,234.09111569031265,43.23956326920309,1791.9830025590402,-6.585147035600711,230639.70433107918,10.5,10500230639.70433,47.655,-122.3035,60.0,7.05
2026-01-20T23:07:04+00:00,SAT-55403,233.96588493753308,43.30480577735262,1785.4154159155346,-6.581897642431319,230525.8968373676,10.5,10500230525.896837,47.655,-122.3035,60.0,7.066666666666666
2026-01-20T23:07:05+00:00,SAT-55403,233.83963516625425,43.3701909646235,1778.8510700001498,-6.578604436734469,230410.5548436176,10.5,10500230410.554844,47.655,-122.3035,60.0,7.083333333333333
2026-01-20T23:07:06+00:00,SAT-55403,233.71235357541735,43.43571864775287,1772.2900085085798,-6.575266817823364,230293.65731123666,10.5,10500230293.65731,47.655,-122.3035,60.0,7.1
2026-01-20T23:07:07+00:00,SAT-55403,233.58402716542463,43.50138860846897,1765.7322757356042,-6.571884168415288,230175.18262037303,10.5,10500230175.182621,47.655,-122.3035,60.0,7.116666666666666
2026-01-20T23:07:08+00:00,SAT-55403,233.45464273480138,43.567200592116514,1759.1779165916378,-6.5684558889265325,230055.109771069,10.5,10500230055.109772,47.655,-122.3035,60.0,7.133333333333334
2026-01-20T23:07:09+00:00,SAT-55403,233.32418687623,43.633154306607025,1752.6269765850818,-6.5649813011939795,229933.41501118348,10.5,10500229933.41501,47.655,-122.3035,60.0,7.15
2026-01-20T23:07:10+00:00,SAT-55403,233.19264597420795,43.69924942030224,1746.0795019006912,-6.561459823453884,229810.0779648892,10.5,10500229810.077965,47.655,-122.3035,60.0,7.166666666666667
2026-01-20T23:07:11+00:00,SAT-55403,233.06000619952835,43.765485561720126,1739.5355393034329,-6.557890755273187,229685.0741000578,10.5,10500229685.0741,47.655,-122.3035,60.0,7.183333333333334
2026-01-20T23:07:12+00:00,SAT-55403,232.92625350755156,43.83186231689772,1732.9951362568406,-6.554273424596551,229558.37987846843,10.5,10500229558.379879,47.655,-122.3035,60.0,7.2
2026-01-20T23:07:13+00:00,SAT-55403,232.79137363379965,43.89837922828018,1726.4583408947096,-6.550607175900774,229429.9723409257,10.5,10500229429.972342,47.655,-122.3035,60.0,7.216666666666667
2026-01-20T23:07:14+00:00,SAT-55403,232.65535208964184,43.96503579343939,1719.9252020046113,-6.546891324253756,229299.82749821022,10.5,10500229299.827497,47.655,-122.3035,60.0,7.233333333333333
2026-01-20T23:07:15+00:00,SAT-55403,232.51817415876383,44.03183146323278,1713.3957690572222,-6.543125156361171,229167.92036773753,10.5,10500229167.920368,47.655,-122.3035,60.0,7.25
2026-01-20T23:07:16+00:00,SAT-55403,232.3798248935903,44.09876563994902,1706.8700922346113,-6.539307935262937,229034.22513804815,10.5,10500229034.225138,47.655,-122.3035,60.0,7.266666666666667
2026-01-20T23:07:17+00:00,SAT-55403,232.24028911157342,44.16583767543166,1700.3482224538425,-6.535438995238677,228898.71849279848,10.5,10500228898.718493,47.655,-122.3035,60.0,7.283333333333333
2026-01-20T23:07:18+00:00,SAT-55403,232.0995513895054,44.23304687017399,1693.8302112959243,-6.531517517802486,228761.37176514996,10.5,10500228761.371765,47.655,-122.3035,60.0,7.3
2026-01-20T23:07:19+00:00,SAT-55403,231.95759606220665,44.300392469941755,1687.3161111581694,-6.527542816900112,228622.1609265807,10.5,10500228622.160927,47.655,-122.3035,60.0,7.316666666666666
2026-01-20T23:07:20+00:00,SAT-55403,231.8144072155011,44.36787366542283,1680.8059751221142,-6.523514075750476,228481.05736996225,10.5,10500228481.05737,47.655,-122.3035,60.0,7.333333333333333
2026-01-20T23:07:21+00:00,SAT-55403,231.66996868435928,44.43548958896361,1674.2998570838993,-6.519430552729307,228338.03512047563,10.5,10500228338.03512,47.655,-122.3035,60.0,7.35
2026-01-20T23:07:22+00:00,SAT-55403,231.52426404681987,44.50323931346584,1667.7978116793104,-6.515291437473828,228193.06579578863,10.5,10500228193.065796,47.655,-122.3035,60.0,7.366666666666666
2026-01-20T23:07:23+00:00,SAT-55403,231.37727662082133,44.57112184968982,1661.2998943523364,-6.511095904104305,228046.12047009935,10.5,10500228046.12047,47.655,-122.3035,60.0,7.383333333333334
2026-01-20T23:07:24+00:00,SAT-55403,231.22898945978412,44.639136144013314,1654.8061613706432,-6.506843169495746,227897.17171505807,10.5,10500227897.171715,47.655,-122.3035,60.0,7.4
2026-01-20T23:07:25+00:00,SAT-55403,231.07938534705096,44.70728107682941,1648.3166697829326,-6.50253234497354,227746.18840552075,10.5,10500227746.188406,47.655,-122.3035,60.0,7.416666666666667
2026-01-20T23:07:26+00:00,SAT-55403,230.92844679318725,44.775555459170576,1641.8314775242125,-6.49816265093034,227593.1432363404,10.5,10500227593.143236,47.655,-122.3035,60.0,7.433333333333334
2026-01-20T23:07:27+00:00,SAT-55403,230.7761560288728,44.84395803170429,1635.350643307018,-6.493733123627222,227438.0024533033,10.5,10500227438.002453,47.655,-122.3035,60.0,7.45
2026-01-20T23:07:28+00:00,SAT-55403,230.62249500378692,44.91248746032271,1628.8742268050537,-6.4892429578791555,227280.73785542374,10.5,10500227280.737856,47.655,-122.3035,60.0,7.466666666666667
2026-01-20T23:07:29+00:00,SAT-55403,230.4674453782594,44.98114233554512,1622.402288495062,-6.484691225203437,227121.31692330993,10.5,10500227121.316923,47.655,-122.3035,60.0,7.483333333333333
2026-01-20T23:07:30+00:00,SAT-55403,230.31098852075326,45.04992116862614,1615.9348897797927,-6.480076993015517,226959.70699390623,10.5,10500226959.706993,47.655,-122.3035,60.0,7.5
2026-01-20T23:07:31+00:00,SAT-55403,230.15310550287197,45.11882238896734,1609.4720929920918,-6.475399366865889,226795.87673980725,10.5,10500226795.87674,47.655,-122.3035,60.0,7.516666666666667
2026-01-20T23:07:32+00:00,SAT-55403,229.99377709321422,45.187844341880144,1603.0139613568708,-6.470657352729539,226629.79134605234,10.5,10500226629.791346,47.655,-122.3035,60.0,7.533333333333333
2026-01-20T23:07:33+00:00,SAT-55403,229.83298375436567,45.25698528474297,1596.5605590904152,-6.465850032643401,226461.41866169198,10.5,10500226461.418661,47.655,-122.3035,60.0,7.55
2026-01-20T23:07:34+00:00,SAT-55403,229.67070563573546,45.3262433850088,1590.1119513245258,-6.460976360646981,226290.72205276525,10.5,10500226290.722054,47.655,-122.3035,60.0,7.566666666666666
2026-01-20T23:07:35+00:00,SAT-55403,229.50692257111288,45.3956167158486,1583.6682042341738,-6.456035383343877,226117.66812729725,10.5,10500226117.668127,47.655,-122.3035,60.0,7.583333333333333
2026-01-20T23:07:36+00:00,SAT-55403,229.34161407100007,45.46510325417475,1577.2293849451853,-6.451026073273806,225942.2208992828,10.5,10500225942.2209,47.655,-122.3035,60.0,7.6
2026-01-20T23:07:37+00:00,SAT-55403,229.17475931876788,45.53470087667857,1570.7955616081072,-6.445947362150178,225764.3429528066,10.5,10500225764.342953,47.655,-122.3035,60.0,7.616666666666666
2026-01-20T23:07:38+00:00,SAT-55403,229.0063371660046,45.604407356139056,1564.3668034389227,-6.440798218239596,225583.99815220086,10.5,10500225583.998152,47.655,-122.3035,60.0,7.633333333333334
2026-01-20T23:07:39+00:00,SAT-55403,228.8363261259931,45.674220358526675,1557.9431806825983,-6.435577533912145,225401.1477035807,10.5,10500225401.147703,47.655,-122.3035,60.0,7.65
2026-01-20T23:07:40+00:00,SAT-55403,228.66470436974177,45.74413743866312,1551.5247646887765,-6.4302842431781295,225215.7542714779,10.5,10500225215.75427,47.655,-122.3035,60.0,7.666666666666667
2026-01-20T23:07:41+00:00,SAT-55403,228.49144971922675,45.81415603717673,1545.111627870247,-6.424917209069375,225027.77803445753,10.5,10500225027.778034,47.655,-122.3035,60.0,7.683333333333334
2026-01-20T23:07:42+00:00,SAT-55403,228.31653964321646,45.88427347598893,1538.703843773735,-6.419475280353248,224837.17867148315,10.5,10500224837.17867,47.655,-122.3035,60.0,7.7
2026-01-20T23:07:43+00:00,SAT-55403,228.1399512518184,45.95448695438663,1532.3014870941295,-6.41395730529957,224643.915844092,10.5,10500224643.915844,47.655,-122.3035,60.0,7.716666666666667
2026-01-20T23:07:44+00:00,SAT-55403,227.96166129045466,46.02479354506875,1525.9046336749773,-6.40836211708937,224447.9486853481,10.5,10500224447.948685,47.655,-122.3035,60.0,7.733333333333333
2026-01-20T23:07:45+00:00,SAT-55403,227.78164613431574,46.09519018996351,1519.5133605235335,-6.402688481915227,224249.2339820967,10.5,10500224249.233982,47.655,-122.3035,60.0,7.75
2026-01-20T23:07:46+00:00,SAT-55403,227.5998817839948,46.16567369524734,1513.12774587757,-6.396935176798618,224047.72890045648,10.5,10500224047.7289,47.655,-122.3035,60.0,7.766666666666667
2026-01-20T23:07:47+00:00,SAT-55403,227.41634385918059,46.236240727174255,1506.7478691945762,-6.391100960400305,223843.3899634767,10.5,10500223843.389963,47.655,-122.3035,60.0,7.783333333333333
2026-01-20T23:07:48+00:00,SAT-55403,227.23100759297918,46.306887807391405,1500.3738111700704,-6.385184552632854,223636.1723370805,10.5,10500223636.172337,47.655,-122.3035,60.0,7.8
2026-01-20T23:07:49+00:00,SAT-55403,227.04384782688223,46.37761130792427,1494.0056537762446,-6.3791846587728624,223426.03067457772,10.5,10500223426.030674,47.655,-122.3035,60.0,7.816666666666666
2026-01-20T23:07:50+00:00,SAT-55403,226.85483900490226,46.448407446218845,1487.6434802765618,-6.373099933451811,223212.91785547193,10.5,10500223212.917856,47.655,-122.3035,60.0,7.833333333333333
2026-01-20T23:07:51+00:00,SAT-55403,226.66395516887252,46.51927227967976,1481.287375276266,-6.366929054682595,222996.78757818267,10.5,10500222996.787579,47.655,-122.3035,60.0,7.85
2026-01-20T23:07:52+00:00,SAT-55403,226.4711699515458,46.59020170087221,1474.9374246990621,-6.360670647831113,222777.59169720902,10.5,10500222777.591698,47.655,-122.3035,60.0,7.866666666666666
2026-01-20T23:07:53+00:00,SAT-55403,226.27645657187608,46.66119143169,1468.5937158396252,-6.354323295459218,222555.28056787135,10.5,10500222555.280567,47.655,-122.3035,60.0,7.883333333333334
2026-01-20T23:07:54+00:00,SAT-55403,226.07978783000073,46.732237017451176,1462.2563374062875,-6.347885559434816,222329.80382070038,10.5,10500222329.803822,47.655,-122.3035,60.0,7.9
2026-01-20T23:07:55+00:00,SAT-55403,225.88113610169933,46.80333382110275,1455.9253795416778,-6.341356001190776,222101.11107099015,10.5,10500222101.11107,47.655,-122.3035,60.0,7.916666666666667
2026-01-20T23:07:56+00:00,SAT-55403,225.68047333218772,46.87447701747065,1449.6009338231568,-6.334733176513646,221869.15173627643,10.5,10500221869.151737,47.655,-122.3035,60.0,7.933333333333334
2026-01-20T23:07:57+00:00,SAT-55403,225.47777103011518,46.945661587292186,1443.2830932684474,-6.32801548194058,221633.8696565078,10.5,10500221633.869656,47.655,-122.3035,60.0,7.95
2026-01-20T23:07:58+00:00,SAT-55403,225.27300026614617,47.01688230917784,1436.9719524944585,-6.3212014701160575,221395.2141391716,10.5,10500221395.21414,47.655,-122.3035,60.0,7.966666666666667
2026-01-20T23:07:59+00:00,SAT-55403,225.066131662253,47.088133755205625,1430.6676075615962,-6.314289533614644,221153.12888542967,10.5,10500221153.128885,47.655,-122.3035,60.0,7.983333333333333
2026-01-20T23:08:00+00:00,SAT-55403,224.8571353904357,47.15941028248855,1424.3701561334044,-6.307278051378416,220907.55711897655,10.5,10500220907.55712,47.655,-122.3035,60.0,8.0
2026-01-20T23:08:01+00:00,SAT-55403,224.64598116725372,47.230706026312326,1418.079697490163,-6.300165430944436,220658.44306502395,10.5,10500220658.443066,47.655,-122.3035,60.0,8.016666666666667
2026-01-20T23:08:02+00:00,SAT-55403,224.43263824699736,47.30201489356577,1411.796332500368,-6.292949978218773,220405.72738923645,10.5,10500220405.727388,47.655,-122.3035,60.0,8.033333333333333
2026-01-20T23:08:03+00:00,SAT-55403,224.2170754190736,47.37333055438416,1405.520163722091,-6.285630037643768,220149.35210698185,10.5,10500220149.352106,47.655,-122.3035,60.0,8.05
2026-01-20T23:08:04+00:00,SAT-55403,223.99926100108038,47.44464643528538,1399.2512953645476,-6.278203839343062,219889.25522970344,10.5,10500219889.25523,47.655,-122.3035,60.0,8.066666666666666
2026-01-20T23:08:05+00:00,SAT-55403,223.77916283683567,47.51595571017996,1392.9898334021093,-6.270669671825598,219625.37681374486,10.5,10500219625.376814,47.655,-122.3035,60.0,8.083333333333334
2026-01-20T23:08:06+00:00,SAT-55403,223.55674828901664,47.58725129328199,1386.7358855160753,-6.263025677166703,219357.65178672498,10.5,10500219357.651787,47.655,-122.3035,60.0,8.1
2026-01-20T23:08:07+00:00,SAT-55403,223.33198423869453,47.65852582929273,1380.4895612407145,-6.255270107029134,219086.0189144782,10.5,10500219086.018915,47.655,-122.3035,60.0,8.116666666666667
2026-01-20T23:08:08+00:00,SAT-55403,223.10483707645054,47.729771686426446,1374.250971853971,-6.247401022199229,218810.41027753908,10.5,10500218810.410278,47.655,-122.3035,60.0,8.133333333333333
2026-01-20T23:08:09+00:00,SAT-55403,222.8752727038372,47.80098094554002,1368.0202305678306,-6.239416565266888,218530.7608215492,10.5,10500218530.760822,47.655,-122.3035,60.0,8.15
2026-01-20T23:08:10+00:00,SAT-55403,222.6432565258084,47.87214539233174,1361.7974524467377,-6.231314783476428,218247.00215274424,10.5,10500218247.002153,47.655,-122.3035,60.0,8.166666666666666
2026-01-20T23:08:11+00:00,SAT-55403,222.40875344945675,47.94325650712661,1355.5827545026839,-6.223093727909218,217959.06601175,10.5,10500217959.066011,47.655,-122.3035,60.0,8.183333333333334
2026-01-20T23:08:12+00:00,SAT-55403,222.1717278794339,48.01430545554877,1349.3762556913825,-6.214751337770182,217666.88022080567,10.5,10500217666.88022,47.655,-122.3035,60.0,8.2
2026-01-20T23:08:13+00:00,SAT-55403,221.9321437179486,48.085283077576264,1343.1780770238463,-6.206285597339273,217370.3741808687,10.5,10500217370.374182,47.655,-122.3035,60.0,8.216666666666667
2026-01-20T23:08:14+00:00,SAT-55403,221.68996435928784,48.15617987816397,1336.9883415214333,-6.197694409299977,217069.4744350432,10.5,10500217069.474436,47.655,-122.3035,60.0,8.233333333333333
2026-01-20T23:08:15+00:00,SAT-55403,221.4451526893372,48.22698601609965,1330.8071742972247,-6.188975623540135,216764.10567730633,10.5,10500216764.105677,47.655,-122.3035,60.0,8.25
2026-01-20T23:08:16+00:00,SAT-55403,221.19767108429997,48.297691292821995,1324.6347026086808,-6.180127087114261,216454.19250240026,10.5,10500216454.192503,47.655,-122.3035,60.0,8.266666666666667
2026-01-20T23:08:17+00:00,SAT-55403,220.94748140812445,48.368285141668906,1318.4710558604656,-6.1711465605893,216139.65647590658,10.5,10500216139.656475,47.655,-122.3035,60.0,8.283333333333333
2026-01-20T23:08:18+00:00,SAT-55403,220.69454501325612,48.43875661566544,1312.3163656907045,-6.162031794120043,215820.41879872928,10.5,10500215820.418798,47.655,-122.3035,60.0,8.3
2026-01-20T23:08:19+00:00,SAT-55403,220.43882273917114,48.50909437603579,1306.1707659813687,-6.152780503704088,215496.39947544286,10.5,10500215496.399475,47.655,-122.3035,60.0,8.316666666666666
2026-01-20T23:08:20+00:00,SAT-55403,220.18027491209907,48.57928668005068,1300.0343928923412,-6.1433902809006575,215167.51415226364,10.5,10500215167.514153,47.655,-122.3035,60.0,8.333333333333334
2026-01-20T23:08:21+00:00,SAT-55403,219.91886134892448,48.64932136743081,1293.9073849855229,-6.133858808996798,214833.6816881043,10.5,10500214833.681688,47.655,-122.3035,60.0,8.35
2026-01-20T23:08:22+00:00,SAT-55403,219.6545413530629,48.71918584913745,1287.7898831333503,-6.124183571524285,214494.81394560297,10.5,10500214494.813946,47.655,-122.3035,60.0,8.366666666666667
2026-01-20T23:08:23+00:00,SAT-55403,219.38727372255045,48.78886709218411,1281.6820307180167,-6.114362119506225,214150.82515122968,10.5,10500214150.825151,47.655,-122.3035,60.0,8.383333333333333
2026-01-20T23:08:24+00:00,SAT-55403,219.11701674798505,48.85835160740594,1275.5839735641623,-6.104391908551782,213801.62618965455,10.5,10500213801.62619,47.655,-122.3035,60.0,8.4
2026-01-20T23:08:25+00:00,SAT-55403,218.84372821779752,48.92762543490971,1269.4958600340335,-6.094270328390863,213447.12563817753,10.5,10500213447.125639,47.655,-122.3035,60.0,8.416666666666666
2026-01-20T23:08:26+00:00,SAT-55403,218.56736542300686,48.9966741294933,1263.417841093185,-6.08399478162887,213087.23252505282,10.5,10500213087.232525,47.655,-122.3035,60.0,8.433333333333334
2026-01-20T23:08:27+00:00,SAT-55403,218.2878851594814,49.06548274673932,1257.3500702976403,-6.0735625189043425,212721.8505560123,10.5,10500212721.850555,47.655,-122.3035,60.0,8.45
2026-01-20T23:08:28+00:00,SAT-55403,218.00524373792786,49.134035826633294,1251.292703945453,-6.062970854532455,212350.88566701295,10.5,10500212350.885668,47.655,-122.3035,60.0,8.466666666666667
2026-01-20T23:08:29+00:00,SAT-55403,217.71939698563125,49.20231737959828,1245.2459010131995,-6.052216954294298,211974.2385917198,10.5,10500211974.238592,47.655,-122.3035,60.0,8.483333333333333
2026-01-20T23:08:30+00:00,SAT-55403,217.43030025814153,49.270310869432876,1239.2098233041165,-6.041297976706208,211591.80980935544,10.5,10500211591.809809,47.655,-122.3035,60.0,8.5
2026-01-20T23:08:31+00:00,SAT-55403,217.13790844590554,49.33799919769869,1233.1846354553484,-6.030211003670141,211203.49711578296,10.5,10500211203.497116,47.655,-122.3035,60.0,8.516666666666667
2026-01-20T23:08:32+00:00,SAT-55403,216.84217598491875,49.405364686850675,1227.1705050143546,-6.018953097581054,210809.1976236476,10.5,10500210809.197624,47.655,-122.3035,60.0,8.533333333333333
2026-01-20T23:08:33+00:00,SAT-55403,216.54305686594734,49.472389063759216,1221.1676024583671,-6.007521225478914,210408.8051058596,10.5,10500210408.805105,47.655,-122.3035,60.0,8.55
2026-01-20T23:08:34+00:00,SAT-55403,216.240504648241,49.539053441831264,1215.1761012894892,-5.995912276434899,210002.21060453242,10.5,10500210002.210604,47.655,-122.3035,60.0,8.566666666666666
2026-01-20T23:08:35+00:00,SAT-55403,215.93447247395116,49.605338303090384,1209.1961781124585,-5.984123156407058,209589.3057532292,10.5,10500209589.305754,47.655,-122.3035,60.0,8.583333333333334
2026-01-20T23:08:36+00:00,SAT-55403,215.62491307908934,49.67122348098192,1203.2280126178018,-5.972150643646963,209169.97771269188,10.5,10500209169.977713,47.655,-122.3035,60.0,8.6
2026-01-20T23:08:37+00:00,SAT-55403,215.31177881286519,49.736688141072435,1197.2717877092045,-5.959991474900131,208744.112189945,10.5,10500208744.11219,47.655,-122.3035,60.0,8.616666666666667
2026-01-20T23:08:38+00:00,SAT-55403,214.99502165428194,49.801710762432414,1191.327689544904,-5.947642298685378,208311.59180194075,10.5,10500208311.591803,47.655,-122.3035,60.0,8.633333333333333
2026-01-20T23:08:39+00:00,SAT-55403,214.67459323264106,49.86626911812262,1185.395907625682,-5.935099786110874,207872.29995680606,10.5,10500207872.299957,47.655,-122.3035,60.0,8.65
2026-01-20T23:08:40+00:00,SAT-55403,214.35044484388928,49.930340256654766,1179.476634772334,-5.9223604205878,207426.11348872524,10.5,10500207426.11349,47.655,-122.3035,60.0,8.666666666666666
2026-01-20T23:08:41+00:00,SAT-55403,214.02252747942805,49.99390048057573,1173.5700673128676,-5.909420735898256,206972.91099608547,10.5,10500206972.910995,47.655,-122.3035,60.0,8.683333333333334
2026-01-20T23:08:42+00:00,SAT-55403,213.69079184436202,50.05692532757202,1167.6764050322652,-5.896277077507837,206512.56448163313,10.5,10500206512.564482,47.655,-122.3035,60.0,8.7
2026-01-20T23:08:43+00:00,SAT-55403,213.3551883902007,50.11938954845633,1161.7958513602973,-5.882925843040731,206044.94777492926,10.5,10500206044.947775,47.655,-122.3035,60.0,8.716666666666667
2026-01-20T23:08:44+00:00,SAT-55403,213.01566733654334,50.18126708763055,1155.9286133195048,-5.869363275004062,205569.92927267923,10.5,10500205569.929274,47.655,-122.3035,60.0,8.733333333333333
2026-01-20T23:08:45+00:00,SAT-55403,212.67217870601257,50.242531060857665,1150.0749016799007,-5.855585590252569,205087.37647313322,10.5,10500205087.376472,47.655,-122.3035,60.0,8.75
2026-01-20T23:08:46+00:00,SAT-55403,212.32467235419332,50.303153734251694,1144.2349309845556,-5.841588913952674,204597.15366322885,10.5,10500204597.153664,47.655,-122.3035,60.0,8.766666666666667
2026-01-20T23:08:47+00:00,SAT-55403,211.97309800545773,50.36310650226156,1138.40891964104,-5.82736930284168,204099.12273322645,10.5,10500204099.122734,47.655,-122.3035,60.0,8.783333333333333
2026-01-20T23:08:48+00:00,SAT-55403,211.61740528970049,50.422359865648815,1132.5970899896727,-5.812922745255971,203593.14317769694,10.5,10500203593.143177,47.655,-122.3035,60.0,8.8
2026-01-20T23:08:49+00:00,SAT-55403,211.25754378155187,50.48088340930933,1126.7996683717372,-5.798245138531877,203079.0713040043,10.5,10500203079.071304,47.655,-122.3035,60.0,8.816666666666666
2026-01-20T23:08:50+00:00,SAT-55403,210.89346304325193,50.538645779565464,1121.0168852202414,-5.783332314514245,202556.76112572374,10.5,10500202556.761126,47.655,-122.3035,60.0,8.833333333333334
2026-01-20T23:08:51+00:00,SAT-55403,210.52511266874768,50.59561466167123,1115.2489751252326,-5.768180042152292,202026.06445355964,10.5,10500202026.064453,47.655,-122.3035,60.0,8.85
2026-01-20T23:08:52+00:00,SAT-55403,210.152442330143,50.651756757152,1109.496176896526,-5.7527839724383165,201486.8289668659,10.5,10500201486.828966,47.655,-122.3035,60.0,8.866666666666667
2026-01-20T23:08:53+00:00,SAT-55403,209.77540183035185,50.70703776045415,1103.7587336813474,-5.737139741091218,200938.90181005752,10.5,10500200938.90181,47.655,-122.3035,60.0,8.883333333333333
2026-01-20T23:08:54+00:00,SAT-55403,209.39394115220605,50.76142233666737,1098.0368929795661,-5.721242815058492,200382.124216461,10.5,10500200382.124216,47.655,-122.3035,60.0,8.9
2026-01-20T23:08:55+00:00,SAT-55403,209.00801052021737,50.81487409756146,1092.3309068120143,-5.705088657899338,199816.33730073037,10.5,10500199816.337301,47.655,-122.3035,60.0,8.916666666666666
2026-01-20T23:08:56+00:00,SAT-55403,208.61756045482414,50.867355579395735,1086.6410317238692,-5.688672636544744,199241.37879319105,10.5,10500199241.378794,47.655,-122.3035,60.0,8.933333333333334
2026-01-20T23:08:57+00:00,SAT-55403,208.22254183573517,50.91882821984996,1080.967528881022,-5.671989979952297,198657.08159175614,10.5,10500198657.081593,47.655,-122.3035,60.0,8.95
2026-01-20T23:08:58+00:00,SAT-55403,207.8229059712204,50.969252334565276,1075.310664207683,-5.6550358971926835,198063.27789781548,10.5,10500198063.277897,47.655,-122.3035,60.0,8.966666666666667
2026-01-20T23:08:59+00:00,SAT-55403,207.4186046630344,51.01858709520262,1069.670708406216,-5.6378054722626905,197459.79553214193,10.5,10500197459.795532,47.655,-122.3035,60.0,8.983333333333333
2026-01-20T23:09:00+00:00,SAT-55403,207.00959028156328,51.066790506530936,1064.0479370818796,-5.620293747975771,196846.46087309372,10.5,10500196846.460873,47.655,-122.3035,60.0,9.0
2026-01-20T23:09:01+00:00,SAT-55403,206.59581583888675,51.113819384798695,1058.4426307838983,-5.602495620482556,196223.0951622767,10.5,10500196223.095161,47.655,-122.3035,60.0,9.016666666666667
2026-01-20T23:09:02+00:00,SAT-55403,206.17723507244628,51.15962933522911,1052.855075151737,-5.584405928728712,195589.51763773683,10.5,10500195589.517637,47.655,-122.3035,60.0,9.033333333333333
2026-01-20T23:09:03+00:00,SAT-55403,205.75380252638993,51.204174731034726,1047.2855609721516,-5.566019456499636,194945.54560557418,10.5,10500194945.545605,47.655,-122.3035,60.0,9.05
2026-01-20T23:09:04+00:00,SAT-55403,205.32547363606014,51.24740869285219,1041.7343842342025,-5.54733081698139,194290.99039677842,10.5,10500194290.990396,47.655,-122.3035,60.0,9.066666666666666
2026-01-20T23:09:05+00:00,SAT-55403,204.89220482472444,51.289283067679335,1036.2018462994,-5.528334619866911,193625.66321999521,10.5,10500193625.66322,47.655,-122.3035,60.0,9.083333333333334
2026-01-20T23:09:06+00:00,SAT-55403,204.45395359172247,51.32974841009574,1030.6882539051858,-5.50902532352594,192949.36998389187,10.5,10500192949.369984,47.655,-122.3035,60.0,9.1
2026-01-20T23:09:07+00:00,SAT-55403,204.0106786154142,51.368753962917665,1025.193919315856,-5.489397337284626,192261.91487942162,10.5,10500192261.914879,47.655,-122.3035,60.0,9.116666666666667
2026-01-20T23:09:08+00:00,SAT-55403,203.56233985201746,51.40624763954745,1019.7191603714708,-5.46944494269683,191563.09762241156,10.5,10500191563.097622,47.655,-122.3035,60.0,9.133333333333333
2026-01-20T23:09:09+00:00,SAT-55403,203.1088986444586,51.442176006730115,1014.2643006152879,-5.44916236272718,190852.7158766462,10.5,10500190852.715878,47.655,-122.3035,60.0,9.15
2026-01-20T23:09:10+00:00,SAT-55403,202.65031782944084,51.47648426891413,1008.8296693521946,-5.428543710472341,190130.56345786917,10.5,10500190130.563457,47.655,-122.3035,60.0,9.166666666666666
2026-01-20T23:09:11+00:00,SAT-55403,202.18656185235275,51.5091162534169,1003.4156017582835,-5.407583025816741,189396.4316176219,10.5,10500189396.431618,47.655,-122.3035,60.0,9.183333333333334
2026-01-20T23:09:12+00:00,SAT-55403,201.7175968827858,51.540014397164065,998.0224389538689,-5.3862742015849445,188650.10645678724,10.5,10500188650.106457,47.655,-122.3035,60.0,9.2
2026-01-20T23:09:13+00:00,SAT-55403,201.24339093991438,51.56911973433755,992.6505281501549,-5.36461112325964,187891.3738191046,10.5,10500187891.37382,47.655,-122.3035,60.0,9.216666666666667
2026-01-20T23:09:14+00:00,SAT-55403,200.76391400966298,51.596371886673076,987.3002226565574,-5.342587538261552,187120.01471279937,10.5,10500187120.014713,47.655,-122.3035,60.0,9.233333333333333
2026-01-20T23:09:15+00:00,SAT-55403,200.27913817612603,51.62170905441045,981.9718820183978,-5.320197075754637,186335.80600424475,10.5,10500186335.806004,47.655,-122.3035,60.0,9.25
2026-01-20T23:09:16+00:00,SAT-55403,199.78903775482962,51.64506800930553,976.6658721348451,-5.297433353458634,185538.52415898888,10.5,10500185538.524158,47.655,-122.3035,60.0,9.266666666666667
2026-01-20T23:09:17+00:00,SAT-55403,199.29358941971162,51.666384090389485,971.3825652703291,-5.274289816569564,184727.93960006966,10.5,10500184727.9396,47.655,-122.3035,60.0,9.283333333333333
2026-01-20T23:09:18+00:00,SAT-55403,198.79277234715818,51.68559120073023,966.1223402266037,-5.250759876337929,183903.82156160934,10.5,10500183903.821562,47.655,-122.3035,60.0,9.3
2026-01-20T23:09:19+00:00,SAT-55403,198.28656835044964,51.70262180740834,960.8855823766027,-5.226836843361684,183065.9357524521,10.5,10500183065.935753,47.655,-122.3035,60.0,9.316666666666666
2026-01-20T23:09:20+00:00,SAT-55403,197.7749620226982,51.71740694358302,955.6726837648232,-5.202513904402911,182214.04354418605,10.5,10500182214.043545,47.655,-122.3035,60.0,9.333333333333334
2026-01-20T23:09:21+00:00,SAT-55403,197.257940884102,51.72987621293747,950.4840432308321,-5.177784238858691,181347.90605044592,10.5,10500181347.90605,47.655,-122.3035,60.0,9.35
2026-01-20T23:09:22+00:00,SAT-55403,196.7354955202708,51.73995779766775,945.3200664166104,-5.152640865110398,180467.2787454152,10.5,10500180467.278746,47.655,-122.3035,60.0,9.366666666666667
2026-01-20T23:09:23+00:00,SAT-55403,196.20761973651017,51.747578468505026,940.1811659271402,-5.127076765233712,179571.9158316984,10.5,10500179571.915833,47.655,-122.3035,60.0,9.383333333333333
2026-01-20T23:09:24+00:00,SAT-55403,195.6743107015443,51.75266359857655,935.0677613666138,-5.101084801099914,178661.5673018335,10.5,10500178661.567303,47.655,-122.3035,60.0,9.4
2026-01-20T23:09:25+00:00,SAT-55403,195.13556910014427,51.75513718012512,929.9802794583169,-5.0746578365448105,177735.98321716455,10.5,10500177735.983217,47.655,-122.3035,60.0,9.416666666666666
2026-01-20T23:09:26+00:00,SAT-55403,194.5913992738295,51.75492184515014,924.9191540426694,-5.0477885719914815,176794.9079156306,10.5,10500176794.907915,47.655,-122.3035,60.0,9.433333333333334
2026-01-20T23:09:27+00:00,SAT-55403,194.04180937820513,51.75193888914251,919.8848262402033,-5.020469649301982,175838.08368411593,10.5,10500175838.083685,47.655,-122.3035,60.0,9.45
2026-01-20T23:09:28+00:00,SAT-55403,193.48681152930544,51.746108299034795,914.8777445099661,-4.992693718553487,174865.25309723307,10.5,10500174865.253098,47.655,-122.3035,60.0,9.466666666666667
2026-01-20T23:09:29+00:00,SAT-55403,192.92642194130835,51.73734878511288,909.8983646413288,-4.964453256052161,173876.15264339864,10.5,10500173876.152643,47.655,-122.3035,60.0,9.483333333333333
2026-01-20T23:09:30+00:00,SAT-55403,192.36066108214075,51.725577816904135,904.9471499272928,-4.935740761042666,172870.5196144327,10.5,10500172870.519615,47.655,-122.3035,60.0,9.5
2026-01-20T23:09:31+00:00,SAT-55403,191.78955380551642,51.71071166351559,900.0245711416129,-4.906548615089219,171848.08718048804,10.5,10500171848.087181,47.655,-122.3035,60.0,9.516666666666667
2026-01-20T23:09:32+00:00,SAT-55403,191.2131294955,51.69266543847762,895.131106656164,-4.876869200154604,170808.58852567713,10.5,10500170808.588526,47.655,-122.3035,60.0,9.533333333333333
2026-01-20T23:09:33+00:00,SAT-55403,190.6314221942489,51.67135314910729,890.267242440543,-4.846694797625301,169751.7533115048,10.5,10500169751.753311,47.655,-122.3035,60.0,9.55
2026-01-20T23:09:34+00:00,SAT-55403,190.04447073694746,51.646687750761444,885.4334721623782,-4.816017657035999,168677.3100838914,10.5,10500168677.310083,47.655,-122.3035,60.0,9.566666666666666
2026-01-20T23:09:35+00:00,SAT-55403,189.45231887407357,51.618581205980135,880.6302972190942,-4.784830018018981,167584.9870419332,10.5,10500167584.987041,47.655,-122.3035,60.0,9.583333333333334
2026-01-20T23:09:36+00:00,SAT-55403,188.85501538528527,51.586944548610276,875.8582267477899,-4.753124060734019,166474.5103017475,10.5,10500166474.510302,47.655,-122.3035,60.0,9.6
2026-01-20T23:09:37+00:00,SAT-55403,188.2526141926309,51.55168795314233,871.1177776845512,-4.7208919343342695,165345.60489346876,10.5,10500165345.604893,47.655,-122.3035,60.0,9.616666666666667
2026-01-20T23:09:38+00:00,SAT-55403,187.64517446347674,51.51272080938069,866.4094747953751,-4.688125775153423,164197.9953982396,10.5,10500164197.995398,47.655,-122.3035,60.0,9.633333333333333
2026-01-20T23:09:39+00:00,SAT-55403,187.03276070320265,51.46995180236172,861.7338506889555,-4.6548177174629455,163031.40632497476,10.5,10500163031.406324,47.655,-122.3035,60.0,9.65
2026-01-20T23:09:40+00:00,SAT-55403,186.41544283784316,51.423288997634785,857.0914458187391,-4.620959864517014,161845.56109623224,10.5,10500161845.561096,47.655,-122.3035,60.0,9.666666666666666
2026-01-20T23:09:41+00:00,SAT-55403,185.79329629101224,51.37263993225088,852.4828085138608,-4.586544337641208,160640.1837675072,10.5,10500160640.183767,47.655,-122.3035,60.0,9.683333333333334
2026-01-20T23:09:42+00:00,SAT-55403,185.16640204454745,51.317911711082154,847.9084949611199,-4.551563259383255,159414.99843709936,10.5,10500159414.998438,47.655,-122.3035,60.0,9.7
2026-01-20T23:09:43+00:00,SAT-55403,184.5348466903553,51.259011108753,843.3690692037618,-4.516008787312555,158169.7304299157,10.5,10500158169.73043,47.655,-122.3035,60.0,9.716666666666667
2026-01-20T23:09:44+00:00,SAT-55403,183.8987224663144,51.19584467698422,838.8651031065486,-4.479873082758066,156904.10520253878,10.5,10500156904.105202,47.655,-122.3035,60.0,9.733333333333333
2026-01-20T23:09:45+00:00,SAT-55403,183.258127284094,51.12831885771693,834.3971763520112,-4.443148361670173,155617.8501246246,10.5,10500155617.850124,47.655,-122.3035,60.0,9.75
2026-01-20T23:09:46+00:00,SAT-55403,182.61316473744034,51.05634010145439,829.9658763859723,-4.405826879944446,154310.69396487848,10.5,10500154310.693964,47.655,-122.3035,60.0,9.766666666666667
2026-01-20T23:09:47+00:00,SAT-55403,181.9639440988637,50.979814991088816,825.5717983777078,-4.367900968868192,152982.36813254326,10.5,10500152982.368132,47.655,-122.3035,60.0,9.783333333333333
2026-01-20T23:09:48+00:00,SAT-55403,181.3105802975583,50.89865037084083,821.2155451447564,-4.329363007326417,151632.6057039346,10.5,10500151632.605703,47.655,-122.3035,60.0,9.8
2026-01-20T23:09:49+00:00,SAT-55403,180.65319388680336,50.8127534807815,816.8977271054496,-4.290205473763492,150261.14324235823,10.5,10500150261.143242,47.655,-122.3035,60.0,9.816666666666666
2026-01-20T23:09:50+00:00,SAT-55403,179.9919109892853,50.722032095986854,812.6189621796161,-4.250420933684122,148867.72036034102,10.5,10500148867.72036,47.655,-122.3035,60.0,9.833333333333334
2026-01-20T23:09:51+00:00,SAT-55403,179.3268632289122,50.626394670649965,808.3798757017552,-4.210002070995257,147452.08081735732,10.5,10500147452.080818,47.655,-122.3035,60.0,9.85
2026-01-20T23:09:52+00:00,SAT-55403,178.65818764290114,50.52575048683071,804.1811003029492,-4.168941702043763,146013.97301148754,10.5,10500146013.973011,47.655,-122.3035,60.0,9.866666666666667
2026-01-20T23:09:53+00:00,SAT-55403,177.98602657587514,50.42000980721089,800.0232757787776,-4.12723273804652,144553.14866356133,10.5,10500144553.148664,47.655,-122.3035,60.0,9.883333333333333
2026-01-20T23:09:54+00:00,SAT-55403,177.31052756465317,50.30908403332169,795.9070489946992,-4.084868293585313,143069.36661710744,10.5,10500143069.366617,47.655,-122.3035,60.0,9.9
2026-01-20T23:09:55+00:00,SAT-55403,176.63184319051103,50.19288586557293,791.83307368323,-4.041841612346263,141562.39023743474,10.5,10500141562.390238,47.655,-122.3035,60.0,9.916666666666666
2026-01-20T23:09:56+00:00,SAT-55403,175.95013092788238,50.071329468766855,787.8020103151835,-3.99814615797441,140031.9905937437,10.5,10500140031.990593,47.655,-122.3035,60.0,9.933333333333334
2026-01-20T23:09:57+00:00,SAT-55403,175.26555296339197,49.94433063901616,783.814525880297,-3.953775574478808,138477.94507234564,10.5,10500138477.945072,47.655,-122.3035,60.0,9.95
2026-01-20T23:09:58+00:00,SAT-55403,174.57827600667463,49.811806974862876,779.87129370735,-3.908723717677233,136900.03847798915,10.5,10500136900.038479,47.655,-122.3035,60.0,9.966666666666667
2026-01-20T23:09:59+00:00,SAT-55403,173.88847108193247,49.673678050460715,775.97299325292,-3.862984704881779,135298.06477406007,10.5,10500135298.064774,47.655,-122.3035,60.0,9.983333333333333
2026-01-20T23:10:00+00:00,SAT-55403,173.19631329760438,49.52986558991565,772.1203098405845,-3.816552887536048,133671.82612421992,10.5,10500133671.826124,47.655,-122.3035,60.0,10.0
2026-01-20T23:10:01+00:00,SAT-55403,172.5019816077024,49.380293644349315,768.3139344274152,-3.7694228923358555,132021.13433262715,10.5,10500132021.134333,47.655,-122.3035,60.0,10.016666666666667
2026-01-20T23:10:02+00:00,SAT-55403,171.80565855433662,49.22488876958699,764.5545633294589,-3.7215896527539645,130345.8119480665,10.5,10500130345.811949,47.655,-122.3035,60.0,10.033333333333333
2026-01-20T23:10:03+00:00,SAT-55403,171.10752999342543,49.06358020385647,760.8428979157791,-3.6730484165048227,128645.69252539582,10.5,10500128645.692526,47.655,-122.3035,60.0,10.05
2026-01-20T23:10:04+00:00,SAT-55403,170.40778480911575,48.89630004607405,757.1796442950516,-3.623794748552339,126920.62073089098,10.5,10500126920.620731,47.655,-122.3035,60.0,10.066666666666666
2026-01-20T23:10:05+00:00,SAT-55403,169.70661461875164,48.7229834342387,753.5655129991619,-3.5738245797998704,125170.45404757527,10.5,10500125170.454048,47.655,-122.3035,60.0,10.083333333333334
2026-01-20T23:10:06+00:00,SAT-55403,169.0042134615449,48.543568722031274,750.0012186182416,-3.5231342232057465,123395.06333965325,10.5,10500123395.06334,47.655,-122.3035,60.0,10.1
2026-01-20T23:10:07+00:00,SAT-55403,168.3007774776577,48.357997653864295,746.4874794196311,-3.471720389791306,121594.33341317983,10.5,10500121594.333414,47.655,-122.3035,60.0,10.116666666666667
2026-01-20T23:10:08+00:00,SAT-55403,167.59650457942254,48.166215538191395,743.0250169508793,-3.4195801763165607,119768.16258440995,10.5,10500119768.162584,47.655,-122.3035,60.0,10.133333333333333
2026-01-20T23:10:09+00:00,SAT-55403,166.89159412171736,47.96817141979141,739.6145556550329,-3.366711180269375,117916.46670720595,10.5,10500117916.466707,47.655,-122.3035,60.0,10.15
2026-01-20T23:10:10+00:00,SAT-55403,166.18624654788434,47.763818244567084,736.2568223712442,-3.3131114139863507,116039.17616518786,10.5,10500116039.176165,47.655,-122.3035,60.0,10.166666666666666
2026-01-20T23:10:11+00:00,SAT-55403,165.48066305211833,47.55311302564912,732.9525459210284,-3.2587794091362134,114136.23953118341,10.5,10500114136.23953,47.655,-122.3035,60.0,10.183333333333334
2026-01-20T23:10:12+00:00,SAT-55403,164.7750452222819,47.33601700114198,729.7024565903166,-3.2037141680979144,112207.62186428353,10.5,10500112207.621864,47.655,-122.3035,60.0,10.2
2026-01-20T23:10:13+00:00,SAT-55403,164.06959469549918,47.11249579083552,726.5072856600003,-3.1479152768667373,110253.30866429182,10.5,10500110253.308664,47.655,-122.3035,60.0,10.216666666666667
2026-01-20T23:10:14+00:00,SAT-55403,163.3645127947038,46.88251954237489,723.3677648238719,-3.091382824981349,108273.30306723113,10.5,10500108273.303068,47.655,-122.3035,60.0,10.233333333333333
2026-01-20T23:10:15+00:00,SAT-55403,162.66000018792022,46.64606307722131,720.2846256864237,-3.0341175068234345,106267.62939328536,10.5,10500106267.629393,47.655,-122.3035,60.0,10.25
2026-01-20T23:10:16+00:00,SAT-55403,161.9562565338213,46.40310602564657,717.2585991596185,-2.976120599135201,104236.33235936712,10.5,10500104236.33236,47.655,-122.3035,60.0,10.266666666666667
2026-01-20T23:10:17+00:00,SAT-55403,161.25348014096005,46.153632957144346,714.2904148820811,-2.9173939979491625,102179.47837255534,10.5,10500102179.478373,47.655,-122.3035,60.0,10.283333333333333
2026-01-20T23:10:18+00:00,SAT-55403,160.55186762969288,45.89763350250989,711.3808006014597,-2.857940266478074,100097.15720740306,10.5,10500100097.157207,47.655,-122.3035,60.0,10.3
2026-01-20T23:10:19+00:00,SAT-55403,159.8516135947963,45.63510246549702,708.5304815090255,-2.7977625761776994,97989.47994170635,10.5,10500097989.479942,47.655,-122.3035,60.0,10.316666666666666
2026-01-20T23:10:20+00:00,SAT-55403,159.15291029537704,45.36603993224604,705.7401796330511,-2.7368648235194506,95856.58304637614,10.5,10500095856.583046,47.655,-122.3035,60.0,10.333333333333334
2026-01-20T23:10:21+00:00,SAT-55403,158.45594733185908,45.09045136392438,703.0106131157277,-2.6752515806822723,93698.62665845935,10.5,10500093698.62666,47.655,-122.3035,60.0,10.35
2026-01-20T23:10:22+00:00,SAT-55403,157.7609113502627,44.80834768550746,700.3424955392605,-2.6129281448096804,91515.79630632885,10.5,10500091515.796307,47.655,-122.3035,60.0,10.366666666666667
2026-01-20T23:10:23+00:00,SAT-55403,157.06798575111736,44.519745361839966,697.736535202837,-2.549900532347818,89308.30271137804,10.5,10500089308.302711,47.655,-122.3035,60.0,10.383333333333333
2026-01-20T23:10:24+00:00,SAT-55403,156.37735041754541,44.224666465756414,695.1934344052421,-2.4861755180604614,87076.38315449165,10.5,10500087076.383154,47.655,-122.3035,60.0,10.4
2026-01-20T23:10:25+00:00,SAT-55403,155.68918145167984,43.92313873327573,692.7138886885631,-2.421760648993766,84820.30196514998,10.5,10500084820.301966,47.655,-122.3035,60.0,10.416666666666666
2026-01-20T23:10:26+00:00,SAT-55403,155.00365092613762,43.615195607732204,690.2985860679667,-2.356664236817768,82540.35025319605,10.5,10500082540.350254,47.655,-122.3035,60.0,10.433333333333334
2026-01-20T23:10:27+00:00,SAT-55403,154.32092665675935,43.300876274706226,687.9482062691138,-2.290895382265788,80236.84676480677,10.5,10500080236.846766,47.655,-122.3035,60.0,10.45
2026-01-20T23:10:28+00:00,SAT-55403,153.641171988675,42.980225684315684,685.6634199412008,-2.2244639804952575,77910.13807025194,10.5,10500077910.138071,47.655,-122.3035,60.0,10.466666666666667
2026-01-20T23:10:29+00:00,SAT-55403,152.96454560056597,42.65329456215515,683.4448878646535,-2.1573807542599877,75560.59972572715,10.5,10500075560.599726,47.655,-122.3035,60.0,10.483333333333333
2026-01-20T23:10:30+00:00,SAT-55403,152.29120131913334,42.32013940509727,681.2932601257381,-2.08965721159706,73188.63479137002,10.5,10500073188.63479,47.655,-122.3035,60.0,10.5
2026-01-20T23:10:31+00:00,SAT-55403,151.62128796530035,41.98082247109901,679.209175333372,-2.021305699630023,70794.67571567542,10.5,10500070794.675716,47.655,-122.3035,60.0,10.516666666666667
2026-01-20T23:10:32+00:00,SAT-55403,150.95494920402137,41.63541175044433,677.1932597822744,-1.9523393856699742,68379.18367357571,10.5,10500068379.183674,47.655,-122.3035,60.0,10.533333333333333
2026-01-20T23:10:33+00:00,SAT-55403,150.29232341790262,41.28398092700637,675.2461266349661,-1.8827722435894285,65942.64808919576,10.5,10500065942.648088,47.655,-122.3035,60.0,10.55
2026-01-20T23:10:34+00:00,SAT-55403,149.63354360358917,40.92660932967047,673.3683751173596,-1.8126190837003033,63485.58768230648,10.5,10500063485.587683,47.655,-122.3035,60.0,10.566666666666666
2026-01-20T23:10:35+00:00,SAT-55403,148.97873727560105,40.56338186608602,671.5605896845491,-1.7418955320024163,61008.54974151942,10.5,10500061008.549742,47.655,-122.3035,60.0,10.583333333333334
2026-01-20T23:10:36+00:00,SAT-55403,148.32802639303182,40.19438894674805,669.8233392072988,-1.670618016141373,58512.10963247254,10.5,10500058512.109632,47.655,-122.3035,60.0,10.6
