satellites_20260120_184412/SAT-66167.csv

timestamp,satellite,azimuth_deg,elevation_deg,distance_km,relative_velocity_kms,doppler_shift_hz,tx_freq_ghz,rx_freq_hz,ue_lat,ue_lon,ue_alt_m,time_minutes
2026-01-20T23:00:00+00:00,SAT-66167,346.8077510571854,42.78066993919082,478077.70550377644,199.2628795673872,-6979028.923594754,10.5,10493020971.076405,47.655,-122.3035,60.0,0.0
2026-01-20T23:00:01+00:00,SAT-66167,344.65589133535366,41.64694200153621,478276.43701566494,200.32000359157706,-7016053.878552072,10.5,10492983946.121449,47.655,-122.3035,60.0,0.016666666666666666
2026-01-20T23:00:02+00:00,SAT-66167,342.58074588446493,40.474759236668284,478476.2228325803,201.14526737590506,-7044958.107141585,10.5,10492955041.892859,47.655,-122.3035,60.0,0.03333333333333333
2026-01-20T23:02:30+00:00,SAT-66167,82.35993531331927,40.17212157457819,473548.29183567583,44.93841020338386,-1573933.2146091897,10.5,10498426066.78539,47.655,-122.3035,60.0,2.5
2026-01-20T23:02:31+00:00,SAT-66167,80.28038786756191,41.36684768920423,473593.11041011865,51.71268215628088,-1811196.8735415926,10.5,10498188803.12646,47.655,-122.3035,60.0,2.5166666666666666
2026-01-20T23:02:32+00:00,SAT-66167,78.12441099726246,42.522386125526836,473644.68519178923,58.42565464425977,-2046313.5659160833,10.5,10497953686.434084,47.655,-122.3035,60.0,2.533333333333333
2026-01-20T23:02:33+00:00,SAT-66167,75.88881247491886,43.63562785597018,473702.9550446877,65.06930382284108,-2279002.2627581623,10.5,10497720997.737242,47.655,-122.3035,60.0,2.55
2026-01-20T23:02:34+00:00,SAT-66167,73.57074466356762,44.70329008468028,473767.850830367,71.63569944806329,-2508985.213379399,10.5,10497491014.786621,47.655,-122.3035,60.0,2.566666666666667
2026-01-20T23:02:35+00:00,SAT-66167,71.16782708135813,45.721926392184116,473839.29550128325,78.1170159251318,-2735988.3323478536,10.5,10497264011.667652,47.655,-122.3035,60.0,2.5833333333333335
2026-01-20T23:02:36+00:00,SAT-66167,68.67828536397826,46.68794366611344,473917.2042051659,84.505541704874,-2959741.52859168,10.5,10497040258.471409,47.655,-122.3035,60.0,2.6
2026-01-20T23:02:37+00:00,SAT-66167,66.10110429264012,47.597627017651305,474001.48439875955,90.79368965727707,-3179979.068724301,10.5,10496820020.931276,47.655,-122.3035,60.0,2.6166666666666667
2026-01-20T23:02:38+00:00,SAT-66167,63.43619044475626,48.44717382536126,474092.0359719111,96.97400627994239,-3396439.8995634345,10.5,10496603560.100437,47.655,-122.3035,60.0,2.6333333333333333
2026-01-20T23:02:39+00:00,SAT-66167,60.68453769983458,49.23273776892536,474188.75138084096,103.03918132371913,-3608867.985261494,10.5,10496391132.014738,47.655,-122.3035,60.0,2.65
2026-01-20T23:02:40+00:00,SAT-66167,57.84838617390593,49.95048330620612,474291.5157910145,108.98205610649671,-3817012.5984897707,10.5,10496182987.40151,47.655,-122.3035,60.0,2.6666666666666665
2026-01-20T23:02:41+00:00,SAT-66167,54.93136268788715,50.59665039906851,474400.2072283047,114.79563398321488,-4020628.6871424774,10.5,10495979371.312857,47.655,-122.3035,60.0,2.683333333333333
2026-01-20T23:02:42+00:00,SAT-66167,51.93858878497764,51.16762848657141,474514.6967405973,120.47308712657274,-4219477.1118258545,10.5,10495780522.888174,47.655,-122.3035,60.0,2.7
2026-01-20T23:02:43+00:00,SAT-66167,48.8767415399223,51.660037674829056,474634.84856615815,126.00776583715933,-4413324.97193833,10.5,10495586675.02806,47.655,-122.3035,60.0,2.716666666666667
2026-01-20T23:02:44+00:00,SAT-66167,45.75405291526998,52.07081409341916,474760.52031128644,131.39320581621698,-4601945.860393453,10.5,10495398054.139606,47.655,-122.3035,60.0,2.7333333333333334
2026-01-20T23:02:45+00:00,SAT-66167,42.58023628212395,52.39729533686283,474891.5631352205,136.62313656191955,-4785120.157693077,10.5,10495214879.842306,47.655,-122.3035,60.0,2.75
2026-01-20T23:02:46+00:00,SAT-66167,39.366333588939085,52.637301150763896,475027.82194341824,141.69148822450097,-4962635.272022955,10.5,10495037364.727978,47.655,-122.3035,60.0,2.7666666666666666
2026-01-20T23:02:47+00:00,SAT-66167,36.124483619223774,52.789204136975435,475169.13558767416,146.59239807699072,-5134285.865885267,10.5,10494865714.134115,47.655,-122.3035,60.0,2.783333333333333
2026-01-20T23:02:48+00:00,SAT-66167,32.86761981169886,52.851985425592176,475315.3370726896,151.3202182281846,-5299874.126239488,10.5,10494700125.87376,47.655,-122.3035,60.0,2.8
2026-01-20T23:02:49+00:00,SAT-66167,29.609114129648276,52.82527103397003,475466.25377033587,155.86952106763815,-5459209.955209082,10.5,10494540790.04479,47.655,-122.3035,60.0,2.816666666666667
2026-01-20T23:02:50+00:00,SAT-66167,26.362390181258462,52.70934597021052,475621.7076393473,160.2351058399001,-5612111.200338973,10.5,10494387888.799662,47.655,-122.3035,60.0,2.8333333333333335
2026-01-20T23:02:51+00:00,SAT-66167,23.140532670802312,52.50514489853939,475781.5154515717,164.41200285715817,-5758403.802140215,10.5,10494241596.19786,47.655,-122.3035,60.0,2.85
2026-01-20T23:02:52+00:00,SAT-66167,19.955920812720116,52.21422011397061,475945.4890224212,168.39548099760287,-5897922.056714416,10.5,10494102077.943285,47.655,-122.3035,60.0,2.8666666666666667
2026-01-20T23:02:53+00:00,SAT-66167,16.81991012779165,51.83868938961824,476113.4354488028,172.18105048900836,-6030508.713246508,10.5,10493969491.286753,47.655,-122.3035,60.0,2.8833333333333333
2026-01-20T23:02:54+00:00,SAT-66167,13.742581158553431,51.38116772756679,476285.15734982386,175.76446841435435,-6156015.166834919,10.5,10493843984.833164,47.655,-122.3035,60.0,2.9
2026-01-20T23:02:55+00:00,SAT-66167,10.732565675751095,50.84468795152494,476460.4531129891,179.1417420208977,-6274301.574389259,10.5,10493725698.425611,47.655,-122.3035,60.0,2.9166666666666665
2026-01-20T23:02:56+00:00,SAT-66167,7.796952856374428,50.23261539363389,476639.1171436979,182.30913418286045,-6385237.045956755,10.5,10493614762.954042,47.655,-122.3035,60.0,2.933333333333333
2026-01-20T23:02:57+00:00,SAT-66167,4.941270546021395,49.548561657027484,476820.9401201896,185.2631647573759,-6488699.692213228,10.5,10493511300.307787,47.655,-122.3035,60.0,2.95
2026-01-20T23:02:58+00:00,SAT-66167,2.1695313220030927,48.7963017566725,477005.709249841,188.00061477456177,-6584576.771217169,10.5,10493415423.228783,47.655,-122.3035,60.0,2.966666666666667
2026-01-20T23:02:59+00:00,SAT-66167,359.4843296400928,47.979697950877636,477193.2085296428,190.5185286647749,-6672764.766417628,10.5,10493327235.233582,47.655,-122.3035,60.0,2.9833333333333334
2026-01-20T23:03:00+00:00,SAT-66167,356.8869752426921,47.10263252453488,477383.2190088978,192.81421716305871,-6753169.488380247,10.5,10493246830.51162,47.655,-122.3035,60.0,3.0
2026-01-20T23:03:01+00:00,SAT-66167,354.37764852581455,46.16895075479728,477575.51905481506,194.88525878556644,-6825706.126497843,10.5,10493174293.873503,47.655,-122.3035,60.0,3.0166666666666666
2026-01-20T23:03:02+00:00,SAT-66167,351.9555653640115,45.18241442112583,477769.8846195772,196.72950051423473,-6890299.272970585,10.5,10493109700.72703,47.655,-122.3035,60.0,3.033333333333333
2026-01-20T23:03:03+00:00,SAT-66167,349.6191413086269,44.146665536996544,477966.08950809005,198.3450613250162,-6946883.046379605,10.5,10493053116.95362,47.655,-122.3035,60.0,3.05
2026-01-20T23:03:04+00:00,SAT-66167,347.36614765200136,43.065199483152945,478163.9056492516,199.73033122888063,-6995401.058098822,10.5,10493004598.9419,47.655,-122.3035,60.0,3.066666666666667
2026-01-20T23:03:05+00:00,SAT-66167,345.1938544139954,41.94134647067645,478363.1033662638,200.8839722507198,-7035806.446580314,10.5,10492964193.55342,47.655,-122.3035,60.0,3.0833333333333335
2026-01-20T23:03:06+00:00,SAT-66167,343.09915734994036,40.77826009782274,478563.4516479219,201.80491831030182,-7068061.873184845,10.5,10492931938.126816,47.655,-122.3035,60.0,3.1
2026-01-20T23:05:35+00:00,SAT-66167,80.7813971757977,41.09676253701755,473718.2347477497,49.419484061388395,-1730879.376040134,10.5,10498269120.62396,47.655,-122.3035,60.0,5.583333333333333
2026-01-20T23:05:36+00:00,SAT-66167,78.64287433874564,42.262052244826435,473767.5224465203,56.190450402901845,-1968027.2584791621,10.5,10498031972.74152,47.655,-122.3035,60.0,5.6
2026-01-20T23:05:37+00:00,SAT-66167,76.42538772669377,43.38576503235799,473823.5630557221,62.89471432205374,-2202838.9399361215,10.5,10497797161.060064,47.655,-122.3035,60.0,5.616666666666666
2026-01-20T23:05:38+00:00,SAT-66167,74.1259953479589,44.46465462662493,473886.290050806,69.52426477831521,-2435033.8398850244,10.5,10497564966.160114,47.655,-122.3035,60.0,5.633333333333334
2026-01-20T23:05:39+00:00,SAT-66167,71.74219283987644,45.49530796847008,473955.62891754485,76.07119174000715,-2664334.9155570655,10.5,10497335665.084442,47.655,-122.3035,60.0,5.65
2026-01-20T23:05:40+00:00,SAT-66167,69.2720490257512,46.47416046943207,474031.4972527736,82.52769678597592,-2890469.0332561573,10.5,10497109530.966743,47.655,-122.3035,60.0,5.666666666666667
2026-01-20T23:05:41+00:00,SAT-66167,66.71435625591296,47.39751900689939,474113.80487570143,88.8861027131425,-3113167.3048559357,10.5,10496886832.695145,47.655,-122.3035,60.0,5.683333333333334
2026-01-20T23:05:42+00:00,SAT-66167,64.06879165607029,48.261593807500574,474202.4539488074,95.13886367897538,-3332165.443032064,10.5,10496667834.556969,47.655,-122.3035,60.0,5.7
2026-01-20T23:05:43+00:00,SAT-66167,61.33608302788528,49.06254017925048,474297.3391088499,101.27857432446625,-3547204.0807874347,10.5,10496452795.919212,47.655,-122.3035,60.0,5.716666666666667
2026-01-20T23:05:44+00:00,SAT-66167,58.518170608106445,49.79651064795775,474398.34760697617,107.29797894836693,-3758029.09277275,10.5,10496241970.907227,47.655,-122.3035,60.0,5.733333333333333
2026-01-20T23:05:45+00:00,SAT-66167,55.61835327583614,50.459717481442446,474505.3594579806,113.18998112475663,-3964391.9321344118,10.5,10496035608.067865,47.655,-122.3035,60.0,5.75
2026-01-20T23:05:46+00:00,SAT-66167,52.64140562277224,51.04850479407409,474618.2475991557,118.94765188718519,-4166049.9171578377,10.5,10495833950.082842,47.655,-122.3035,60.0,5.766666666666667
2026-01-20T23:05:47+00:00,SAT-66167,49.593651118626404,51.55942845041217,474736.87805730454,124.56423790774274,-4362766.517733074,10.5,10495637233.482267,47.655,-122.3035,60.0,5.783333333333333
2026-01-20T23:05:48+00:00,SAT-66167,46.482976828109855,51.98934094086385,474861.1101239112,130.0331702418873,-4554311.661635653,10.5,10495445688.338364,47.655,-122.3035,60.0,5.8
2026-01-20T23:05:49+00:00,SAT-66167,43.31877736708322,52.33547736847089,474990.7965390325,135.34807197330622,-4740462.002281976,10.5,10495259537.997719,47.655,-122.3035,60.0,5.816666666666666
2026-01-20T23:05:50+00:00,SAT-66167,40.111820289172954,52.59553783267688,475125.7836828138,140.50276513032347,-4921001.160971156,10.5,10495078998.83903,47.655,-122.3035,60.0,5.833333333333333
2026-01-20T23:05:51+00:00,SAT-66167,36.874031594663116,52.76776101890288,475265.91177390376,145.49127807003248,-5095719.985508578,10.5,10494904280.014492,47.655,-122.3035,60.0,5.85
2026-01-20T23:05:52+00:00,SAT-66167,33.6182079366328,52.850983837906966,475411.0150752323,150.30785320030873,-5264416.820663452,10.5,10494735583.179337,47.655,-122.3035,60.0,5.866666666666666
2026-01-20T23:05:53+00:00,SAT-66167,30.357670303945635,52.84468259004696,475560.9221074907,154.94695183738278,-5426897.678301564,10.5,10494573102.3217,47.655,-122.3035,60.0,5.883333333333334
2026-01-20T23:05:54+00:00,SAT-66167,27.10588113324211,52.74899235409311,475715.45586745656,159.4032615506811,-5582976.494632669,10.5,10494417023.505367,47.655,-122.3035,60.0,5.9
2026-01-20T23:05:55+00:00,SAT-66167,23.876051355362026,52.56470298922606,475874.4340536431,163.67170057043305,-5732475.284583533,10.5,10494267524.715416,47.655,-122.3035,60.0,5.916666666666667
2026-01-20T23:05:56+00:00,SAT-66167,20.68076531276973,52.293232056425,476037.6692963453,167.74742552458105,-5875224.412777259,10.5,10494124775.587223,47.655,-122.3035,60.0,5.933333333333334
2026-01-20T23:05:57+00:00,SAT-66167,17.531649032265133,51.93657683780245,476204.9693954019,171.62583360202416,-6011062.669299217,10.5,10493988937.3307,47.655,-122.3035,60.0,5.95
2026-01-20T23:05:58+00:00,SAT-66167,14.439102037355758,51.49724920795032,476376.13756011426,175.30256921961544,-6139837.503203507,10.5,10493860162.496796,47.655,-122.3035,60.0,5.966666666666667
2026-01-20T23:05:59+00:00,SAT-66167,11.412105126366665,50.97819815009012,476550.97265581595,178.77352704936348,-6261405.128538345,10.5,10493738594.871462,47.655,-122.3035,60.0,5.983333333333333
2026-01-20T23:06:00+00:00,SAT-66167,8.458108453149556,50.38272516822664,476729.2694534599,182.03485718187946,-6375630.705191838,10.5,10493624369.294807,47.655,-122.3035,60.0,6.0
2026-01-20T23:06:01+00:00,SAT-66167,5.582996526756485,49.7143976942054,476910.81888435595,185.0829674697506,-6482388.420966819,10.5,10493517611.579033,47.655,-122.3035,60.0,6.016666666666667
2026-01-20T23:06:02+00:00,SAT-66167,2.791120857279248,48.976964986685395,477095.4082972458,187.91452711965346,-6581561.61739186,10.5,10493418438.382608,47.655,-122.3035,60.0,6.033333333333333
2026-01-20T23:06:03+00:00,SAT-66167,0.08538707341955716,48.17428008143105,477282.8217189597,190.52646986748337,-6673042.900927732,10.5,10493326957.099072,47.655,-122.3035,60.0,6.05
2026-01-20T23:06:04+00:00,SAT-66167,357.46738172265873,47.31023029483928,477472.840118241,192.91599584138254,-6756734.20821853,10.5,10493243265.791782,47.655,-122.3035,60.0,6.066666666666666
2026-01-20T23:06:05+00:00,SAT-66167,354.9375241890913,46.38867774281489,477665.24167142675,195.0805742856679,-6832546.901495143,10.5,10493167453.098505,47.655,-122.3035,60.0,6.083333333333333
2026-01-20T23:06:06+00:00,SAT-66167,352.4952306869255,45.413410409308675,477859.80203084764,197.0179439027449,-6900401.780550534,10.5,10493099598.21945,47.655,-122.3035,60.0,6.1
2026-01-20T23:06:07+00:00,SAT-66167,350.13907966494685,44.388103582700985,478056.2945935667,198.7261165797491,-6960229.213262482,10.5,10493039770.786737,47.655,-122.3035,60.0,6.116666666666666
2026-01-20T23:06:08+00:00,SAT-66167,347.866970502454,43.316290925334314,478254.49077383557,200.2033759387293,-7011969.0848148605,10.5,10492988030.915186,47.655,-122.3035,60.0,6.133333333333334
2026-01-20T23:06:09+00:00,SAT-66167,345.6762700198709,42.201344154802015,478454.1602741051,201.4482796828176,-7055570.879870449,10.5,10492944429.120129,47.655,-122.3035,60.0,6.15
2026-01-20T23:06:10+00:00,SAT-66167,343.5639434362146,41.04646010571064,478655.0713583754,202.45965879836513,-7090993.654626341,10.5,10492909006.345373,47.655,-122.3035,60.0,6.166666666666667
2026-01-20T23:08:39+00:00,SAT-66167,81.22006107276047,40.857908646531435,473845.4380081187,47.25748232678202,-1655156.930035949,10.5,10498344843.069963,47.655,-122.3035,60.0,8.65
2026-01-20T23:08:40+00:00,SAT-66167,79.09668755021988,42.0316869674881,473892.5694704926,54.083759839043154,-1894242.0436405812,10.5,10498105757.95636,47.655,-122.3035,60.0,8.666666666666666
2026-01-20T23:08:41+00:00,SAT-66167,76.89493737815977,43.16451245082213,473946.5090069721,60.845798801993645,-2131077.2515195603,10.5,10497868922.74848,47.655,-122.3035,60.0,8.683333333333334
2026-01-20T23:08:42+00:00,SAT-66167,74.6117902531708,44.253171026895686,474007.1925503106,67.53551086533145,-2365379.2654316216,10.5,10497634620.734568,47.655,-122.3035,60.0,8.7
2026-01-20T23:08:43+00:00,SAT-66167,72.24463826890612,45.29427930813502,474074.54796648026,74.14490587377438,-2596868.2363404585,10.5,10497403131.76366,47.655,-122.3035,60.0,8.716666666666667
2026-01-20T23:08:44+00:00,SAT-66167,69.79141838579137,46.28429843493561,474148.49515260506,80.66610212727718,-2825268.113770929,10.5,10497174731.886229,47.655,-122.3035,60.0,8.733333333333333
2026-01-20T23:08:45+00:00,SAT-66167,67.25076028576062,47.21955541929101,474228.94614512665,87.09133733327337,-3050307.0294028893,10.5,10496949692.970596,47.655,-122.3035,60.0,8.75
2026-01-20T23:08:46+00:00,SAT-66167,64.62214610207042,48.09627318461207,474315.80523889366,93.4129772700576,-3271717.600499492,10.5,10496728282.3995,47.655,-122.3035,60.0,8.766666666666667
2026-01-20T23:08:47+00:00,SAT-66167,61.90607634908339,48.910610286367834,474408.9691148911,99.62352604797869,-3489237.289297572,10.5,10496510762.710703,47.655,-122.3035,60.0,8.783333333333333
2026-01-20T23:08:48+00:00,SAT-66167,59.1042336896353,49.65871099907065,474508.32697820285,105.71563600614546,-3702608.7496321453,10.5,10496297391.250368,47.655,-122.3035,60.0,8.8
2026-01-20T23:08:49+00:00,SAT-66167,56.219633628216314,50.33676587774263,474613.76070584636,111.68211584947248,-3911580.1119301706,10.5,10496088419.88807,47.655,-122.3035,60.0,8.816666666666666
2026-01-20T23:08:50+00:00,SAT-66167,53.256748951631835,50.941082147352816,474725.14500272024,117.51594022097086,-4115905.318472668,10.5,10495884094.681528,47.655,-122.3035,60.0,8.833333333333334
2026-01-20T23:08:51+00:00,SAT-66167,50.22159317603566,51.46816236390382,474842.3475671006,123.2102577810928,-4315344.406367536,10.5,10495684655.593632,47.655,-122.3035,60.0,8.85
2026-01-20T23:08:52+00:00,SAT-66167,47.12174825844341,51.914788717607905,474965.2292641943,128.7584000709543,-4509663.8179771025,10.5,10495490336.182022,47.655,-122.3035,60.0,8.866666666666667
2026-01-20T23:08:53+00:00,SAT-66167,43.966323587609665,52.2781093098534,475093.6443085317,134.1538889054446,-4698636.659856094,10.5,10495301363.340143,47.655,-122.3035,60.0,8.883333333333333
2026-01-20T23:08:54+00:00,SAT-66167,40.76583734983074,52.55572182470231,475227.44045373343,139.39044433898974,-4882042.981746366,10.5,10495117957.018253,47.655,-122.3035,60.0,8.9
2026-01-20T23:08:55+00:00,SAT-66167,37.532017467094356,52.745749453703326,475366.4591902208,144.46199113244975,-5059670.003075003,10.5,10494940329.996925,47.655,-122.3035,60.0,8.916666666666666
2026-01-20T23:08:56+00:00,SAT-66167,34.27752708519576,52.84690384592593,475510.53594937694,149.36266759864748,-5231312.422762144,10.5,10494768687.577238,47.655,-122.3035,60.0,8.933333333333334
2026-01-20T23:08:57+00:00,SAT-66167,31.01562777220165,52.85853037355169,475659.50031652866,154.08682995715282,-5396772.571743964,10.5,10494603227.428257,47.655,-122.3035,60.0,8.95
2026-01-20T23:08:58+00:00,SAT-66167,27.75980120509256,52.78063211168295,475813.1762482726,158.62905997667247,-5555860.680641475,10.5,10494444139.319359,47.655,-122.3035,60.0,8.966666666666667
2026-01-20T23:08:59+00:00,SAT-66167,24.523355212427976,52.61387055337392,475971.3822974226,162.984170198866,-5708395.062720668,10.5,10494291604.937279,47.655,-122.3035,60.0,8.983333333333333
2026-01-20T23:09:00+00:00,SAT-66167,21.319042207721573,52.35954297453414,476133.93184316764,167.14721017378753,-5854202.332284053,10.5,10494145797.667715,47.655,-122.3035,60.0,9.0
2026-01-20T23:09:01+00:00,SAT-66167,18.158716356329787,52.01953827814522,476300.63332744763,171.11347101581194,-5993117.564238475,10.5,10494006882.435762,47.655,-122.3035,60.0,9.016666666666667
2026-01-20T23:09:02+00:00,SAT-66167,15.053050939084349,51.59627479958571,476471.2904958741,174.8784898932725,-6124984.451341205,10.5,10493875015.548658,47.655,-122.3035,60.0,9.033333333333333
2026-01-20T23:09:03+00:00,SAT-66167,12.011330068904632,51.09262472346979,476645.70264312765,178.43805558300213,-6249655.498743475,10.5,10493750344.501257,47.655,-122.3035,60.0,9.05
2026-01-20T23:09:04+00:00,SAT-66167,9.041320649579065,50.5118303272299,476823.6648638958,181.78821126243594,-6366992.121781721,10.5,10493633007.878218,47.655,-122.3035,60.0,9.066666666666666
2026-01-20T23:09:05+00:00,SAT-66167,6.149222678265335,49.85741724631419,477004.9683065949,184.9252594618997,-6476864.819427669,10.5,10493523135.180573,47.655,-122.3035,60.0,9.083333333333334
2026-01-20T23:09:06+00:00,SAT-66167,3.3396895292667304,49.133109407505344,477189.4004320315,187.8457632265712,-6579153.21498514,10.5,10493420846.785015,47.655,-122.3035,60.0,9.1
2026-01-20T23:09:07+00:00,SAT-66167,0.6159056716864035,48.342749414813,477376.7452732228,190.5465520943804,-6673746.265461402,10.5,10493326253.734539,47.655,-122.3035,60.0,9.116666666666667
2026-01-20T23:09:08+00:00,SAT-66167,357.9797070711761,47.490227089681674,477566.78370117827,193.02472199231659,-6760542.257935402,10.5,10493239457.742065,47.655,-122.3035,60.0,9.133333333333333
2026-01-20T23:09:09+00:00,SAT-66167,355.4317295791987,46.579417847922144,477759.2936905786,195.27763908588815,-6839448.944382136,10.5,10493160551.055618,47.655,-122.3035,60.0,9.15
2026-01-20T23:09:10+00:00,SAT-66167,352.971571800204,45.61413160424804,477954.0505892936,197.30293963392612,-6910383.536587249,10.5,10493089616.463413,47.655,-122.3035,60.0,9.166666666666666
2026-01-20T23:09:11+00:00,SAT-66167,350.5979612717339,44.59807215580858,478150.82738775515,199.09853495388327,-6973272.880052821,10.5,10493026727.119947,47.655,-122.3035,60.0,9.183333333333334
2026-01-20T23:09:12+00:00,SAT-66167,348.3089152782394,43.53480638648063,478349.3949932825,200.66260861860766,-7028053.355816511,10.5,10492971946.644184,47.655,-122.3035,60.0,9.2
2026-01-20T23:09:13+00:00,SAT-66167,346.1018903628527,42.42774233083368,478549.5225016115,201.99361990228414,-7074671.001143009,10.5,10492925328.998857,47.655,-122.3035,60.0,9.216666666666667
2026-01-20T23:09:14+00:00,SAT-66167,343.9739167279078,41.280114872139166,478750.97747186065,203.09030256057682,-7113081.466799463,10.5,10492886918.533201,47.655,-122.3035,60.0,9.233333333333333
2026-01-20T23:09:15+00:00,SAT-66167,341.92171573554003,40.09497784458726,478953.5262002811,203.9516669256978,-7143250.090433652,10.5,10492856749.909567,47.655,-122.3035,60.0,9.25
2026-01-20T23:11:43+00:00,SAT-66167,81.59775829667738,40.65093736052188,473975.28501523816,45.21922654368224,-1583768.590698381,10.5,10498416231.409302,47.655,-122.3035,60.0,11.716666666666667
2026-01-20T23:11:44+00:00,SAT-66167,79.48728904295851,41.83199252500407,474020.38365717774,52.09748337581515,-1824674.2399572276,10.5,10498175325.760042,47.655,-122.3035,60.0,11.733333333333333
2026-01-20T23:11:45+00:00,SAT-66167,77.29895350347311,42.972626406469274,474072.3422139312,58.91381831247232,-2063411.1225071559,10.5,10497936588.877493,47.655,-122.3035,60.0,11.75
2026-01-20T23:11:46+00:00,SAT-66167,75.0296669798248,44.069652645643,474131.09892872814,65.66007015661006,-2299693.398705866,10.5,10497700306.601294,47.655,-122.3035,60.0,11.766666666666667
2026-01-20T23:11:47+00:00,SAT-66167,72.67673595472358,45.11971354732202,474196.5839053644,72.32817303909691,-2533238.5676977825,10.5,10497466761.432302,47.655,-122.3035,60.0,11.783333333333333
2026-01-20T23:11:48+00:00,SAT-66167,70.2379878660085,46.11929274645477,474268.7192032754,78.91016767292737,-2763767.861584221,10.5,10497236232.138416,47.655,-122.3035,60.0,11.8
2026-01-20T23:11:49+00:00,SAT-66167,67.71191668879382,47.064735179192425,474347.4189438345,85.398210848491,-2991006.577987881,10.5,10497008993.422012,47.655,-122.3035,60.0,11.816666666666666
2026-01-20T23:11:50+00:00,SAT-66167,65.09784124747861,47.95227554462863,474432.5894261207,91.78458557396358,-3214684.435212235,10.5,10496785315.564787,47.655,-122.3035,60.0,11.833333333333334
2026-01-20T23:11:51+00:00,SAT-66167,62.39607089477175,48.77807632932715,474524.1292527998,98.06171118258676,-3434535.9262412167,10.5,10496565464.07376,47.655,-122.3035,60.0,11.85
2026-01-20T23:11:52+00:00,SAT-66167,59.60807069677349,49.53827613195462,474621.9294660859,104.22215262978833,-3650300.6443636995,10.5,10496349699.355637,47.655,-122.3035,60.0,11.866666666666667
2026-01-20T23:11:53+00:00,SAT-66167,56.73661564352898,50.22904850875522,474725.8736929753,110.25862999326523,-3861723.6159065915,10.5,10496138276.384094,47.655,-122.3035,60.0,11.883333333333333
2026-01-20T23:11:54+00:00,SAT-66167,53.78592097613666,50.84667085361734,474835.8382999553,116.16402722776452,-4068555.6068642912,10.5,10495931444.393135,47.655,-122.3035,60.0,11.9
2026-01-20T23:11:55+00:00,SAT-66167,50.76173408619842,51.387601909979594,474951.6925564438,121.93140051237721,-4270553.415256233,10.5,10495729446.584743,47.655,-122.3035,60.0,11.916666666666666
2026-01-20T23:11:56+00:00,SAT-66167,47.67137306271406,51.84856547672807,475073.2988065548,127.55398789490724,-4467480.208913481,10.5,10495532519.791086,47.655,-122.3035,60.0,11.933333333333334
2026-01-20T23:11:57+00:00,SAT-66167,44.523698380570885,52.226636808783645,475200.512650482,133.02521607706873,-4659105.763125041,10.5,10495340894.236876,47.655,-122.3035,60.0,11.95
2026-01-20T23:11:58+00:00,SAT-66167,41.3290079732276,52.51932725349737,475333.1831326495,138.33870899583775,-4845206.761193093,10.5,10495154793.238808,47.655,-122.3035,60.0,11.966666666666667
2026-01-20T23:11:59+00:00,SAT-66167,38.09885163801367,52.724662042294625,475471.15293842135,143.48829420747325,-5025567.018028417,10.5,10494974432.981972,47.655,-122.3035,60.0,11.983333333333333
2026-01-20T23:12:00+00:00,SAT-66167,34.84576836463945,52.84124596611467,475614.2585971776,148.4680119433592,-5199977.797324279,10.5,10494800022.202675,47.655,-122.3035,60.0,12.0
2026-01-20T23:12:01+00:00,SAT-66167,31.58295835725151,52.86831208059098,475762.3306944225,153.27211982003874,-5368237.976521767,10.5,10494631762.023478,47.655,-122.3035,60.0,12.016666666666667
2026-01-20T23:12:02+00:00,SAT-66167,28.323909410288827,52.805749596017094,475915.1940885897,157.8950996998074,-5530154.287096767,10.5,10494469845.712904,47.655,-122.3035,60.0,12.033333333333333
2026-01-20T23:12:03+00:00,SAT-66167,25.082002898500082,52.65410866271619,476072.66813469026,162.3316653528127,-5685541.582919119,10.5,10494314458.417082,47.655,-122.3035,60.0,12.05
2026-01-20T23:12:04+00:00,SAT-66167,21.870127332454455,52.41458162724851,476234.56691560213,166.57676534985805,-5834222.94157083,10.5,10494165777.05843,47.655,-122.3035,60.0,12.066666666666666
2026-01-20T23:12:05+00:00,SAT-66167,18.700326547600135,52.08896228071439,476400.6994762444,170.62559098588153,-5976029.941859832,10.5,10494023970.05814,47.655,-122.3035,60.0,12.083333333333334
2026-01-20T23:12:06+00:00,SAT-66167,15.583504957902997,51.679586329973716,476570.87006565434,174.4735792296153,-6110802.767129521,10.5,10493889197.23287,47.655,-122.3035,60.0,12.1
2026-01-20T23:12:07+00:00,SAT-66167,12.529205525245656,51.18925759936321,476744.87838200596,178.11641842514422,-6238390.4049514625,10.5,10493761609.595049,47.655,-122.3035,60.0,12.116666666666667
2026-01-20T23:12:08+00:00,SAT-66167,9.545467731247918,50.62116513784732,476922.5198233153,181.55005223497582,-6358650.78522838,10.5,10493641349.214771,47.655,-122.3035,60.0,12.133333333333333
2026-01-20T23:12:09+00:00,SAT-66167,6.638764892004762,49.97879648043266,477103.58574207773,184.7706833275854,-6471450.909347582,10.5,10493528549.090652,47.655,-122.3035,60.0,12.15
2026-01-20T23:12:10+00:00,SAT-66167,3.814013419344223,49.26585185026707,477287.8637035831,187.7747759111313,-6576666.938922388,10.5,10493423333.061077,47.655,-122.3035,60.0,12.166666666666666
2026-01-20T23:12:11+00:00,SAT-66167,1.0746419709306536,48.48616325359766,477475.1377467584,190.55906107312907,-6674184.382810108,10.5,10493325815.61719,47.655,-122.3035,60.0,12.183333333333334
2026-01-20T23:12:12+00:00,SAT-66167,358.4227059340792,47.64362136591089,477665.18865033536,193.12053718052204,-6763898.111124202,10.5,10493236101.888876,47.655,-122.3035,60.0,12.2
2026-01-20T23:12:13+00:00,SAT-66167,355.8590323901031,46.74211206594472,477857.79419941676,195.45647321262717,-6845712.471968141,10.5,10493154287.528032,47.655,-122.3035,60.0,12.216666666666667
2026-01-20T23:12:14+00:00,SAT-66167,353.38338172309955,45.78546346424403,478052.72945536743,197.56441000571246,-6919541.335025783,10.5,10493080458.664974,47.655,-122.3035,60.0,12.233333333333333
2026-01-20T23:12:15+00:00,SAT-66167,350.99461423854024,44.77740348405481,478249.7670269465,199.44216371572173,-6985308.212840624,10.5,10493014691.787159,47.655,-122.3035,60.0,12.25
2026-01-20T23:12:16+00:00,SAT-66167,348.69085268155004,43.72152742924402,478448.67734489235,201.08782450012353,-7042946.214648592,10.5,10492957053.78535,47.655,-122.3035,60.0,12.266666666666667
2026-01-20T23:12:17+00:00,SAT-66167,346.46963424669866,42.62127460919832,478649.2289351938,202.4997587171283,-7092398.123403915,10.5,10492907601.876596,47.655,-122.3035,60.0,12.283333333333333
2026-01-20T23:12:18+00:00,SAT-66167,344.3280479348664,41.479912828100595,478851.1886945543,203.67660990186064,-7133616.429968818,10.5,10492866383.570032,47.655,-122.3035,60.0,12.3
2026-01-20T23:12:19+00:00,SAT-66167,342.262855142136,40.300529488893694,479054.3221668298,204.61729817581633,-7166563.312430199,10.5,10492833436.68757,47.655,-122.3035,60.0,12.316666666666666
2026-01-20T23:14:47+00:00,SAT-66167,81.91564085509138,40.476409199179294,474108.36846777395,43.30082132299965,-1516577.925024039,10.5,10498483422.074976,47.655,-122.3035,60.0,14.783333333333333
2026-01-20T23:14:48+00:00,SAT-66167,79.81588339832426,41.66357143208315,474151.55382024014,50.227035732690155,-1759163.2515093046,10.5,10498240836.748491,47.655,-122.3035,60.0,14.8
2026-01-20T23:14:49+00:00,SAT-66167,77.63868859719128,42.81075415185159,474201.6469172109,57.09350341899163,-1999655.995013097,10.5,10498000344.004988,47.655,-122.3035,60.0,14.816666666666666
2026-01-20T23:14:50+00:00,SAT-66167,75.38091954132949,43.914794090097956,474258.58817128744,63.89199583912205,-2237767.9571604882,10.5,10497762232.04284,47.655,-122.3035,60.0,14.833333333333334
2026-01-20T23:14:51+00:00,SAT-66167,73.03981305338282,44.9723550471763,474322.3097884709,70.61437738936726,-2473214.194695839,10.5,10497526785.805304,47.655,-122.3035,60.0,14.85
2026-01-20T23:14:52+00:00,SAT-66167,70.61310717516456,45.97993959633247,474392.735860854,77.25261630326438,-2705713.401183281,10.5,10497294286.598816,47.655,-122.3035,60.0,14.866666666666667
2026-01-20T23:14:53+00:00,SAT-66167,68.09918482302498,46.93390791497592,474469.7824701804,83.79879474541569,-2934988.260534776,10.5,10497065011.739466,47.655,-122.3035,60.0,14.883333333333333
2026-01-20T23:14:54+00:00,SAT-66167,65.49723078474594,47.83050495842159,474553.3578014731,90.24511913200902,-3160765.808478393,10.5,10496839234.19152,47.655,-122.3035,60.0,14.9
2026-01-20T23:14:55+00:00,SAT-66167,62.80739705157688,48.665897074258716,474643.3622669542,96.58392977655254,-3382777.770392748,10.5,10496617222.229607,47.655,-122.3035,60.0,14.916666666666666
2026-01-20T23:14:56+00:00,SAT-66167,60.03096901171408,49.4362188513155,474739.68863958464,102.80771099110443,-3600760.9150947905,10.5,10496399239.084906,47.655,-122.3035,60.0,14.933333333333334
2026-01-20T23:14:57+00:00,SAT-66167,57.17052234564808,50.13763052632514,474842.2221966798,108.9091001553206,-3814457.3724762155,10.5,10496185542.627523,47.655,-122.3035,60.0,14.95
2026-01-20T23:14:58+00:00,SAT-66167,54.23005803914495,50.76638556812308,474950.840872568,114.88089713131924,-4023614.9632518506,10.5,10495976385.036749,47.655,-122.3035,60.0,14.966666666666667
2026-01-20T23:14:59+00:00,SAT-66167,51.21510107686812,51.31890718664821,475065.4154206403,120.71607229215482,-4227987.480150769,10.5,10495772012.51985,47.655,-122.3035,60.0,14.983333333333333
