satellites_20260120_184412/SAT-47361.csv

timestamp,satellite,azimuth_deg,elevation_deg,distance_km,relative_velocity_kms,doppler_shift_hz,tx_freq_ghz,rx_freq_hz,ue_lat,ue_lon,ue_alt_m,time_minutes
2026-01-20T23:14:43+00:00,SAT-47361,208.25403426087865,40.075047579289745,1300.0324345089882,-5.481305943756274,191978.52005149802,10.5,10500191978.520052,47.655,-122.3035,60.0,14.716666666666667
2026-01-20T23:14:44+00:00,SAT-47361,208.27118050736925,40.287174467576925,1294.565745381082,-5.46752089856206,191495.7094581133,10.5,10500191495.709457,47.655,-122.3035,60.0,14.733333333333333
2026-01-20T23:14:45+00:00,SAT-47361,208.28887264656035,40.50086705211092,1289.1128045382493,-5.453554072020314,191006.53211300363,10.5,10500191006.532112,47.655,-122.3035,60.0,14.75
2026-01-20T23:14:46+00:00,SAT-47361,208.30712288672183,40.716140904221184,1283.673793277088,-5.43940283925318,190510.89608184336,10.5,10500190510.896082,47.655,-122.3035,60.0,14.766666666666667
2026-01-20T23:14:47+00:00,SAT-47361,208.32594380185773,40.93301170872868,1278.2488955120725,-5.42506456503977,190008.70906804997,10.5,10500190008.709068,47.655,-122.3035,60.0,14.783333333333333
2026-01-20T23:14:48+00:00,SAT-47361,208.3453483455635,41.15149526297174,1272.8382977858728,-5.410536600678666,189499.87830289578,10.5,10500189499.878304,47.655,-122.3035,60.0,14.8
2026-01-20T23:14:49+00:00,SAT-47361,208.3653498655068,41.37160747560892,1267.442189282796,-5.395816216103736,188984.3081679167,10.5,10500188984.308168,47.655,-122.3035,60.0,14.816666666666666
2026-01-20T23:14:50+00:00,SAT-47361,208.385962118276,41.59336436250884,1262.0607619099353,-5.380900691372332,188461.9033992159,10.5,10500188461.903399,47.655,-122.3035,60.0,14.833333333333334
2026-01-20T23:14:51+00:00,SAT-47361,208.40719928530123,41.81678204616874,1256.6942102870735,-5.365787219982828,187932.56570123488,10.5,10500187932.5657,47.655,-122.3035,60.0,14.85
2026-01-20T23:14:52+00:00,SAT-47361,208.42907598910423,42.041876750991754,1251.3427318330105,-5.350473000999372,187396.19697335217,10.5,10500187396.196974,47.655,-122.3035,60.0,14.866666666666667
2026-01-20T23:14:53+00:00,SAT-47361,208.45160731069666,42.268664802165276,1246.0065267600137,-5.334955192776181,186852.69768911228,10.5,10500186852.69769,47.655,-122.3035,60.0,14.883333333333333
2026-01-20T23:14:54+00:00,SAT-47361,208.47480880763047,42.497162622454695,1240.6857981144183,-5.319230894074637,186301.96623486668,10.5,10500186301.966234,47.655,-122.3035,60.0,14.9
2026-01-20T23:14:55+00:00,SAT-47361,208.49869653275772,42.727386727955555,1235.3807518360613,-5.3032971772065896,185743.90007059212,10.5,10500185743.90007,47.655,-122.3035,60.0,14.916666666666666
2026-01-20T23:14:56+00:00,SAT-47361,208.5232870540941,42.95935372501691,1230.0915967846604,-5.287151113775175,185178.3966314434,10.5,10500185178.396631,47.655,-122.3035,60.0,14.933333333333334
2026-01-20T23:14:57+00:00,SAT-47361,208.5485974757597,43.19308030810108,1224.8185447405222,-5.270789671766666,184605.34972347433,10.5,10500184605.349724,47.655,-122.3035,60.0,14.95
2026-01-20T23:14:58+00:00,SAT-47361,208.5746454593833,43.428583252882376,1219.56181050788,-5.2542098226339,184024.6532741526,10.5,10500184024.653275,47.655,-122.3035,60.0,14.966666666666667
2026-01-20T23:14:59+00:00,SAT-47361,208.60144924713978,43.665879413758056,1214.3216119114397,-5.2374085256860665,183436.2007856238,10.5,10500183436.200785,47.655,-122.3035,60.0,14.983333333333333
