satellites_20260120_184412/SAT-66140.csv

timestamp,satellite,azimuth_deg,elevation_deg,distance_km,relative_velocity_kms,doppler_shift_hz,tx_freq_ghz,rx_freq_hz,ue_lat,ue_lon,ue_alt_m,time_minutes
2026-01-20T23:00:57+00:00,SAT-66140,207.79736082292723,40.13172806288863,1005.8200156626008,-4.622280572480197,161891.8178756921,10.5,10500161891.817875,47.655,-122.3035,60.0,0.95
2026-01-20T23:00:58+00:00,SAT-66140,207.91347443552326,40.44571899760091,1001.2100611716471,-4.5937795871908875,160893.59281181224,10.5,10500160893.592812,47.655,-122.3035,60.0,0.9666666666666667
2026-01-20T23:00:59+00:00,SAT-66140,208.0321664500865,40.76218974199841,996.6285316633554,-4.564878547888859,159881.35616418015,10.5,10500159881.356165,47.655,-122.3035,60.0,0.9833333333333333
2026-01-20T23:01:00+00:00,SAT-66140,208.1535087645194,41.08115190295896,992.0758261249276,-4.53557261054549,158854.9382744233,10.5,10500158854.938274,47.655,-122.3035,60.0,1.0
2026-01-20T23:01:01+00:00,SAT-66140,208.27757590947502,41.40261644927863,987.5523483746769,-4.505857014958185,157814.17242011116,10.5,10500157814.17242,47.655,-122.3035,60.0,1.0166666666666666
2026-01-20T23:01:02+00:00,SAT-66140,208.40444516858744,41.726593676829744,983.0585069784253,-4.475726945322179,156758.88993139006,10.5,10500156758.88993,47.655,-122.3035,60.0,1.0333333333333334
2026-01-20T23:01:03+00:00,SAT-66140,208.53419670117702,42.0530931621432,978.5947153049574,-4.445177626906778,155688.92357699396,10.5,10500155688.923576,47.655,-122.3035,60.0,1.05
2026-01-20T23:01:04+00:00,SAT-66140,208.6669136739179,42.38212372052563,974.1613914850556,-4.414204309040284,154604.10696830467,10.5,10500154604.106968,47.655,-122.3035,60.0,1.0666666666666667
2026-01-20T23:01:05+00:00,SAT-66140,208.8026823989806,42.71369336091411,969.758958387506,-4.382802266854205,153504.27462044143,10.5,10500153504.27462,47.655,-122.3035,60.0,1.0833333333333333
2026-01-20T23:01:06+00:00,SAT-66140,208.9415924794802,43.04780923859123,965.3878435933635,-4.350966801568113,152389.26196223783,10.5,10500152389.261963,47.655,-122.3035,60.0,1.1
2026-01-20T23:01:07+00:00,SAT-66140,209.0837369626233,43.38447760556926,961.0484793699329,-4.318693232831536,151258.90506802252,10.5,10500151258.905067,47.655,-122.3035,60.0,1.1166666666666667
2026-01-20T23:01:08+00:00,SAT-66140,209.22921250070286,43.72370375784086,956.741302652389,-4.285976967599805,150113.0430699426,10.5,10500150113.04307,47.655,-122.3035,60.0,1.1333333333333333
2026-01-20T23:01:09+00:00,SAT-66140,209.3781195230551,44.06549198543978,952.4667549567027,-4.2528134014156675,148951.5147004282,10.5,10500148951.5147,47.655,-122.3035,60.0,1.15
2026-01-20T23:01:10+00:00,SAT-66140,209.53056241389646,44.40984551214886,948.2252823910242,-4.219198046865647,147774.16279127772,10.5,10500147774.162792,47.655,-122.3035,60.0,1.1666666666666667
2026-01-20T23:01:11+00:00,SAT-66140,209.68664970427616,44.75676644251119,944.0173355389502,-4.185126399008908,146580.8295604072,10.5,10500146580.829561,47.655,-122.3035,60.0,1.1833333333333333
2026-01-20T23:01:12+00:00,SAT-66140,209.8464942696497,45.10625569520661,939.8433694770052,-4.150594081586626,145371.361732721,10.5,10500145371.361732,47.655,-122.3035,60.0,1.2
2026-01-20T23:01:13+00:00,SAT-66140,210.0102135436423,45.458312945136825,935.7038436463029,-4.1155967537074964,144145.60727184374,10.5,10500144145.607271,47.655,-122.3035,60.0,1.2166666666666666
2026-01-20T23:01:14+00:00,SAT-66140,210.17792974009004,45.81293655479889,931.5992218172719,-4.0801301720209295,142903.4175576884,10.5,10500142903.417557,47.655,-122.3035,60.0,1.2333333333333334
2026-01-20T23:01:15+00:00,SAT-66140,210.3497700898301,46.17012350748616,927.5299719923764,-4.0441901535548785,141644.6460848799,10.5,10500141644.646086,47.655,-122.3035,60.0,1.25
2026-01-20T23:01:16+00:00,SAT-66140,210.52586708911056,46.52986933383803,923.4965663458976,-4.007772623235271,140369.15012708673,10.5,10500140369.150127,47.655,-122.3035,60.0,1.2666666666666666
2026-01-20T23:01:17+00:00,SAT-66140,210.7063587639148,46.89216803885448,919.4994811163243,-3.970873618608779,139076.79090243217,10.5,10500139076.790903,47.655,-122.3035,60.0,1.2833333333333334
2026-01-20T23:01:18+00:00,SAT-66140,210.89138894944324,47.25701202561487,915.5391964940318,-3.933489234720783,137767.4316428875,10.5,10500137767.431643,47.655,-122.3035,60.0,1.3
2026-01-20T23:01:19+00:00,SAT-66140,211.08110758282544,47.62439201005568,911.616196563937,-3.8956157417071466,136440.94171283336,10.5,10500136440.941713,47.655,-122.3035,60.0,1.3166666666666667
2026-01-20T23:01:20+00:00,SAT-66140,211.2756710179707,47.99429694218427,907.7309691308744,-3.857249477102053,135097.1928372246,10.5,10500135097.192837,47.655,-122.3035,60.0,1.3333333333333333
2026-01-20T23:01:21+00:00,SAT-66140,211.47524235323482,48.36671391314789,903.8840056523779,-3.8183869579092438,133736.06302679924,10.5,10500133736.063026,47.655,-122.3035,60.0,1.35
2026-01-20T23:01:22+00:00,SAT-66140,211.67999178344516,48.74162806811914,900.0758010596899,-3.7790247765584977,132357.43293403406,10.5,10500132357.432934,47.655,-122.3035,60.0,1.3666666666666667
2026-01-20T23:01:23+00:00,SAT-66140,211.89009696678127,49.11902250449872,896.3068536825355,-3.73915973133274,130961.19042125394,10.5,10500130961.190422,47.655,-122.3035,60.0,1.3833333333333333
2026-01-20T23:01:24+00:00,SAT-66140,212.10574341979486,49.49887817757199,892.5776650438196,-3.69878876459266,129547.22839699633,10.5,10500129547.228397,47.655,-122.3035,60.0,1.4
2026-01-20T23:01:25+00:00,SAT-66140,212.3271249321525,49.88117379509508,888.8887397159325,-3.6579089358574515,128115.44387318524,10.5,10500128115.443872,47.655,-122.3035,60.0,1.4166666666666667
2026-01-20T23:01:26+00:00,SAT-66140,212.5544440036978,50.26588570330841,885.2405852039041,-3.61651754392723,126665.7422423746,10.5,10500126665.742243,47.655,-122.3035,60.0,1.4333333333333333
2026-01-20T23:01:27+00:00,SAT-66140,212.78791231436728,50.65298777953208,881.6337117067606,-3.5746120163787736,125198.0334074219,10.5,10500125198.033407,47.655,-122.3035,60.0,1.45
2026-01-20T23:01:28+00:00,SAT-66140,213.0277512148675,51.042451307263015,878.0686319890922,-3.532190015791842,123712.23550198298,10.5,10500123712.235502,47.655,-122.3035,60.0,1.4666666666666666
2026-01-20T23:01:29+00:00,SAT-66140,213.27419225282583,51.4342448557934,874.5458611466757,-3.489249363228686,122208.272210441,10.5,10500122208.272211,47.655,-122.3035,60.0,1.4833333333333334
2026-01-20T23:01:30+00:00,SAT-66140,213.52747772476496,51.82833414476618,871.0659164484157,-3.4457881175845566,120686.0755470968,10.5,10500120686.075546,47.655,-122.3035,60.0,1.5
2026-01-20T23:01:31+00:00,SAT-66140,213.78786126588855,52.22468190996269,867.6293170991447,-3.4018045610950614,119145.58534857519,10.5,10500119145.585348,47.655,-122.3035,60.0,1.5166666666666666
2026-01-20T23:01:32+00:00,SAT-66140,214.05560847366428,52.6232477599014,864.2365840168792,-3.357297193847765,117586.74908159809,10.5,10500117586.74908,47.655,-122.3035,60.0,1.5333333333333334
2026-01-20T23:01:33+00:00,SAT-66140,214.33099756754825,53.02398802360705,860.8882396155484,-3.312264747760274,116009.52233255608,10.5,10500116009.522333,47.655,-122.3035,60.0,1.55
2026-01-20T23:01:34+00:00,SAT-66140,214.61432008835084,53.42685559114243,857.5848075737822,-3.2667062272642404,114413.87023243436,10.5,10500114413.870232,47.655,-122.3035,60.0,1.5666666666666667
2026-01-20T23:01:35+00:00,SAT-66140,214.90588164189538,53.83179974976672,854.3268125631239,-3.2206208879183307,112799.76670774842,10.5,10500112799.766708,47.655,-122.3035,60.0,1.5833333333333333
2026-01-20T23:01:36+00:00,SAT-66140,215.20600268434254,54.238766007833874,851.1147799975734,-3.1740082380842076,111167.19453924414,10.5,10500111167.19454,47.655,-122.3035,60.0,1.6
2026-01-20T23:01:37+00:00,SAT-66140,215.51501935298606,54.64769590831909,847.9492357814574,-3.12686809865557,109516.14745386118,10.5,10500109516.147453,47.655,-122.3035,60.0,1.6166666666666667
2026-01-20T23:01:38+00:00,SAT-66140,215.833284350615,55.058526838717796,844.8307059977316,-3.0792005363550667,107846.62778850894,10.5,10500107846.627789,47.655,-122.3035,60.0,1.6333333333333333
2026-01-20T23:01:39+00:00,SAT-66140,216.16116787390698,55.471191820675394,841.7597166628068,-3.031005965482054,106158.65005370337,10.5,10500106158.650053,47.655,-122.3035,60.0,1.65
2026-01-20T23:01:40+00:00,SAT-66140,216.49905860469016,55.88561930007589,838.7367933798994,-2.9822850709559288,104452.23823821897,10.5,10500104452.238237,47.655,-122.3035,60.0,1.6666666666666667
2026-01-20T23:01:41+00:00,SAT-66140,216.8473647487602,56.30173291375614,835.7624610691327,-2.933038867414843,102727.4278789757,10.5,10500102727.42788,47.655,-122.3035,60.0,1.6833333333333333
2026-01-20T23:01:42+00:00,SAT-66140,217.20651513810614,56.719451249485275,832.8372436386976,-2.8832687089052946,100984.26640040956,10.5,10500100984.266401,47.655,-122.3035,60.0,1.7
2026-01-20T23:01:43+00:00,SAT-66140,217.5769603943245,57.13868759217258,829.9616636463493,-2.8329762710907525,99222.81249134327,10.5,10500099222.81249,47.655,-122.3035,60.0,1.7166666666666666
2026-01-20T23:01:44+00:00,SAT-66140,217.95917415155506,57.55934965117733,827.1362419786483,-2.782163579955018,97443.13711029946,10.5,10500097443.13711,47.655,-122.3035,60.0,1.7333333333333334
2026-01-20T23:01:45+00:00,SAT-66140,218.35365434610924,57.98133927411824,824.361497501573,-2.73083301600279,95645.32363262218,10.5,10500095645.323633,47.655,-122.3035,60.0,1.75
2026-01-20T23:01:46+00:00,SAT-66140,218.76092457135007,58.404552142604246,821.6379467069462,-2.6789873145695497,93829.46786133049,10.5,10500093829.467861,47.655,-122.3035,60.0,1.7666666666666666
2026-01-20T23:01:47+00:00,SAT-66140,219.18153549788872,58.82887744799939,818.9661033585489,-2.6266296095491737,91995.67955864427,10.5,10500091995.679558,47.655,-122.3035,60.0,1.7833333333333334
2026-01-20T23:01:48+00:00,SAT-66140,219.61606636590938,59.254197552575306,816.3464780946251,-2.573763359982856,90144.0798748179,10.5,10500090144.079874,47.655,-122.3035,60.0,1.8
2026-01-20T23:01:49+00:00,SAT-66140,220.0651265306455,59.680387616324076,813.7795781036023,-2.520392476424017,88274.80577397373,10.5,10500088274.805775,47.655,-122.3035,60.0,1.8166666666666667
2026-01-20T23:01:50+00:00,SAT-66140,220.5293570910667,60.10731521947239,811.2659066737821,-2.466521204069609,86388.00594086623,10.5,10500086388.005941,47.655,-122.3035,60.0,1.8333333333333333
2026-01-20T23:01:51+00:00,SAT-66140,221.00943255901802,60.53483994033763,808.80596285959,-2.412154223224491,84483.84429956926,10.5,10500084483.8443,47.655,-122.3035,60.0,1.85
2026-01-20T23:01:52+00:00,SAT-66140,221.5060626002641,60.96281292185014,806.4002410476274,-2.357296585701666,82562.49778594328,10.5,10500082562.497786,47.655,-122.3035,60.0,1.8666666666666667
2026-01-20T23:01:53+00:00,SAT-66140,222.0199938118262,61.39107639814124,804.0492305861543,-2.3019537965341073,80624.15920952932,10.5,10500080624.15921,47.655,-122.3035,60.0,1.8833333333333333
2026-01-20T23:01:54+00:00,SAT-66140,222.55201155417018,61.81946320418058,801.7534153330777,-2.246131731529824,78669.03436597844,10.5,10500078669.034367,47.655,-122.3035,60.0,1.9
2026-01-20T23:01:55+00:00,SAT-66140,223.10294179239406,62.24779623804648,799.5132732861653,-2.189836711171587,76697.34462533299,10.5,10500076697.344625,47.655,-122.3035,60.0,1.9166666666666667
2026-01-20T23:01:56+00:00,SAT-66140,223.67365296292797,62.67588790167631,797.3292761395568,-2.133075465181819,74709.32569093883,10.5,10500074709.325691,47.655,-122.3035,60.0,1.9333333333333333
2026-01-20T23:01:57+00:00,SAT-66140,224.26505782188434,63.10353949895128,795.2018888756154,-2.0758551536024017,72705.22833774962,10.5,10500072705.228338,47.655,-122.3035,60.0,1.95
2026-01-20T23:01:58+00:00,SAT-66140,224.87811526176677,63.5305405997636,793.1315693357559,-2.018183361799258,70685.3182373661,10.5,10500070685.318237,47.655,-122.3035,60.0,1.9666666666666666
2026-01-20T23:01:59+00:00,SAT-66140,225.5138320585302,63.95666836394606,791.1187677962548,-1.9600680990817765,68649.87590968233,10.5,10500068649.87591,47.655,-122.3035,60.0,1.9833333333333334
2026-01-20T23:02:00+00:00,SAT-66140,226.17326450964913,64.38168682442709,789.1639265454373,-1.9015178025396113,66599.1968572669,10.5,10500066599.196857,47.655,-122.3035,60.0,2.0
2026-01-20T23:02:01+00:00,SAT-66140,226.85751991643946,64.80534613001319,787.2674794570378,-1.8425413431401794,64533.59177892288,10.5,10500064533.59178,47.655,-122.3035,60.0,2.0166666666666666
2026-01-20T23:02:02+00:00,SAT-66140,227.5677578533654,65.22738174822342,785.4298515574792,-1.783148004695984,62453.38583303464,10.5,10500062453.385834,47.655,-122.3035,60.0,2.033333333333333
2026-01-20T23:02:03+00:00,SAT-66140,228.30519114376904,65.64751362267099,783.6514586141291,-1.7233475095613513,60358.919537576185,10.5,10500060358.919538,47.655,-122.3035,60.0,2.05
2026-01-20T23:02:04+00:00,SAT-66140,229.07108647464742,66.06544529669497,781.9327066979266,-1.663149992731896,58250.547862964944,10.5,10500058250.547863,47.655,-122.3035,60.0,2.066666666666667
2026-01-20T23:02:05+00:00,SAT-66140,229.86676453135516,66.48086299436909,780.273991771842,-1.6025660119041003,56128.640584390734,10.5,10500056128.640585,47.655,-122.3035,60.0,2.0833333333333335
2026-01-20T23:02:06+00:00,SAT-66140,230.69359954783098,66.89343467092391,778.675699269303,-1.5416065229249925,53993.58142195966,10.5,10500053993.581423,47.655,-122.3035,60.0,2.1
2026-01-20T23:02:07+00:00,SAT-66140,231.55301811822443,67.30280903001861,777.1382036971057,-1.4802829076129884,51845.76901509769,10.5,10500051845.769014,47.655,-122.3035,60.0,2.1166666666666667
2026-01-20T23:02:08+00:00,SAT-66140,232.4464971356086,67.70861452895237,775.6618682105798,-1.4186069297553336,49685.61538139496,10.5,10500049685.615381,47.655,-122.3035,60.0,2.1333333333333333
2026-01-20T23:02:09+00:00,SAT-66140,233.37556063657212,68.1104583643771,774.2470442326371,-1.3565907596337732,47513.54677559839,10.5,10500047513.546776,47.655,-122.3035,60.0,2.15
2026-01-20T23:02:10+00:00,SAT-66140,234.3417753777948,68.5079254700148,772.8940710483624,-1.2942469428234147,45330.002596816004,10.5,10500045330.002596,47.655,-122.3035,60.0,2.1666666666666665
2026-01-20T23:02:11+00:00,SAT-66140,235.3467448764331,68.90057752958494,771.6032754307198,-1.2315883961896108,43135.43524831073,10.5,10500043135.435247,47.655,-122.3035,60.0,2.183333333333333
2026-01-20T23:02:12+00:00,SAT-66140,236.39210166465364,69.28795203415102,770.3749712702535,-1.1686284087765781,40930.310168623626,10.5,10500040930.31017,47.655,-122.3035,60.0,2.2
2026-01-20T23:02:13+00:00,SAT-66140,237.47949747659953,69.66956141349499,769.2094592039002,-1.1053806180098817,38715.10499808424,10.5,10500038715.104998,47.655,-122.3035,60.0,2.216666666666667
2026-01-20T23:02:14+00:00,SAT-66140,238.6105910389037,70.0448922676964,768.1070262675383,-1.0418589961156581,36490.30910315432,10.5,10500036490.309103,47.655,-122.3035,60.0,2.2333333333333334
2026-01-20T23:02:15+00:00,SAT-66140,239.7870331447004,70.41340474193423,767.067945562079,-0.9780778480732532,34256.42350472058,10.5,10500034256.423504,47.655,-122.3035,60.0,2.25
2026-01-20T23:02:16+00:00,SAT-66140,241.0104486934411,70.77453209617595,766.0924759216006,-0.9140517890110035,32013.960086399296,10.5,10500032013.960087,47.655,-122.3035,60.0,2.2666666666666666
2026-01-20T23:02:17+00:00,SAT-66140,242.28241535626685,71.12768051887903,765.180861604027,-0.8497957338565955,29763.441232048113,10.5,10500029763.441233,47.655,-122.3035,60.0,2.283333333333333
2026-01-20T23:02:18+00:00,SAT-66140,243.60443858634756,71.47222925250081,764.3333319921273,-0.785324870782709,27505.3988957202,10.5,10500027505.398895,47.655,-122.3035,60.0,2.3
2026-01-20T23:02:19+00:00,SAT-66140,244.97792271360805,71.8075310967386,763.550101321,-0.7206546666355672,25240.37479179498,10.5,10500025240.374792,47.655,-122.3035,60.0,2.316666666666667
2026-01-20T23:02:20+00:00,SAT-66140,246.40413802081693,72.13291338135187,762.8313684001422,-0.6558008220229202,22968.91882196937,10.5,10500022968.918821,47.655,-122.3035,60.0,2.3333333333333335
2026-01-20T23:02:21+00:00,SAT-66140,247.88418369808892,72.44767947420823,762.1773163803113,-0.5907792802193262,20691.589387158383,10.5,10500020691.589388,47.655,-122.3035,60.0,2.35
2026-01-20T23:02:22+00:00,SAT-66140,249.41894691349282,72.75111093590756,761.588112511506,-0.5256061839930087,18408.951875389044,10.5,10500018408.951876,47.655,-122.3035,60.0,2.3666666666666667
2026-01-20T23:02:23+00:00,SAT-66140,251.0090582717795,73.0424703883655,761.0639079440036,-0.46029787867690186,16121.578769361402,10.5,10500016121.57877,47.655,-122.3035,60.0,2.3833333333333333
2026-01-20T23:02:24+00:00,SAT-66140,252.65484440523,73.32100520405683,760.6048375263364,-0.39487087198790655,13830.048239148893,10.5,10500013830.048239,47.655,-122.3035,60.0,2.4
2026-01-20T23:02:25+00:00,SAT-66140,254.35627856029157,73.58595207034307,760.2110196433405,-0.32934183187470567,11534.944066819751,10.5,10500011534.944067,47.655,-122.3035,60.0,2.4166666666666665
2026-01-20T23:02:26+00:00,SAT-66140,256.1129306202072,73.83654250625302,759.8825560563508,-0.26372755028855693,9236.854377536902,10.5,10500009236.854378,47.655,-122.3035,60.0,2.433333333333333
2026-01-20T23:02:27+00:00,SAT-66140,257.92391817274313,74.07200934435225,759.6195317795297,-0.19804493288409106,6936.371278836361,10.5,10500006936.371279,47.655,-122.3035,60.0,2.45
2026-01-20T23:02:28+00:00,SAT-66140,259.7878608152603,74.29159418889911,759.4220149664666,-0.13231097305893855,4634.08995138515,10.5,10500004634.08995,47.655,-122.3035,60.0,2.466666666666667
2026-01-20T23:02:29+00:00,SAT-66140,261.7028400813706,74.49455579260136,759.2900568226693,-0.06654272919513989,2330.6078518792115,10.5,10500002330.607851,47.655,-122.3035,60.0,2.4833333333333334
2026-01-20T23:02:30+00:00,SAT-66140,263.66636766505576,74.68017925007376,759.2236915407518,-0.0007573052689097528,26.524033915330868,10.5,10500000026.524035,47.655,-122.3035,60.0,2.5
2026-01-20T23:02:31+00:00,SAT-66140,265.67536477195756,74.84778585070224,759.2229362549638,0.0650281727015376,-2277.5616769056437,10.5,10499997722.438324,47.655,-122.3035,60.0,2.5166666666666666
2026-01-20T23:02:32+00:00,SAT-66140,267.7261552615744,74.99674336222508,759.2877910192046,0.1307965790933829,-4581.049468831269,10.5,10499995418.950531,47.655,-122.3035,60.0,2.533333333333333
2026-01-20T23:02:33+00:00,SAT-66140,269.814474982987,75.12647646274682,759.4182388074205,0.19653080903823167,-6883.340257016848,10.5,10499993116.659742,47.655,-122.3035,60.0,2.55
2026-01-20T23:02:34+00:00,SAT-66140,271.9354990630984,75.23647698162974,759.6142455343013,0.262213803172544,-9183.836550390177,10.5,10499990816.16345,47.655,-122.3035,60.0,2.566666666666667
2026-01-20T23:02:35+00:00,SAT-66140,274.0838882015536,75.32631357996632,759.8757601006654,0.3278285681613275,-11481.943170478085,10.5,10499988518.05683,47.655,-122.3035,60.0,2.5833333333333335
2026-01-20T23:02:36+00:00,SAT-66140,276.2538537896642,75.39564047184133,760.2027144593116,0.3933581974143187,-13777.067976974746,10.5,10499986222.932022,47.655,-122.3035,60.0,2.6
2026-01-20T23:02:37+00:00,SAT-66140,278.4392406332489,75.44420480656548,760.5950237015329,0.4587858952913471,-16068.622715515894,10.5,10499983931.377285,47.655,-122.3035,60.0,2.6166666666666667
2026-01-20T23:02:38+00:00,SAT-66140,280.6336248064435,75.47185236438898,761.0525861677701,0.5240949950672683,-18356.0236468868,10.5,10499981643.976353,47.655,-122.3035,60.0,2.6333333333333333
2026-01-20T23:02:39+00:00,SAT-66140,282.8304229761819,75.4785312814276,761.5752835761839,0.5892689845767342,-20638.692445210578,10.5,10499979361.307554,47.655,-122.3035,60.0,2.65
2026-01-20T23:02:40+00:00,SAT-66140,285.0230087377424,75.46429361100972,762.1629811768017,0.6542915204678513,-22916.056697171614,10.5,10499977083.943302,47.655,-122.3035,60.0,2.6666666666666665
2026-01-20T23:02:41+00:00,SAT-66140,287.20483082761154,75.42929463309488,762.8155279198817,0.7191464489521586,-25187.550628767534,10.5,10499974812.449371,47.655,-122.3035,60.0,2.683333333333333
2026-01-20T23:02:42+00:00,SAT-66140,289.369528026025,75.37378993954616,763.5327566449699,0.7838178365111386,-27452.616180781155,10.5,10499972547.38382,47.655,-122.3035,60.0,2.7
2026-01-20T23:02:43+00:00,SAT-66140,291.5110358076468,75.29813043301525,764.3144843005837,0.8482899663752714,-29710.702885462015,10.5,10499970289.297115,47.655,-122.3035,60.0,2.716666666666667
2026-01-20T23:02:44+00:00,SAT-66140,293.6236803433629,75.20275548182127,765.1605121603819,0.9125473827395356,-31961.26941514027,10.5,10499968038.730585,47.655,-122.3035,60.0,2.7333333333333334
2026-01-20T23:02:45+00:00,SAT-66140,295.7022566760694,75.0881845457726,766.0706260834343,0.9765748824789171,-34203.78329206877,10.5,10499965796.216707,47.655,-122.3035,60.0,2.75
2026-01-20T23:02:46+00:00,SAT-66140,297.74208875927326,74.9550076498009,767.0445967662265,1.0403575515807792,-36437.722164438776,10.5,10499963562.277836,47.655,-122.3035,60.0,2.7666666666666666
2026-01-20T23:02:47+00:00,SAT-66140,299.7390705438495,74.80387509680642,768.0821800310031,1.103880773134332,-38662.57408620495,10.5,10499961337.425913,47.655,-122.3035,60.0,2.783333333333333
2026-01-20T23:02:48+00:00,SAT-66140,301.6896882589823,74.63548681543286,769.1831171220756,1.167130236139731,-40877.837825617265,10.5,10499959122.162174,47.655,-122.3035,60.0,2.8
2026-01-20T23:02:49+00:00,SAT-66140,303.59102511768276,74.45058170829296,770.347135010919,1.2300919659908462,-43083.02393285653,10.5,10499956916.976067,47.655,-122.3035,60.0,2.816666666666667
2026-01-20T23:02:50+00:00,SAT-66140,305.44075046867624,74.24992731639195,771.5739467316673,1.2927523150729419,-45277.654410725336,10.5,10499954722.345589,47.655,-122.3035,60.0,2.8333333333333335
2026-01-20T23:02:51+00:00,SAT-66140,307.2370958199389,74.03431006738222,772.8632517072334,1.355098005291904,-47461.264204201536,10.5,10499952538.735796,47.655,-122.3035,60.0,2.85
2026-01-20T23:02:52+00:00,SAT-66140,308.97882056496985,73.80452629739835,774.2147361178445,1.417116098131329,-49633.40015171081,10.5,10499950366.599848,47.655,-122.3035,60.0,2.8666666666666667
2026-01-20T23:02:53+00:00,SAT-66140,310.6651700826042,73.56137419350698,775.6280732397141,1.4787940532378134,-51793.623037031306,10.5,10499948206.376963,47.655,-122.3035,60.0,2.8833333333333333
2026-01-20T23:02:54+00:00,SAT-66140,312.29582896183365,73.3056467182654,777.1029238421432,1.5401196941055713,-53941.506387423855,10.5,10499946058.493612,47.655,-122.3035,60.0,2.9
2026-01-20T23:02:55+00:00,SAT-66140,313.87087157952976,73.03812555777861,778.638936550398,1.6010812519158537,-56076.63800907382,10.5,10499943923.36199,47.655,-122.3035,60.0,2.9166666666666665
2026-01-20T23:02:56+00:00,SAT-66140,315.39071212767897,72.75957606360843,780.2357482523087,1.6616673435837626,-58198.61921819764,10.5,10499941801.380781,47.655,-122.3035,60.0,2.933333333333333
2026-01-20T23:02:57+00:00,SAT-66140,316.85605562739784,72.47074315179275,781.8929844829761,1.7218669997347287,-60307.06582089751,10.5,10499939692.93418,47.655,-122.3035,60.0,2.95
2026-01-20T23:02:58+00:00,SAT-66140,318.26785121477565,72.17234807941456,783.6102598373783,1.7816696694537015,-62401.60827949804,10.5,10499937598.39172,47.655,-122.3035,60.0,2.966666666666667
2026-01-20T23:02:59+00:00,SAT-66140,319.62724854741595,71.86508601759547,785.3871783877133,1.8410651995927256,-64481.89098781003,10.5,10499935518.109013,47.655,-122.3035,60.0,2.9833333333333334
2026-01-20T23:03:00+00:00,SAT-66140,320.9355578792323,71.54962433287763,787.2233340801073,1.900043880173516,-66547.57386132081,10.5,10499933452.426138,47.655,-122.3035,60.0,3.0
2026-01-20T23:03:01+00:00,SAT-66140,322.19421415935824,71.2266014711921,789.1183111766003,1.9585964033166954,-68598.33089872228,10.5,10499931401.669102,47.655,-122.3035,60.0,3.0166666666666666
2026-01-20T23:03:02+00:00,SAT-66140,323.40474518322014,70.89662636770161,791.0716846561749,2.016713914681384,-70633.851983543,10.5,10499929366.148016,47.655,-122.3035,60.0,3.033333333333333
2026-01-20T23:03:03+00:00,SAT-66140,324.5687437985757,70.56027828013848,793.0830206670837,2.074387950760154,-72653.84068795225,10.5,10499927346.159311,47.655,-122.3035,60.0,3.05
2026-01-20T23:03:04+00:00,SAT-66140,325.6878439124767,70.21810698601212,795.1518769166419,2.1316105108284678,-74658.01679273369,10.5,10499925341.983208,47.655,-122.3035,60.0,3.066666666666667
2026-01-20T23:03:05+00:00,SAT-66140,326.7637001266756,69.87063325001563,797.2778031327748,2.1883740030334837,-76646.11439908732,10.5,10499923353.885601,47.655,-122.3035,60.0,3.0833333333333335
2026-01-20T23:03:06+00:00,SAT-66140,327.7979706218455,69.51834952070416,799.4603414718001,2.244671257632167,-78617.88239228404,10.5,10499921382.117607,47.655,-122.3035,60.0,3.1
2026-01-20T23:03:07+00:00,SAT-66140,328.79230300679717,69.16172079135453,801.699026939412,2.3004955472485467,-80573.08515116062,10.5,10499919426.914848,47.655,-122.3035,60.0,3.1166666666666667
2026-01-20T23:03:08+00:00,SAT-66140,329.7483228011223,68.80118557855074,803.993387831868,2.355840541640126,-82511.50096384787,10.5,10499917488.499037,47.655,-122.3035,60.0,3.1333333333333333
2026-01-20T23:03:09+00:00,SAT-66140,330.66762419993944,68.43715699082757,806.3429461320636,2.410700359588133,-84432.9238451869,10.5,10499915567.076155,47.655,-122.3035,60.0,3.15
2026-01-20T23:03:10+00:00,SAT-66140,331.5517628580772,68.07002384052011,808.7472179573595,2.4650694965571422,-86337.16100306298,10.5,10499913662.838997,47.655,-122.3035,60.0,3.1666666666666665
2026-01-20T23:03:11+00:00,SAT-66140,332.40225035995775,67.70015179278512,811.2057139352592,2.518942897660185,-88224.03539395225,10.5,10499911775.964605,47.655,-122.3035,60.0,3.183333333333333
2026-01-20T23:03:12+00:00,SAT-66140,333.22055017512315,67.3278845088982,813.717939651859,2.5723158754624578,-90093.3828440601,10.5,10499909906.617155,47.655,-122.3035,60.0,3.2
2026-01-20T23:03:13+00:00,SAT-66140,334.0080748115192,66.95354479156258,816.2833960183201,2.6251841612880185,-91945.05384629854,10.5,10499908054.946154,47.655,-122.3035,60.0,3.216666666666667
2026-01-20T23:03:14+00:00,SAT-66140,334.766184011112,66.5774356996307,818.9015796885114,2.6775438883127087,-93778.9129681289,10.5,10499906221.087032,47.655,-122.3035,60.0,3.2333333333333334
2026-01-20T23:03:15+00:00,SAT-66140,335.49618378408826,66.19984163348306,821.5719834597886,2.7293915344266577,-95594.83685036503,10.5,10499904405.163149,47.655,-122.3035,60.0,3.25
2026-01-20T23:03:16+00:00,SAT-66140,336.19932611843024,65.82102938979605,824.2940966167902,2.7807240099384045,-97392.71727894251,10.5,10499902607.28272,47.655,-122.3035,60.0,3.2666666666666666
2026-01-20T23:03:17+00:00,SAT-66140,336.876809271969,65.44124916052687,827.0674053627021,2.8315385549268277,-99172.45758974928,10.5,10499900827.54241,47.655,-122.3035,60.0,3.283333333333333
2026-01-20T23:03:18+00:00,SAT-66140,337.52977848084055,65.06073550017331,829.8913931481491,2.881832787893023,-100933.97437261995,10.5,10499899066.025627,47.655,-122.3035,60.0,3.3
2026-01-20T23:03:19+00:00,SAT-66140,338.1593270301045,64.67970823823514,832.7655410486077,2.931604671620135,-102677.19627560284,10.5,10499897322.803724,47.655,-122.3035,60.0,3.316666666666667
2026-01-20T23:03:20+00:00,SAT-66140,338.7664975836015,64.2983733479257,835.6893281077702,2.980852539424558,-104402.06492438799,10.5,10499895597.935076,47.655,-122.3035,60.0,3.3333333333333335
2026-01-20T23:03:21+00:00,SAT-66140,339.3522837196825,63.91692376321866,838.6622317070896,3.0295750340790986,-106108.53278313804,10.5,10499893891.467216,47.655,-122.3035,60.0,3.35
2026-01-20T23:03:22+00:00,SAT-66140,339.9176315981096,63.53554015656362,841.6837278744111,3.0777711254701874,-107796.56377291842,10.5,10499892203.436228,47.655,-122.3035,60.0,3.3666666666666667
2026-01-20T23:03:23+00:00,SAT-66140,340.4634417297353,63.154391668029774,844.7532916102134,3.1254401350108463,-109466.13412674273,10.5,10499890533.865873,47.655,-122.3035,60.0,3.3833333333333333
2026-01-20T23:03:24+00:00,SAT-66140,340.9905708103897,62.77363658708887,847.8703972381976,3.1725816411955425,-111117.22908170424,10.5,10499888882.770918,47.655,-122.3035,60.0,3.4
2026-01-20T23:03:25+00:00,SAT-66140,341.4998335678572,62.39342300348276,851.0345186616834,3.219195584612622,-112749.84655695551,10.5,10499887250.153442,47.655,-122.3035,60.0,3.4166666666666665
2026-01-20T23:03:26+00:00,SAT-66140,341.99200463245626,62.013889404564374,854.2451297247369,3.265282128918,-114363.99228441896,10.5,10499885636.007715,47.655,-122.3035,60.0,3.433333333333333
2026-01-20T23:03:27+00:00,SAT-66140,342.4678203705152,61.63516525086706,857.5017044346445,3.3108417680016777,-115959.68356221162,10.5,10499884040.316439,47.655,-122.3035,60.0,3.45
2026-01-20T23:03:28+00:00,SAT-66140,342.9279807060113,61.257371502294546,860.8037172912648,3.35587524152315,-117536.94629633772,10.5,10499882463.053703,47.655,-122.3035,60.0,3.466666666666667
2026-01-20T23:03:29+00:00,SAT-66140,343.37315088796805,60.88062111990623,864.1506435321439,3.400383551170875,-119095.81557016417,10.5,10499880904.18443,47.655,-122.3035,60.0,3.4833333333333334
2026-01-20T23:03:30+00:00,SAT-66140,343.80396321090075,60.50501953329522,867.541959393845,3.4443679574275836,-120636.33553112809,10.5,10499879363.664469,47.655,-122.3035,60.0,3.5
2026-01-20T23:03:31+00:00,SAT-66140,344.2210186785508,60.130665077927986,870.9771423700528,3.4878299460484827,-122158.55821666158,10.5,10499877841.441784,47.655,-122.3035,60.0,3.5166666666666666
2026-01-20T23:03:32+00:00,SAT-66140,344.62488860270497,59.757649407642106,874.4556714362451,3.530771260075931,-123662.54467548104,10.5,10499876337.455324,47.655,-122.3035,60.0,3.533333333333333
2026-01-20T23:03:33+00:00,SAT-66140,345.01611614247054,59.386057876934565,877.9770273062942,3.573193820732228,-125148.36219691821,10.5,10499874851.637804,47.655,-122.3035,60.0,3.55
2026-01-20T23:03:34+00:00,SAT-66140,345.3952177692386,59.01596990669972,881.5406926101712,3.615099799465107,-126616.08683425793,10.5,10499873383.913166,47.655,-122.3035,60.0,3.566666666666667
2026-01-20T23:03:35+00:00,SAT-66140,345.7626846744559,58.64745931886655,885.1461521435043,3.6564915564376457,-128065.80125039464,10.5,10499871934.19875,47.655,-122.3035,60.0,3.5833333333333335
2026-01-20T23:03:36+00:00,SAT-66140,346.11898410487555,58.28059465575894,888.7928930557915,3.6973716290611685,-129497.59431620613,10.5,10499870502.405684,47.655,-122.3035,60.0,3.6
2026-01-20T23:03:37+00:00,SAT-66140,346.464560632604,57.91543948004463,892.480405027175,3.737742754253373,-130911.56189012738,10.5,10499869088.43811,47.655,-122.3035,60.0,3.6166666666666667
2026-01-20T23:03:38+00:00,SAT-66140,346.7998373642305,57.55205265337799,896.2081804674173,3.7776078373154567,-132307.80572809573,10.5,10499867692.194271,47.655,-122.3035,60.0,3.6333333333333333
2026-01-20T23:03:39+00:00,SAT-66140,347.1252170855243,57.19048860036388,899.9757146838332,3.8169699531534986,-133686.43352632885,10.5,10499866313.566473,47.655,-122.3035,60.0,3.65
2026-01-20T23:03:40+00:00,SAT-66140,347.4410833468685,56.83079755576849,903.7825060504449,3.8558323165426436,-135047.55787985085,10.5,10499864952.44212,47.655,-122.3035,60.0,3.6666666666666665
2026-01-20T23:03:41+00:00,SAT-66140,347.74780148906314,56.47302579899845,907.6280561474767,3.894198294505815,-136391.296716047,10.5,10499863608.703283,47.655,-122.3035,60.0,3.683333333333333
2026-01-20T23:03:42+00:00,SAT-66140,348.0457196154241,56.1172158728358,911.5118699131972,3.932071405654046,-137717.77327155936,10.5,10499862282.226728,47.655,-122.3035,60.0,3.7
2026-01-20T23:03:43+00:00,SAT-66140,348.3351695112303,55.76340678873816,915.4334557951029,3.969455295040014,-139027.11521155128,10.5,10499860972.884789,47.655,-122.3035,60.0,3.716666666666667
2026-01-20T23:03:44+00:00,SAT-66140,348.6164675110597,55.411634221805585,919.3923258760228,4.006353702760355,-140319.45353002753,10.5,10499859680.54647,47.655,-122.3035,60.0,3.7333333333333334
2026-01-20T23:03:45+00:00,SAT-66140,348.8899153163987,55.06193069659232,923.3879959689091,4.042770512454823,-141594.9242484801,10.5,10499858405.075752,47.655,-122.3035,60.0,3.75
2026-01-20T23:03:46+00:00,SAT-66140,349.1558007715334,54.7143257574892,927.4199857599974,4.078709703646835,-142853.66674665236,10.5,10499857146.333254,47.655,-122.3035,60.0,3.7666666666666666
2026-01-20T23:03:47+00:00,SAT-66140,349.414398593051,54.368846132977296,931.4878189044344,4.11417535786663,-144095.82397699816,10.5,10499855904.176023,47.655,-122.3035,60.0,3.783333333333333
2026-01-20T23:03:48+00:00,SAT-66140,349.6659710591624,54.02551588957426,935.5910231280135,4.1491716408687855,-145321.54184186395,10.5,10499854678.458158,47.655,-122.3035,60.0,3.8
2026-01-20T23:03:49+00:00,SAT-66140,349.9107686594984,53.684356578152006,939.7291303111733,4.183702798941148,-146530.96906421194,10.5,10499853469.030935,47.655,-122.3035,60.0,3.816666666666667
2026-01-20T23:03:50+00:00,SAT-66140,350.14903070840273,53.345387371954914,943.9016765693173,4.217773180704918,-147724.2579511511,10.5,10499852275.742048,47.655,-122.3035,60.0,3.8333333333333335
2026-01-20T23:03:51+00:00,SAT-66140,350.3809859251691,53.00862519485403,948.1082023548737,4.251387169471867,-148901.5620248012,10.5,10499851098.437975,47.655,-122.3035,60.0,3.85
2026-01-20T23:03:52+00:00,SAT-66140,350.60685297800313,52.67408484753089,952.3482524918936,4.284549237995113,-150063.03793989602,10.5,10499849936.96206,47.655,-122.3035,60.0,3.8666666666666667
2026-01-20T23:03:53+00:00,SAT-66140,350.82684100069525,52.341779122124564,956.621376265254,4.317263917122117,-151208.8443858792,10.5,10499848791.155615,47.655,-122.3035,60.0,3.8833333333333333
2026-01-20T23:03:54+00:00,SAT-66140,351.0411500786741,52.01171891278371,960.9271274785971,4.349535761020516,-152339.1408689655,10.5,10499847660.85913,47.655,-122.3035,60.0,3.9
2026-01-20T23:03:55+00:00,SAT-66140,351.24997170633077,51.683913322561466,965.2650644775883,4.381369428389476,-153454.09055650592,10.5,10499846545.909443,47.655,-122.3035,60.0,3.9166666666666665
2026-01-20T23:03:56+00:00,SAT-66140,351.45348922285666,51.35836975824928,969.6347502541687,4.4127695383439445,-154553.8552294448,10.5,10499845446.14477,47.655,-122.3035,60.0,3.933333333333333
2026-01-20T23:03:57+00:00,SAT-66140,351.6518782170604,51.035094030511154,974.035752407077,4.44374082286825,-155638.60062188964,10.5,10499844361.399378,47.655,-122.3035,60.0,3.95
2026-01-20T23:03:58+00:00,SAT-66140,351.8453069169273,50.71409043736105,978.4676432544177,4.474288000081218,-156708.49198231928,10.5,10499843291.508018,47.655,-122.3035,60.0,3.966666666666667
2026-01-20T23:03:59+00:00,SAT-66140,352.0339365519079,50.39536185214502,982.929999819832,4.504415828718216,-157763.69598177573,10.5,10499842236.304018,47.655,-122.3035,60.0,3.9833333333333334
2026-01-20T23:04:00+00:00,SAT-66140,352.2179216977708,50.07890980280911,987.4224038730069,4.5341290695807785,-158804.3793636669,10.5,10499841195.620636,47.655,-122.3035,60.0,4.0
2026-01-20T23:04:01+00:00,SAT-66140,352.3974106009847,49.764734549509775,991.9444419317355,4.563432530009651,-159830.71050140072,10.5,10499840169.2895,47.655,-122.3035,60.0,4.016666666666667
2026-01-20T23:04:02+00:00,SAT-66140,352.5725454872317,49.45283515496053,996.4957053083317,4.592331018877476,-160842.85782203864,10.5,10499839157.142178,47.655,-122.3035,60.0,4.033333333333333
2026-01-20T23:04:03+00:00,SAT-66140,352.74346285134504,49.14320955403737,1001.075790111159,4.620829329331818,-161840.98920188344,10.5,10499838159.010798,47.655,-122.3035,60.0,4.05
2026-01-20T23:04:04+00:00,SAT-66140,352.9102937309928,48.83585462075446,1005.6842972289459,4.6489323022244164,-162825.27418803968,10.5,10499837174.725813,47.655,-122.3035,60.0,4.066666666666666
2026-01-20T23:04:05+00:00,SAT-66140,353.07316396802383,48.53076622747727,1010.3208323783645,4.676644723505045,-163795.88040471307,10.5,10499836204.119595,47.655,-122.3035,60.0,4.083333333333333
2026-01-20T23:04:06+00:00,SAT-66140,353.23219445207593,48.22793930764161,1014.9850060492735,4.70397145951317,-164752.97829169632,10.5,10499835247.021708,47.655,-122.3035,60.0,4.1
2026-01-20T23:04:07+00:00,SAT-66140,353.38750135599196,47.92736790645917,1019.6764335848945,4.730917263240006,-165696.7343188469,10.5,10499834303.26568,47.655,-122.3035,60.0,4.116666666666666
2026-01-20T23:04:08+00:00,SAT-66140,353.5391963521199,47.62904524119985,1024.3947350687658,4.757486965734116,-166627.31768992075,10.5,10499833372.68231,47.655,-122.3035,60.0,4.133333333333334
2026-01-20T23:04:09+00:00,SAT-66140,353.6873868236727,47.33296374629055,1029.1395354025913,4.783685337424113,-167544.8954855068,10.5,10499832455.104515,47.655,-122.3035,60.0,4.15
2026-01-20T23:04:10+00:00,SAT-66140,353.8321760604192,47.03911512462658,1033.9104642457824,4.80951717021725,-168449.6355384668,10.5,10499831550.364462,47.655,-122.3035,60.0,4.166666666666667
2026-01-20T23:04:11+00:00,SAT-66140,353.9736634467994,46.747490391176385,1038.707156036879,4.8349872013017725,-169341.70376517146,10.5,10499830658.296234,47.655,-122.3035,60.0,4.183333333333334
2026-01-20T23:04:12+00:00,SAT-66140,354.1119446379253,46.458079918873175,1043.5292499389773,4.860100155711217,-170221.26565628208,10.5,10499829778.734344,47.655,-122.3035,60.0,4.2
2026-01-20T23:04:13+00:00,SAT-66140,354.2471117278597,46.17087347956071,1048.3763898276065,4.884860772159636,-171088.4871816094,10.5,10499828911.51282,47.655,-122.3035,60.0,4.216666666666667
2026-01-20T23:04:14+00:00,SAT-66140,354.3792534098998,45.885860281311764,1053.248224304374,4.909273719849063,-171943.53187635948,10.5,10499828056.468124,47.655,-122.3035,60.0,4.233333333333333
2026-01-20T23:04:15+00:00,SAT-66140,354.508455126395,45.603029008609255,1058.1444066276367,4.933343643930035,-172786.56243335304,10.5,10499827213.437567,47.655,-122.3035,60.0,4.25
2026-01-20T23:04:16+00:00,SAT-66140,354.63479921224103,45.322367857801964,1063.0645946885163,4.957075199016649,-173617.74187686475,10.5,10499826382.258123,47.655,-122.3035,60.0,4.266666666666667
2026-01-20T23:04:17+00:00,SAT-66140,354.7583650320085,45.0438645688597,1068.0084510203355,4.980472957187603,-174437.23034043048,10.5,10499825562.769659,47.655,-122.3035,60.0,4.283333333333333
2026-01-20T23:04:18+00:00,SAT-66140,354.8792291077986,44.76750646057991,1072.975642716304,5.003541501328252,-175245.18833608096,10.5,10499824754.811665,47.655,-122.3035,60.0,4.3
2026-01-20T23:04:19+00:00,SAT-66140,354.9974652431125,44.4932804588343,1077.9658414402954,5.0262853620142875,-176041.77454374128,10.5,10499823958.225456,47.655,-122.3035,60.0,4.316666666666666
2026-01-20T23:04:20+00:00,SAT-66140,355.11314463899583,44.221173126782574,1082.9787233746777,5.048709030778821,-176827.14627590007,10.5,10499823172.853724,47.655,-122.3035,60.0,4.333333333333333
2026-01-20T23:04:21+00:00,SAT-66140,355.2263360048093,43.951170692793866,1088.0139691813745,5.070816965803415,-177601.45967693377,10.5,10499822398.540323,47.655,-122.3035,60.0,4.35
2026-01-20T23:04:22+00:00,SAT-66140,355.33710566369297,43.68325907661491,1093.0712639686024,5.092613587159886,-178364.8695564543,10.5,10499821635.130444,47.655,-122.3035,60.0,4.366666666666666
2026-01-20T23:04:23+00:00,SAT-66140,355.44551765281426,43.41742391442422,1098.1502972528629,5.114103266517963,-179117.52902882773,10.5,10499820882.470972,47.655,-122.3035,60.0,4.383333333333334
2026-01-20T23:04:24+00:00,SAT-66140,355.5516338185077,43.153650583111855,1103.2507629106703,5.135290356979058,-179859.59055807904,10.5,10499820140.409441,47.655,-122.3035,60.0,4.4
2026-01-20T23:04:25+00:00,SAT-66140,355.65551390750824,42.89192422177464,1108.3723591600308,5.156179169431466,-180591.20512975144,10.5,10499819408.79487,47.655,-122.3035,60.0,4.416666666666667
2026-01-20T23:04:26+00:00,SAT-66140,355.75721565327177,42.6322297532903,1113.5147885183437,5.176773912363806,-181312.52014291822,10.5,10499818687.479856,47.655,-122.3035,60.0,4.433333333333334
2026-01-20T23:04:27+00:00,SAT-66140,355.8567948570262,42.37455190773861,1118.6777577002745,5.197078854806506,-182023.68511708293,10.5,10499817976.314882,47.655,-122.3035,60.0,4.45
2026-01-20T23:04:28+00:00,SAT-66140,355.95430546822587,42.11887523658619,1123.8609776781348,5.217098117433651,-182724.8443756825,10.5,10499817275.155624,47.655,-122.3035,60.0,4.466666666666667
2026-01-20T23:04:29+00:00,SAT-66140,356.0497996571305,41.86518413629418,1129.064163533922,5.2368358684746,-183416.14390774065,10.5,10499816583.856092,47.655,-122.3035,60.0,4.483333333333333
2026-01-20T23:04:30+00:00,SAT-66140,356.143327887743,41.61346286125715,1134.2870345067474,5.256296147157282,-184097.7251841054,10.5,10499815902.274817,47.655,-122.3035,60.0,4.5
2026-01-20T23:04:31+00:00,SAT-66140,356.2349389840839,41.36369554444854,1139.529313864179,5.275483012765506,-184769.73037806645,10.5,10499815230.269623,47.655,-122.3035,60.0,4.516666666666667
2026-01-20T23:04:32+00:00,SAT-66140,356.3246801961107,41.115866209968615,1144.7907289222437,5.294400444343944,-185432.2988525996,10.5,10499814567.701147,47.655,-122.3035,60.0,4.533333333333333
2026-01-20T23:04:33+00:00,SAT-66140,356.4125972608304,40.86995878959354,1150.0710109654026,5.313052377696917,-186085.5684562206,10.5,10499813914.431543,47.655,-122.3035,60.0,4.55
2026-01-20T23:04:34+00:00,SAT-66140,356.49873446126503,40.625957136729305,1155.3698952034258,5.331442711391483,-186729.67573323866,10.5,10499813270.324266,47.655,-122.3035,60.0,4.566666666666666
2026-01-20T23:04:35+00:00,SAT-66140,356.5831346828695,40.38384503935281,1160.6871207342538,5.349575296999867,-187364.75558200537,10.5,10499812635.244417,47.655,-122.3035,60.0,4.583333333333333
2026-01-20T23:04:36+00:00,SAT-66140,356.6658394672074,40.14360623269816,1166.022430497128,5.367453934241908,-187990.9410847822,10.5,10499812009.058916,47.655,-122.3035,60.0,4.6
