satellites_20260120_184412/SAT-64042.csv

timestamp,satellite,azimuth_deg,elevation_deg,distance_km,relative_velocity_kms,doppler_shift_hz,tx_freq_ghz,rx_freq_hz,ue_lat,ue_lon,ue_alt_m,time_minutes
2026-01-20T23:04:03+00:00,SAT-64042,265.6972345449915,40.018895577717466,2862.308172356753,-3.615417943878052,126627.22959734879,10.5,10500126627.229597,47.655,-122.3035,60.0,4.05
2026-01-20T23:04:04+00:00,SAT-64042,265.84266584099964,40.07922907676693,2858.702395527392,-3.6047147447829055,126252.35829054948,10.5,10500126252.35829,47.655,-122.3035,60.0,4.066666666666666
2026-01-20T23:04:05+00:00,SAT-64042,265.988768694864,40.13938477127491,2855.1072933552623,-3.59396691997208,125875.92400242049,10.5,10500125875.924002,47.655,-122.3035,60.0,4.083333333333333
2026-01-20T23:04:06+00:00,SAT-64042,266.13554490963946,40.199359947921174,2851.5229103470765,-3.5831743729163437,125497.92335209984,10.5,10500125497.923351,47.655,-122.3035,60.0,4.1
2026-01-20T23:04:07+00:00,SAT-64042,266.28299626131525,40.25915187244647,2847.9492911058214,-3.572337008128318,125118.3529952156,10.5,10500125118.352995,47.655,-122.3035,60.0,4.116666666666666
2026-01-20T23:04:08+00:00,SAT-64042,266.431124498064,40.318757789675736,2844.3864803297147,-3.5614547559402228,124737.21049170736,10.5,10500124737.210491,47.655,-122.3035,60.0,4.133333333333334
2026-01-20T23:04:09+00:00,SAT-64042,266.5799313405688,40.37817492395977,2840.834522786457,-3.550527526251298,124354.49268586545,10.5,10500124354.492685,47.655,-122.3035,60.0,4.15
2026-01-20T23:04:10+00:00,SAT-64042,266.7294184803698,40.437400478849575,2837.293463333609,-3.5395552394646703,123970.19678987068,10.5,10500123970.19679,47.655,-122.3035,60.0,4.166666666666667
2026-01-20T23:04:11+00:00,SAT-64042,266.8795875795242,40.49643163729205,2833.763346908116,-3.528537804984578,123584.3196306762,10.5,10500123584.319632,47.655,-122.3035,60.0,4.183333333333334
2026-01-20T23:04:12+00:00,SAT-64042,267.0304402693031,40.555265561470065,2830.2442185372784,-3.5174751457613462,123196.85850967649,10.5,10500123196.85851,47.655,-122.3035,60.0,4.2
2026-01-20T23:04:13+00:00,SAT-64042,267.18197814998325,40.61389939305854,2826.736123325239,-3.506367197755217,122807.81118392838,10.5,10500122807.811184,47.655,-122.3035,60.0,4.216666666666667
2026-01-20T23:04:14+00:00,SAT-64042,267.3342027905884,40.67233025347602,2823.2391064400113,-3.495213865363447,122417.17430501936,10.5,10500122417.174305,47.655,-122.3035,60.0,4.233333333333333
2026-01-20T23:04:15+00:00,SAT-64042,267.487115726673,40.7305552433966,2819.753213144955,-3.4840150781300037,122024.94540528113,10.5,10500122024.945406,47.655,-122.3035,60.0,4.25
2026-01-20T23:04:16+00:00,SAT-64042,267.64071846057107,40.788571443214664,2816.2784887737002,-3.4727707553953286,121631.12165967481,10.5,10500121631.12166,47.655,-122.3035,60.0,4.266666666666667
2026-01-20T23:04:17+00:00,SAT-64042,267.79501246010426,40.84637591292478,2812.8149787403195,-3.4614808350371775,121235.7008924166,10.5,10500121235.700891,47.655,-122.3035,60.0,4.283333333333333
2026-01-20T23:04:18+00:00,SAT-64042,267.94999915854845,40.903965692484114,2809.362728520842,-3.450145247961549,120838.6806835423,10.5,10500120838.680683,47.655,-122.3035,60.0,4.3
2026-01-20T23:04:19+00:00,SAT-64042,268.10567995346594,40.96133780175851,2805.921783660209,-3.438763896561787,120440.05761445392,10.5,10500120440.057615,47.655,-122.3035,60.0,4.316666666666666
2026-01-20T23:04:20+00:00,SAT-64042,268.26205620448434,41.018489240112196,2802.492189800704,-3.4273367380107187,120039.83018516279,10.5,10500120039.830185,47.655,-122.3035,60.0,4.333333333333333
2026-01-20T23:04:21+00:00,SAT-64042,268.41912923495926,41.07541698739238,2799.073992627328,-3.415863698326286,119637.9958045042,10.5,10500119637.995804,47.655,-122.3035,60.0,4.35
2026-01-20T23:04:22+00:00,SAT-64042,268.57690032962097,41.1321180034878,2795.667237898864,-3.404344705142058,119234.55193789968,10.5,10500119234.551937,47.655,-122.3035,60.0,4.366666666666666
2026-01-20T23:04:23+00:00,SAT-64042,268.7353707337518,41.18858922843815,2792.271971446269,-3.392779696296152,118829.49640817713,10.5,10500118829.496408,47.655,-122.3035,60.0,4.383333333333334
2026-01-20T23:04:24+00:00,SAT-64042,268.89454165273213,41.244827582693816,2788.8882391624966,-3.3811686054643615,118422.82689238232,10.5,10500118422.826893,47.655,-122.3035,60.0,4.4
2026-01-20T23:04:25+00:00,SAT-64042,269.0544142509374,41.300829967142235,2785.5160870066466,-3.3695113762053253,118014.54141369999,10.5,10500118014.541414,47.655,-122.3035,60.0,4.416666666666667
2026-01-20T23:04:26+00:00,SAT-64042,269.21498965126693,41.35659326337137,2782.1555609941115,-3.3578079453208978,117604.6377586638,10.5,10500117604.637758,47.655,-122.3035,60.0,4.433333333333334
2026-01-20T23:04:27+00:00,SAT-64042,269.3762689338879,41.41211433366715,2778.8067072033114,-3.3460582509836043,117193.113761814,10.5,10500117193.113762,47.655,-122.3035,60.0,4.45
2026-01-20T23:04:28+00:00,SAT-64042,269.5382531353423,41.467390021149455,2775.4695717743302,-3.334262244487186,116779.96771725142,10.5,10500116779.967718,47.655,-122.3035,60.0,4.466666666666667
2026-01-20T23:04:29+00:00,SAT-64042,269.7009432482523,41.522417150109106,2772.144200895829,-3.3224198588411618,116365.19727868604,10.5,10500116365.197279,47.655,-122.3035,60.0,4.483333333333333
2026-01-20T23:04:30+00:00,SAT-64042,269.86434021942733,41.5771925258334,2768.8306408232775,-3.3105310485288624,115948.80085193155,10.5,10500115948.800852,47.655,-122.3035,60.0,4.5
2026-01-20T23:04:31+00:00,SAT-64042,270.02844494998766,41.631712935094484,2765.528937857545,-3.2985957610262813,115530.77659737508,10.5,10500115530.776598,47.655,-122.3035,60.0,4.516666666666667
2026-01-20T23:04:32+00:00,SAT-64042,270.1932582940151,41.685975146172524,2762.2391383518816,-3.2866139318479544,115111.12225646291,10.5,10500115111.122257,47.655,-122.3035,60.0,4.533333333333333
2026-01-20T23:04:33+00:00,SAT-64042,270.35878105696685,41.73997590880805,2758.9612887238513,-3.2745855427304957,114689.837189534,10.5,10500114689.837189,47.655,-122.3035,60.0,4.55
2026-01-20T23:04:34+00:00,SAT-64042,270.5250139970542,41.793711955115896,2755.695435409235,-3.2625105074117315,114266.9183753221,10.5,10500114266.918375,47.655,-122.3035,60.0,4.566666666666666
2026-01-20T23:04:35+00:00,SAT-64042,270.6919578207269,41.84717999862748,2752.441624929843,-3.2503888083824735,113842.36520058144,10.5,10500113842.3652,47.655,-122.3035,60.0,4.583333333333333
2026-01-20T23:04:36+00:00,SAT-64042,270.8596131852362,41.9003767355907,2749.1999038249496,-3.238220396365226,113416.17593940563,10.5,10500113416.17594,47.655,-122.3035,60.0,4.6
2026-01-20T23:04:37+00:00,SAT-64042,271.027980695978,41.95329884462265,2745.9703186829747,-3.226005223876507,112988.34892872229,10.5,10500112988.348928,47.655,-122.3035,60.0,4.616666666666666
2026-01-20T23:04:38+00:00,SAT-64042,271.197060905552,42.005942986921696,2742.752916139695,-3.2137432484260935,112558.88268034408,10.5,10500112558.88268,47.655,-122.3035,60.0,4.633333333333334
2026-01-20T23:04:39+00:00,SAT-64042,271.36685431300833,42.0583058065415,2739.5477428732647,-3.201434445317556,112127.77632929757,10.5,10500112127.776329,47.655,-122.3035,60.0,4.65
2026-01-20T23:04:40+00:00,SAT-64042,271.53736136377074,42.11038393087854,2736.354845586468,-3.189078770222441,111695.0283230128,10.5,10500111695.028322,47.655,-122.3035,60.0,4.666666666666667
2026-01-20T23:04:41+00:00,SAT-64042,271.70858244756334,42.162173970556275,2733.1742710262997,-3.176676183287678,111260.6372656667,10.5,10500111260.637266,47.655,-122.3035,60.0,4.683333333333334
2026-01-20T23:04:42+00:00,SAT-64042,271.8805178975781,42.213672519713406,2730.006065979501,-3.1642266575496683,110824.60221287994,10.5,10500110824.602213,47.655,-122.3035,60.0,4.7
2026-01-20T23:04:43+00:00,SAT-64042,272.0531679901644,42.264876156433985,2726.850277259705,-3.151730165124934,110386.9221880552,10.5,10500110386.922188,47.655,-122.3035,60.0,4.716666666666667
2026-01-20T23:04:44+00:00,SAT-64042,272.22653294372213,42.31578144296016,2723.7069517083532,-3.139186677622794,109947.59619683072,10.5,10500109947.596197,47.655,-122.3035,60.0,4.733333333333333
2026-01-20T23:04:45+00:00,SAT-64042,272.40061291763755,42.366384925922624,2720.576136195204,-3.1265961629842374,109506.62311636437,10.5,10500109506.623116,47.655,-122.3035,60.0,4.75
2026-01-20T23:04:46+00:00,SAT-64042,272.5754080110012,42.41668313652429,2717.457877621988,-3.113958594310716,109064.00200455515,10.5,10500109064.002005,47.655,-122.3035,60.0,4.766666666666667
2026-01-20T23:04:47+00:00,SAT-64042,272.75091826185087,42.466672590879355,2714.352222917262,-3.101273959572668,108619.73244007699,10.5,10500108619.73244,47.655,-122.3035,60.0,4.783333333333333
2026-01-20T23:04:48+00:00,SAT-64042,272.9271436469529,42.51634979051185,2711.2592190215814,-3.0885422385190613,108173.81371365301,10.5,10500108173.813713,47.655,-122.3035,60.0,4.8
2026-01-20T23:04:49+00:00,SAT-64042,273.1040840803038,42.56571122249419,2708.1789128956984,-3.0757633969675413,107726.24462807261,10.5,10500107726.244629,47.655,-122.3035,60.0,4.816666666666666
2026-01-20T23:04:50+00:00,SAT-64042,273.2817394111952,42.61475335950014,2705.111351534456,-3.0629374372056053,107277.02526345362,10.5,10500107277.025263,47.655,-122.3035,60.0,4.833333333333333
2026-01-20T23:04:51+00:00,SAT-64042,273.46010942533536,42.6634726606774,2702.0565819304165,-3.0500643321227785,106826.15467027252,10.5,10500106826.15467,47.655,-122.3035,60.0,4.85
2026-01-20T23:04:52+00:00,SAT-64042,273.6391938420085,42.711865571471115,2699.0146511031794,-3.0371440801710237,106373.63279431048,10.5,10500106373.632793,47.655,-122.3035,60.0,4.866666666666666
2026-01-20T23:04:53+00:00,SAT-64042,273.818992314557,42.75992852433541,2695.985606073889,-3.02417665894293,105919.45885076525,10.5,10500105919.45885,47.655,-122.3035,60.0,4.883333333333334
2026-01-20T23:04:54+00:00,SAT-64042,273.99950442803544,42.80765793871313,2692.969493886036,-3.0111620763240365,105463.6331158217,10.5,10500105463.633116,47.655,-122.3035,60.0,4.9
2026-01-20T23:04:55+00:00,SAT-64042,274.18072969998934,42.855050221838084,2689.9663615752493,-2.998100319383199,105006.15513657649,10.5,10500105006.155136,47.655,-122.3035,60.0,4.916666666666667
2026-01-20T23:04:56+00:00,SAT-64042,274.36266757812865,42.90210176873371,2686.9762561900507,-2.9849913775524963,104547.02454289632,10.5,10500104547.024544,47.655,-122.3035,60.0,4.933333333333334
2026-01-20T23:04:57+00:00,SAT-64042,274.54531743936207,42.94880896258938,2683.999224789505,-2.9718352629189186,104086.24175811869,10.5,10500104086.241758,47.655,-122.3035,60.0,4.95
2026-01-20T23:04:58+00:00,SAT-64042,274.7286785901805,42.99516817546503,2681.035314420621,-2.958631974483813,103623.8067472666,10.5,10500103623.806747,47.655,-122.3035,60.0,4.966666666666667
2026-01-20T23:04:59+00:00,SAT-64042,274.9127502647575,43.04117576843951,2678.084572131402,-2.9453815112205777,103159.71947438405,10.5,10500103159.719475,47.655,-122.3035,60.0,4.983333333333333
2026-01-20T23:05:00+00:00,SAT-64042,275.0975316238848,43.086828091975995,2675.1470449708786,-2.9320838770064195,102693.98007526729,10.5,10500102693.980076,47.655,-122.3035,60.0,5.0
2026-01-20T23:05:01+00:00,SAT-64042,275.28302175421055,43.132121486373606,2672.222779984211,-2.918739092996496,102226.58929085937,10.5,10500102226.58929,47.655,-122.3035,60.0,5.016666666666667
2026-01-20T23:05:02+00:00,SAT-64042,275.4692196683244,43.1770522824175,2669.311824195462,-2.905347162748852,101757.5472457781,10.5,10500101757.547245,47.655,-122.3035,60.0,5.033333333333333
2026-01-20T23:05:03+00:00,SAT-64042,275.65612430254157,43.22161680149708,2666.414224625147,-2.8919080949616705,101286.85424467063,10.5,10500101286.854244,47.655,-122.3035,60.0,5.05
2026-01-20T23:05:04+00:00,SAT-64042,275.8437345161999,43.265811356087944,2663.5300282851053,-2.8784219104872073,100814.51101787116,10.5,10500100814.511019,47.655,-122.3035,60.0,5.066666666666666
2026-01-20T23:05:05+00:00,SAT-64042,276.0320490913964,43.3096322503495,2660.6592821663794,-2.86488862786278,100340.51821463498,10.5,10500100340.518215,47.655,-122.3035,60.0,5.083333333333333
2026-01-20T23:05:06+00:00,SAT-64042,276.22106673182634,43.35307578050706,2657.8020332415244,-2.851308275182776,99864.87681894636,10.5,10500099864.87682,47.655,-122.3035,60.0,5.1
2026-01-20T23:05:07+00:00,SAT-64042,276.41078606238113,43.396138235425965,2654.958328455076,-2.8376808638618116,99387.58723059345,10.5,10500099387.58723,47.655,-122.3035,60.0,5.116666666666666
2026-01-20T23:05:08+00:00,SAT-64042,276.6012056270022,43.438815896795,2652.128214740184,-2.8240064223007324,98908.650444294,10.5,10500098908.650444,47.655,-122.3035,60.0,5.133333333333334
2026-01-20T23:05:09+00:00,SAT-64042,276.7923238887917,43.481105039831355,2649.311739001676,-2.810284979177872,98428.06746448456,10.5,10500098428.067465,47.655,-122.3035,60.0,5.15
2026-01-20T23:05:10+00:00,SAT-64042,276.98413922903995,43.523001933741426,2646.5089481157756,-2.796516579774594,97945.83987711005,10.5,10500097945.839876,47.655,-122.3035,60.0,5.166666666666667
2026-01-20T23:05:11+00:00,SAT-64042,277.17664994739545,43.56450284243159,2643.7198889135475,-2.7827012365463504,97461.96811841303,10.5,10500097461.968119,47.655,-122.3035,60.0,5.183333333333334
2026-01-20T23:05:12+00:00,SAT-64042,277.36985425855227,43.60560402449211,2640.944608213632,-2.7688389953340544,96976.45379393623,10.5,10500096976.453794,47.655,-122.3035,60.0,5.2
2026-01-20T23:05:13+00:00,SAT-64042,277.5637502936035,43.646301734179474,2638.183152788952,-2.754929897614539,96489.29835637378,10.5,10500096489.298357,47.655,-122.3035,60.0,5.216666666666667
2026-01-20T23:05:14+00:00,SAT-64042,277.7583360988028,43.68659222184203,2635.4355693710645,-2.7409739849256205,96000.50326055572,10.5,10500096000.50326,47.655,-122.3035,60.0,5.233333333333333
2026-01-20T23:05:15+00:00,SAT-64042,277.9536096345683,43.72647173442003,2632.7019046500986,-2.726971294781035,95510.06982037176,10.5,10500095510.06982,47.655,-122.3035,60.0,5.25
2026-01-20T23:05:16+00:00,SAT-64042,278.14956877425783,43.76593651589961,2629.9822052787704,-2.7129218812538407,95017.99992968912,10.5,10500095017.99993,47.655,-122.3035,60.0,5.266666666666667
2026-01-20T23:05:17+00:00,SAT-64042,278.346211304426,43.80498280807176,2627.276517855866,-2.6988257918940946,94524.29525391193,10.5,10500094524.295254,47.655,-122.3035,60.0,5.283333333333333
2026-01-20T23:05:18+00:00,SAT-64042,278.54353492343006,43.84360685096629,2624.584888932751,-2.6846830770165706,94028.95755527643,10.5,10500094028.957556,47.655,-122.3035,60.0,5.3
2026-01-20T23:05:19+00:00,SAT-64042,278.7415372407012,43.881804883427904,2621.907365010606,-2.6704937989183404,93531.98901568956,10.5,10500093531.989016,47.655,-122.3035,60.0,5.316666666666666
2026-01-20T23:05:20+00:00,SAT-64042,278.9402157767796,43.91957314383417,2619.2439925284853,-2.6562580043810327,93033.39127364186,10.5,10500093033.391273,47.655,-122.3035,60.0,5.333333333333333
2026-01-20T23:05:21+00:00,SAT-64042,279.1395679611962,43.956907870427756,2616.594817878782,-2.6419757725009236,92533.16709941947,10.5,10500092533.167099,47.655,-122.3035,60.0,5.35
2026-01-20T23:05:22+00:00,SAT-64042,279.3395911341466,43.99380530233841,2613.9598873750083,-2.6276471402550663,92031.31778811527,10.5,10500092031.317787,47.655,-122.3035,60.0,5.366666666666666
2026-01-20T23:05:23+00:00,SAT-64042,279.54028254229826,44.030261679560525,2611.3392472937935,-2.61327220777597,91527.8468467932,10.5,10500091527.846848,47.655,-122.3035,60.0,5.383333333333334
2026-01-20T23:05:24+00:00,SAT-64042,279.7416393429586,44.066273244418596,2608.732943811905,-2.598851011465891,91022.75555041434,10.5,10500091022.75555,47.655,-122.3035,60.0,5.4
2026-01-20T23:05:25+00:00,SAT-64042,279.94365859816764,44.101836241266696,2606.141023069803,-2.5843836480766598,90516.047287637,10.5,10500090516.047287,47.655,-122.3035,60.0,5.416666666666667
2026-01-20T23:05:26+00:00,SAT-64042,280.1463372787267,44.13694691792396,2603.5635311114547,-2.5698701820800203,90007.72431653438,10.5,10500090007.724316,47.655,-122.3035,60.0,5.433333333333334
2026-01-20T23:05:27+00:00,SAT-64042,280.3496722608157,44.17160152583142,2601.000513916527,-2.5553106876120224,89497.78923366456,10.5,10500089497.789234,47.655,-122.3035,60.0,5.45
2026-01-20T23:05:28+00:00,SAT-64042,280.55366032598687,44.20579632080178,2598.4520173907486,-2.5407052653515096,88986.2455652265,10.5,10500088986.245565,47.655,-122.3035,60.0,5.466666666666667
2026-01-20T23:05:29+00:00,SAT-64042,280.7582981626199,44.23952756399617,2595.918087339438,-2.5260539781215625,88473.09551155021,10.5,10500088473.095512,47.655,-122.3035,60.0,5.483333333333333
2026-01-20T23:05:30+00:00,SAT-64042,280.9635823620621,44.27279152204472,2593.3987695052583,-2.5113569260867057,87958.34258082106,10.5,10500087958.34258,47.655,-122.3035,60.0,5.5
2026-01-20T23:05:31+00:00,SAT-64042,281.16950942100533,44.30558446818333,2590.894109530974,-2.496614189018638,87441.98956698138,10.5,10500087441.989567,47.655,-122.3035,60.0,5.516666666666667
2026-01-20T23:05:32+00:00,SAT-64042,281.3760757391083,44.33790268262899,2588.4041529797933,-2.4818258708564356,86924.04011041722,10.5,10500086924.04011,47.655,-122.3035,60.0,5.533333333333333
2026-01-20T23:05:33+00:00,SAT-64042,281.58327762036856,44.36974245354741,2585.928945311259,-2.4669920679250223,86404.49758483496,10.5,10500086404.497585,47.655,-122.3035,60.0,5.55
2026-01-20T23:05:34+00:00,SAT-64042,281.791111271865,44.40110007761137,2583.4685318888482,-2.45211286723518,85883.36503772017,10.5,10500085883.365038,47.655,-122.3035,60.0,5.566666666666666
2026-01-20T23:05:35+00:00,SAT-64042,281.99957280228324,44.431971860549915,2581.0229579892593,-2.437188381865808,85360.64642957425,10.5,10500085360.64643,47.655,-122.3035,60.0,5.583333333333333
2026-01-20T23:05:36+00:00,SAT-64042,282.20865822362885,44.46235411815615,2578.592268776412,-2.4222187214343207,84836.3455996627,10.5,10500084836.3456,47.655,-122.3035,60.0,5.6
2026-01-20T23:05:37+00:00,SAT-64042,282.4183634503526,44.49224317691839,2576.176509304901,-2.4072039825319482,84310.46593101905,10.5,10500084310.46593,47.655,-122.3035,60.0,5.616666666666666
2026-01-20T23:05:38+00:00,SAT-64042,282.6286842976498,44.52163537454741,2573.7757245329894,-2.3921442852500077,83783.01162974915,10.5,10500083783.01163,47.655,-122.3035,60.0,5.633333333333334
2026-01-20T23:05:39+00:00,SAT-64042,282.8396164830315,44.55052706096177,2571.3899592991665,-2.377039742659773,83253.98665608733,10.5,10500083253.986656,47.655,-122.3035,60.0,5.65
2026-01-20T23:05:40+00:00,SAT-64042,283.0511556252332,44.578914598900425,2569.019258329154,-2.361890471013976,82723.39508169597,10.5,10500082723.395082,47.655,-122.3035,60.0,5.666666666666667
2026-01-20T23:05:41+00:00,SAT-64042,283.2632972439904,44.60679436466695,2566.663666232729,-2.3466965957565016,82191.2413001506,10.5,10500082191.2413,47.655,-122.3035,60.0,5.683333333333334
2026-01-20T23:05:42+00:00,SAT-64042,283.47603676051096,44.63416274895177,2564.3232274945617,-2.3314582414337193,81657.5296735919,10.5,10500081657.529675,47.655,-122.3035,60.0,5.7
2026-01-20T23:05:43+00:00,SAT-64042,283.68936949693773,44.66101615753759,2561.997986475105,-2.316175530075802,81122.26447603268,10.5,10500081122.264477,47.655,-122.3035,60.0,5.716666666666667
2026-01-20T23:05:44+00:00,SAT-64042,283.90329067576675,44.68735101199407,2559.687987413109,-2.300848600510603,80585.45056981163,10.5,10500080585.45057,47.655,-122.3035,60.0,5.733333333333333
2026-01-20T23:05:45+00:00,SAT-64042,284.1177954210552,44.71316375059915,2557.3932744088665,-2.285477577420694,80047.09232183982,10.5,10500080047.092321,47.655,-122.3035,60.0,5.75
2026-01-20T23:05:46+00:00,SAT-64042,284.3328787567847,44.73845082891249,2555.1138914383196,-2.270062607990078,79507.19488712361,10.5,10500079507.194887,47.655,-122.3035,60.0,5.766666666666667
2026-01-20T23:05:47+00:00,SAT-64042,284.548535608709,44.76320872076517,2552.8498823306168,-2.254603829179917,78965.76306262225,10.5,10500078965.763063,47.655,-122.3035,60.0,5.783333333333333
2026-01-20T23:05:48+00:00,SAT-64042,284.7647608031364,44.7874339188862,2550.601290778315,-2.2391013888054223,78422.80202544967,10.5,10500078422.802025,47.655,-122.3035,60.0,5.8
2026-01-20T23:05:49+00:00,SAT-64042,284.9815490677608,44.81112293576838,2548.3681603265463,-2.2235554211845043,77878.31647998728,10.5,10500077878.31648,47.655,-122.3035,60.0,5.816666666666666
2026-01-20T23:05:50+00:00,SAT-64042,285.19889503011103,44.834272304276446,2546.150534386485,-2.20796609567022,77332.31235769551,10.5,10500077332.312357,47.655,-122.3035,60.0,5.833333333333333
2026-01-20T23:05:51+00:00,SAT-64042,285.416793220908,44.856878578769944,2543.948456200403,-2.1923335531995347,76784.79459478303,10.5,10500076784.794596,47.655,-122.3035,60.0,5.85
2026-01-20T23:05:52+00:00,SAT-64042,285.6352380710935,44.87893833556268,2541.761968870012,-2.1766579530078665,76235.76876834773,10.5,10500076235.768768,47.655,-122.3035,60.0,5.866666666666666
2026-01-20T23:05:53+00:00,SAT-64042,285.8542239135404,44.90044817387512,2539.591115338212,-2.1609394558009125,75685.24050698294,10.5,10500075685.240507,47.655,-122.3035,60.0,5.883333333333334
2026-01-20T23:05:54+00:00,SAT-64042,286.0737449831805,44.92140471661215,2537.4359383876267,-2.1451782345416146,75133.2158685825,10.5,10500075133.215868,47.655,-122.3035,60.0,5.9
2026-01-20T23:05:55+00:00,SAT-64042,286.2937954182646,44.94180461124526,2535.296480628377,-2.1293744457113486,74579.70033378611,10.5,10500074579.700335,47.655,-122.3035,60.0,5.916666666666667
2026-01-20T23:05:56+00:00,SAT-64042,286.5143692586318,44.96164453042343,2533.172784514521,-2.1135282618766436,74024.69994660359,10.5,10500074024.699947,47.655,-122.3035,60.0,5.933333333333334
2026-01-20T23:05:57+00:00,SAT-64042,286.7354604474194,44.9809211728986,2531.0648923280096,-2.0976398588901803,73468.22086613964,10.5,10500073468.220865,47.655,-122.3035,60.0,5.95
2026-01-20T23:05:58+00:00,SAT-64042,286.95706283154607,44.99963126432713,2528.97284617541,-2.0817094176558344,72910.26942841324,10.5,10500072910.269428,47.655,-122.3035,60.0,5.966666666666667
2026-01-20T23:05:59+00:00,SAT-64042,287.17917016232064,45.01777155808684,2526.896687982868,-2.065737118845225,72350.85196130874,10.5,10500072350.851961,47.655,-122.3035,60.0,5.983333333333333
2026-01-20T23:06:00+00:00,SAT-64042,287.40177609564057,45.03533883604631,2524.836459496339,-2.049723129569144,71789.97431775289,10.5,10500071789.974318,47.655,-122.3035,60.0,6.0
2026-01-20T23:06:01+00:00,SAT-64042,287.62487419054827,45.052329909231595,2522.7922022951157,-2.033667663141658,71227.64396890668,10.5,10500071227.643969,47.655,-122.3035,60.0,6.016666666666667
2026-01-20T23:06:02+00:00,SAT-64042,287.84845791472986,45.06874161898796,2520.7639577457426,-2.01757089011573,70663.8668882563,10.5,10500070663.866888,47.655,-122.3035,60.0,6.033333333333333
2026-01-20T23:06:03+00:00,SAT-64042,288.0725206398623,45.084570837399795,2518.7517670446673,-2.0014330250368446,70098.65059009213,10.5,10500070098.65059,47.655,-122.3035,60.0,6.05
2026-01-20T23:06:04+00:00,SAT-64042,288.29705564702226,45.09981446841739,2516.7556711743637,-1.985254243971134,69532.00124099488,10.5,10500069532.001242,47.655,-122.3035,60.0,6.066666666666666
2026-01-20T23:06:05+00:00,SAT-64042,288.52205612244995,45.11446944833389,2514.7757109417103,-1.9690347631127456,68963.92641299812,10.5,10500068963.926413,47.655,-122.3035,60.0,6.083333333333333
2026-01-20T23:06:06+00:00,SAT-64042,288.74751516268975,45.12853274686401,2512.8119269379654,-1.952774777263841,68394.43292889754,10.5,10500068394.432928,47.655,-122.3035,60.0,6.1
2026-01-20T23:06:07+00:00,SAT-64042,288.9734257723812,45.14200136775772,2510.864359560108,-1.936474505808157,67823.52847243959,10.5,10500067823.528473,47.655,-122.3035,60.0,6.116666666666666
2026-01-20T23:06:08+00:00,SAT-64042,289.1997808677238,45.15487234974162,2508.9330489863146,-1.920134147338666,67251.21999919022,10.5,10500067251.22,47.655,-122.3035,60.0,6.133333333333334
2026-01-20T23:06:09+00:00,SAT-64042,289.426573274343,45.16714276714779,2507.0180351967024,-1.9037539263970258,66677.51537354809,10.5,10500066677.515373,47.655,-122.3035,60.0,6.15
2026-01-20T23:06:10+00:00,SAT-64042,289.6537957310228,45.178809730850055,2505.1193579474425,-1.8873340596098802,66102.42218269462,10.5,10500066102.422182,47.655,-122.3035,60.0,6.166666666666667
2026-01-20T23:06:11+00:00,SAT-64042,289.88144088927004,45.18987038897299,2503.2370567786584,-1.870874764039925,65525.948029083556,10.5,10500065525.948029,47.655,-122.3035,60.0,6.183333333333334
2026-01-20T23:06:12+00:00,SAT-64042,290.1095013139272,45.20032192765707,2501.371171013989,-1.8543762695732582,64948.10096429848,10.5,10500064948.100964,47.655,-122.3035,60.0,6.2
2026-01-20T23:06:13+00:00,SAT-64042,290.337969485401,45.210161571889614,2499.5217397478013,-1.8378388031904833,64368.88893816026,10.5,10500064368.888939,47.655,-122.3035,60.0,6.216666666666667
2026-01-20T23:06:14+00:00,SAT-64042,290.5668377999781,45.21938658623811,2497.688801848086,-1.8212625984445032,63788.32013067949,10.5,10500063788.320131,47.655,-122.3035,60.0,6.233333333333333
2026-01-20T23:06:15+00:00,SAT-64042,290.79609857132175,45.227994275631744,2495.872395949904,-1.8046478847492795,63206.4025769035,10.5,10500063206.402576,47.655,-122.3035,60.0,6.25
2026-01-20T23:06:16+00:00,SAT-64042,291.02574403066933,45.23598198608913,2494.072560459514,-1.7879949084567213,62623.14490511824,10.5,10500062623.144905,47.655,-122.3035,60.0,6.266666666666667
2026-01-20T23:06:17+00:00,SAT-64042,291.2557663298228,45.24334710553133,2492.2893335374797,-1.7713039102937616,62038.555546599164,10.5,10500062038.555546,47.655,-122.3035,60.0,6.283333333333333
2026-01-20T23:06:18+00:00,SAT-64042,291.4861575412115,45.25008706448612,2490.52275310428,-1.7545751329856532,61452.64300261136,10.5,10500061452.643003,47.655,-122.3035,60.0,6.3
2026-01-20T23:06:19+00:00,SAT-64042,291.7169096589536,45.25619933682815,2488.7728568383163,-1.737808825651563,60865.41599836181,10.5,10500060865.415998,47.655,-122.3035,60.0,6.316666666666666
2026-01-20T23:06:20+00:00,SAT-64042,291.9480146006208,45.261681440522985,2487.039682169533,-1.7210052409046674,60276.883381432526,10.5,10500060276.88338,47.655,-122.3035,60.0,6.333333333333333
2026-01-20T23:06:21+00:00,SAT-64042,292.17946420855606,45.26653093835541,2485.3232662759374,-1.7041646443777172,59687.05445540605,10.5,10500059687.054455,47.655,-122.3035,60.0,6.35
2026-01-20T23:06:22+00:00,SAT-64042,292.41125025274596,45.27074543866359,2483.6236460706114,-1.6872872770959706,59095.937662006465,10.5,10500059095.937662,47.655,-122.3035,60.0,6.366666666666666
2026-01-20T23:06:23+00:00,SAT-64042,292.6433644281673,45.27432259598708,2481.940858226254,-1.6703734170744455,58503.5427384957,10.5,10500058503.542738,47.655,-122.3035,60.0,6.383333333333334
2026-01-20T23:06:24+00:00,SAT-64042,292.87579836117334,45.27726011183932,2480.2749391382918,-1.6534233207654103,57909.87866691699,10.5,10500057909.878668,47.655,-122.3035,60.0,6.4
2026-01-20T23:06:25+00:00,SAT-64042,293.1085436073015,45.27955573535324,2478.625924946382,-1.63643726697264,57314.95521215787,10.5,10500057314.955212,47.655,-122.3035,60.0,6.416666666666667
2026-01-20T23:06:26+00:00,SAT-64042,293.34159165573163,45.28120726398519,2476.993851512121,-1.6194155204186633,56718.78164592107,10.5,10500056718.781647,47.655,-122.3035,60.0,6.433333333333334
2026-01-20T23:06:27+00:00,SAT-64042,293.5749339281693,45.28221254417012,2475.3787544330903,-1.602358357197936,56121.367638202326,10.5,10500056121.367638,47.655,-122.3035,60.0,6.45
2026-01-20T23:06:28+00:00,SAT-64042,293.80856178174315,45.28256947199313,2473.7806690315115,-1.5852660621788186,55522.723166296586,10.5,10500055522.723166,47.655,-122.3035,60.0,6.466666666666667
2026-01-20T23:06:29+00:00,SAT-64042,294.0424665114229,45.28227599383901,2472.1996303454985,-1.5681389165969168,54922.858080264414,10.5,10500054922.85808,47.655,-122.3035,60.0,6.483333333333333
2026-01-20T23:06:30+00:00,SAT-64042,294.27663935074486,45.28133010702312,2470.635673132679,-1.5509772040576668,54321.7823131678,10.5,10500054321.782312,47.655,-122.3035,60.0,6.5
2026-01-20T23:06:31+00:00,SAT-64042,294.5110714732813,45.27972986042977,2469.088831867832,-1.5337812126266388,53719.505954281565,10.5,10500053719.505955,47.655,-122.3035,60.0,6.516666666666667
2026-01-20T23:06:32+00:00,SAT-64042,294.745753994612,45.277473355127526,2467.559140738439,-1.516551242904137,53116.0395318999,10.5,10500053116.039532,47.655,-122.3035,60.0,6.533333333333333
2026-01-20T23:06:33+00:00,SAT-64042,294.9806779755959,45.2745587449523,2466.046633632183,-1.4992875804324226,52511.3930469206,10.5,10500052511.393047,47.655,-122.3035,60.0,6.55
2026-01-20T23:06:34+00:00,SAT-64042,295.21583442122915,45.270984237136766,2464.5513441519647,-1.481990534482536,51905.57733132375,10.5,10500051905.577332,47.655,-122.3035,60.0,6.566666666666666
2026-01-20T23:06:35+00:00,SAT-64042,295.451214285814,45.26674809283999,2463.073305592241,-1.4646603989051148,51298.602677001654,10.5,10500051298.602676,47.655,-122.3035,60.0,6.583333333333333
2026-01-20T23:06:36+00:00,SAT-64042,295.6868084717863,45.26184862776221,2461.6125509543995,-1.4472974855560066,50690.48000646524,10.5,10500050690.480007,47.655,-122.3035,60.0,6.6
2026-01-20T23:06:37+00:00,SAT-64042,295.922607834029,45.25628421265256,2460.1691129288056,-1.4299020962496516,50081.21989053288,10.5,10500050081.21989,47.655,-122.3035,60.0,6.616666666666666
2026-01-20T23:06:38+00:00,SAT-64042,296.15860317957527,45.25005327389698,2458.743023904812,-1.4124745536436,49470.83363003682,10.5,10500049470.83363,47.655,-122.3035,60.0,6.633333333333334
2026-01-20T23:06:39+00:00,SAT-64042,296.3947852726282,45.24315429395831,2457.334315949978,-1.3950151637288435,48859.33194207593,10.5,10500048859.331942,47.655,-122.3035,60.0,6.65
2026-01-20T23:06:40+00:00,SAT-64042,296.63114483306566,45.235585811982396,2455.9430208266863,-1.3775242507196084,48246.72618200384,10.5,10500048246.726183,47.655,-122.3035,60.0,6.666666666666667
2026-01-20T23:06:41+00:00,SAT-64042,296.867672541092,45.227346424212406,2454.5691699739687,-1.360002130705213,47633.02742060555,10.5,10500047633.02742,47.655,-122.3035,60.0,6.683333333333334
2026-01-20T23:06:42+00:00,SAT-64042,297.10435903722123,45.218434784539234,2453.2127945156117,-1.3424491360629103,47018.24729913839,10.5,10500047018.2473,47.655,-122.3035,60.0,6.7
2026-01-20T23:06:43+00:00,SAT-64042,297.34119492680173,45.208849604864646,2451.873925243912,-1.324865585937944,46402.396995418785,10.5,10500046402.396996,47.655,-122.3035,60.0,6.716666666666667
2026-01-20T23:06:44+00:00,SAT-64042,297.5781707789899,45.19858965567793,2450.5525926328696,-1.3072518199725682,45785.48840515516,10.5,10500045785.488405,47.655,-122.3035,60.0,6.733333333333333
2026-01-20T23:06:45+00:00,SAT-64042,297.8152771321146,45.18765376634548,2449.2488268177503,-1.289608163518915,45167.53292355542,10.5,10500045167.532923,47.655,-122.3035,60.0,6.75
2026-01-20T23:06:46+00:00,SAT-64042,298.0525044925316,45.1760408256715,2447.962657609334,-1.271934959111517,44548.542547627825,10.5,10500044548.542547,47.655,-122.3035,60.0,6.766666666666667
2026-01-20T23:06:47+00:00,SAT-64042,298.2898433393753,45.16374978217732,2446.69411447678,-1.2542325476113403,43928.529215765244,10.5,10500043928.529215,47.655,-122.3035,60.0,6.783333333333333
2026-01-20T23:06:48+00:00,SAT-64042,298.5272841259218,45.15077964450903,2445.4432265492956,-1.236501270036899,43307.504871878526,10.5,10500043307.504871,47.655,-122.3035,60.0,6.8
2026-01-20T23:06:49+00:00,SAT-64042,298.76481728108996,45.13712948184202,2444.210022615979,-1.2187414704428114,42685.48156621579,10.5,10500042685.481565,47.655,-122.3035,60.0,6.816666666666666
2026-01-20T23:06:50+00:00,SAT-64042,299.0024332116319,45.122798424231455,2442.9945311227907,-1.2009535008302215,42062.47162734602,10.5,10500042062.471628,47.655,-122.3035,60.0,6.833333333333333
2026-01-20T23:06:51+00:00,SAT-64042,299.24012230532435,45.10778566287966,2441.796780164629,-1.1831377120145947,41438.48734231081,10.5,10500041438.487343,47.655,-122.3035,60.0,6.85
2026-01-20T23:06:52+00:00,SAT-64042,299.4778749323663,45.09209045049494,2440.6167974865134,-1.1652944578835862,40813.541105752745,10.5,10500040813.541105,47.655,-122.3035,60.0,6.866666666666666
2026-01-20T23:06:53+00:00,SAT-64042,299.7156814475448,45.075712101590966,2439.4546104805177,-1.1474240979655819,40187.64550987674,10.5,10500040187.64551,47.655,-122.3035,60.0,6.883333333333334
2026-01-20T23:06:54+00:00,SAT-64042,299.9535321930976,45.058649992716916,2438.3102461801464,-1.1295269926153335,39560.813175830466,10.5,10500039560.813175,47.655,-122.3035,60.0,6.9
2026-01-20T23:06:55+00:00,SAT-64042,300.19141750049977,45.04090356274207,2437.1837312595117,-1.1116035024442432,38933.056733750636,10.5,10500038933.056734,47.655,-122.3035,60.0,6.916666666666667
2026-01-20T23:06:56+00:00,SAT-64042,300.42932769207874,45.022472313145535,2436.075092033074,-1.0936539971064678,38304.38913048944,10.5,10500038304.38913,47.655,-122.3035,60.0,6.933333333333334
2026-01-20T23:06:57+00:00,SAT-64042,300.66725308467676,45.00335580812502,2434.984354446626,-1.0756788401656585,37674.82309958383,10.5,10500037674.8231,47.655,-122.3035,60.0,6.95
2026-01-20T23:06:58+00:00,SAT-64042,300.9051839898383,44.98355367496493,2433.9115440833675,-1.0576784108996211,37044.3719249469,10.5,10500037044.371925,47.655,-122.3035,60.0,6.966666666666667
2026-01-20T23:06:59+00:00,SAT-64042,301.143110719123,44.963065603961965,2432.8566861482304,-1.0396530767075418,36413.04847445225,10.5,10500036413.048475,47.655,-122.3035,60.0,6.983333333333333
2026-01-20T23:07:00+00:00,SAT-64042,301.3810235828475,44.9418913488858,2431.8198054797276,-1.0216032193092226,35780.86611754201,10.5,10500035780.866117,47.655,-122.3035,60.0,7.0
2026-01-20T23:07:01+00:00,SAT-64042,301.61891289520895,44.92003072687079,2430.8009265356695,-1.003529212648195,35147.837951300455,10.5,10500035147.837952,47.655,-122.3035,60.0,7.016666666666667
2026-01-20T23:07:02+00:00,SAT-64042,301.85676897383166,44.89748361879366,2429.800073400922,-0.9854314436082819,34513.97752603557,10.5,10500034513.977526,47.655,-122.3035,60.0,7.033333333333333
2026-01-20T23:07:03+00:00,SAT-64042,302.09458214467946,44.874249969125295,2428.8172697744967,-0.9673102952398058,33879.29825778993,10.5,10500033879.298258,47.655,-122.3035,60.0,7.05
2026-01-20T23:07:04+00:00,SAT-64042,302.33234274264356,44.85032978617583,2427.8525389733777,-0.9491661546395337,33243.81370432976,10.5,10500033243.813704,47.655,-122.3035,60.0,7.066666666666666
2026-01-20T23:07:05+00:00,SAT-64042,302.5700411141743,44.82572314212239,2426.905903928484,-0.9309994107566938,32607.537488302274,10.5,10500032607.537489,47.655,-122.3035,60.0,7.083333333333333
2026-01-20T23:07:06+00:00,SAT-64042,302.80766761927885,44.80043017308351,2425.9773871828224,-0.9128104578204099,31970.483417278978,10.5,10500031970.483418,47.655,-122.3035,60.0,7.1
2026-01-20T23:07:07+00:00,SAT-64042,303.0452126345814,44.7744510790572,2425.0670108862228,-0.8945996881529654,31332.665232045754,10.5,10500031332.665232,47.655,-122.3035,60.0,7.116666666666666
2026-01-20T23:07:08+00:00,SAT-64042,303.2826665542525,44.74778612406785,2424.1747967972383,-0.8763674986938194,30694.096835101514,10.5,10500030694.096834,47.655,-122.3035,60.0,7.133333333333334
2026-01-20T23:07:09+00:00,SAT-64042,303.52001979284216,44.720435636091736,2423.3007662785412,-0.8581142900802388,30054.79225845804,10.5,10500030054.79226,47.655,-122.3035,60.0,7.15
2026-01-20T23:07:10+00:00,SAT-64042,303.7572627878504,44.69240000698155,2422.444940293234,-0.8398404630602824,29414.765538007512,10.5,10500029414.765537,47.655,-122.3035,60.0,7.166666666666667
2026-01-20T23:07:11+00:00,SAT-64042,303.9943860012871,44.663679692486575,2421.607339404742,-0.8215464214907889,28774.03081852474,10.5,10500028774.030819,47.655,-122.3035,60.0,7.183333333333334
2026-01-20T23:07:12+00:00,SAT-64042,304.231379922012,44.63427521216732,2420.7879837737087,-0.8032325707405512,28132.602297739548,10.5,10500028132.602297,47.655,-122.3035,60.0,7.2
2026-01-20T23:07:13+00:00,SAT-64042,304.468235067684,44.60418714933363,2419.98689315649,-0.7848993201490829,27490.49431245322,10.5,10500027490.494312,47.655,-122.3035,60.0,7.216666666666667
2026-01-20T23:07:14+00:00,SAT-64042,304.7049419874795,44.57341615085975,2419.204086901195,-0.7665470807426792,26847.721258545243,10.5,10500026847.721258,47.655,-122.3035,60.0,7.233333333333333
2026-01-20T23:07:15+00:00,SAT-64042,304.9414912639906,44.541962927088704,2418.4395839460008,-0.7481762614065054,26204.297456903696,10.5,10500026204.297457,47.655,-122.3035,60.0,7.25
2026-01-20T23:07:16+00:00,SAT-64042,305.17787351386374,44.50982825188135,2417.6934028212913,-0.7297872806285397,25560.237564747767,10.5,10500025560.237564,47.655,-122.3035,60.0,7.266666666666667
2026-01-20T23:07:17+00:00,SAT-64042,305.41407939255356,44.47701296209322,2416.965561640078,-0.7113805511823365,24915.55603915337,10.5,10500024915.55604,47.655,-122.3035,60.0,7.283333333333333
2026-01-20T23:07:18+00:00,SAT-64042,305.6500995934538,44.443517957794555,2416.2560781036987,-0.6929564967956197,24270.26772085776,10.5,10500024270.267721,47.655,-122.3035,60.0,7.3
2026-01-20T23:07:19+00:00,SAT-64042,305.8859248534401,44.4093442015712,2415.564969490895,-0.6745155321823264,23624.38713489726,10.5,10500023624.387135,47.655,-122.3035,60.0,7.316666666666666
2026-01-20T23:07:20+00:00,SAT-64042,306.1215459505257,44.374492718931805,2414.892252666798,-0.6560580836732828,22977.92921318077,10.5,10500022977.929213,47.655,-122.3035,60.0,7.333333333333333
2026-01-20T23:07:21+00:00,SAT-64042,306.35695370975924,44.338964597499576,2414.237944071348,-0.6375845736336749,22330.908748723716,10.5,10500022330.908749,47.655,-122.3035,60.0,7.35
2026-01-20T23:07:22+00:00,SAT-64042,306.5921390026709,44.302760987130625,2413.6020597232437,-0.6190954282698145,21683.340669073976,10.5,10500021683.34067,47.655,-122.3035,60.0,7.366666666666666
2026-01-20T23:07:23+00:00,SAT-64042,306.8270927502674,44.26588309947655,2412.984615216116,-0.600591074760745,21035.23993584863,10.5,10500021035.239935,47.655,-122.3035,60.0,7.383333333333334
2026-01-20T23:07:24+00:00,SAT-64042,307.0618059242531,44.228332207805664,2412.385625717555,-0.5820719448188316,20386.62166944084,10.5,10500020386.62167,47.655,-122.3035,60.0,7.4
2026-01-20T23:07:25+00:00,SAT-64042,307.2962695505893,44.190109646417156,2411.8051059645886,-0.5635384668692729,19737.500875113292,10.5,10500019737.500875,47.655,-122.3035,60.0,7.416666666666667
2026-01-20T23:07:26+00:00,SAT-64042,307.53047470861173,44.151216810760104,2411.2430702669644,-0.5449910746517219,19087.892744263365,10.5,10500019087.892744,47.655,-122.3035,60.0,7.433333333333334
2026-01-20T23:07:27+00:00,SAT-64042,307.7644125349386,44.111655156747304,2410.699532501845,-0.5264302031448715,18437.81251168484,10.5,10500018437.812511,47.655,-122.3035,60.0,7.45
2026-01-20T23:07:28+00:00,SAT-64042,307.9980742247815,44.071426200473496,2410.1745061125753,-0.5078562878020921,17787.2754287967,10.5,10500017787.275429,47.655,-122.3035,60.0,7.466666666666667
2026-01-20T23:07:29+00:00,SAT-64042,308.2314510335292,44.03053151785784,2409.6680041082072,-0.4892697658418009,17136.296808837364,10.5,10500017136.296808,47.655,-122.3035,60.0,7.483333333333333
2026-01-20T23:07:30+00:00,SAT-64042,308.46453427821643,43.988972744302764,2409.180039061741,-0.4706710745454344,16484.89196725243,10.5,10500016484.891968,47.655,-122.3035,60.0,7.5
2026-01-20T23:07:31+00:00,SAT-64042,308.69731533863063,43.946751574388074,2408.710623110061,-0.45206065683414437,15833.076417014185,10.5,10500015833.076418,47.655,-122.3035,60.0,7.516666666666667
2026-01-20T23:07:32+00:00,SAT-64042,308.9297856613505,43.90386976101302,2408.259767948312,-0.4334389525380893,15180.865562835264,10.5,10500015180.865562,47.655,-122.3035,60.0,7.533333333333333
2026-01-20T23:07:33+00:00,SAT-64042,309.1619367589666,43.86032911538285,2407.8274848329806,-0.41480640416879566,14528.274903341146,10.5,10500014528.274904,47.655,-122.3035,60.0,7.55
2026-01-20T23:07:34+00:00,SAT-64042,309.39376021201394,43.81613150649888,2407.413784579223,-0.3961634563697715,13875.320011828318,10.5,10500013875.320011,47.655,-122.3035,60.0,7.566666666666666
2026-01-20T23:07:35+00:00,SAT-64042,309.6252476715617,43.771278860486696,2407.0186775587367,-0.3775105534231809,13222.016448937482,10.5,10500013222.016449,47.655,-122.3035,60.0,7.583333333333333
2026-01-20T23:07:36+00:00,SAT-64042,309.85639085927545,43.72577316038467,2406.642173700123,-0.3588481442075273,12568.379936292582,10.5,10500012568.379936,47.655,-122.3035,60.0,7.6
2026-01-20T23:07:37+00:00,SAT-64042,310.08718157191174,43.679616445047,2406.2842824842996,-0.340176672253826,11914.426008225906,10.5,10500011914.426008,47.655,-122.3035,60.0,7.616666666666666
2026-01-20T23:07:38+00:00,SAT-64042,310.3176116771145,43.63281080974987,2405.945012949838,-0.32149658906451895,11260.17047826283,10.5,10500011260.170479,47.655,-122.3035,60.0,7.633333333333334
2026-01-20T23:07:39+00:00,SAT-64042,310.5476731212449,43.58535840436727,2405.6243736850115,-0.3028083421388014,10605.629019718084,10.5,10500010605.629019,47.655,-122.3035,60.0,7.65
2026-01-20T23:07:40+00:00,SAT-64042,310.7773579254908,43.53726143389924,2405.3223728317853,-0.2841123835518793,9950.817466177661,10.5,10500009950.817467,47.655,-122.3035,60.0,7.666666666666667
2026-01-20T23:07:41+00:00,SAT-64042,311.0066581916127,43.48852215699239,2405.039018081256,-0.2654091629644063,9295.751566659714,10.5,10500009295.751566,47.655,-122.3035,60.0,7.683333333333334
2026-01-20T23:07:42+00:00,SAT-64042,311.23556609878386,43.43914288630469,2404.7743166760592,-0.24669913333182494,8640.447185579838,10.5,10500008640.447186,47.655,-122.3035,60.0,7.7
2026-01-20T23:07:43+00:00,SAT-64042,311.46407390866756,43.38912598710587,2404.528275407083,-0.22798274716590197,7984.920171814231,10.5,10500007984.920172,47.655,-122.3035,60.0,7.716666666666667
2026-01-20T23:07:44+00:00,SAT-64042,311.6921739639623,43.33847387725625,2404.3009006139096,-0.2092604582769054,7329.186419718093,10.5,10500007329.18642,47.655,-122.3035,60.0,7.733333333333333
2026-01-20T23:07:45+00:00,SAT-64042,311.9198586915962,43.28718902614737,2404.0921981835218,-0.19053272033026092,6673.261818573634,10.5,10500006673.261818,47.655,-122.3035,60.0,7.75
2026-01-20T23:07:46+00:00,SAT-64042,312.1471206012285,43.23527395467434,2403.9021735504457,-0.17179998887688933,6017.162323701078,10.5,10500006017.162323,47.655,-122.3035,60.0,7.766666666666667
2026-01-20T23:07:47+00:00,SAT-64042,312.3739522899035,43.182731233791124,2403.730831694872,-0.1530627190535124,5360.903875913651,10.5,10500005360.903875,47.655,-122.3035,60.0,7.783333333333333
2026-01-20T23:07:48+00:00,SAT-64042,312.60034643930646,43.12956348473957,2403.5781771430693,-0.13432136672004868,4704.502441353981,10.5,10500004704.502441,47.655,-122.3035,60.0,7.8
2026-01-20T23:07:49+00:00,SAT-64042,312.8262958199515,43.07577337765147,2403.4442139666608,-0.11557638852212435,4047.974013683512,10.5,10500004047.974014,47.655,-122.3035,60.0,7.816666666666666
2026-01-20T23:07:50+00:00,SAT-64042,313.0517932897156,43.02136363145967,2403.3289457818414,-0.09682824103319852,3391.3345840360817,10.5,10500003391.334583,47.655,-122.3035,60.0,7.833333333333333
2026-01-20T23:07:51+00:00,SAT-64042,313.27683179637773,42.9663370128376,2403.232375749451,-0.07807738149351458,2734.600166899139,10.5,10500002734.600166,47.655,-122.3035,60.0,7.85
2026-01-20T23:07:52+00:00,SAT-64042,313.5014043780437,42.910696335619924,2403.154506574308,-0.05932426754277664,2077.7867907509362,10.5,10500002077.78679,47.655,-122.3035,60.0,7.866666666666666
2026-01-20T23:07:53+00:00,SAT-64042,313.72550416244815,42.85444446049927,2403.095340504812,-0.04056935673937367,1420.9104812217242,10.5,10500001420.91048,47.655,-122.3035,60.0,7.883333333333334
2026-01-20T23:07:54+00:00,SAT-64042,313.94912437083565,42.797584293551466,2403.054879333024,-0.021813107035056737,763.9872777189604,10.5,10500000763.987278,47.655,-122.3035,60.0,7.9
2026-01-20T23:07:55+00:00,SAT-64042,314.17225831600126,42.74011878620612,2403.033124394274,-0.003055976601127838,107.03322733970279,10.5,10500000107.033228,47.655,-122.3035,60.0,7.916666666666667
2026-01-20T23:07:56+00:00,SAT-64042,314.39489940414313,42.682050934244316,2403.0300765669444,0.015701576489705653,-549.9356262721905,10.5,10499999450.064373,47.655,-122.3035,60.0,7.933333333333334
2026-01-20T23:07:57+00:00,SAT-64042,314.6170411353437,42.623383777119514,2403.0457362725633,0.03445909377391537,-1206.9032257846573,10.5,10499998793.096775,47.655,-122.3035,60.0,7.95
2026-01-20T23:07:58+00:00,SAT-64042,314.8386771038061,42.56412039733386,2403.0801034754204,0.053216117916220815,-1863.8535533816485,10.5,10499998136.146446,47.655,-122.3035,60.0,7.966666666666667
2026-01-20T23:07:59+00:00,SAT-64042,315.0598010001661,42.50426391923608,2403.1331776836887,0.07197218945901575,-2520.7705169142896,10.5,10499997479.229483,47.655,-122.3035,60.0,7.983333333333333
2026-01-20T23:08:00+00:00,SAT-64042,315.2804066087586,42.443817509156794,2403.2049579473096,0.09072685147105443,-3177.6381127175373,10.5,10499996822.361887,47.655,-122.3035,60.0,8.0
2026-01-20T23:08:01+00:00,SAT-64042,315.5004878114064,42.38278437377639,2403.29544286051,0.10947964553404002,-3834.440285043529,10.5,10499996165.559715,47.655,-122.3035,60.0,8.016666666666667
2026-01-20T23:08:02+00:00,SAT-64042,315.72003858593786,42.32116775989312,2403.404630560323,0.12823011466336368,-4491.16102835822,10.5,10499995508.838972,47.655,-122.3035,60.0,8.033333333333333
2026-01-20T23:08:03+00:00,SAT-64042,315.93905300777635,42.25897095334153,2403.5325187280137,0.14697780118933632,-5147.784313133158,10.5,10499994852.215687,47.655,-122.3035,60.0,8.05
2026-01-20T23:08:04+00:00,SAT-64042,316.15752524917497,42.19619727854394,2403.6791045883997,0.16572224817613815,-5804.2941355430985,10.5,10499994195.705864,47.655,-122.3035,60.0,8.066666666666666
2026-01-20T23:08:05+00:00,SAT-64042,316.3754495803181,42.132850097532085,2403.8443849105806,0.184462998612733,-6460.674489128397,10.5,10499993539.32551,47.655,-122.3035,60.0,8.083333333333334
2026-01-20T23:08:06+00:00,SAT-64042,316.59282036924213,42.06893280928336,2404.0283560078637,0.2031995975362101,-7116.909439163431,10.5,10499992883.09056,47.655,-122.3035,60.0,8.1
2026-01-20T23:08:07+00:00,SAT-64042,316.8096320828877,42.004448848704364,2404.2310137398067,0.22193158759553433,-7772.982967280353,10.5,10499992227.017033,47.655,-122.3035,60.0,8.116666666666667
2026-01-20T23:08:08+00:00,SAT-64042,317.0258792857786,41.93940168631268,2404.452353509835,0.2406585158891344,-8428.879210950367,10.5,10499991571.120789,47.655,-122.3035,60.0,8.133333333333333
2026-01-20T23:08:09+00:00,SAT-64042,317.2415566425122,41.87379482676297,2404.6923702696818,0.25937992539580956,-9084.582163357827,10.5,10499990915.417837,47.655,-122.3035,60.0,8.15
2026-01-20T23:08:10+00:00,SAT-64042,317.4566589150644,41.80763180891488,2404.9510585152766,0.27809536484384945,-9740.076019058555,10.5,10499990259.92398,47.655,-122.3035,60.0,8.166666666666666
2026-01-20T23:08:11+00:00,SAT-64042,317.67118096576195,41.74091620417535,2405.228412292481,0.29680437931150927,-10395.344844768733,10.5,10499989604.655155,47.655,-122.3035,60.0,8.183333333333334
2026-01-20T23:08:12+00:00,SAT-64042,317.88511775525126,41.67365161635324,2405.5244251934478,0.31550651686588466,-11050.372811886376,10.5,10499988949.627188,47.655,-122.3035,60.0,8.2
2026-01-20T23:08:13+00:00,SAT-64042,318.0984643433545,41.605841680613764,2405.839090359602,0.3342013258236071,-11705.144100549303,10.5,10499988294.8559,47.655,-122.3035,60.0,8.216666666666667
2026-01-20T23:08:14+00:00,SAT-64042,318.3112158892178,41.53749006264316,2406.17240048189,0.35288835719080736,-12359.642985092965,10.5,10499987640.357016,47.655,-122.3035,60.0,8.233333333333333
2026-01-20T23:08:15+00:00,SAT-64042,318.5233676516931,41.46860045770601,2406.5243478034613,0.371567158310876,-13013.853611568165,10.5,10499986986.146389,47.655,-122.3035,60.0,8.25
2026-01-20T23:08:16+00:00,SAT-64042,318.73491498758955,41.39917659040524,2406.8949241160167,0.39023728250335993,-13667.760335335985,10.5,10499986332.239664,47.655,-122.3035,60.0,8.266666666666667
2026-01-20T23:08:17+00:00,SAT-64042,318.9458533534689,41.329222213263996,2407.284120765767,0.4088982806824021,-14321.347427510073,10.5,10499985678.652573,47.655,-122.3035,60.0,8.283333333333333
2026-01-20T23:08:18+00:00,SAT-64042,319.15617830437435,41.25874110630422,2407.691928651034,0.4275497081907722,-14974.599314313333,10.5,10499985025.400686,47.655,-122.3035,60.0,8.3
2026-01-20T23:08:19+00:00,SAT-64042,319.36588549481274,41.187737075866295,2408.11833822667,0.44619111608288176,-15627.500271772209,10.5,10499984372.49973,47.655,-122.3035,60.0,8.316666666666666
2026-01-20T23:08:20+00:00,SAT-64042,319.5749706765332,41.11621395449242,2408.5633394997762,0.4648220621145282,-16280.034810624042,10.5,10499983719.965189,47.655,-122.3035,60.0,8.333333333333334
2026-01-20T23:08:21+00:00,SAT-64042,319.7834297005188,41.04417559938929,2409.026922036392,0.48344210469812854,-16932.18746460376,10.5,10499983067.812536,47.655,-122.3035,60.0,8.35
2026-01-20T23:08:22+00:00,SAT-64042,319.99125851635364,40.97162589174427,2409.509074962144,0.5020507970363394,-17583.94258497845,10.5,10499982416.057415,47.655,-122.3035,60.0,8.366666666666667
2026-01-20T23:08:23+00:00,SAT-64042,320.19845316961585,40.89856873674209,2410.0097869570554,0.5206477027116977,-18235.284886562506,10.5,10499981764.715113,47.655,-122.3035,60.0,8.383333333333333
2026-01-20T23:08:24+00:00,SAT-64042,320.40500980498325,40.825008061588576,2410.5290462658927,0.5392323817121017,-18886.198958270885,10.5,10499981113.801043,47.655,-122.3035,60.0,8.4
2026-01-20T23:08:25+00:00,SAT-64042,320.6109246639295,40.75094781539535,2411.0668406945874,0.5578043949051789,-19536.66941983036,10.5,10499980463.33058,47.655,-122.3035,60.0,8.416666666666666
2026-01-20T23:08:26+00:00,SAT-64042,320.81619408434716,40.67639196839942,2411.623157611106,0.576363306618516,-20186.681012150137,10.5,10499979813.318989,47.655,-122.3035,60.0,8.433333333333334
2026-01-20T23:08:27+00:00,SAT-64042,321.02081450072023,40.60134451097686,2412.1979839489068,0.5949086803624829,-20836.218447517018,10.5,10499979163.781553,47.655,-122.3035,60.0,8.45
2026-01-20T23:08:28+00:00,SAT-64042,321.22478244314624,40.52580945306087,2412.7913062061216,0.6134400862324528,-21485.266668852473,10.5,10499978514.733332,47.655,-122.3035,60.0,8.466666666666667
2026-01-20T23:08:29+00:00,SAT-64042,321.4280945381672,40.44979082288717,2413.403110452124,0.6319570905533167,-22133.810487019742,10.5,10499977866.189512,47.655,-122.3035,60.0,8.483333333333333
2026-01-20T23:08:30+00:00,SAT-64042,321.6307475068538,40.373292666745236,2414.0333823237693,0.650459262546818,-22781.83481434209,10.5,10499977218.165186,47.655,-122.3035,60.0,8.5
2026-01-20T23:08:31+00:00,SAT-64042,321.83273816469216,40.29631904807339,2414.6821070282826,0.6689461728805854,-23429.324613783803,10.5,10499976570.675386,47.655,-122.3035,60.0,8.516666666666667
2026-01-20T23:08:32+00:00,SAT-64042,322.0340634210561,40.21887404668897,2415.3492693447024,0.6874173979966407,-24076.265050552833,10.5,10499975923.73495,47.655,-122.3035,60.0,8.533333333333333
2026-01-20T23:08:33+00:00,SAT-64042,322.23472027956103,40.140961757672244,2416.0348536296374,0.7058725112109461,-24722.6411803693,10.5,10499975277.35882,47.655,-122.3035,60.0,8.55
2026-01-20T23:08:34+00:00,SAT-64042,322.4347058364289,40.06258629102102,2416.738843814152,0.724311090618762,-25368.438226344577,10.5,10499974631.561773,47.655,-122.3035,60.0,8.566666666666666
