satellites_20260120_184412/SAT-46080.csv

timestamp,satellite,azimuth_deg,elevation_deg,distance_km,relative_velocity_kms,doppler_shift_hz,tx_freq_ghz,rx_freq_hz,ue_lat,ue_lon,ue_alt_m,time_minutes
2026-01-20T23:10:23+00:00,SAT-46080,208.99530421241843,40.060055118806545,1055.1016074078395,-4.824118265746985,168961.027666491,10.5,10500168961.027666,47.655,-122.3035,60.0,10.383333333333333
2026-01-20T23:10:24+00:00,SAT-46080,209.11018047061282,40.348950520825966,1050.290353457468,-4.798768761576513,168073.18080214475,10.5,10500168073.180801,47.655,-122.3035,60.0,10.4
2026-01-20T23:10:25+00:00,SAT-46080,209.22749201436713,40.64008563776289,1045.5043814125888,-4.773064102663121,167172.89491639836,10.5,10500167172.894917,47.655,-122.3035,60.0,10.416666666666666
2026-01-20T23:10:26+00:00,SAT-46080,209.34730347774897,40.933472843105335,1040.7440454808661,-4.746999690861772,166260.00896276254,10.5,10500166260.008963,47.655,-122.3035,60.0,10.433333333333334
2026-01-20T23:10:27+00:00,SAT-46080,209.46968174173082,41.229124055045126,1036.0097044558468,-4.720570969254346,165334.3633386889,10.5,10500165334.363338,47.655,-122.3035,60.0,10.45
2026-01-20T23:10:28+00:00,SAT-46080,209.59469603115025,41.52705070855602,1031.3017216758437,-4.693773270817291,164395.79458527124,10.5,10500164395.794586,47.655,-122.3035,60.0,10.466666666666667
2026-01-20T23:10:29+00:00,SAT-46080,209.72241801240693,41.82726371653706,1026.6204651337487,-4.666602019052174,163444.14241417585,10.5,10500163444.142414,47.655,-122.3035,60.0,10.483333333333333
2026-01-20T23:10:30+00:00,SAT-46080,209.85292190134368,42.12977344173818,1021.9663073867473,-4.63905255749193,162479.24373622923,10.5,10500162479.243736,47.655,-122.3035,60.0,10.5
2026-01-20T23:10:31+00:00,SAT-46080,209.9862845717934,42.43458965632621,1017.3396256360753,-4.611120285131898,161500.937404786,10.5,10500161500.937405,47.655,-122.3035,60.0,10.516666666666667
2026-01-20T23:10:32+00:00,SAT-46080,210.12258567333714,42.74172150822385,1012.7408016717038,-4.582800520702618,160509.05946198784,10.5,10500160509.059462,47.655,-122.3035,60.0,10.533333333333333
2026-01-20T23:10:33+00:00,SAT-46080,210.26190775095606,43.051177476763115,1008.1702219523897,-4.554088679558767,159503.44933416252,10.5,10500159503.449335,47.655,-122.3035,60.0,10.55
2026-01-20T23:10:34+00:00,SAT-46080,210.4043363759847,43.36296533796875,1003.6282775093098,-4.524980111482351,158483.94415100556,10.5,10500158483.94415,47.655,-122.3035,60.0,10.566666666666666
2026-01-20T23:10:35+00:00,SAT-46080,210.54996027875686,43.67709211710644,999.115364011458,-4.495470204457108,157450.38238019863,10.5,10500157450.38238,47.655,-122.3035,60.0,10.583333333333334
2026-01-20T23:10:36+00:00,SAT-46080,210.69887149112458,43.99356404590584,994.6318817275461,-4.465554350429882,156402.60262822805,10.5,10500156402.602629,47.655,-122.3035,60.0,10.6
2026-01-20T23:10:37+00:00,SAT-46080,210.851165495206,44.31238651530012,990.1782355220507,-4.435227975031042,155340.44468131996,10.5,10500155340.444681,47.655,-122.3035,60.0,10.616666666666667
2026-01-20T23:10:38+00:00,SAT-46080,211.00694138072666,44.63356402784991,985.7548348216197,-4.404486498355055,154263.7481318095,10.5,10500154263.748133,47.655,-122.3035,60.0,10.633333333333333
2026-01-20T23:10:39+00:00,SAT-46080,211.1663020090757,44.957100144951596,981.3620936205937,-4.373325389803738,153172.3542989839,10.5,10500153172.3543,47.655,-122.3035,60.0,10.65
2026-01-20T23:10:40+00:00,SAT-46080,211.32935418778612,45.28299743534757,977.0004304318294,-4.341740145034687,152066.10542171882,10.5,10500152066.105421,47.655,-122.3035,60.0,10.666666666666666
2026-01-20T23:10:41+00:00,SAT-46080,211.49620885325294,45.61125741935964,972.6702682605148,-4.3097262883305945,150944.84474146191,10.5,10500150944.844742,47.655,-122.3035,60.0,10.683333333333334
2026-01-20T23:10:42+00:00,SAT-46080,211.66698126305255,45.94188051043143,968.3720345756198,-4.277279387796418,149808.41703450185,10.5,10500149808.417034,47.655,-122.3035,60.0,10.7
2026-01-20T23:10:43+00:00,SAT-46080,211.84179119889905,46.27486595485863,964.1061612661908,-4.244395057875578,148656.66870009643,10.5,10500148656.6687,47.655,-122.3035,60.0,10.716666666666667
2026-01-20T23:10:44+00:00,SAT-46080,212.0207631803721,46.61021176862476,959.8730845951362,-4.211068956592738,147489.44766390274,10.5,10500147489.447664,47.655,-122.3035,60.0,10.733333333333333
2026-01-20T23:10:45+00:00,SAT-46080,212.2040266898046,46.94791467078795,955.673245155761,-4.177296824409494,146306.604738868,10.5,10500146306.604738,47.655,-122.3035,60.0,10.75
2026-01-20T23:10:46+00:00,SAT-46080,212.39171641076692,47.28797001655091,951.5070877895499,-4.1430744317428,145107.99178710292,10.5,10500145107.991787,47.655,-122.3035,60.0,10.766666666666667
2026-01-20T23:10:47+00:00,SAT-46080,212.58397247690934,47.63037172264227,947.3750615562919,-4.108397625766934,143893.46335908427,10.5,10500143893.46336,47.655,-122.3035,60.0,10.783333333333333
2026-01-20T23:10:48+00:00,SAT-46080,212.78094073612186,47.97511219262019,943.277619657527,-4.073262366638893,142662.87796242154,10.5,10500142662.877962,47.655,-122.3035,60.0,10.8
2026-01-20T23:10:49+00:00,SAT-46080,212.98277303064202,48.32218224139856,939.2152193238658,-4.037664626486535,141416.0945239944,10.5,10500141416.094524,47.655,-122.3035,60.0,10.816666666666666
2026-01-20T23:10:50+00:00,SAT-46080,213.1896274872377,48.671571007233496,935.1883218030499,-4.001600534760704,140152.97748079905,10.5,10500140152.97748,47.655,-122.3035,60.0,10.833333333333334
2026-01-20T23:10:51+00:00,SAT-46080,213.40166883020447,49.0232658715858,931.1973922030486,-3.965066254407614,138873.39244298116,10.5,10500138873.392443,47.655,-122.3035,60.0,10.85
2026-01-20T23:10:52+00:00,SAT-46080,213.61906870488397,49.37725236396398,927.2428994586527,-3.928058108198555,137577.21061843666,10.5,10500137577.210619,47.655,-122.3035,60.0,10.866666666666667
2026-01-20T23:10:53+00:00,SAT-46080,213.84200602535316,49.733514072925985,923.3253161720759,-3.890572491004814,136264.30574030834,10.5,10500136264.30574,47.655,-122.3035,60.0,10.883333333333333
2026-01-20T23:10:54+00:00,SAT-46080,214.07066733615062,50.092032544477526,919.4451185410472,-3.8526059278710587,134934.5561009614,10.5,10500134934.5561,47.655,-122.3035,60.0,10.9
2026-01-20T23:10:55+00:00,SAT-46080,214.30524719675887,50.45278718030424,915.6027862289837,-3.814155052103057,133587.84378452273,10.5,10500133587.843784,47.655,-122.3035,60.0,10.916666666666666
2026-01-20T23:10:56+00:00,SAT-46080,214.54594858559406,50.815755128472794,911.7988022570197,-3.775216658499759,132224.0565312936,10.5,10500132224.056532,47.655,-122.3035,60.0,10.933333333333334
2026-01-20T23:10:57+00:00,SAT-46080,214.79298332911324,51.18091117327295,908.0336528429425,-3.735787659606125,130843.08620553861,10.5,10500130843.086206,47.655,-122.3035,60.0,10.95
2026-01-20T23:10:58+00:00,SAT-46080,215.04657255138744,51.54822761484976,904.3078272837621,-3.695865125711416,129444.83019639496,10.5,10500129444.830196,47.655,-122.3035,60.0,10.966666666666667
2026-01-20T23:10:59+00:00,SAT-46080,215.30694715043757,51.917674146121236,900.6218177983859,-3.655446265647254,128029.19074533944,10.5,10500128029.190744,47.655,-122.3035,60.0,10.983333333333333
2026-01-20T23:11:00+00:00,SAT-46080,215.57434829882862,52.28921772094572,896.976119389447,-3.6145284968791294,126596.07740108945,10.5,10500126596.0774,47.655,-122.3035,60.0,11.0
2026-01-20T23:11:01+00:00,SAT-46080,215.84902797616053,52.66282242209189,893.3712296352262,-3.5731093583885176,125145.40396836614,10.5,10500125145.403969,47.655,-122.3035,60.0,11.016666666666667
2026-01-20T23:11:02+00:00,SAT-46080,216.13124952349722,53.03844931282989,889.80764856846,-3.5311866081172814,123677.0919208096,10.5,10500123677.09192,47.655,-122.3035,60.0,11.033333333333333
2026-01-20T23:11:03+00:00,SAT-46080,216.42128823452006,53.416056290296105,886.2858784579644,-3.488758178454481,122191.06884193883,10.5,10500122191.068842,47.655,-122.3035,60.0,11.05
2026-01-20T23:11:04+00:00,SAT-46080,216.71943197431744,53.79559792579031,882.8064236346526,-3.4458222105681457,120687.26962759528,10.5,10500120687.269629,47.655,-122.3035,60.0,11.066666666666666
2026-01-20T23:11:05+00:00,SAT-46080,217.02598183324406,54.17702529964603,879.3697902833126,-3.4023770614077766,119165.63673120041,10.5,10500119165.636732,47.655,-122.3035,60.0,11.083333333333334
2026-01-20T23:11:06+00:00,SAT-46080,217.34125281519513,54.560285827340195,875.9764862274019,-3.358421277313387,117626.1192394325,10.5,10500117626.11924,47.655,-122.3035,60.0,11.1
2026-01-20T23:11:07+00:00,SAT-46080,217.66557455837776,54.945323072495725,872.6270207401614,-3.3139536712073494,116068.67557581175,10.5,10500116068.675575,47.655,-122.3035,60.0,11.116666666666667
2026-01-20T23:11:08+00:00,SAT-46080,217.99929209942312,55.332076557714856,869.3219042787438,-3.268973271649558,114493.2717163964,10.5,10500114493.271717,47.655,-122.3035,60.0,11.133333333333333
2026-01-20T23:11:09+00:00,SAT-46080,218.34276667041377,55.72048155843608,866.061648269152,-3.223479344184816,112899.88193745876,10.5,10500112899.881937,47.655,-122.3035,60.0,11.15
2026-01-20T23:11:10+00:00,SAT-46080,218.69637653605884,56.11046888693697,862.8467648698851,-3.1774714479813913,111288.49079920685,10.5,10500111288.490799,47.655,-122.3035,60.0,11.166666666666666
2026-01-20T23:11:11+00:00,SAT-46080,219.0605178764596,56.50196467035529,859.6777666790982,-3.1309493583126327,109659.09043076275,10.5,10500109659.090431,47.655,-122.3035,60.0,11.183333333333334
2026-01-20T23:11:12+00:00,SAT-46080,219.4356057014417,56.89489010583966,856.5551665190744,-3.083913168140831,108011.68408805909,10.5,10500108011.684088,47.655,-122.3035,60.0,11.2
2026-01-20T23:11:13+00:00,SAT-46080,219.82207481648467,57.28916121355711,853.479477119382,-3.0363632214653347,106346.28381940821,10.5,10500106346.28382,47.655,-122.3035,60.0,11.216666666666667
2026-01-20T23:11:14+00:00,SAT-46080,220.2203808214477,57.68468856630878,850.4512108665073,-2.9883001784402463,104662.91274619919,10.5,10500104662.912746,47.655,-122.3035,60.0,11.233333333333333
2026-01-20T23:11:15+00:00,SAT-46080,220.6310011569073,58.08137701107534,847.4708794885428,-2.939724975188717,102961.60365542462,10.5,10500102961.603655,47.655,-122.3035,60.0,11.25
2026-01-20T23:11:16+00:00,SAT-46080,221.05443618416774,58.47912536826542,844.5389937799546,-2.89063889535712,101242.40150581025,10.5,10500101242.401506,47.655,-122.3035,60.0,11.266666666666667
2026-01-20T23:11:17+00:00,SAT-46080,221.49121031208642,58.877826122257346,841.6560632549852,-2.8410435014070345,99505.36102136987,10.5,10500099505.361021,47.655,-122.3035,60.0,11.283333333333333
2026-01-20T23:11:18+00:00,SAT-46080,221.94187314869933,59.277365083609915,838.8225958695818,-2.7909407003494127,97750.5489936936,10.5,10500097750.548994,47.655,-122.3035,60.0,11.3
2026-01-20T23:11:19+00:00,SAT-46080,222.4070006927752,59.67762103976032,836.0390976777667,-2.7403327464131113,95978.04437541144,10.5,10500095978.044374,47.655,-122.3035,60.0,11.316666666666666
2026-01-20T23:11:20+00:00,SAT-46080,222.88719655227254,60.078465384963515,833.306072485344,-2.6892222124938696,94187.93728021547,10.5,10500094187.93728,47.655,-122.3035,60.0,11.333333333333334
2026-01-20T23:11:21+00:00,SAT-46080,223.3830931774215,60.479761723690636,830.6240215320834,-2.6376120413690107,92380.3307766155,10.5,10500092380.330776,47.655,-122.3035,60.0,11.35
2026-01-20T23:11:22+00:00,SAT-46080,223.89535311356883,60.88136545775109,827.9934431228247,-2.5855055216782152,90555.3400466841,10.5,10500090555.340046,47.655,-122.3035,60.0,11.366666666666667
2026-01-20T23:11:23+00:00,SAT-46080,224.42467025088894,61.28312334533484,825.4148322825378,-2.532906316016257,88713.09336998296,10.5,10500088713.09337,47.655,-122.3035,60.0,11.383333333333333
2026-01-20T23:11:24+00:00,SAT-46080,224.97177106738178,61.68487303853561,822.8886803833641,-2.479818452687899,86853.73183478466,10.5,10500086853.731834,47.655,-122.3035,60.0,11.4
2026-01-20T23:11:25+00:00,SAT-46080,225.5374158426859,62.08644259303641,820.4154747798834,-2.4262463319977514,84977.40955836985,10.5,10500084977.40956,47.655,-122.3035,60.0,11.416666666666666
2026-01-20T23:11:26+00:00,SAT-46080,226.12239982576241,62.48764995114438,817.9956984381043,-2.3721947484482917,83084.29446449604,10.5,10500083084.294464,47.655,-122.3035,60.0,11.433333333333334
2026-01-20T23:11:27+00:00,SAT-46080,226.72755433747693,62.88830240030582,815.6298295423186,-2.317668874192736,81174.56770384706,10.5,10500081174.567703,47.655,-122.3035,60.0,11.45
2026-01-20T23:11:28+00:00,SAT-46080,227.35374777090252,63.288196000304325,813.318341118457,-2.2626742778154156,79248.42431180128,10.5,10500079248.424313,47.655,-122.3035,60.0,11.466666666666667
2026-01-20T23:11:29+00:00,SAT-46080,228.00188646416743,63.687114984749826,811.0617006387157,-2.207216932954359,77306.0735104309,10.5,10500077306.073511,47.655,-122.3035,60.0,11.483333333333333
2026-01-20T23:11:30+00:00,SAT-46080,228.6729154045162,64.08483113565822,808.8603696175826,-2.151303189971466,75347.73771627169,10.5,10500075347.737717,47.655,-122.3035,60.0,11.5
2026-01-20T23:11:31+00:00,SAT-46080,229.36781870533716,64.48110312517261,806.7148032361177,-2.0949398237978483,73373.65421606907,10.5,10500073373.654217,47.655,-122.3035,60.0,11.516666666666667
2026-01-20T23:11:32+00:00,SAT-46080,230.0876198235688,64.87567583929582,804.6254499185167,-2.0381339954745483,71384.07381977154,10.5,10500071384.07382,47.655,-122.3035,60.0,11.533333333333333
2026-01-20T23:11:33+00:00,SAT-46080,230.8333814275374,65.26827967039772,802.59275094703,-1.9808932905548955,69379.26220554355,10.5,10500069379.262205,47.655,-122.3035,60.0,11.55
2026-01-20T23:11:34+00:00,SAT-46080,231.60620486544144,65.65862979559597,800.6171400385833,-1.92322567858656,67359.49850065567,10.5,10500067359.4985,47.655,-122.3035,60.0,11.566666666666666
2026-01-20T23:11:35+00:00,SAT-46080,232.40722912143258,66.04642543042074,798.6990429618063,-1.865139562797276,65325.077021688776,10.5,10500065325.077023,47.655,-122.3035,60.0,11.583333333333334
2026-01-20T23:11:36+00:00,SAT-46080,233.23762919508536,66.4313490807727,796.8388771045098,-1.806643717913899,63276.3050966944,10.5,10500063276.305098,47.655,-122.3035,60.0,11.6
2026-01-20T23:11:37+00:00,SAT-46080,234.09861374849055,66.81306577837948,795.037051103177,-1.7477473516844433,61213.50521995671,10.5,10500061213.50522,47.655,-122.3035,60.0,11.616666666666667
2026-01-20T23:11:38+00:00,SAT-46080,234.99142194760702,67.1912223338305,793.2939644110971,-1.6884600545452622,59137.01328912435,10.5,10500059137.013288,47.655,-122.3035,60.0,11.633333333333333
2026-01-20T23:11:39+00:00,SAT-46080,235.91731931048193,67.5654465960101,791.6100069166972,-1.628791818774206,57047.179276034905,10.5,10500057047.179276,47.655,-122.3035,60.0,11.65
2026-01-20T23:11:40+00:00,SAT-46080,236.87759243948344,67.93534674639301,789.9855585427731,-1.5687530346568603,54944.36709244044,10.5,10500054944.367092,47.655,-122.3035,60.0,11.666666666666666
2026-01-20T23:11:41+00:00,SAT-46080,237.87354246184654,68.30051064082778,788.420988849542,-1.5083544825005106,52828.95431030277,10.5,10500052828.95431,47.655,-122.3035,60.0,11.683333333333334
2026-01-20T23:11:42+00:00,SAT-46080,238.90647699862058,68.66050521870179,786.9166566456615,-1.4476073144782444,50701.33152589705,10.5,10500050701.331526,47.655,-122.3035,60.0,11.7
2026-01-20T23:11:43+00:00,SAT-46080,239.9777004674777,69.01487600145744,785.4729096173552,-1.3865230579826942,48561.90247727409,10.5,10500048561.902477,47.655,-122.3035,60.0,11.716666666666667
2026-01-20T23:11:44+00:00,SAT-46080,241.08850254236637,69.36314671421076,784.0900839541939,-1.3251136233730836,46411.08431559468,10.5,10500046411.084316,47.655,-122.3035,60.0,11.733333333333333
2026-01-20T23:11:45+00:00,SAT-46080,242.24014459045245,69.70481906533105,782.7685039671497,-1.263391270680609,44249.3064390112,10.5,10500044249.306438,47.655,-122.3035,60.0,11.75
2026-01-20T23:11:46+00:00,SAT-46080,243.43384387996156,70.03937271205238,781.5084817398575,-1.201368606398269,42077.010380233856,10.5,10500042077.01038,47.655,-122.3035,60.0,11.766666666666667
2026-01-20T23:11:47+00:00,SAT-46080,244.6707554260387,70.36626546187502,780.3103167830764,-1.139058584294141,39894.64983501513,10.5,10500039894.649836,47.655,-122.3035,60.0,11.783333333333333
2026-01-20T23:11:48+00:00,SAT-46080,245.95195136819336,70.68493375867656,779.1742956883403,-1.0764744834243996,37702.68989207259,10.5,10500037702.689892,47.655,-122.3035,60.0,11.8
2026-01-20T23:11:49+00:00,SAT-46080,247.2783977995366,70.9947934989882,778.1006918035384,-1.0136298960515326,35501.60660993377,10.5,10500035501.60661,47.655,-122.3035,60.0,11.816666666666666
2026-01-20T23:11:50+00:00,SAT-46080,248.65092907211923,71.29524123547866,777.0897649205431,-0.9505387266459446,33291.8869819681,10.5,10500033291.886982,47.655,-122.3035,60.0,11.833333333333334
2026-01-20T23:11:51+00:00,SAT-46080,250.07021971209807,71.58565582740421,776.1417609638348,-0.8872151634880331,31074.027941771463,10.5,10500031074.027943,47.655,-122.3035,60.0,11.85
2026-01-20T23:11:52+00:00,SAT-46080,251.53675415290326,71.86540058641194,775.2569117074494,-0.8236736721035147,28848.536133243568,10.5,10500028848.536133,47.655,-122.3035,60.0,11.866666666666667
2026-01-20T23:11:53+00:00,SAT-46080,253.05079470555978,72.13382597731173,774.4354344984715,-0.7599289816372901,26615.92743334305,10.5,10500026615.927433,47.655,-122.3035,60.0,11.883333333333333
2026-01-20T23:11:54+00:00,SAT-46080,254.61234832813108,72.39027291935528,773.6775319941186,-0.6959960616027704,24376.726137750567,10.5,10500024376.726137,47.655,-122.3035,60.0,11.9
2026-01-20T23:11:55+00:00,SAT-46080,256.22113293683435,72.63407672217431,772.9833919220134,-0.6318901142252941,22131.464692702804,10.5,10500022131.464693,47.655,-122.3035,60.0,11.916666666666666
2026-01-20T23:11:56+00:00,SAT-46080,257.8765442549483,72.86457168419851,772.3531868480927,-0.5676265527607067,19880.682935617482,10.5,10500019880.682936,47.655,-122.3035,60.0,11.933333333333334
2026-01-20T23:11:57+00:00,SAT-46080,259.5776243458611,73.08109635233554,771.7870739661394,-0.5032209815266465,17624.92739570449,10.5,10500017624.927395,47.655,-122.3035,60.0,11.95
2026-01-20T23:11:58+00:00,SAT-46080,261.3230331856528,73.28299942189868,771.2851949072301,-0.4386891819830378,15364.750806445896,10.5,10500015364.750807,47.655,-122.3035,60.0,11.966666666666667
2026-01-20T23:11:59+00:00,SAT-46080,263.1110247977779,73.46964622834778,770.8476755630656,-0.37404709428396954,13100.711459464668,10.5,10500013100.71146,47.655,-122.3035,60.0,11.983333333333333
2026-01-20T23:12:00+00:00,SAT-46080,264.9394295386045,73.64042574573178,770.4746259276999,-0.30931079210124907,10833.372322739073,10.5,10500010833.372322,47.655,-122.3035,60.0,12.0
2026-01-20T23:12:01+00:00,SAT-46080,266.8056440970873,73.79475796929927,770.1661399643775,-0.24449647104309064,8563.30063497612,10.5,10500008563.300634,47.655,-122.3035,60.0,12.016666666666667
2026-01-20T23:12:02+00:00,SAT-46080,268.70663076200844,73.93210153277744,769.9222954839239,-0.17962042087672814,6291.066932729994,10.5,10500006291.066933,47.655,-122.3035,60.0,12.033333333333333
2026-01-20T23:12:03+00:00,SAT-46080,270.63892714433507,74.05196136398231,769.7431540508362,-0.11469901172656438,4017.2445670028364,10.5,10500004017.244568,47.655,-122.3035,60.0,12.05
2026-01-20T23:12:04+00:00,SAT-46080,272.5986673455687,74.1538961680443,769.6287609031409,-0.04974867003385111,1742.4088612510616,10.5,10500001742.408861,47.655,-122.3035,60.0,12.066666666666666
2026-01-20T23:12:05+00:00,SAT-46080,274.5816149486892,74.23752549623546,769.5791448962271,0.015214141214838713,-532.8635810971819,10.5,10499999467.13642,47.655,-122.3035,60.0,12.083333333333334
2026-01-20T23:12:06+00:00,SAT-46080,276.5832077314978,74.3025361577439,769.5943184663987,0.0801729435187614,-2807.9956132418606,10.5,10499997192.004387,47.655,-122.3035,60.0,12.1
2026-01-20T23:12:07+00:00,SAT-46080,278.59861327159985,74.34868773267688,769.6742776154015,0.1451112628171082,-5082.410243888245,10.5,10499994917.589756,47.655,-122.3035,60.0,12.116666666666667
2026-01-20T23:12:08+00:00,SAT-46080,280.6227940980974,74.37581697068642,769.819001914851,0.21001265125567684,-7355.531399607815,10.5,10499992644.468601,47.655,-122.3035,60.0,12.133333333333333
2026-01-20T23:12:09+00:00,SAT-46080,282.6505802884198,74.3838408892897,770.02845453237,0.27486070706042437,-9626.784620894152,10.5,10499990373.21538,47.655,-122.3035,60.0,12.15
2026-01-20T23:12:10+00:00,SAT-46080,284.6767470077206,74.3727584395466,770.3025822775448,0.33963909584458096,-11895.597808428189,10.5,10499988104.402191,47.655,-122.3035,60.0,12.166666666666666
2026-01-20T23:12:11+00:00,SAT-46080,286.6960941350908,74.34265066442883,770.6413156691339,0.4043315716678795,-14161.401960661513,10.5,10499985838.59804,47.655,-122.3035,60.0,12.183333333333334
2026-01-20T23:12:12+00:00,SAT-46080,288.7035249511517,74.29367934020715,771.0445690232774,0.468921993659662,-16423.631756027866,10.5,10499983576.368244,47.655,-122.3035,60.0,12.2
2026-01-20T23:12:13+00:00,SAT-46080,290.6941209262104,74.22608415816948,771.5122405582872,0.5333943487934777,-18681.72635060591,10.5,10499981318.27365,47.655,-122.3035,60.0,12.216666666666667
2026-01-20T23:12:14+00:00,SAT-46080,292.6632099677037,74.14017856426767,772.0442125221506,0.5977327752931447,-20935.130197898507,10.5,10499979064.869802,47.655,-122.3035,60.0,12.233333333333333
2026-01-20T23:12:15+00:00,SAT-46080,294.6064258804125,74.03634442695727,772.6403513433763,0.6619215695440308,-23183.293290895006,10.5,10499976816.706709,47.655,-122.3035,60.0,12.25
2026-01-20T23:12:16+00:00,SAT-46080,296.5197573229984,73.91502574720226,773.3005077887349,0.7259452199481126,-25425.672347818647,10.5,10499974574.327652,47.655,-122.3035,60.0,12.266666666666667
2026-01-20T23:12:17+00:00,SAT-46080,298.3995853328062,73.77672164257689,774.0245171547632,0.7897884102215607,-27661.73092762189,10.5,10499972338.269072,47.655,-122.3035,60.0,12.283333333333333
2026-01-20T23:12:18+00:00,SAT-46080,300.24270893969896,73.62197885734895,774.8121994625575,0.853436051142973,-29890.94054194391,10.5,10499970109.059458,47.655,-122.3035,60.0,12.3
2026-01-20T23:12:19+00:00,SAT-46080,302.0463591838801,73.45138403569088,775.6633596842307,0.9168732837582101,-32112.780767357413,10.5,10499967887.219233,47.655,-122.3035,60.0,12.316666666666666
2026-01-20T23:12:20+00:00,SAT-46080,303.80820220642215,73.2655559891052,776.5777879725656,0.9800855051705141,-34326.74014864776,10.5,10499965673.259851,47.655,-122.3035,60.0,12.333333333333334
2026-01-20T23:12:21+00:00,SAT-46080,305.52633261783035,73.06513815297684,777.555259916389,1.043058379001833,-36532.31656521275,10.5,10499963467.683435,47.655,-122.3035,60.0,12.35
2026-01-20T23:12:22+00:00,SAT-46080,307.1992585295115,72.85079140191306,778.5955368063801,1.105777852822725,-38729.0178415316,10.5,10499961270.982159,47.655,-122.3035,60.0,12.366666666666667
2026-01-20T23:12:23+00:00,SAT-46080,308.82587983474394,72.62318735310348,779.6983659182621,1.1682301759503413,-40916.362370525625,10.5,10499959083.637629,47.655,-122.3035,60.0,12.383333333333333
2026-01-20T23:12:24+00:00,SAT-46080,310.40546134203254,72.38300225196006,780.8634808137431,1.2304018967111556,-43093.8790176874,10.5,10499956906.120983,47.655,-122.3035,60.0,12.4
2026-01-20T23:12:25+00:00,SAT-46080,311.9376022816302,72.13091150409178,782.0906016387297,1.2922798951064076,-45261.108265162824,10.5,10499954738.891735,47.655,-122.3035,60.0,12.416666666666666
2026-01-20T23:12:26+00:00,SAT-46080,313.4222036550022,71.86758487523615,783.3794354541159,1.3538513838445523,-47417.602247911775,10.5,10499952582.397753,47.655,-122.3035,60.0,12.433333333333334
2026-01-20T23:12:27+00:00,SAT-46080,314.85943462525904,71.59368236833066,784.7296765676035,1.4151039217732535,-49562.92522415344,10.5,10499950437.074776,47.655,-122.3035,60.0,12.45
2026-01-20T23:12:28+00:00,SAT-46080,316.24969901269566,71.30985075655721,786.1410068789187,1.476025408044259,-51696.653370995475,10.5,10499948303.346628,47.655,-122.3035,60.0,12.466666666666667
2026-01-20T23:12:29+00:00,SAT-46080,317.593602715521,71.01672074145922,787.6130962192082,1.5366041301070075,-53818.376465373185,10.5,10499946181.623535,47.655,-122.3035,60.0,12.483333333333333
2026-01-20T23:12:30+00:00,SAT-46080,318.89192274612543,70.71490467919638,789.1456027383015,1.596828729844802,-55927.69669799505,10.5,10499944072.303303,47.655,-122.3035,60.0,12.5
2026-01-20T23:12:31+00:00,SAT-46080,320.14557825964073,70.40499483805496,790.7381732582,1.6566882325743368,-58024.229689028856,10.5,10499941975.770311,47.655,-122.3035,60.0,12.516666666666667
2026-01-20T23:12:32+00:00,SAT-46080,321.3556039340629,70.08756211753487,792.3904436554876,1.7161720505601663,-60107.60461119321,10.5,10499939892.39539,47.655,-122.3035,60.0,12.533333333333333
2026-01-20T23:12:33+00:00,SAT-46080,322.523125837458,69.76315517639928,794.1020392472462,1.7752699778796512,-62177.46400990627,10.5,10499937822.53599,47.655,-122.3035,60.0,12.55
2026-01-20T23:12:34+00:00,SAT-46080,323.64933983059893,69.43229991479926,795.8725751718515,1.8339722232990587,-64233.46495474585,10.5,10499935766.535046,47.655,-122.3035,60.0,12.566666666666666
2026-01-20T23:12:35+00:00,SAT-46080,324.7354924976209,69.09549924982974,797.7016568025551,1.8922693741217345,-66275.27777325943,10.5,10499933724.722227,47.655,-122.3035,60.0,12.583333333333334
2026-01-20T23:12:36+00:00,SAT-46080,325.7828644637486,68.7532331479562,799.5888801250126,1.9501524349606922,-68302.58740894432,10.5,10499931697.412592,47.655,-122.3035,60.0,12.6
2026-01-20T23:12:37+00:00,SAT-46080,326.7927560091155,68.40595885529719,801.53383215348,2.007612801871756,-70315.09251528082,10.5,10499929684.907484,47.655,-122.3035,60.0,12.616666666666667
2026-01-20T23:12:38+00:00,SAT-46080,327.7664747705531,68.05411129764848,803.5360913212133,2.0646422880003605,-72312.50635399169,10.5,10499927687.493647,47.655,-122.3035,60.0,12.633333333333333
2026-01-20T23:12:39+00:00,SAT-46080,328.70532537681487,67.69810360562529,805.5952278964457,2.121233107697015,-74294.5562386985,10.5,10499925705.443762,47.655,-122.3035,60.0,12.65
2026-01-20T23:12:40+00:00,SAT-46080,329.61060080473453,67.3383277418838,807.7108043825223,2.177377870087816,-76260.9833097338,10.5,10499923739.016691,47.655,-122.3035,60.0,12.666666666666666
2026-01-20T23:12:41+00:00,SAT-46080,330.4835752750508,66.97515520242021,809.8823759116233,2.233069620170496,-78211.54397349851,10.5,10499921788.456026,47.655,-122.3035,60.0,12.683333333333334
2026-01-20T23:12:42+00:00,SAT-46080,331.3254985244219,66.60893776204234,812.1094906794733,2.288301773601058,-80146.00761841417,10.5,10499919853.992382,47.655,-122.3035,60.0,12.7
2026-01-20T23:12:43+00:00,SAT-46080,332.1375912389739,66.24000826343519,814.3916903150114,2.343068157118976,-82064.15803078425,10.5,10499917935.841969,47.655,-122.3035,60.0,12.716666666666667
2026-01-20T23:12:44+00:00,SAT-46080,332.92104153508035,65.86868141680861,816.728510290378,2.3973630014382152,-83965.79314580775,10.5,10499916034.206854,47.655,-122.3035,60.0,12.733333333333333
2026-01-20T23:12:45+00:00,SAT-46080,333.6770023214567,65.49525460597579,819.1194803238125,2.4511809275455008,-85850.72456768662,10.5,10499914149.275433,47.655,-122.3035,60.0,12.75
2026-01-20T23:12:46+00:00,SAT-46080,334.4065894108825,65.1200086918865,821.5641247688845,2.5045169509757157,-87718.77771936817,10.5,10499912281.22228,47.655,-122.3035,60.0,12.766666666666667
2026-01-20T23:12:47+00:00,SAT-46080,335.1108802713479,64.74320880295606,824.0619630079908,2.5573664574319666,-89569.79098865672,10.5,10499910430.209011,47.655,-122.3035,60.0,12.783333333333333
2026-01-20T23:12:48+00:00,SAT-46080,335.79091330517275,64.36510511053207,826.6125098215364,2.6097252364851222,-91403.61690851404,10.5,10499908596.383091,47.655,-122.3035,60.0,12.8
2026-01-20T23:12:49+00:00,SAT-46080,336.44768758207204,63.98593357623955,829.2152757907241,2.661589427521979,-93220.12026393531,10.5,10499906779.879736,47.655,-122.3035,60.0,12.816666666666666
2026-01-20T23:12:50+00:00,SAT-46080,337.08216292321623,63.60591668102322,831.8697676464395,2.7129555585776943,-95019.1794520254,10.5,10499904980.820547,47.655,-122.3035,60.0,12.833333333333334
2026-01-20T23:12:51+00:00,SAT-46080,337.69526029337845,63.22526411983922,834.575488656861,2.763820502487604,-96800.68494624985,10.5,10499903199.315054,47.655,-122.3035,60.0,12.85
2026-01-20T23:12:52+00:00,SAT-46080,338.28786242132446,62.844173472606045,837.331938971342,2.814181491477065,-98564.53980743299,10.5,10499901435.460192,47.655,-122.3035,60.0,12.866666666666667
2026-01-20T23:12:53+00:00,SAT-46080,338.8608146133048,62.462830842160045,840.1386159788417,2.8640361160516354,-100310.6596448873,10.5,10499899689.340355,47.655,-122.3035,60.0,12.883333333333333
2026-01-20T23:12:54+00:00,SAT-46080,339.41492571248943,62.08141146137459,842.9950146652506,2.9133822925046737,-102038.97147839214,10.5,10499897961.028522,47.655,-122.3035,60.0,12.9
2026-01-20T23:12:55+00:00,SAT-46080,339.9509691625896,61.700080273772606,845.9006279383085,2.9622182725031294,-103749.41407392864,10.5,10499896250.585926,47.655,-122.3035,60.0,12.916666666666666
2026-01-20T23:12:56+00:00,SAT-46080,340.4696841544908,61.318992482345394,848.854946962085,3.010542628650543,-105441.93743803487,10.5,10499894558.062561,47.655,-122.3035,60.0,12.933333333333334
2026-01-20T23:12:57+00:00,SAT-46080,340.97177682575636,60.9382940705925,851.8574614770591,3.0583542579802927,-107116.50294015427,10.5,10499892883.49706,47.655,-122.3035,60.0,12.95
2026-01-20T23:12:58+00:00,SAT-46080,341.4579214954261,60.558122294370456,854.9076601236848,3.1056523458702174,-108773.08204877282,10.5,10499891226.917952,47.655,-122.3035,60.0,12.966666666666667
2026-01-20T23:12:59+00:00,SAT-46080,341.928761910586,60.178606150547374,858.005030729966,3.1524363869893945,-110411.65706506414,10.5,10499889588.342936,47.655,-122.3035,60.0,12.983333333333333
2026-01-20T23:13:00+00:00,SAT-46080,342.38491250024265,59.79986681639122,861.1490606199235,3.19870617585136,-112032.220792023,10.5,10499887967.779207,47.655,-122.3035,60.0,13.0
2026-01-20T23:13:01+00:00,SAT-46080,342.82695961975713,59.422018064832756,864.3392369126392,3.244461753131101,-113634.77465425951,10.5,10499886365.225346,47.655,-122.3035,60.0,13.016666666666667
2026-01-20T23:13:02+00:00,SAT-46080,343.2554627712073,59.04516666185631,867.5750467677619,3.289703459121393,-115219.33057026615,10.5,10499884780.66943,47.655,-122.3035,60.0,13.033333333333333
2026-01-20T23:13:03+00:00,SAT-46080,343.6709558078702,58.6694127344956,870.8559776843257,3.334431878610269,-116785.90902179341,10.5,10499883214.090979,47.655,-122.3035,60.0,13.05
2026-01-20T23:13:04+00:00,SAT-46080,344.0739481018625,58.294850123518856,874.181517744593,3.3786478588658957,-118334.5396837565,10.5,10499881665.460316,47.655,-122.3035,60.0,13.066666666666666
2026-01-20T23:13:05+00:00,SAT-46080,344.4649256810619,57.9215667133529,877.5511558758352,3.4223524807137933,-119865.26041123699,10.5,10499880134.73959,47.655,-122.3035,60.0,13.083333333333334
2026-01-20T23:13:06+00:00,SAT-46080,344.84435232619654,57.5496447457556,880.9643820832672,3.4655470579061265,-121378.11721739286,10.5,10499878621.882782,47.655,-122.3035,60.0,13.1
2026-01-20T23:13:07+00:00,SAT-46080,345.21267062971197,57.17916111507632,884.4206876823523,3.50823313636942,-122873.16424711027,10.5,10499877126.835752,47.655,-122.3035,60.0,13.116666666666667
2026-01-20T23:13:08+00:00,SAT-46080,345.5703030148179,56.81018764624407,887.919565530358,3.5504124681368174,-124350.46286400102,10.5,10499875649.537136,47.655,-122.3035,60.0,13.133333333333333
2026-01-20T23:13:09+00:00,SAT-46080,345.91765271141355,56.442791359177825,891.4605102319131,3.592087015708104,-125810.08180310891,10.5,10499874189.918198,47.655,-122.3035,60.0,13.15
2026-01-20T23:13:10+00:00,SAT-46080,346.2551046919983,56.07703471725653,895.0430183489126,3.6332589206373997,-127252.09607071802,10.5,10499872747.903929,47.655,-122.3035,60.0,13.166666666666666
2026-01-20T23:13:11+00:00,SAT-46080,346.58302656429754,55.71297586447718,898.666588579095,3.6739305472704276,-128676.58847621674,10.5,10499871323.411524,47.655,-122.3035,60.0,13.183333333333334
2026-01-20T23:13:12+00:00,SAT-46080,346.90176942814077,55.35066884450613,902.3307219782394,3.714104415136293,-130083.64726417193,10.5,10499869916.352736,47.655,-122.3035,60.0,13.2
2026-01-20T23:13:13+00:00,SAT-46080,347.2116686869839,54.990163813729886,906.0349221149354,3.7537831972539695,-131473.3660550149,10.5,10499868526.633945,47.655,-122.3035,60.0,13.216666666666667
2026-01-20T23:13:14+00:00,SAT-46080,347.5130448217123,54.63150724213206,909.7786952236632,3.7929697657055033,-132845.8454412078,10.5,10499867154.154558,47.655,-122.3035,60.0,13.233333333333333
2026-01-20T23:13:15+00:00,SAT-46080,347.80620413126724,54.27474209841246,913.5615504033269,3.831667122955835,-134201.1905817733,10.5,10499865798.809418,47.655,-122.3035,60.0,13.25
2026-01-20T23:13:16+00:00,SAT-46080,348.0914394318315,53.919908030997746,917.3829997472882,3.8698784101440213,-135539.51149268815,10.5,10499864460.488508,47.655,-122.3035,60.0,13.266666666666667
2026-01-20T23:13:17+00:00,SAT-46080,348.3690307226087,53.56704153802341,921.2425584816718,3.907606916839278,-136860.9233885811,10.5,10499863139.07661,47.655,-122.3035,60.0,13.283333333333333
2026-01-20T23:13:18+00:00,SAT-46080,348.6392458192961,53.21617612687257,925.1397451133996,3.944856068865173,-138165.54625628478,10.5,10499861834.453743,47.655,-122.3035,60.0,13.3
2026-01-20T23:13:19+00:00,SAT-46080,348.90234095491,52.867342465932104,929.0740815660811,3.981629398908772,-139453.5038254435,10.5,10499860546.496174,47.655,-122.3035,60.0,13.316666666666666
2026-01-20T23:13:20+00:00,SAT-46080,349.1585613483311,52.52056853047203,933.0450932865928,4.017930549816321,-140724.92368394195,10.5,10499859275.076317,47.655,-122.3035,60.0,13.333333333333334
2026-01-20T23:13:21+00:00,SAT-46080,349.4081417443635,52.17587974017508,937.0523093549428,4.053763276598673,-141979.9373481439,10.5,10499858020.062653,47.655,-122.3035,60.0,13.35
2026-01-20T23:13:22+00:00,SAT-46080,349.6513069263599,51.833299088944976,941.0952625961372,4.089131440188319,-143218.68004423697,10.5,10499856781.319956,47.655,-122.3035,60.0,13.366666666666667
2026-01-20T23:13:23+00:00,SAT-46080,349.8882722021942,51.49284726818605,945.1734896858185,4.124038979206898,-144441.28971941126,10.5,10499855558.710281,47.655,-122.3035,60.0,13.383333333333333
2026-01-20T23:13:24+00:00,SAT-46080,350.1192438636154,51.154542785713986,949.2865312277474,4.158489931143338,-145647.9077836076,10.5,10499854352.092216,47.655,-122.3035,60.0,13.4
2026-01-20T23:13:25+00:00,SAT-46080,350.3444196232463,50.81840207653591,953.4339318524078,4.192488401610255,-146838.6780327465,10.5,10499853161.321968,47.655,-122.3035,60.0,13.416666666666666
2026-01-20T23:13:26+00:00,SAT-46080,350.5639890273028,50.48443961016366,957.615240284947,4.226038567972253,-148013.74677580668,10.5,10499851986.253223,47.655,-122.3035,60.0,13.433333333333334
2026-01-20T23:13:27+00:00,SAT-46080,350.7781338473304,50.152667991904856,961.8300094167381,4.259144687585187,-149173.26312339876,10.5,10499850826.736877,47.655,-122.3035,60.0,13.45
2026-01-20T23:13:28+00:00,SAT-46080,350.98702845209533,49.823098058158834,966.0777963851564,4.291811045716474,-150317.3771637143,10.5,10499849682.622837,47.655,-122.3035,60.0,13.466666666666667
2026-01-20T23:13:29+00:00,SAT-46080,351.1908401577752,49.49573897066286,970.3581626014175,4.324042039208726,-151446.24289278025,10.5,10499848553.757107,47.655,-122.3035,60.0,13.483333333333333
2026-01-20T23:13:30+00:00,SAT-46080,351.3897295641256,49.17059829949419,974.6706738618551,4.355842030372297,-152560.01309715776,10.5,10499847439.986902,47.655,-122.3035,60.0,13.5
2026-01-20T23:13:31+00:00,SAT-46080,351.5838508665219,48.84768211259842,979.0149003134798,4.387215526590272,-153658.84564446867,10.5,10499846341.154356,47.655,-122.3035,60.0,13.516666666666667
2026-01-20T23:13:32+00:00,SAT-46080,351.7733521602034,48.526995047484874,983.3904165986658,4.41816696402877,-154742.89590801543,10.5,10499845257.104092,47.655,-122.3035,60.0,13.533333333333333
2026-01-20T23:13:33+00:00,SAT-46080,351.9583757193118,48.20854039487919,987.7968017841238,4.448700906722133,-155812.3237395865,10.5,10499844187.67626,47.655,-122.3035,60.0,13.55
2026-01-20T23:13:34+00:00,SAT-46080,352.13905827033113,47.89232016380867,992.233639488428,4.478821885156861,-156867.28781598315,10.5,10499843132.712185,47.655,-122.3035,60.0,13.566666666666666
2026-01-20T23:13:35+00:00,SAT-46080,352.3155312447511,47.57833515477383,996.7005178485578,4.508534486819097,-157907.94881037506,10.5,10499842092.05119,47.655,-122.3035,60.0,13.583333333333334
2026-01-20T23:13:36+00:00,SAT-46080,352.4879210226375,47.266585022836715,1001.1970295767453,4.537843300220698,-158934.46743185687,10.5,10499841065.532568,47.655,-122.3035,60.0,13.6
2026-01-20T23:13:37+00:00,SAT-46080,352.65634916165936,46.95706834135416,1005.7227719614988,4.566752944049069,-159947.0054463986,10.5,10499840052.994555,47.655,-122.3035,60.0,13.616666666666667
2026-01-20T23:13:38+00:00,SAT-46080,352.820932615657,46.64978266049167,1010.277346897697,4.595268041241097,-160945.72476880494,10.5,10499839054.27523,47.655,-122.3035,60.0,13.633333333333333
2026-01-20T23:13:39+00:00,SAT-46080,352.98178394126916,46.344724564511345,1014.8603608908281,4.623393206468107,-161930.78702438576,10.5,10499838069.212976,47.655,-122.3035,60.0,13.65
2026-01-20T23:13:40+00:00,SAT-46080,353.13901149380365,46.04188972696381,1019.4714250487457,4.651133093167664,-162902.35519620872,10.5,10499837097.644804,47.655,-122.3035,60.0,13.666666666666666
2026-01-20T23:13:41+00:00,SAT-46080,353.2927196149387,45.74127296006565,1024.1101551203315,4.678492324576255,-163860.59120957163,10.5,10499836139.40879,47.655,-122.3035,60.0,13.683333333333334
2026-01-20T23:13:42+00:00,SAT-46080,353.4430088087666,45.442868266010954,1028.7761714653757,4.7054755401946595,-164805.65755941707,10.5,10499835194.34244,47.655,-122.3035,60.0,13.7
2026-01-20T23:13:43+00:00,SAT-46080,353.58997591066884,45.146668882762164,1033.4690990707963,4.732087370308114,-165737.71641792005,10.5,10499834262.283583,47.655,-122.3035,60.0,13.716666666666667
2026-01-20T23:13:44+00:00,SAT-46080,353.7337142470503,44.8526673291492,1038.1885675414503,4.758332403907728,-166656.92851096054,10.5,10499833343.07149,47.655,-122.3035,60.0,13.733333333333333
2026-01-20T23:13:45+00:00,SAT-46080,353.87431378628315,44.56085544965278,1042.9342110589478,4.784215282312947,-167563.45639717844,10.5,10499832436.543602,47.655,-122.3035,60.0,13.75
2026-01-20T23:13:46+00:00,SAT-46080,354.0118612850983,44.271224451296355,1047.705668433841,4.8097405805589135,-168457.4603136567,10.5,10499831542.539686,47.655,-122.3035,60.0,13.766666666666667
2026-01-20T23:13:47+00:00,SAT-46080,354.14644042432326,43.9837649458099,1052.5025830395184,4.834912860687745,-169339.10004240775,10.5,10499830660.899958,47.655,-122.3035,60.0,13.783333333333333
2026-01-20T23:13:48+00:00,SAT-46080,354.2781319396818,43.69846698650598,1057.3246027992445,4.859736697636877,-170208.53581709252,10.5,10499829791.464184,47.655,-122.3035,60.0,13.8
2026-01-20T23:13:49+00:00,SAT-46080,354.4070137469609,43.4153201018291,1062.1713801990209,4.884216612829852,-171065.9259970891,10.5,10499828934.074003,47.655,-122.3035,60.0,13.816666666666666
2026-01-20T23:13:50+00:00,SAT-46080,354.53316105939285,43.13431333106804,1067.0425722342165,4.908357128107973,-171911.4289564073,10.5,10499828088.571043,47.655,-122.3035,60.0,13.833333333333334
2026-01-20T23:13:51+00:00,SAT-46080,354.6566465008692,42.85543525520633,1071.937840409983,4.93216270743012,-172745.20104176956,10.5,10499827254.798958,47.655,-122.3035,60.0,13.85
2026-01-20T23:13:52+00:00,SAT-46080,354.7775402123157,42.5786740295165,1076.8568506835265,4.955637832080766,-173567.39920671404,10.5,10499826432.600794,47.655,-122.3035,60.0,13.866666666666667
2026-01-20T23:13:53+00:00,SAT-46080,354.8959099549131,42.304017410355755,1081.7992734813886,4.978786913416522,-174378.17795560916,10.5,10499825621.822044,47.655,-122.3035,60.0,13.883333333333333
2026-01-20T23:13:54+00:00,SAT-46080,355.01182120634587,42.031452785418566,1086.7647836297026,5.001614347955125,-175177.6912731034,10.5,10499824822.308727,47.655,-122.3035,60.0,13.9
2026-01-20T23:13:55+00:00,SAT-46080,355.1253372538922,41.76096719947672,1091.7530603393966,5.024124508980663,-175966.09233010447,10.5,10499824033.90767,47.655,-122.3035,60.0,13.916666666666666
2026-01-20T23:13:56+00:00,SAT-46080,355.2365192829847,41.492547379302785,1096.7637871830198,5.046321714392833,-176743.53235772444,10.5,10499823256.467642,47.655,-122.3035,60.0,13.933333333333334
2026-01-20T23:13:57+00:00,SAT-46080,355.3454264609452,41.22617975903496,1101.7966520395075,5.068210290282942,-177510.16287398027,10.5,10499822489.837126,47.655,-122.3035,60.0,13.95
2026-01-20T23:13:58+00:00,SAT-46080,355.45211601828737,40.96185050097351,1106.8513471023498,5.0897944533608275,-178266.13156588713,10.5,10499821733.868435,47.655,-122.3035,60.0,13.966666666666667
2026-01-20T23:13:59+00:00,SAT-46080,355.55664332375835,40.6995455213665,1111.9275687705017,5.111078451966019,-179011.58722826577,10.5,10499820988.412771,47.655,-122.3035,60.0,13.983333333333333
2026-01-20T23:14:00+00:00,SAT-46080,355.6590619589908,40.43925050773342,1117.025017679929,5.132066461323769,-179746.67609516575,10.5,10499820253.323904,47.655,-122.3035,60.0,14.0
2026-01-20T23:14:01+00:00,SAT-46080,355.7594237875497,40.18095094058966,1122.1433986306893,5.152762657078999,-180471.54441533514,10.5,10499819528.455585,47.655,-122.3035,60.0,14.016666666666667
