satellites_20260120_184412/SAT-56496.csv

timestamp,satellite,azimuth_deg,elevation_deg,distance_km,relative_velocity_kms,doppler_shift_hz,tx_freq_ghz,rx_freq_hz,ue_lat,ue_lon,ue_alt_m,time_minutes
2026-01-20T23:08:57+00:00,SAT-56496,263.54298409394323,40.04578613115627,2833.3262173149606,-4.718695291266047,165268.66916142864,10.5,10500165268.66916,47.655,-122.3035,60.0,8.95
2026-01-20T23:08:58+00:00,SAT-56496,263.6621147765555,40.11263508578638,2828.620105211138,-4.7109477154282295,164997.31628337497,10.5,10500164997.316284,47.655,-122.3035,60.0,8.966666666666667
2026-01-20T23:08:59+00:00,SAT-56496,263.7819265636486,40.179435270611236,2823.921720022951,-4.703155877579668,164724.41316247694,10.5,10500164724.413162,47.655,-122.3035,60.0,8.983333333333333
2026-01-20T23:09:00+00:00,SAT-56496,263.9024233134628,40.24618476572592,2819.231105894378,-4.695319600468555,164449.95359062645,10.5,10500164449.95359,47.655,-122.3035,60.0,9.0
2026-01-20T23:09:01+00:00,SAT-56496,264.0236088953892,40.3128816256193,2814.548307146177,-4.687438669424893,164173.9300491721,10.5,10500164173.93005,47.655,-122.3035,60.0,9.016666666666667
2026-01-20T23:09:02+00:00,SAT-56496,264.1454871886216,40.379523878394075,2809.873368313204,-4.679512861832667,163896.33474115952,10.5,10500163896.334742,47.655,-122.3035,60.0,9.033333333333333
2026-01-20T23:09:03+00:00,SAT-56496,264.2680620816102,40.446109525407216,2805.2063341523367,-4.671541958362014,163617.159984729,10.5,10500163617.159985,47.655,-122.3035,60.0,9.05
2026-01-20T23:09:04+00:00,SAT-56496,264.39133747175663,40.512636541066584,2800.5472496391967,-4.6635257472606275,163336.39836341908,10.5,10500163336.398363,47.655,-122.3035,60.0,9.066666666666666
2026-01-20T23:09:05+00:00,SAT-56496,264.5153172652662,40.57910287269127,2795.8961599605955,-4.655464008069884,163054.0421558363,10.5,10500163054.042156,47.655,-122.3035,60.0,9.083333333333334
2026-01-20T23:09:06+00:00,SAT-56496,264.6400053764919,40.64550644013646,2791.2531105232138,-4.64735653222859,162770.08405728536,10.5,10500162770.084057,47.655,-122.3035,60.0,9.1
2026-01-20T23:09:07+00:00,SAT-56496,264.7654057278922,40.7118451357159,2786.618146941738,-4.639203102101795,162484.51644526975,10.5,10500162484.516445,47.655,-122.3035,60.0,9.116666666666667
2026-01-20T23:09:08+00:00,SAT-56496,264.8915222493374,40.77811682381936,2781.9913150479083,-4.631003488295864,162197.33128545407,10.5,10500162197.331285,47.655,-122.3035,60.0,9.133333333333333
2026-01-20T23:09:09+00:00,SAT-56496,265.01835887736434,40.84431934049501,2777.372660902248,-4.622757480381389,161908.52120771023,10.5,10500161908.521208,47.655,-122.3035,60.0,9.15
2026-01-20T23:09:10+00:00,SAT-56496,265.14591955524895,40.91045049347015,2772.7622307751476,-4.614464875517693,161618.0791076998,10.5,10500161618.079107,47.655,-122.3035,60.0,9.166666666666666
2026-01-20T23:09:11+00:00,SAT-56496,265.27420823280164,40.97650806200979,2768.160071139298,-4.606125419223384,161325.99607240796,10.5,10500161325.996073,47.655,-122.3035,60.0,9.183333333333334
2026-01-20T23:09:12+00:00,SAT-56496,265.4032288643713,41.04248979592265,2763.5662287211926,-4.597738919526576,161032.2653781672,10.5,10500161032.265379,47.655,-122.3035,60.0,9.2
2026-01-20T23:09:13+00:00,SAT-56496,265.53298541019586,41.1083934162098,2758.9807504387845,-4.589305152629137,160736.87918662032,10.5,10500160736.879187,47.655,-122.3035,60.0,9.216666666666667
2026-01-20T23:09:14+00:00,SAT-56496,265.66348183496063,41.17421661435574,2754.403683433229,-4.580823886521119,160439.82937179747,10.5,10500160439.829372,47.655,-122.3035,60.0,9.233333333333333
2026-01-20T23:09:15+00:00,SAT-56496,265.7947221070506,41.239957051959045,2749.8350750770724,-4.572294912237801,160141.1086148702,10.5,10500160141.108614,47.655,-122.3035,60.0,9.25
2026-01-20T23:09:16+00:00,SAT-56496,265.92671019869033,41.305612360814244,2745.274972951267,-4.563718004907691,159840.70903988768,10.5,10500159840.70904,47.655,-122.3035,60.0,9.266666666666667
2026-01-20T23:09:17+00:00,SAT-56496,266.05945008492904,41.37118014243242,2740.723424861039,-4.555092947137236,159538.6230328082,10.5,10500159538.623034,47.655,-122.3035,60.0,9.283333333333333
2026-01-20T23:09:18+00:00,SAT-56496,266.1929457433162,41.43665796790009,2736.1804788284276,-4.546419501644224,159234.84228300487,10.5,10500159234.842283,47.655,-122.3035,60.0,9.3
2026-01-20T23:09:19+00:00,SAT-56496,266.3272011526885,41.50204337734191,2731.6461831121205,-4.537697469880401,158929.359836478,10.5,10500158929.359837,47.655,-122.3035,60.0,9.316666666666666
2026-01-20T23:09:20+00:00,SAT-56496,266.46222029379584,41.56733388023326,2727.1205861688272,-4.528926621601885,158622.1676291129,10.5,10500158622.16763,47.655,-122.3035,60.0,9.333333333333334
2026-01-20T23:09:21+00:00,SAT-56496,266.59800714768926,41.63252695469309,2722.6037366848827,-4.52010671517152,158313.25719775434,10.5,10500158313.257198,47.655,-122.3035,60.0,9.35
2026-01-20T23:09:22+00:00,SAT-56496,266.7345656947515,41.69762004707433,2718.095683587618,-4.511237546996977,158002.6214117376,10.5,10500158002.621412,47.655,-122.3035,60.0,9.366666666666667
2026-01-20T23:09:23+00:00,SAT-56496,266.87189991522337,41.76261057226622,2713.596476007413,-4.502318901672863,157690.25272665487,10.5,10500157690.252728,47.655,-122.3035,60.0,9.383333333333333
2026-01-20T23:09:24+00:00,SAT-56496,267.0100137881955,41.827495913281325,2709.106163289478,-4.493350536796644,157376.14265254384,10.5,10500157376.142653,47.655,-122.3035,60.0,9.4
2026-01-20T23:09:25+00:00,SAT-56496,267.148911290057,41.89227342061963,2704.6247950207794,-4.4843322364582665,157060.28362732127,10.5,10500157060.283627,47.655,-122.3035,60.0,9.416666666666666
2026-01-20T23:09:26+00:00,SAT-56496,267.2885963946447,41.95694041241098,2700.1524210036187,-4.475263773302571,156742.66768804772,10.5,10500156742.667688,47.655,-122.3035,60.0,9.433333333333334
2026-01-20T23:09:27+00:00,SAT-56496,267.42907307214904,42.021494174008566,2695.6890912670447,-4.466144931146586,156423.28726308106,10.5,10500156423.287264,47.655,-122.3035,60.0,9.45
2026-01-20T23:09:28+00:00,SAT-56496,267.5703452887647,42.08593195791293,2691.2348560557148,-4.456975485763245,156102.13449904087,10.5,10500156102.134499,47.655,-122.3035,60.0,9.466666666666667
2026-01-20T23:09:29+00:00,SAT-56496,267.7124170056482,42.15025098341618,2686.7897658379134,-4.447755201947927,155779.2011580666,10.5,10500155779.201159,47.655,-122.3035,60.0,9.483333333333333
2026-01-20T23:09:30+00:00,SAT-56496,267.85529217780845,42.21444843621007,2682.3538713165044,-4.438483866549707,155454.47977471107,10.5,10500155454.479774,47.655,-122.3035,60.0,9.5
2026-01-20T23:09:31+00:00,SAT-56496,267.99897475401934,42.27852146847039,2677.9272234069317,-4.429161251666575,155127.96236688195,10.5,10500155127.962366,47.655,-122.3035,60.0,9.516666666666667
2026-01-20T23:09:32+00:00,SAT-56496,268.1434686755381,42.34246719841403,2673.5098732519364,-4.419787136540064,154799.64120268385,10.5,10500154799.641203,47.655,-122.3035,60.0,9.533333333333333
2026-01-20T23:09:33+00:00,SAT-56496,268.28877787550334,42.40628271017249,2669.101872214427,-4.410361285531534,154469.5080290549,10.5,10500154469.50803,47.655,-122.3035,60.0,9.55
2026-01-20T23:09:34+00:00,SAT-56496,268.43490627758115,42.46996505335018,2664.7032718923238,-4.400883489072501,154137.5555060203,10.5,10500154137.555506,47.655,-122.3035,60.0,9.566666666666666
2026-01-20T23:09:35+00:00,SAT-56496,268.5818577959741,42.53351124317929,2660.314124092555,-4.391353504052987,153803.7751188403,10.5,10500153803.77512,47.655,-122.3035,60.0,9.583333333333334
2026-01-20T23:09:36+00:00,SAT-56496,268.7296363333869,42.59691825981221,2655.9344808645133,-4.38177112829453,153468.15978636986,10.5,10500153468.159786,47.655,-122.3035,60.0,9.6
2026-01-20T23:09:37+00:00,SAT-56496,268.87824578151606,42.660183048696744,2651.564394459227,-4.372136122506427,153130.70112763636,10.5,10500153130.701128,47.655,-122.3035,60.0,9.616666666666667
2026-01-20T23:09:38+00:00,SAT-56496,269.02769001884405,42.723302519824706,2647.2039173663807,-4.362448269763706,152791.39154500983,10.5,10500152791.391544,47.655,-122.3035,60.0,9.633333333333333
2026-01-20T23:09:39+00:00,SAT-56496,269.1779729104438,42.78627354784338,2642.8531022920033,-4.352707338306974,152450.22292129585,10.5,10500152450.222921,47.655,-122.3035,60.0,9.65
2026-01-20T23:09:40+00:00,SAT-56496,269.3290983064901,42.849092971632814,2638.512002173265,-4.342913103947278,152107.18740444904,10.5,10500152107.187405,47.655,-122.3035,60.0,9.666666666666666
2026-01-20T23:09:41+00:00,SAT-56496,269.48107004151046,42.911757594211046,2634.1806701709284,-4.33306535006153,151762.27740741253,10.5,10500151762.277407,47.655,-122.3035,60.0,9.683333333333334
2026-01-20T23:09:42+00:00,SAT-56496,269.6338919336531,42.97426418264422,2629.8591596618003,-4.323163848977441,151415.48495613967,10.5,10500151415.484957,47.655,-122.3035,60.0,9.7
2026-01-20T23:09:43+00:00,SAT-56496,269.7875677832317,43.03660946768837,2625.547524249753,-4.313208380679558,151066.80234475862,10.5,10500151066.802345,47.655,-122.3035,60.0,9.716666666666667
2026-01-20T23:09:44+00:00,SAT-56496,269.9421013719518,43.098790143709486,2621.245817758089,-4.3031987105949785,150716.2213575342,10.5,10500150716.221357,47.655,-122.3035,60.0,9.733333333333333
2026-01-20T23:09:45+00:00,SAT-56496,270.09749646125374,43.16080286828379,2616.9540942440553,-4.293134630168098,150363.7346899669,10.5,10500150363.73469,47.655,-122.3035,60.0,9.75
2026-01-20T23:09:46+00:00,SAT-56496,270.25375679220207,43.222644262391974,2612.672407972901,-4.283015898053991,150009.3338891364,10.5,10500150009.333889,47.655,-122.3035,60.0,9.766666666666667
2026-01-20T23:09:47+00:00,SAT-56496,270.4108860830787,43.284310909765175,2608.4008134505752,-4.272842320578233,149653.0121717453,10.5,10500149653.012173,47.655,-122.3035,60.0,9.783333333333333
2026-01-20T23:09:48+00:00,SAT-56496,270.56888803006836,43.34579935740255,2604.1393653761857,-4.262613631787385,149294.76022297915,10.5,10500149294.760223,47.655,-122.3035,60.0,9.8
2026-01-20T23:09:49+00:00,SAT-56496,270.7277663032721,43.40710611435552,2599.888118714083,-4.252329660332614,148934.57204147696,10.5,10500148934.57204,47.655,-122.3035,60.0,9.816666666666666
2026-01-20T23:09:50+00:00,SAT-56496,270.88752454917756,43.46822765293581,2595.647128599511,-4.241990148142462,148572.4385884846,10.5,10500148572.43859,47.655,-122.3035,60.0,9.833333333333334
2026-01-20T23:09:51+00:00,SAT-56496,271.0481663860379,43.52916040730169,2591.416450425097,-4.231594881383458,148208.35237464952,10.5,10500148208.352375,47.655,-122.3035,60.0,9.85
2026-01-20T23:09:52+00:00,SAT-56496,271.20969540435874,43.58990077394885,2587.1961397967307,-4.221143649698872,147842.3060323891,10.5,10500147842.306032,47.655,-122.3035,60.0,9.866666666666667
2026-01-20T23:09:53+00:00,SAT-56496,271.37211516573126,43.650445111613195,2582.9862525300973,-4.2106362113260145,147474.29109415138,10.5,10500147474.291094,47.655,-122.3035,60.0,9.883333333333333
2026-01-20T23:09:54+00:00,SAT-56496,271.5354292002991,43.71078974068059,2578.786844682002,-4.200072381822785,147104.30109999378,10.5,10500147104.3011,47.655,-122.3035,60.0,9.9
2026-01-20T23:09:55+00:00,SAT-56496,271.6996410077133,43.77093094387994,2574.597972493197,-4.189451909758125,146732.32724373712,10.5,10500146732.327244,47.655,-122.3035,60.0,9.916666666666666
2026-01-20T23:09:56+00:00,SAT-56496,271.86475405309267,43.830864965193264,2570.4196924551984,-4.178774586849855,146358.36223045836,10.5,10500146358.36223,47.655,-122.3035,60.0,9.933333333333334
2026-01-20T23:09:57+00:00,SAT-56496,272.03077176735906,43.89058801035876,2566.252061267247,-4.168040184267953,145982.39804556227,10.5,10500145982.398046,47.655,-122.3035,60.0,9.95
2026-01-20T23:09:58+00:00,SAT-56496,272.19769754501294,43.950096246465264,2562.0951358568036,-4.157248519434979,145604.4282944145,10.5,10500145604.428295,47.655,-122.3035,60.0,9.966666666666667
2026-01-20T23:09:59+00:00,SAT-56496,272.36553474461664,44.009385802511865,2557.9489733334203,-4.146399329566244,145224.4437731838,10.5,10500145224.443773,47.655,-122.3035,60.0,9.983333333333333
2026-01-20T23:10:00+00:00,SAT-56496,272.53428668399573,44.068452768161954,2553.8136310687332,-4.135492429846106,144842.4380088445,10.5,10500144842.43801,47.655,-122.3035,60.0,10.0
2026-01-20T23:10:01+00:00,SAT-56496,272.7039566420089,44.127293194774666,2549.6891666187,-4.124527580163086,144458.40259167695,10.5,10500144458.402592,47.655,-122.3035,60.0,10.016666666666667
2026-01-20T23:10:02+00:00,SAT-56496,272.8745478547219,44.1859030945334,2545.5756377787507,-4.113504603791891,144072.33133201385,10.5,10500144072.331331,47.655,-122.3035,60.0,10.033333333333333
2026-01-20T23:10:03+00:00,SAT-56496,273.0460635165742,44.244278441281885,2541.473102520569,-4.102423241424563,143684.2151477937,10.5,10500143684.215147,47.655,-122.3035,60.0,10.05
2026-01-20T23:10:04+00:00,SAT-56496,273.2185067752783,44.302415169283584,2537.3816190744546,-4.0912833108724485,143294.04765799912,10.5,10500143294.047659,47.655,-122.3035,60.0,10.066666666666666
2026-01-20T23:10:05+00:00,SAT-56496,273.3918807335482,44.36030917427006,2533.3012458524113,-4.080084585797841,142901.82093532628,10.5,10500142901.820936,47.655,-122.3035,60.0,10.083333333333334
2026-01-20T23:10:06+00:00,SAT-56496,273.566188445596,44.41795631276891,2529.232041492175,-4.068826851138904,142507.52744739995,10.5,10500142507.527447,47.655,-122.3035,60.0,10.1
2026-01-20T23:10:07+00:00,SAT-56496,273.7414329159594,44.47535240223223,2525.174064845973,-4.057509913399095,142111.16041715263,10.5,10500142111.160418,47.655,-122.3035,60.0,10.116666666666667
2026-01-20T23:10:08+00:00,SAT-56496,273.91761709883014,44.53249322131975,2521.1273749590096,-4.046133552383558,141712.71213242912,10.5,10500141712.712132,47.655,-122.3035,60.0,10.133333333333333
2026-01-20T23:10:09+00:00,SAT-56496,274.0947438951566,44.58937450950602,2517.092031096099,-4.034697552602536,141312.17504586664,10.5,10500141312.175045,47.655,-122.3035,60.0,10.15
2026-01-20T23:10:10+00:00,SAT-56496,274.27281615115464,44.64599196714877,2513.0680927369704,-4.023201719953687,140909.54235918008,10.5,10500140909.542358,47.655,-122.3035,60.0,10.166666666666666
2026-01-20T23:10:11+00:00,SAT-56496,274.45183665752995,44.702341255798004,2509.0556195549366,-4.011645830767966,140504.80623853335,10.5,10500140504.806238,47.655,-122.3035,60.0,10.183333333333334
2026-01-20T23:10:12+00:00,SAT-56496,274.63180814637246,44.758417997800514,2505.054671446384,-4.000029699768268,140097.9601947385,10.5,10500140097.960196,47.655,-122.3035,60.0,10.2
2026-01-20T23:10:13+00:00,SAT-56496,274.81273329112935,44.81421777687128,2501.0653084924816,-3.988353112441634,139688.99671464437,10.5,10500139688.996716,47.655,-122.3035,60.0,10.216666666666667
2026-01-20T23:10:14+00:00,SAT-56496,274.99461470347484,44.86973613772811,2497.08759098834,-3.9766158587515053,139277.90844188217,10.5,10500139277.908442,47.655,-122.3035,60.0,10.233333333333333
2026-01-20T23:10:15+00:00,SAT-56496,275.1774549316218,44.92496858620859,2493.121579438545,-3.9648177469074315,138864.6886591391,10.5,10500138864.68866,47.655,-122.3035,60.0,10.25
2026-01-20T23:10:16+00:00,SAT-56496,275.3612564593803,44.97991058959674,2489.1673345389627,-3.9529585727387273,138449.3302154941,10.5,10500138449.330215,47.655,-122.3035,60.0,10.266666666666667
2026-01-20T23:10:17+00:00,SAT-56496,275.5460217036533,45.03455757652966,2485.2249171890844,-3.941038140163535,138031.82624333104,10.5,10500138031.826242,47.655,-122.3035,60.0,10.283333333333333
2026-01-20T23:10:18+00:00,SAT-56496,275.7317530129403,45.08890493720452,2481.2943884839615,-3.929056244439928,137612.16957172166,10.5,10500137612.16957,47.655,-122.3035,60.0,10.3
2026-01-20T23:10:19+00:00,SAT-56496,275.9184526649626,45.1429480233672,2477.3758097228397,-3.9170126823587745,137190.35308342258,10.5,10500137190.353083,47.655,-122.3035,60.0,10.316666666666666
2026-01-20T23:10:20+00:00,SAT-56496,276.10612286479363,45.19668214845619,2473.469242407634,-3.904907291606877,136766.37109353903,10.5,10500136766.371094,47.655,-122.3035,60.0,10.333333333333334
2026-01-20T23:10:21+00:00,SAT-56496,276.29476574491116,45.25010258830119,2469.574748202138,-3.892739835643509,136340.21531741417,10.5,10500136340.215317,47.655,-122.3035,60.0,10.35
2026-01-20T23:10:22+00:00,SAT-56496,276.4843833595102,45.30320458025164,2465.692389006056,-3.88051015182005,135911.88005840534,10.5,10500135911.880058,47.655,-122.3035,60.0,10.366666666666667
2026-01-20T23:10:23+00:00,SAT-56496,276.6749776861601,45.35598332435813,2461.822226881308,-3.8682180265759447,135481.35783671855,10.5,10500135481.357836,47.655,-122.3035,60.0,10.383333333333333
2026-01-20T23:10:24+00:00,SAT-56496,276.8665506212066,45.408433982854454,2457.9643241028025,-3.8558633098842092,135048.6433977742,10.5,10500135048.643398,47.655,-122.3035,60.0,10.4
2026-01-20T23:10:25+00:00,SAT-56496,277.0591039809675,45.46055168121937,2454.1187430950786,-3.8434457591644335,134613.7282453802,10.5,10500134613.728245,47.655,-122.3035,60.0,10.416666666666666
2026-01-20T23:10:26+00:00,SAT-56496,277.25263949485395,45.51233150712854,2450.285546524605,-3.8309652373375496,134176.60757844773,10.5,10500134176.607578,47.655,-122.3035,60.0,10.433333333333334
2026-01-20T23:10:27+00:00,SAT-56496,277.4471588087565,45.56376851211553,2446.464797194567,-3.818421528164177,133737.27382335902,10.5,10500133737.273823,47.655,-122.3035,60.0,10.45
2026-01-20T23:10:28+00:00,SAT-56496,277.6426634787883,45.614857710741546,2442.656558123811,-3.805814475206139,133295.7215009874,10.5,10500133295.7215,47.655,-122.3035,60.0,10.466666666666667
2026-01-20T23:10:29+00:00,SAT-56496,277.83915497228656,45.665594081663954,2438.8608924872055,-3.7931438757437186,132851.94351123084,10.5,10500132851.943512,47.655,-122.3035,60.0,10.483333333333333
2026-01-20T23:10:30+00:00,SAT-56496,278.03663466320967,45.71597256728995,2435.0778636617974,-3.780409567299056,132405.93416342745,10.5,10500132405.934164,47.655,-122.3035,60.0,10.5
2026-01-20T23:10:31+00:00,SAT-56496,278.2351038320928,45.765988074611876,2431.307535186678,-3.7676113510357405,131957.686493485,10.5,10500131957.686493,47.655,-122.3035,60.0,10.516666666666667
2026-01-20T23:10:32+00:00,SAT-56496,278.434563661898,45.81563547503461,2427.5499707992444,-3.7547490975269673,131507.19596832938,10.5,10500131507.195969,47.655,-122.3035,60.0,10.533333333333333
2026-01-20T23:10:33+00:00,SAT-56496,278.6350152396175,45.86490960562558,2423.805234365978,-3.7418225797494427,131054.45463664448,10.5,10500131054.454638,47.655,-122.3035,60.0,10.55
2026-01-20T23:10:34+00:00,SAT-56496,278.83645954865125,45.913805268172666,2420.073389979774,-3.7288316654694658,130599.45786704677,10.5,10500130599.457867,47.655,-122.3035,60.0,10.566666666666666
2026-01-20T23:10:35+00:00,SAT-56496,279.0388974718204,45.96231723080224,2416.3545018654127,-3.71577617708557,130142.19943918164,10.5,10500130142.19944,47.655,-122.3035,60.0,10.583333333333334
2026-01-20T23:10:36+00:00,SAT-56496,279.2423297866334,46.01044022776745,2412.6486344247996,-3.702655929777032,129682.67287984554,10.5,10500129682.67288,47.655,-122.3035,60.0,10.6
2026-01-20T23:10:37+00:00,SAT-56496,279.4467571625245,46.058168959760984,2408.9558522441685,-3.6894707909996276,129220.87354677913,10.5,10500129220.873547,47.655,-122.3035,60.0,10.616666666666667
2026-01-20T23:10:38+00:00,SAT-56496,279.65218016163556,46.1054980950195,2405.2762200419447,-3.6762205712529434,128756.79480287628,10.5,10500128756.794804,47.655,-122.3035,60.0,10.633333333333333
2026-01-20T23:10:39+00:00,SAT-56496,279.85859923320373,46.15242226902981,2401.6098027255484,-3.6629051392317957,128290.43204927407,10.5,10500128290.432049,47.655,-122.3035,60.0,10.65
2026-01-20T23:10:40+00:00,SAT-56496,280.06601471469025,46.198936085743,2397.956665333355,-3.649524304320227,127821.7786097954,10.5,10500127821.77861,47.655,-122.3035,60.0,10.666666666666666
2026-01-20T23:10:41+00:00,SAT-56496,280.27442682594767,46.245034117300335,2394.3168730938464,-3.6360779459791828,127350.83026265264,10.5,10500127350.830263,47.655,-122.3035,60.0,10.683333333333334
2026-01-20T23:10:42+00:00,SAT-56496,280.48383567109454,46.290710905432945,2390.6904913557228,-3.622565884903647,126877.5807278257,10.5,10500126877.580729,47.655,-122.3035,60.0,10.7
2026-01-20T23:10:43+00:00,SAT-56496,280.6942412326625,46.33596096124131,2387.0775856465125,-3.6089879991742375,126402.02573518208,10.5,10500126402.025736,47.655,-122.3035,60.0,10.716666666666667
2026-01-20T23:10:44+00:00,SAT-56496,280.90564337275475,46.38077876646771,2383.4782216153358,-3.5953441119177687,125924.15908987467,10.5,10500125924.15909,47.655,-122.3035,60.0,10.733333333333333
2026-01-20T23:10:45+00:00,SAT-56496,281.1180418273525,46.425158773376296,2379.8924650877166,-3.581634100298031,125443.97648965982,10.5,10500125443.97649,47.655,-122.3035,60.0,10.75
2026-01-20T23:10:46+00:00,SAT-56496,281.3314362073118,46.46909540601996,2376.320382011686,-3.5678578140806883,124961.47267269554,10.5,10500124961.472673,47.655,-122.3035,60.0,10.766666666666667
2026-01-20T23:10:47+00:00,SAT-56496,281.54582599432143,46.5125830605112,2372.7620384851093,-3.554015129655002,124476.64330961095,10.5,10500124476.64331,47.655,-122.3035,60.0,10.783333333333333
2026-01-20T23:10:48+00:00,SAT-56496,281.761210540275,46.55561610598461,2369.2175007291335,-3.540105884578689,123989.48271099012,10.5,10500123989.482712,47.655,-122.3035,60.0,10.8
2026-01-20T23:10:49+00:00,SAT-56496,281.9775890624501,46.59818888478126,2365.6868351269136,-3.5261299610514896,123499.9867509697,10.5,10500123499.986752,47.655,-122.3035,60.0,10.816666666666666
2026-01-20T23:10:50+00:00,SAT-56496,282.1949606440245,46.64029571367464,2362.1701081790916,-3.512087243945869,123008.1513972964,10.5,10500123008.151398,47.655,-122.3035,60.0,10.833333333333334
2026-01-20T23:10:51+00:00,SAT-56496,282.4133242319445,46.68193088459929,2358.66738650113,-3.497977579908548,122513.97127888972,10.5,10500122513.97128,47.655,-122.3035,60.0,10.85
2026-01-20T23:10:52+00:00,SAT-56496,282.6326786321338,46.72308866492248,2355.178736861434,-3.4838008599096115,122017.44257706084,10.5,10500122017.442577,47.655,-122.3035,60.0,10.866666666666667
2026-01-20T23:10:53+00:00,SAT-56496,282.85302251004873,46.76376329872261,2351.704226137151,-3.4695569574689173,121518.56086194013,10.5,10500121518.560862,47.655,-122.3035,60.0,10.883333333333333
2026-01-20T23:10:54+00:00,SAT-56496,283.0743543872563,46.80394900735522,2348.243921331569,-3.4552457695977608,121017.32252642757,10.5,10500121017.322527,47.655,-122.3035,60.0,10.9
2026-01-20T23:10:55+00:00,SAT-56496,283.2966726406929,46.84363999052191,2344.79788955069,-3.440867156013256,120513.72265722304,10.5,10500120513.722658,47.655,-122.3035,60.0,10.916666666666666
2026-01-20T23:10:56+00:00,SAT-56496,283.5199754978977,46.88283042666075,2341.366198040426,-3.426421028860976,120007.75817729294,10.5,10500120007.758177,47.655,-122.3035,60.0,10.933333333333334
2026-01-20T23:10:57+00:00,SAT-56496,283.74426103825476,46.921514474394996,2337.948914134309,-3.411907260489329,119499.4246157385,10.5,10500119499.424616,47.655,-122.3035,60.0,10.95
2026-01-20T23:10:58+00:00,SAT-56496,283.96952718807194,46.959686272946755,2334.546105293181,-3.397325778058225,118988.71942139171,10.5,10500118988.719421,47.655,-122.3035,60.0,10.966666666666667
2026-01-20T23:10:59+00:00,SAT-56496,284.1957717220945,46.997339943645265,2331.1578390505306,-3.382676443810629,118475.6377694185,10.5,10500118475.63777,47.655,-122.3035,60.0,10.983333333333333
2026-01-20T23:11:00+00:00,SAT-56496,284.4229922568213,47.03446959011895,2327.784183077237,-3.367959183308101,117960.17705266977,10.5,10500117960.177053,47.655,-122.3035,60.0,11.0
2026-01-20T23:11:01+00:00,SAT-56496,284.65118625269133,47.07106929994253,2324.425205118417,-3.353173900043264,117442.33389104897,10.5,10500117442.33389,47.655,-122.3035,60.0,11.016666666666667
2026-01-20T23:11:02+00:00,SAT-56496,284.88035101041237,47.10713314535359,2321.080973015441,-3.3383204956242625,116922.10483845713,10.5,10500116922.10484,47.655,-122.3035,60.0,11.033333333333333
2026-01-20T23:11:03+00:00,SAT-56496,285.1104836686253,47.14265518422586,2317.751554707805,-3.3233988949743316,116399.48726538838,10.5,10500116399.487265,47.655,-122.3035,60.0,11.05
2026-01-20T23:11:04+00:00,SAT-56496,285.34158120351873,47.17762946133312,2314.4370182098837,-3.3084090016877385,115874.47779530616,10.5,10500115874.477795,47.655,-122.3035,60.0,11.066666666666666
2026-01-20T23:11:05+00:00,SAT-56496,285.57364042514115,47.212050009161715,2311.137431632201,-3.2933507591823434,115347.0744464646,10.5,10500115347.074446,47.655,-122.3035,60.0,11.083333333333334
2026-01-20T23:11:06+00:00,SAT-56496,285.8066579783046,47.2459108493893,2307.8528631417093,-3.2782240596870955,114817.27344426558,10.5,10500114817.273445,47.655,-122.3035,60.0,11.1
2026-01-20T23:11:07+00:00,SAT-56496,286.04063033672537,47.27920599344504,2304.583381012848,-3.2630288679767747,114285.07355497293,10.5,10500114285.073555,47.655,-122.3035,60.0,11.116666666666667
2026-01-20T23:11:08+00:00,SAT-56496,286.27555380648937,47.31192944436369,2301.329053555186,-3.2477650980163797,113750.47176527699,10.5,10500113750.471766,47.655,-122.3035,60.0,11.133333333333333
2026-01-20T23:11:09+00:00,SAT-56496,286.51142452023873,47.3440751974024,2298.0899491640976,-3.2324326817136106,113213.46569029737,10.5,10500113213.46569,47.655,-122.3035,60.0,11.15
2026-01-20T23:11:10+00:00,SAT-56496,286.74823843663455,47.3756372413881,2294.8661363028687,-3.217031576630084,112674.05384366235,10.5,10500112674.053844,47.655,-122.3035,60.0,11.166666666666666
2026-01-20T23:11:11+00:00,SAT-56496,286.9859913404172,47.40660956015179,2291.65768347711,-3.2015617175307103,112132.23394056316,10.5,10500112132.23394,47.655,-122.3035,60.0,11.183333333333334
2026-01-20T23:11:12+00:00,SAT-56496,287.22467883884957,47.43698613351284,2288.4646592574927,-3.186023062211903,111588.0045028517,10.5,10500111588.004503,47.655,-122.3035,60.0,11.2
2026-01-20T23:11:13+00:00,SAT-56496,287.4642963616992,47.46676093873275,2285.28713225678,-3.1704155489038683,111041.36336708852,10.5,10500111041.363367,47.655,-122.3035,60.0,11.216666666666667
2026-01-20T23:11:14+00:00,SAT-56496,287.7048391579552,47.49592795159001,2282.1251711493396,-3.154739149422266,110492.30954613871,10.5,10500110492.309546,47.655,-122.3035,60.0,11.233333333333333
2026-01-20T23:11:15+00:00,SAT-56496,287.9463022967663,47.52448114797208,2278.978844637649,-3.1389938318729977,109940.84192293616,10.5,10500109940.841923,47.655,-122.3035,60.0,11.25
2026-01-20T23:11:16+00:00,SAT-56496,288.1886806655691,47.55241450513581,2275.8482214559945,-3.123179545389875,109386.9587159317,10.5,10500109386.958715,47.655,-122.3035,60.0,11.266666666666667
2026-01-20T23:11:17+00:00,SAT-56496,288.43196896690483,47.57972200287014,2272.7333703893923,-3.1072962853958686,108830.65976481843,10.5,10500108830.659765,47.655,-122.3035,60.0,11.283333333333333
2026-01-20T23:11:18+00:00,SAT-56496,288.6761617206955,47.60639762524819,2269.634360227424,-3.0913440026510903,108271.9433450072,10.5,10500108271.943344,47.655,-122.3035,60.0,11.3
2026-01-20T23:11:19+00:00,SAT-56496,288.9212532590579,47.63243536161382,2266.5512598087803,-3.0753226939875526,107710.80934554164,10.5,10500107710.809345,47.655,-122.3035,60.0,11.316666666666666
2026-01-20T23:11:20+00:00,SAT-56496,289.1672377287173,47.65782920836932,2263.4841379753097,-3.059232350506327,107147.25745474368,10.5,10500107147.257454,47.655,-122.3035,60.0,11.333333333333334
2026-01-20T23:11:21+00:00,SAT-56496,289.4141090891688,47.6825731703346,2260.4330635777383,-3.043072947796856,106581.28681765232,10.5,10500106581.286818,47.655,-122.3035,60.0,11.35
2026-01-20T23:11:22+00:00,SAT-56496,289.6618611100922,47.7066612620599,2257.398105491135,-3.0268444943088006,106012.89773021043,10.5,10500106012.89773,47.655,-122.3035,60.0,11.366666666666667
2026-01-20T23:11:23+00:00,SAT-56496,289.9104873728736,47.730087509546934,2254.379332582145,-3.0105469756023675,105442.08968667538,10.5,10500105442.089687,47.655,-122.3035,60.0,11.383333333333333
2026-01-20T23:11:24+00:00,SAT-56496,290.15998126752015,47.75284595154935,2251.3768137318107,-2.9941804273736423,104868.86393727505,10.5,10500104868.863937,47.655,-122.3035,60.0,11.4
2026-01-20T23:11:25+00:00,SAT-56496,290.41033599586416,47.77493064144577,2248.3906177855765,-2.9777448203994807,104293.21945849135,10.5,10500104293.219458,47.655,-122.3035,60.0,11.416666666666666
2026-01-20T23:11:26+00:00,SAT-56496,290.66154456494695,47.79633564827776,2245.420813618032,-2.9612401954868806,103715.15767955792,10.5,10500103715.15768,47.655,-122.3035,60.0,11.433333333333334
2026-01-20T23:11:27+00:00,SAT-56496,290.91359979212444,47.8170550588037,2242.4674700630662,-2.944666575945595,103134.67941688094,10.5,10500103134.679417,47.655,-122.3035,60.0,11.45
2026-01-20T23:11:28+00:00,SAT-56496,291.1664943027275,47.83708297891607,2239.530655931323,-2.928023968489462,102551.78490560742,10.5,10500102551.784906,47.655,-122.3035,60.0,11.466666666666667
2026-01-20T23:11:29+00:00,SAT-56496,291.4202205277501,47.8564135351099,2236.6104400267495,-2.911312431363262,101966.47618571595,10.5,10500101966.476185,47.655,-122.3035,60.0,11.483333333333333
2026-01-20T23:11:30+00:00,SAT-56496,291.67477070778,47.87504087641357,2233.7068910952034,-2.8945319772109936,101378.75370005284,10.5,10500101378.7537,47.655,-122.3035,60.0,11.5
2026-01-20T23:11:31+00:00,SAT-56496,291.93013688823135,47.89295917570167,2230.820077869931,-2.877682660437076,100788.61935409096,10.5,10500100788.619354,47.655,-122.3035,60.0,11.516666666666667
2026-01-20T23:11:32+00:00,SAT-56496,292.18631092257226,47.91016263158658,2227.950069029922,-2.860764526346253,100196.07473459406,10.5,10500100196.074734,47.655,-122.3035,60.0,11.533333333333333
2026-01-20T23:11:33+00:00,SAT-56496,292.443284471076,47.9266454699977,2225.09693320898,-2.843777630588079,99601.121790645,10.5,10500099601.12179,47.655,-122.3035,60.0,11.55
2026-01-20T23:11:34+00:00,SAT-56496,292.70104900134874,47.94240194589891,2222.260738985406,-2.8267220249765774,99003.76233699002,10.5,10500099003.762337,47.655,-122.3035,60.0,11.566666666666666
2026-01-20T23:11:35+00:00,SAT-56496,292.9595957876994,47.957426344936906,2219.4415548858296,-2.8095977811402415,98403.99888236192,10.5,10500098403.998882,47.655,-122.3035,60.0,11.583333333333334
2026-01-20T23:11:36+00:00,SAT-56496,293.2189159127642,47.97171298523452,2216.6394493654393,-2.7924049645306623,97801.83371915232,10.5,10500097801.83372,47.655,-122.3035,60.0,11.6
2026-01-20T23:11:37+00:00,SAT-56496,293.4790002668764,47.985256219048836,2213.854490814147,-2.7751436604283874,97197.2698342467,10.5,10500097197.269835,47.655,-122.3035,60.0,11.616666666666667
2026-01-20T23:11:38+00:00,SAT-56496,293.7398395498702,47.99805043457841,2211.086747536813,-2.75781393670871,96590.30960492493,10.5,10500096590.309605,47.655,-122.3035,60.0,11.633333333333333
2026-01-20T23:11:39+00:00,SAT-56496,294.00142426952283,48.01009005760056,2208.336287770602,-2.740415894810514,95980.95658400585,10.5,10500095980.956585,47.655,-122.3035,60.0,11.65
2026-01-20T23:11:40+00:00,SAT-56496,294.2637447449413,48.021369553353395,2205.6031796515113,-2.7229496124065538,95369.21349191784,10.5,10500095369.213491,47.655,-122.3035,60.0,11.666666666666666
2026-01-20T23:11:41+00:00,SAT-56496,294.5267911044875,48.03188342817602,2202.8874912380716,-2.7054151982548413,94755.08413782656,10.5,10500094755.084137,47.655,-122.3035,60.0,11.683333333333334
2026-01-20T23:11:42+00:00,SAT-56496,294.790553289205,48.04162623138324,2200.189290480345,-2.687812768871621,94138.57260262372,10.5,10500094138.572603,47.655,-122.3035,60.0,11.7
2026-01-20T23:11:43+00:00,SAT-56496,295.0550210541329,48.05059255703456,2197.508645212191,-2.6701424182091937,93519.68217691632,10.5,10500093519.682177,47.655,-122.3035,60.0,11.716666666666667
2026-01-20T23:11:44+00:00,SAT-56496,295.3201839664464,48.05877704563191,2194.8456231737637,-2.652404268442576,92898.41713979024,10.5,10500092898.41714,47.655,-122.3035,60.0,11.733333333333333
2026-01-20T23:11:45+00:00,SAT-56496,295.5860314090699,48.06617438597853,2192.20029198337,-2.6345984481114724,92274.78199324968,10.5,10500092274.781994,47.655,-122.3035,60.0,11.75
2026-01-20T23:11:46+00:00,SAT-56496,295.8525525819941,48.07277931697212,2189.57271913112,-2.6167250830198436,91648.78114348146,10.5,10500091648.781143,47.655,-122.3035,60.0,11.766666666666667
2026-01-20T23:11:47+00:00,SAT-56496,296.1197365028979,48.0785866293726,2186.962971981655,-2.59878431827536,91020.41967277002,10.5,10500091020.419672,47.655,-122.3035,60.0,11.783333333333333
2026-01-20T23:11:48+00:00,SAT-56496,296.38757201010617,48.083591167624625,2184.371117754895,-2.5807762838613253,90389.70213368048,10.5,10500090389.702133,47.655,-122.3035,60.0,11.8
2026-01-20T23:11:49+00:00,SAT-56496,296.6560477620005,48.0877878316177,2181.797223541124,-2.5627011355407463,89756.63398169221,10.5,10500089756.633982,47.655,-122.3035,60.0,11.816666666666666
2026-01-20T23:11:50+00:00,SAT-56496,296.9251522409009,48.09117157851818,2179.241356275278,-2.544559037264558,89121.22095906048,10.5,10500089121.220959,47.655,-122.3035,60.0,11.833333333333334
2026-01-20T23:11:51+00:00,SAT-56496,297.1948737552807,48.093737424551044,2176.7035827287796,-2.526350130356734,88483.46801554863,10.5,10500088483.468016,47.655,-122.3035,60.0,11.85
2026-01-20T23:11:52+00:00,SAT-56496,297.46520043849256,48.095480446778915,2174.1839695321037,-2.5080746063480266,87843.38185937378,10.5,10500087843.381859,47.655,-122.3035,60.0,11.866666666666667
2026-01-20T23:11:53+00:00,SAT-56496,297.7361202558774,48.09639578490866,2171.682583124706,-2.489732624028144,87200.96805202322,10.5,10500087200.968052,47.655,-122.3035,60.0,11.883333333333333
2026-01-20T23:11:54+00:00,SAT-56496,298.0076210025478,48.096478643063655,2169.199489787675,-2.471324371420868,86556.23317888509,10.5,10500086556.23318,47.655,-122.3035,60.0,11.9
2026-01-20T23:11:55+00:00,SAT-56496,298.2796903083774,48.09572429156148,2166.7347556145783,-2.452850043124563,85909.18405561727,10.5,10500085909.184055,47.655,-122.3035,60.0,11.916666666666666
2026-01-20T23:11:56+00:00,SAT-56496,298.5523156404677,48.094128068674955,2164.2884465049015,-2.434309822250558,85259.82709555309,10.5,10500085259.827095,47.655,-122.3035,60.0,11.933333333333334
2026-01-20T23:11:57+00:00,SAT-56496,298.8254843036469,48.091685382410326,2161.8606281755106,-2.415703918894619,84608.16965713493,10.5,10500084608.169657,47.655,-122.3035,60.0,11.95
2026-01-20T23:11:58+00:00,SAT-56496,299.09918344551204,48.08839171223876,2159.4513661337332,-2.397032539724568,83954.21897874416,10.5,10500083954.218979,47.655,-122.3035,60.0,11.966666666666667
2026-01-20T23:11:59+00:00,SAT-56496,299.37340005809654,48.08424261084307,2157.060725680781,-2.3782959004192183,83297.98261436514,10.5,10500083297.982615,47.655,-122.3035,60.0,11.983333333333333
2026-01-20T23:12:00+00:00,SAT-56496,299.6481209809992,48.07923370584535,2154.6887719027627,-2.3594942252569706,82639.46841917616,10.5,10500082639.46842,47.655,-122.3035,60.0,12.0
2026-01-20T23:12:01+00:00,SAT-56496,299.92333290468025,48.0733607015101,2152.3355696621065,-2.3406277359830043,81978.68415963133,10.5,10500081978.68416,47.655,-122.3035,60.0,12.016666666666667
2026-01-20T23:12:02+00:00,SAT-56496,300.1990223723742,48.06661938048052,2150.0011836000863,-2.321696680298043,81315.63851125784,10.5,10500081315.638512,47.655,-122.3035,60.0,12.033333333333333
2026-01-20T23:12:03+00:00,SAT-56496,300.4751757857515,48.059005605390716,2147.685678110936,-2.3027012956853072,80650.3397917226,10.5,10500080650.339792,47.655,-122.3035,60.0,12.05
2026-01-20T23:12:04+00:00,SAT-56496,300.7517794060768,48.05051532059202,2145.389117352039,-2.2836418285548983,79982.79663134966,10.5,10500079982.79663,47.655,-122.3035,60.0,12.066666666666666
2026-01-20T23:12:05+00:00,SAT-56496,301.0288193579195,48.04114455379906,2143.111565235027,-2.264518543833649,79313.01830899733,10.5,10500079313.018309,47.655,-122.3035,60.0,12.083333333333334
2026-01-20T23:12:06+00:00,SAT-56496,301.30628163408755,48.030889417669876,2140.85308540731,-2.2453316981898226,78641.01381427393,10.5,10500078641.013815,47.655,-122.3035,60.0,12.1
2026-01-20T23:12:07+00:00,SAT-56496,301.58415209740826,48.01974611147706,2138.6137412603152,-2.226081565142724,77966.79272698249,10.5,10500077966.792727,47.655,-122.3035,60.0,12.116666666666667
2026-01-20T23:12:08+00:00,SAT-56496,301.86241648558865,48.00771092266057,2136.3935959126798,-2.206768432069541,77290.36511228772,10.5,10500077290.365112,47.655,-122.3035,60.0,12.133333333333333
2026-01-20T23:12:09+00:00,SAT-56496,302.1410604160741,47.99478022832747,2134.192712196429,-2.1873925755869243,76611.74065847482,10.5,10500076611.740658,47.655,-122.3035,60.0,12.15
2026-01-20T23:12:10+00:00,SAT-56496,302.42006938750444,47.98095049691066,2132.0111526677106,-2.1679542866903336,75930.9295574357,10.5,10500075930.929558,47.655,-122.3035,60.0,12.166666666666666
2026-01-20T23:12:11+00:00,SAT-56496,302.6994287847094,47.96621828963982,2129.8489795924515,-2.1484538725716815,75247.94256833057,10.5,10500075247.942568,47.655,-122.3035,60.0,12.183333333333334
2026-01-20T23:12:12+00:00,SAT-56496,302.9791238839855,47.950580261963474,2127.706254930207,-2.128891631618737,74562.79014196129,10.5,10500074562.790142,47.655,-122.3035,60.0,12.2
2026-01-20T23:12:13+00:00,SAT-56496,303.259139855111,47.93403316512865,2125.5830403429386,-2.1092678903965005,73875.48371601549,10.5,10500073875.483717,47.655,-122.3035,60.0,12.216666666666667
2026-01-20T23:12:14+00:00,SAT-56496,303.53946176848564,47.91657384743641,2123.4793971669164,-2.0895829585025427,73186.03413390974,10.5,10500073186.034134,47.655,-122.3035,60.0,12.233333333333333
2026-01-20T23:12:15+00:00,SAT-56496,303.82007459608076,47.89819925585581,2121.395386429637,-2.0698371717085164,72494.4531557876,10.5,10500072494.453156,47.655,-122.3035,60.0,12.25
2026-01-20T23:12:16+00:00,SAT-56496,304.1009632185068,47.87890643722026,2119.3310688237193,-2.050030862813752,71800.75243768939,10.5,10500071800.752438,47.655,-122.3035,60.0,12.266666666666667
2026-01-20T23:12:17+00:00,SAT-56496,304.3821124280404,47.858692539664055,2117.2865047098735,-2.030164383568839,71104.94429940867,10.5,10500071104.9443,47.655,-122.3035,60.0,12.283333333333333
2026-01-20T23:12:18+00:00,SAT-56496,304.6635069348521,47.8375548137995,2115.261754097994,-2.0102380683615495,70407.04045261962,10.5,10500070407.040453,47.655,-122.3035,60.0,12.3
2026-01-20T23:12:19+00:00,SAT-56496,304.9451313679732,47.815490614272086,2113.2568766644813,-1.9902522932956026,69707.05407006545,10.5,10500069707.05407,47.655,-122.3035,60.0,12.316666666666666
2026-01-20T23:12:20+00:00,SAT-56496,305.22697028508065,47.79249740059057,2111.2719317106344,-1.9702074121930926,69004.99754409256,10.5,10500069004.997543,47.655,-122.3035,60.0,12.333333333333334
2026-01-20T23:12:21+00:00,SAT-56496,305.5090081728612,47.76857273867345,2109.3069781848735,-1.9501037982187046,68300.8839445067,10.5,10500068300.883944,47.655,-122.3035,60.0,12.35
2026-01-20T23:12:22+00:00,SAT-56496,305.79122945343835,47.743714301893036,2107.3620746634506,-1.9299418389423584,67594.72684564587,10.5,10500067594.726845,47.655,-122.3035,60.0,12.366666666666667
2026-01-20T23:12:23+00:00,SAT-56496,306.0736184905176,47.717919872061515,2105.4372793360785,-1.909721917239548,66886.53965742946,10.5,10500066886.539658,47.655,-122.3035,60.0,12.383333333333333
2026-01-20T23:12:24+00:00,SAT-56496,306.3561595922273,47.691187340712055,2103.5326500106185,-1.8894444231755525,66176.33604159349,10.5,10500066176.336042,47.655,-122.3035,60.0,12.4
2026-01-20T23:12:25+00:00,SAT-56496,306.6388370160996,47.66351471014436,2101.6482441059043,-1.8691097680302688,65464.130402899675,10.5,10500065464.130404,47.655,-122.3035,60.0,12.416666666666666
2026-01-20T23:12:26+00:00,SAT-56496,306.92163497620595,47.634900094211964,2099.784118630589,-1.8487183549970554,64749.936862884926,10.5,10500064749.936863,47.655,-122.3035,60.0,12.433333333333334
2026-01-20T23:12:27+00:00,SAT-56496,307.20453764573347,47.60534171952812,2097.9403301912052,-1.828270602450302,64033.77007479011,10.5,10500064033.770075,47.655,-122.3035,60.0,12.45
2026-01-20T23:12:28+00:00,SAT-56496,307.4875291632134,47.57483792627139,2096.1169349770284,-1.8077669341398406,63315.64488012678,10.5,10500063315.64488,47.655,-122.3035,60.0,12.466666666666667
2026-01-20T23:12:29+00:00,SAT-56496,307.77059363738056,47.54338716907573,2094.3139887547127,-1.7872077831019475,62595.57644565711,10.5,10500062595.576447,47.655,-122.3035,60.0,12.483333333333333
2026-01-20T23:12:30+00:00,SAT-56496,308.0537151524444,47.510988017855034,2092.5315468590325,-1.7665935821647842,61873.57993085415,10.5,10500061873.579931,47.655,-122.3035,60.0,12.5
2026-01-20T23:12:31+00:00,SAT-56496,308.33687777201385,47.47763915872814,2090.769664193087,-1.7459247843839123,61149.67120364008,10.5,10500061149.671204,47.655,-122.3035,60.0,12.516666666666667
2026-01-20T23:12:32+00:00,SAT-56496,308.62006554640004,47.44333939450666,2089.0283952081277,-1.7252018454385782,60423.86622382965,10.5,10500060423.866224,47.655,-122.3035,60.0,12.533333333333333
2026-01-20T23:12:33+00:00,SAT-56496,308.9032625170387,47.40808764546755,2087.307793900944,-1.704425209503457,59696.18054829885,10.5,10500059696.180548,47.655,-122.3035,60.0,12.55
2026-01-20T23:12:34+00:00,SAT-56496,309.1864527181461,47.37188295046686,2085.607913825332,-1.6835953606062946,58966.63112974675,10.5,10500058966.63113,47.655,-122.3035,60.0,12.566666666666666
2026-01-20T23:12:35+00:00,SAT-56496,309.4696201878062,47.3347244667824,2083.9288080523543,-1.6627127720663908,58235.234545817366,10.5,10500058235.234547,47.655,-122.3035,60.0,12.583333333333334
2026-01-20T23:12:36+00:00,SAT-56496,309.7527489698885,47.29661147107822,2082.2705291810134,-1.6417779141539817,57502.00726736363,10.5,10500057502.007267,47.655,-122.3035,60.0,12.6
2026-01-20T23:12:37+00:00,SAT-56496,310.03582311722687,47.25754336020536,2080.6331293412973,-1.620791288042114,56766.966847585594,10.5,10500056766.966848,47.655,-122.3035,60.0,12.616666666666667
2026-01-20T23:12:38+00:00,SAT-56496,310.31882670116596,47.217519651056485,2079.0166601633564,-1.599753387291974,56030.13057308375,10.5,10500056030.130573,47.655,-122.3035,60.0,12.633333333333333
2026-01-20T23:12:39+00:00,SAT-56496,310.60174381399094,47.17653998134931,2077.421172785097,-1.5786647153986644,55291.51607838639,10.5,10500055291.516079,47.655,-122.3035,60.0,12.65
2026-01-20T23:12:40+00:00,SAT-56496,310.884558574486,47.134604109935935,2075.846717842273,-1.5575257768533992,54551.14103290982,10.5,10500054551.141033,47.655,-122.3035,60.0,12.666666666666666
2026-01-20T23:12:41+00:00,SAT-56496,311.16725513181274,47.09171191731357,2074.2933454674912,-1.5363370942684775,53809.02374074738,10.5,10500053809.02374,47.655,-122.3035,60.0,12.683333333333334
2026-01-20T23:12:42+00:00,SAT-56496,311.449817672751,47.0478634055631,2072.761105272141,-1.5150991981640958,53065.18278296048,10.5,10500053065.182783,47.655,-122.3035,60.0,12.7
2026-01-20T23:12:43+00:00,SAT-56496,311.73223042698254,47.00305869851634,2071.250046338505,-1.4938126118068853,52319.63648655997,10.5,10500052319.636486,47.655,-122.3035,60.0,12.716666666666667
2026-01-20T23:12:44+00:00,SAT-56496,312.0144776691094,46.957298042406926,2069.7602172269962,-1.472477870366747,51572.4035954595,10.5,10500051572.403595,47.655,-122.3035,60.0,12.733333333333333
2026-01-20T23:12:45+00:00,SAT-56496,312.2965437246199,46.91058180585031,2068.2916659642838,-1.4510955320989554,50823.50366212025,10.5,10500050823.503662,47.655,-122.3035,60.0,12.75
2026-01-20T23:12:46+00:00,SAT-56496,312.57841297819823,46.86291047934136,2066.8444400202707,-1.429666139941296,50072.95570252006,10.5,10500050072.955702,47.655,-122.3035,60.0,12.766666666666667
2026-01-20T23:12:47+00:00,SAT-56496,312.8600698739587,46.81428467605643,2065.4185863233693,-1.4081902555076145,49320.779386751456,10.5,10500049320.779387,47.655,-122.3035,60.0,12.783333333333333
2026-01-20T23:12:48+00:00,SAT-56496,313.1414989226854,46.76470513142971,2064.0141512418763,-1.386668445393326,48566.994559382554,10.5,10500048566.99456,47.655,-122.3035,60.0,12.8
2026-01-20T23:12:49+00:00,SAT-56496,313.42268470639635,46.714172703102285,2062.6311805790037,-1.3651012794162143,47811.62117784247,10.5,10500047811.621178,47.655,-122.3035,60.0,12.816666666666666
2026-01-20T23:12:50+00:00,SAT-56496,313.7036118820059,46.662688371006496,2061.269719569666,-1.343489339596926,47054.67962695621,10.5,10500047054.679626,47.655,-122.3035,60.0,12.833333333333334
2026-01-20T23:12:51+00:00,SAT-56496,313.98426518751853,46.610253236900135,2059.929812868308,-1.3218332101315458,46296.19036774177,10.5,10500046296.190369,47.655,-122.3035,60.0,12.85
2026-01-20T23:12:52+00:00,SAT-56496,314.2646294453139,46.55686852440233,2058.6115045467373,-1.300133487065044,45536.17427621532,10.5,10500045536.174276,47.655,-122.3035,60.0,12.866666666666667
2026-01-20T23:12:53+00:00,SAT-56496,314.5446895682,46.50253557842088,2057.314838082304,-1.2783907634985314,44774.65212528656,10.5,10500044774.652124,47.655,-122.3035,60.0,12.883333333333333
2026-01-20T23:12:54+00:00,SAT-56496,314.82443056138095,46.447255865331,2056.0398563608414,-1.2566056475507568,44011.645213846394,10.5,10500044011.645214,47.655,-122.3035,60.0,12.9
2026-01-20T23:12:55+00:00,SAT-56496,315.1038375290591,46.39103097217388,2054.786601661684,-1.2347787538934554,43247.17507029907,10.5,10500043247.17507,47.655,-122.3035,60.0,12.916666666666666
2026-01-20T23:12:56+00:00,SAT-56496,315.38289567870146,46.33386260624947,2053.5551156511347,-1.212910694651673,42481.26313385298,10.5,10500042481.263134,47.655,-122.3035,60.0,12.933333333333334
2026-01-20T23:12:57+00:00,SAT-56496,315.6615903231172,46.275752595100656,2052.345439385002,-1.1910020979423535,41713.93140382041,10.5,10500041713.931404,47.655,-122.3035,60.0,12.95
2026-01-20T23:12:58+00:00,SAT-56496,315.9399068869907,46.21670288551876,2051.157613292654,-1.1690535947645535,40945.20198045747,10.5,10500040945.20198,47.655,-122.3035,60.0,12.966666666666667
2026-01-20T23:12:59+00:00,SAT-56496,316.2178309102444,46.15671554313111,2049.9916771741423,-1.1470658148119688,40175.096918300966,10.5,10500040175.096918,47.655,-122.3035,60.0,12.983333333333333
2026-01-20T23:13:00+00:00,SAT-56496,316.49534804980885,46.09579275229916,2048.847670201503,-1.1250394106377648,39403.63907252307,10.5,10500039403.639072,47.655,-122.3035,60.0,13.0
2026-01-20T23:13:01+00:00,SAT-56496,316.77244408837305,46.03393681439701,2047.7256308959604,-1.1029750239687566,38630.85091911133,10.5,10500038630.85092,47.655,-122.3035,60.0,13.016666666666667
2026-01-20T23:13:02+00:00,SAT-56496,317.0491049333034,45.971150148212345,2046.6255971387222,-1.0808733115936138,37856.755461583176,10.5,10500037856.75546,47.655,-122.3035,60.0,13.033333333333333
2026-01-20T23:13:03+00:00,SAT-56496,317.3253166230288,45.90743528862117,2045.5476061559593,-1.0587349295577344,37081.375677423515,10.5,10500037081.375677,47.655,-122.3035,60.0,13.05
2026-01-20T23:13:04+00:00,SAT-56496,317.60106532871276,45.84279488626193,2044.4916945195473,-1.036560551384449,36304.73515626838,10.5,10500036304.735157,47.655,-122.3035,60.0,13.066666666666666
2026-01-20T23:13:05+00:00,SAT-56496,317.87633736135535,45.777231705870776,2043.4578981296331,-1.0143508415172329,35526.85716973889,10.5,10500035526.85717,47.655,-122.3035,60.0,13.083333333333334
2026-01-20T23:13:06+00:00,SAT-56496,318.15111917064314,45.71074862651217,2042.4462522236934,-0.9921064776933209,34747.76545505981,10.5,10500034747.765455,47.655,-122.3035,60.0,13.1
2026-01-20T23:13:07+00:00,SAT-56496,318.42539735066515,45.643348640115725,2041.456791363274,-0.969828145983481,33967.484041331525,10.5,10500033967.484041,47.655,-122.3035,60.0,13.116666666666667
2026-01-20T23:13:08+00:00,SAT-56496,318.69915864404294,45.575034850298856,2040.4895494256798,-0.9475165309447487,33186.036904637076,10.5,10500033186.036905,47.655,-122.3035,60.0,13.133333333333333
2026-01-20T23:13:09+00:00,SAT-56496,318.97238994291763,45.50581047191642,2039.5445596054842,-0.925172327343278,32403.448378626057,10.5,10500032403.44838,47.655,-122.3035,60.0,13.15
2026-01-20T23:13:10+00:00,SAT-56496,319.2450782933205,45.435678829706646,2038.621854404347,-0.9027962308635764,31619.74282911264,10.5,10500031619.742828,47.655,-122.3035,60.0,13.166666666666666
2026-01-20T23:13:11+00:00,SAT-56496,319.5172108969383,45.364643357521146,2037.7214656300991,-0.8803889464875237,30834.944947544343,10.5,10500030834.944948,47.655,-122.3035,60.0,13.183333333333334
2026-01-20T23:13:12+00:00,SAT-56496,319.78877511501764,45.292707596955935,2036.843424387469,-0.857951182874732,30049.079554178395,10.5,10500030049.079554,47.655,-122.3035,60.0,13.2
2026-01-20T23:13:13+00:00,SAT-56496,320.0597584708296,45.21987519626713,2035.9877610744152,-0.8354836547496538,29262.17168168842,10.5,10500029262.171682,47.655,-122.3035,60.0,13.216666666666667
2026-01-20T23:13:14+00:00,SAT-56496,320.3301486526848,45.14614990908214,2035.154505376078,-0.812987072227443,28474.246201310878,10.5,10500028474.2462,47.655,-122.3035,60.0,13.233333333333333
2026-01-20T23:13:15+00:00,SAT-56496,320.5999335126527,45.07153559424436,2034.3436862693766,-0.7904621680776571,27685.328777735293,10.5,10500027685.328777,47.655,-122.3035,60.0,13.25
2026-01-20T23:13:16+00:00,SAT-56496,320.86910107589057,44.996036212651575,2033.555332000414,-0.7679096616879195,26895.44460695924,10.5,10500026895.444607,47.655,-122.3035,60.0,13.266666666666667
2026-01-20T23:13:17+00:00,SAT-56496,321.1376395358989,44.91965582793478,2032.7894700978238,-0.7453302903237545,26104.619511140012,10.5,10500026104.61951,47.655,-122.3035,60.0,13.283333333333333
2026-01-20T23:13:18+00:00,SAT-56496,321.4055372619629,44.842398603667505,2032.0461273549408,-0.7227247838614245,25312.879053631685,10.5,10500025312.879053,47.655,-122.3035,60.0,13.3
2026-01-20T23:13:19+00:00,SAT-56496,321.672782796323,44.76426880343425,2031.3253298371696,-0.7000938878316321,24520.249346073066,10.5,10500024520.249346,47.655,-122.3035,60.0,13.316666666666666
2026-01-20T23:13:20+00:00,SAT-56496,321.9393648608927,44.685270788080324,2030.6271028663723,-0.6774383443709332,23726.756381225572,10.5,10500023726.756382,47.655,-122.3035,60.0,13.333333333333334
2026-01-20T23:13:21+00:00,SAT-56496,322.20527235583097,44.60540901526819,2029.9514710242531,-0.6547589006708929,22932.426328898426,10.5,10500022932.426329,47.655,-122.3035,60.0,13.35
2026-01-20T23:13:22+00:00,SAT-56496,322.4704943614294,44.524688038023356,2029.2984581473174,-0.6320563110607678,22137.285608893006,10.5,10500022137.285608,47.655,-122.3035,60.0,13.366666666666667
2026-01-20T23:13:23+00:00,SAT-56496,322.7350201415339,44.443112502731765,2028.6680873197527,-0.6093313311815298,21341.360686952514,10.5,10500021341.360687,47.655,-122.3035,60.0,13.383333333333333
2026-01-20T23:13:24+00:00,SAT-56496,322.9988391435878,44.3606871481064,2028.0603808721212,-0.5865847206819726,20544.67816919101,10.5,10500020544.67817,47.655,-122.3035,60.0,13.4
2026-01-20T23:13:25+00:00,SAT-56496,323.26194100022167,44.27741680363527,2027.4753603773609,-0.5638172403132178,19747.264700330743,10.5,10500019747.2647,47.655,-122.3035,60.0,13.416666666666666
2026-01-20T23:13:26+00:00,SAT-56496,323.5243155288817,44.193306388590855,2026.9130466496883,-0.5410296611262234,18949.147285837815,10.5,10500018949.147285,47.655,-122.3035,60.0,13.433333333333334
2026-01-20T23:13:27+00:00,SAT-56496,323.7859527372893,44.1083609091133,2026.3734597343253,-0.5182227504200149,18150.352799769753,10.5,10500018150.3528,47.655,-122.3035,60.0,13.45
2026-01-20T23:13:28+00:00,SAT-56496,324.04684281987704,44.02258545813215,2025.8566189112398,-0.49539728228724556,17350.9083541257,10.5,10500017350.908354,47.655,-122.3035,60.0,13.466666666666667
2026-01-20T23:13:29+00:00,SAT-56496,324.3069761612292,43.93598521298136,2025.3625426883718,-0.4725540323556459,16550.841114669678,10.5,10500016550.841114,47.655,-122.3035,60.0,13.483333333333333
2026-01-20T23:13:30+00:00,SAT-56496,324.5663433354989,43.848565434273176,2024.8912488001026,-0.44969378037105207,15750.178391399182,10.5,10500015750.17839,47.655,-122.3035,60.0,13.5
2026-01-20T23:13:31+00:00,SAT-56496,324.82493510825344,43.760331463907676,2024.4427542031458,-0.4268173091570788,14948.947602108547,10.5,10500014948.947601,47.655,-122.3035,60.0,13.516666666666667
2026-01-20T23:13:32+00:00,SAT-56496,325.08274243703875,43.671288723457906,2024.0170750734799,-0.4039254024300285,14147.1761958578,10.5,10500014147.176195,47.655,-122.3035,60.0,13.533333333333333
2026-01-20T23:13:33+00:00,SAT-56496,325.33975647101386,43.58144271281896,2023.6142268054562,-0.3810188477707073,13344.891757058236,10.5,10500013344.891758,47.655,-122.3035,60.0,13.55
2026-01-20T23:13:34+00:00,SAT-56496,325.59596855128893,43.49079900859475,2023.2342240079463,-0.3580984353249061,12542.12195995776,10.5,10500012542.12196,47.655,-122.3035,60.0,13.566666666666666
2026-01-20T23:13:35+00:00,SAT-56496,325.85137021238194,43.39936326201395,2022.8770805017823,-0.3351649571101893,11738.89454436171,10.5,10500011738.894545,47.655,-122.3035,60.0,13.583333333333334
2026-01-20T23:13:36+00:00,SAT-56496,326.1059531814813,43.30714119757754,2022.542809317891,-0.31221920739401016,10935.237328876054,10.5,10500010935.23733,47.655,-122.3035,60.0,13.6
2026-01-20T23:13:37+00:00,SAT-56496,326.35970937901817,43.21413861120187,2022.23142269505,-0.2892619821171356,10131.178190713272,10.5,10500010131.17819,47.655,-122.3035,60.0,13.616666666666667
2026-01-20T23:13:38+00:00,SAT-56496,326.61263091731803,43.12036136901903,2021.9429320782185,-0.26629408045896313,9326.745120516385,10.5,10500009326.745121,47.655,-122.3035,60.0,13.633333333333333
2026-01-20T23:13:39+00:00,SAT-56496,326.86471010360236,43.02581540451397,2021.6773481153075,-0.24331630169240245,8521.966112203616,10.5,10500008521.966112,47.655,-122.3035,60.0,13.65
2026-01-20T23:13:40+00:00,SAT-56496,327.11593943651303,42.93050671803376,2021.4346806570861,-0.22032944771277738,7716.8692515412195,10.5,10500007716.869251,47.655,-122.3035,60.0,13.666666666666666
2026-01-20T23:13:41+00:00,SAT-56496,327.36631160714165,42.83444137457999,2021.2149387545674,-0.19733432161404815,6911.482666276766,10.5,10500006911.482666,47.655,-122.3035,60.0,13.683333333333334
2026-01-20T23:13:42+00:00,SAT-56496,327.615819498487,42.73762550215139,2021.0181306578108,-0.17433172831290505,6105.834547997546,10.5,10500006105.834549,47.655,-122.3035,60.0,13.7
2026-01-20T23:13:43+00:00,SAT-56496,327.8644561860512,42.64006528959388,2020.8442638141069,-0.15132247335318164,5299.953110256053,10.5,10500005299.95311,47.655,-122.3035,60.0,13.716666666666667
2026-01-20T23:13:44+00:00,SAT-56496,328.1122149362585,42.54176698526471,2020.6933448673494,-0.12830736361787054,4493.866613507805,10.5,10500004493.866613,47.655,-122.3035,60.0,13.733333333333333
2026-01-20T23:13:45+00:00,SAT-56496,328.3590892058277,42.44273689529361,2020.5653796567012,-0.10528720721096241,3687.6033609728274,10.5,10500003687.603361,47.655,-122.3035,60.0,13.75
2026-01-20T23:13:46+00:00,SAT-56496,328.6050726408812,42.34298138192513,2020.460373215376,-0.082262812863591,2881.1916778363566,10.5,10500002881.191677,47.655,-122.3035,60.0,13.766666666666667
2026-01-20T23:13:47+00:00,SAT-56496,328.85015907702905,42.242506861420125,2020.3783297700134,-0.05923498955464731,2074.6598979611313,10.5,10500002074.659899,47.655,-122.3035,60.0,13.783333333333333
2026-01-20T23:13:48+00:00,SAT-56496,329.0943425387398,42.14131980220454,2020.3192527404308,-0.03620454805144767,1268.0364178481118,10.5,10500001268.036417,47.655,-122.3035,60.0,13.8
2026-01-20T23:13:49+00:00,SAT-56496,329.33761723629084,42.039426724006496,2020.2831447378408,-0.013172297742508155,461.34958570684137,10.5,10500000461.349586,47.655,-122.3035,60.0,13.816666666666666
2026-01-20T23:13:50+00:00,SAT-56496,329.5799775679741,41.93683419477128,2020.2700075662258,0.009860949798818361,-345.37217373091084,10.5,10499999654.627827,47.655,-122.3035,60.0,13.833333333333334
2026-01-20T23:13:51+00:00,SAT-56496,329.82141811606294,41.83354883015987,2020.2798422201586,0.03289438395590272,-1152.1004692418865,10.5,10499998847.89953,47.655,-122.3035,60.0,13.85
2026-01-20T23:13:52+00:00,SAT-56496,330.0619336469889,41.72957729125951,2020.3126488857572,0.055927194189873373,-1958.806912326228,10.5,10499998041.193089,47.655,-122.3035,60.0,13.866666666666667
2026-01-20T23:13:53+00:00,SAT-56496,330.3015191109459,41.62492628249104,2020.3684269407624,0.0789585702388386,-2765.4631241850825,10.5,10499997234.536877,47.655,-122.3035,60.0,13.883333333333333
2026-01-20T23:13:54+00:00,SAT-56496,330.5401696398342,41.519602550207836,2020.447174954814,0.10198770067987852,-3572.0406853554814,10.5,10499996427.959314,47.655,-122.3035,60.0,13.9
2026-01-20T23:13:55+00:00,SAT-56496,330.77788054510404,41.41361288134048,2020.548890688292,0.12501377556264012,-4378.511227949974,10.5,10499995621.488771,47.655,-122.3035,60.0,13.916666666666666
2026-01-20T23:13:56+00:00,SAT-56496,331.01464731724104,41.30696410129591,2020.6735710937864,0.14803598647159408,-5184.846437837131,10.5,10499994815.153563,47.655,-122.3035,60.0,13.933333333333334
2026-01-20T23:13:57+00:00,SAT-56496,331.2504656253358,41.199663071774275,2020.8212123176277,0.17105352358903264,-5991.0179517753,10.5,10499994008.982048,47.655,-122.3035,60.0,13.95
2026-01-20T23:13:58+00:00,SAT-56496,331.48533131358823,41.0917166899678,2020.991809698487,0.19406558052315767,-6796.997526512677,10.5,10499993203.002474,47.655,-122.3035,60.0,13.966666666666667
2026-01-20T23:13:59+00:00,SAT-56496,331.71924040198684,40.983131885834666,2021.1853577707955,0.21707134744685935,-7602.756798478311,10.5,10499992397.243202,47.655,-122.3035,60.0,13.983333333333333
2026-01-20T23:14:00+00:00,SAT-56496,331.95218908152435,40.87391562189181,2021.4018502613158,0.24007002099987046,-8408.267630597431,10.5,10499991591.732368,47.655,-122.3035,60.0,14.0
2026-01-20T23:14:01+00:00,SAT-56496,332.1841737163785,40.764074889743625,2021.6412800955932,0.2630607958693432,-9213.501817407641,10.5,10499990786.498182,47.655,-122.3035,60.0,14.016666666666667
2026-01-20T23:14:02+00:00,SAT-56496,332.41519083984844,40.65361670951603,2021.9036393960066,0.2860428692555768,-10018.431241467577,10.5,10499989981.568758,47.655,-122.3035,60.0,14.033333333333333
2026-01-20T23:14:03+00:00,SAT-56496,332.6452371536146,40.54254812772436,2022.1889194842774,0.30901543804961856,-10823.027774504571,10.5,10499989176.972225,47.655,-122.3035,60.0,14.05
2026-01-20T23:14:04+00:00,SAT-56496,332.87430952462483,40.430876216261275,2022.4971108811592,0.33197770287259487,-11627.263418889097,10.5,10499988372.736582,47.655,-122.3035,60.0,14.066666666666666
2026-01-20T23:14:05+00:00,SAT-56496,333.10240498505607,40.31860806991569,2022.8282033101575,0.3549288657203666,-12431.11022514065,10.5,10499987568.889774,47.655,-122.3035,60.0,14.083333333333334
2026-01-20T23:14:06+00:00,SAT-56496,333.3295207295306,40.20575080517719,2023.1821856989025,0.377868129568134,-13234.540278079334,10.5,10499986765.459723,47.655,-122.3035,60.0,14.1
2026-01-20T23:14:07+00:00,SAT-56496,333.5556541134084,40.092311558547074,2023.559046180125,0.40079469982978994,-14037.525747938575,10.5,10499985962.474253,47.655,-122.3035,60.0,14.116666666666667
