satellites_20260120_184412/SAT-55776.csv

timestamp,satellite,azimuth_deg,elevation_deg,distance_km,relative_velocity_kms,doppler_shift_hz,tx_freq_ghz,rx_freq_hz,ue_lat,ue_lon,ue_alt_m,time_minutes
2026-01-20T23:00:00+00:00,SAT-55776,34.2553591072183,64.35014606681227,422797.63107287354,171.33516596577485,-6000882.259154885,10.5,10493999117.740845,47.655,-122.3035,60.0,0.0
2026-01-20T23:00:01+00:00,SAT-55776,30.853667957753853,63.10284092351278,422968.5093450634,177.2573857697834,-6208303.4476561975,10.5,10493791696.552343,47.655,-122.3035,60.0,0.016666666666666666
2026-01-20T23:00:02+00:00,SAT-55776,27.74094759604502,61.78176301812659,423145.2940444712,182.9705583838168,-6408402.919295843,10.5,10493591597.080704,47.655,-122.3035,60.0,0.03333333333333333
2026-01-20T23:00:03+00:00,SAT-55776,24.89164931246727,60.39704682819917,423327.7766813659,188.46833030844275,-6600958.147648427,10.5,10493399041.852352,47.655,-122.3035,60.0,0.05
2026-01-20T23:00:04+00:00,SAT-55776,22.28024882202748,58.95746595547164,423515.7424294602,193.7446365127618,-6785756.709676795,10.5,10493214243.290323,47.655,-122.3035,60.0,0.06666666666666667
2026-01-20T23:00:05+00:00,SAT-55776,19.882346388822906,57.4705608563171,423708.97041360894,198.79370423859112,-6962596.418970642,10.5,10493037403.58103,47.655,-122.3035,60.0,0.08333333333333333
2026-01-20T23:00:06+00:00,SAT-55776,17.675275407778447,55.94278473382033,423907.2340013029,203.61005886543415,-7131285.531162557,10.5,10492868714.468838,47.655,-122.3035,60.0,0.1
2026-01-20T23:00:07+00:00,SAT-55776,15.638376998823906,54.379649371520685,424110.30110001133,208.18852927546004,-7291642.931832296,10.5,10492708357.068169,47.655,-122.3035,60.0,0.11666666666666667
2026-01-20T23:00:08+00:00,SAT-55776,13.753061167851866,52.785861029132306,424317.9344598754,212.52425254330697,-7443498.300763534,10.5,10492556501.699236,47.655,-122.3035,60.0,0.13333333333333333
2026-01-20T23:00:09+00:00,SAT-55776,12.00274034474657,51.16544189386349,424529.8919810786,216.6126770774494,-7586692.221967834,10.5,10492413307.778032,47.655,-122.3035,60.0,0.15
2026-01-20T23:00:10+00:00,SAT-55776,10.372693209198307,49.521835804274026,424745.9270243505,220.4495664414252,-7721076.317520184,10.5,10492278923.68248,47.655,-122.3035,60.0,0.16666666666666666
2026-01-20T23:00:11+00:00,SAT-55776,8.849896133965995,47.85799872164703,424965.7887252814,224.0310013966679,-7846513.319107624,10.5,10492153486.680893,47.655,-122.3035,60.0,0.18333333333333332
2026-01-20T23:00:12+00:00,SAT-55776,7.422845272567185,46.176475313509826,425189.2223106744,227.3533844797697,-7962877.228344355,10.5,10492037122.771656,47.655,-122.3035,60.0,0.2
2026-01-20T23:00:13+00:00,SAT-55776,6.08138271220161,44.479463317695085,425415.9694194622,230.41343944108124,-8070053.297109139,10.5,10491929946.70289,47.655,-122.3035,60.0,0.21666666666666667
2026-01-20T23:00:14+00:00,SAT-55776,4.8165339764479755,42.76886745206224,425645.7684230648,233.20821349473528,-8167938.106350629,10.5,10491832061.89365,47.655,-122.3035,60.0,0.23333333333333334
2026-01-20T23:00:15+00:00,SAT-55776,3.6203602368619534,41.046344462499036,425878.3547479902,235.73507817245542,-8256439.595991378,10.5,10491743560.404009,47.655,-122.3035,60.0,0.25
2026-01-20T23:02:35+00:00,SAT-55776,147.06316624878403,41.09786868797398,421423.40470759233,-77.7954711973089,2724726.4758466454,10.5,10502724726.475847,47.655,-122.3035,60.0,2.5833333333333335
2026-01-20T23:02:36+00:00,SAT-55776,145.84799299011752,42.844130149605434,421345.8166909849,-69.76090156601919,2443321.8611630364,10.5,10502443321.861162,47.655,-122.3035,60.0,2.6
2026-01-20T23:02:37+00:00,SAT-55776,144.56251972457892,44.57723193825678,421276.24181848974,-61.64214192995714,2158968.5563889337,10.5,10502158968.556389,47.655,-122.3035,60.0,2.6166666666666667
2026-01-20T23:02:38+00:00,SAT-55776,143.19856157158307,46.295429939598115,421214.7640556049,-53.44895862094152,1872008.6197761719,10.5,10501872008.619776,47.655,-122.3035,60.0,2.6333333333333333
2026-01-20T23:02:39+00:00,SAT-55776,141.74686392269828,47.99672372809268,421161.4576275403,-45.19122103665424,1582787.719379083,10.5,10501582787.71938,47.655,-122.3035,60.0,2.65
2026-01-20T23:02:40+00:00,SAT-55776,140.1969507452431,49.67880969803969,421116.38691642636,-36.87888786793342,1291654.6506760386,10.5,10501291654.650677,47.655,-122.3035,60.0,2.6666666666666665
2026-01-20T23:02:41+00:00,SAT-55776,138.5369586738034,51.3390250069983,421079.60637225944,-28.521992538155065,998960.8265950045,10.5,10500998960.826595,47.655,-122.3035,60.0,2.683333333333333
2026-01-20T23:02:42+00:00,SAT-55776,136.75346104812567,52.974280665906456,421051.16043836804,-20.130629352073207,705059.7923873345,10.5,10500705059.792387,47.655,-122.3035,60.0,2.7
2026-01-20T23:02:43+00:00,SAT-55776,134.8312903412692,54.58098208957618,421031.08349069423,-11.714938334054896,410306.6945986226,10.5,10500410306.6946,47.655,-122.3035,60.0,2.716666666666667
2026-01-20T23:02:44+00:00,SAT-55776,132.75337441450608,56.15493542391634,421019.39979219576,-3.28509101080697,115057.78311965802,10.5,10500115057.78312,47.655,-122.3035,60.0,2.7333333333333334
2026-01-20T23:02:45+00:00,SAT-55776,130.50061251585402,57.69123851824414,421016.12346142763,5.148724433780283,-180330.10875374646,10.5,10499819669.891247,47.655,-122.3035,60.0,2.75
2026-01-20T23:02:46+00:00,SAT-55776,128.05183275145143,59.18415637184991,421021.2584559296,13.576317780595627,-475500.07644373126,10.5,10499524499.923555,47.655,-122.3035,60.0,2.7666666666666666
2026-01-20T23:02:47+00:00,SAT-55776,125.38389493834357,60.62698304336395,421034.7985701961,21.987511534984733,-770095.6610367419,10.5,10499229904.338963,47.655,-122.3035,60.0,2.783333333333333
2026-01-20T23:02:48+00:00,SAT-55776,122.47203262010497,62.01189559604846,421056.727448367,30.372155481253607,-1063761.3590438052,10.5,10498936238.640957,47.655,-122.3035,60.0,2.8
2026-01-20T23:02:49+00:00,SAT-55776,119.29056394256315,63.32981174551267,421087.0186114336,38.72014138230334,-1356143.1372439163,10.5,10498643856.862757,47.655,-122.3035,60.0,2.816666666666667
2026-01-20T23:02:50+00:00,SAT-55776,115.81413738538605,64.57027198171862,421125.63549910556,47.02141732245389,-1646888.9350303998,10.5,10498353111.06497,47.655,-122.3035,60.0,2.8333333333333335
2026-01-20T23:02:51+00:00,SAT-55776,112.01969951843907,65.72137960334177,421172.53152598185,55.26600220749894,-1935649.1722641631,10.5,10498064350.827736,47.655,-122.3035,60.0,2.85
2026-01-20T23:02:52+00:00,SAT-55776,107.88934802446713,66.769847504377,421227.6501521835,63.44399944081033,-2222077.2282687263,10.5,10497777922.77173,47.655,-122.3035,60.0,2.8666666666666667
2026-01-20T23:02:53+00:00,SAT-55776,103.41411786342664,67.70121511042694,421290.92496762576,71.54561169134266,-2505829.9590682094,10.5,10497494170.040932,47.655,-122.3035,60.0,2.8833333333333333
2026-01-20T23:02:54+00:00,SAT-55776,98.59848883165978,68.50030482693849,421362.2797910193,79.56115369107866,-2786568.1456080056,10.5,10497213431.854391,47.655,-122.3035,60.0,2.9
2026-01-20T23:02:55+00:00,SAT-55776,93.46497878565533,69.15197184296908,421441.62878163386,87.4810666135666,-3063956.997351979,10.5,10496936043.002647,47.655,-122.3035,60.0,2.9166666666666665
2026-01-20T23:02:56+00:00,SAT-55776,88.05767771191387,69.64215041629303,421528.87656540313,95.29593001293776,-3337666.5704373606,10.5,10496662333.429564,47.655,-122.3035,60.0,2.933333333333333
2026-01-20T23:02:57+00:00,SAT-55776,82.44322943733204,69.95910912048366,421623.918372936,102.99647619223079,-3607372.2709142445,10.5,10496392627.729086,47.655,-122.3035,60.0,2.95
2026-01-20T23:02:58+00:00,SAT-55776,76.70794673932357,70.09471724830895,421726.6401918584,110.57360143327566,-3872755.248063627,10.5,10496127244.751936,47.655,-122.3035,60.0,2.966666666666667
2026-01-20T23:02:59+00:00,SAT-55776,70.95070102847991,70.04544535258493,421836.91893035447,118.01837892632533,-4133502.8472477985,10.5,10495866497.152752,47.655,-122.3035,60.0,2.9833333333333334
2026-01-20T23:03:00+00:00,SAT-55776,65.27273950744318,69.81283547873639,421954.6225936037,125.32206962894733,-4389308.990234661,10.5,10495610691.009766,47.655,-122.3035,60.0,3.0
2026-01-20T23:03:01+00:00,SAT-55776,59.766890143475486,69.40330412590575,422079.610471047,132.4761349762345,-4639874.6203630725,10.5,10495360125.379637,47.655,-122.3035,60.0,3.0166666666666666
2026-01-20T23:03:02+00:00,SAT-55776,54.5088922847533,68.82733552911384,422211.7333363299,139.47224659861726,-4884908.042901738,10.5,10495115091.957098,47.655,-122.3035,60.0,3.033333333333333
2026-01-20T23:03:03+00:00,SAT-55776,49.55265055900594,68.09828881532744,422350.8336569376,146.30229685855255,-5124125.294088625,10.5,10494875874.705912,47.655,-122.3035,60.0,3.05
2026-01-20T23:03:04+00:00,SAT-55776,44.92967185147877,67.2311050307031,422496.74581433786,152.95841008834424,-5357250.534726976,10.5,10494642749.465273,47.655,-122.3035,60.0,3.066666666666667
2026-01-20T23:03:05+00:00,SAT-55776,40.65168705400539,66.24115330735997,422649.2963353326,159.43295036530395,-5584016.322504322,10.5,10494415983.677496,47.655,-122.3035,60.0,3.0833333333333335
2026-01-20T23:03:06+00:00,SAT-55776,36.714955661433486,65.14335052166228,422808.30413116363,165.71853202924925,-5804163.980359763,10.5,10494195836.01964,47.655,-122.3035,60.0,3.1
2026-01-20T23:03:07+00:00,SAT-55776,33.104917979371606,63.95158523742145,422973.5807471075,171.80802686256757,-6017443.847960176,10.5,10493982556.15204,47.655,-122.3035,60.0,3.1166666666666667
2026-01-20T23:03:08+00:00,SAT-55776,29.800339799452292,62.67840840152073,423144.9306192318,177.69457376353316,-6223615.620500693,10.5,10493776384.3795,47.655,-122.3035,60.0,3.1333333333333333
2026-01-20T23:03:09+00:00,SAT-55776,26.776573526418655,61.33492421510636,423322.15134079853,183.37158471048127,-6422448.5575953135,10.5,10493577551.442404,47.655,-122.3035,60.0,3.15
2026-01-20T23:03:10+00:00,SAT-55776,24.007891944564037,59.930813315393706,423505.0339346165,188.83275295076587,-6613721.770088831,10.5,10493386278.229912,47.655,-122.3035,60.0,3.1666666666666665
2026-01-20T23:03:11+00:00,SAT-55776,21.469022451533224,58.474432608890304,423693.3631335594,194.0720580760613,-6797224.397815384,10.5,10493202775.602184,47.655,-122.3035,60.0,3.183333333333333
2026-01-20T23:03:12+00:00,SAT-55776,19.13606654032007,56.972951900278794,423886.91766614723,199.08377360685574,-6972755.87523948,10.5,10493027244.12476,47.655,-122.3035,60.0,3.2
2026-01-20T23:03:13+00:00,SAT-55776,16.98698282077179,55.43250151503308,424085.4705496911,203.86247159176648,-7140126.092543489,10.5,10492859873.907457,47.655,-122.3035,60.0,3.216666666666667
2026-01-20T23:03:14+00:00,SAT-55776,15.001779595683976,53.85831582938102,424288.78938802535,208.40302693727992,-7299155.5472734375,10.5,10492700844.452726,47.655,-122.3035,60.0,3.2333333333333334
2026-01-20T23:03:15+00:00,SAT-55776,13.162525671778523,52.25486487901857,424496.63667355746,212.70062227944035,-7449675.514966168,10.5,10492550324.485033,47.655,-122.3035,60.0,3.25
2026-01-20T23:03:16+00:00,SAT-55776,11.453255282474169,50.625970791757304,424708.7700941775,216.75075295988276,-7591528.2234310545,10.5,10492408471.77657,47.655,-122.3035,60.0,3.2666666666666666
2026-01-20T23:03:17+00:00,SAT-55776,9.859817534286412,48.974908466969914,424924.94284512947,220.54922800733914,-7724566.887126497,10.5,10492275433.112873,47.655,-122.3035,60.0,3.283333333333333
2026-01-20T23:03:18+00:00,SAT-55776,8.369702436243207,47.30449138316405,425144.90394186217,224.0921744092218,-7848655.856768848,10.5,10492151344.14323,47.655,-122.3035,60.0,3.3
2026-01-20T23:03:19+00:00,SAT-55776,6.97186289872112,45.6171440201273,425368.3985371396,227.3760396465747,-7963670.708117128,10.5,10492036329.291883,47.655,-122.3035,60.0,3.316666666666667
2026-01-20T23:03:20+00:00,SAT-55776,5.656543801610233,43.91496263762838,425595.1682406805,230.3975927307441,-8069498.278281614,10.5,10491930501.721718,47.655,-122.3035,60.0,3.3333333333333335
2026-01-20T23:03:21+00:00,SAT-55776,4.415123898771984,42.19976612606524,425824.9514398306,233.15392605170476,-8166036.730460044,10.5,10491833963.26954,47.655,-122.3035,60.0,3.35
2026-01-20T23:03:22+00:00,SAT-55776,3.2399730192786578,40.47313848516673,426057.4836220795,235.64245495782347,-8253195.539219157,10.5,10491746804.460781,47.655,-122.3035,60.0,3.3666666666666667
2026-01-20T23:05:42+00:00,SAT-55776,146.65553746854917,41.71520468393466,421568.73358098837,-76.5073489636262,2679610.986471431,10.5,10502679610.986471,47.655,-122.3035,60.0,5.7
2026-01-20T23:05:43+00:00,SAT-55776,145.41651379445747,43.45719269210826,421492.430251622,-68.47253972120608,2398197.9795924816,10.5,10502398197.979593,47.655,-122.3035,60.0,5.716666666666667
2026-01-20T23:05:44+00:00,SAT-55776,144.1044127128908,45.18544264474889,421424.14030534,-60.35508795223989,2113890.4818563475,10.5,10502113890.481857,47.655,-122.3035,60.0,5.733333333333333
2026-01-20T23:05:45+00:00,SAT-55776,142.71068590542126,46.89812500074397,421363.94616428897,-52.16476164496883,1827030.6095297858,10.5,10501827030.60953,47.655,-122.3035,60.0,5.75
2026-01-20T23:05:46+00:00,SAT-55776,141.2256628745922,48.59313825046176,421311.92050867504,-43.911429825366916,1537964.0176483446,10.5,10501537964.017649,47.655,-122.3035,60.0,5.766666666666667
2026-01-20T23:05:47+00:00,SAT-55776,139.63839376335156,50.26805895946484,421268.12617599586,-35.60504844909041,1247039.405892757,10.5,10501247039.405893,47.655,-122.3035,60.0,5.783333333333333
2026-01-20T23:05:48+00:00,SAT-55776,137.93647900593,51.92008204273241,421232.6160743427,-27.255645919247243,954608.0113599658,10.5,10500954608.01136,47.655,-122.3035,60.0,5.8
2026-01-20T23:05:49+00:00,SAT-55776,136.1058912546465,53.545949568071975,421205.43311014585,-18.87330920531324,661023.1223888529,10.5,10500661023.122389,47.655,-122.3035,60.0,5.816666666666666
2026-01-20T23:05:50+00:00,SAT-55776,134.13080011240484,55.141866401232576,421186.6101297651,-10.468168798591012,366639.5516367714,10.5,10500366639.551638,47.655,-122.3035,60.0,5.833333333333333
2026-01-20T23:05:51+00:00,SAT-55776,131.99341834482826,56.70340111838333,421176.1698760833,-2.050384380379924,71813.13411823456,10.5,10500071813.134119,47.655,-122.3035,60.0,5.85
2026-01-20T23:05:52+00:00,SAT-55776,129.67390039776717,58.22537131654942,421174.12495939457,6.369869893921646,-223099.78820807187,10.5,10499776900.211792,47.655,-122.3035,60.0,5.866666666666666
2026-01-20T23:05:53+00:00,SAT-55776,127.15034200000477,59.70171375731805,421180.47784296883,14.78242006888557,-517742.880387266,10.5,10499482257.119614,47.655,-122.3035,60.0,5.883333333333334
2026-01-20T23:05:54+00:00,SAT-55776,124.39895451377552,61.12534237603079,421195.2208432508,23.177107074442286,-811760.3288126881,10.5,10499188239.671186,47.655,-122.3035,60.0,5.9
2026-01-20T23:05:55+00:00,SAT-55776,121.39452008025188,62.48800156969111,421218.3361447064,31.54380134530628,-1104797.3532600207,10.5,10498895202.64674,47.655,-122.3035,60.0,5.916666666666667
2026-01-20T23:05:56+00:00,SAT-55776,118.1112708212148,63.78012925327401,421249.79582924815,39.87241717544418,-1396500.709641481,10.5,10498603499.290358,47.655,-122.3035,60.0,5.933333333333334
2026-01-20T23:05:57+00:00,SAT-55776,114.52436884758129,64.990754546376,421289.5619199778,48.15292753233141,-1686519.208863753,10.5,10498313480.791136,47.655,-122.3035,60.0,5.95
2026-01-20T23:05:58+00:00,SAT-55776,110.61217342270237,66.1074688361627,421337.58643970336,56.375377861534595,-1974504.2003228555,10.5,10498025495.799677,47.655,-122.3035,60.0,5.966666666666667
2026-01-20T23:05:59+00:00,SAT-55776,106.3594316696631,67.1165246380645,421393.8114832239,64.5299005983457,-2260110.080162957,10.5,10497739889.919838,47.655,-122.3035,60.0,5.983333333333333
2026-01-20T23:06:00+00:00,SAT-55776,101.7613680550374,68.0031294774093,421458.16930408735,72.60672853872698,-2542994.7595834224,10.5,10497457005.240417,47.655,-122.3035,60.0,6.0
2026-01-20T23:06:01+00:00,SAT-55776,96.82832868133595,68.752002020396,421530.5824146833,80.5962091739382,-2822820.1668980983,10.5,10497177179.833101,47.655,-122.3035,60.0,6.016666666666667
2026-01-20T23:06:02+00:00,SAT-55776,91.5901642554731,69.34823117561693,421610.96370063274,88.48881763031616,-3099252.700741123,10.5,10496900747.29926,47.655,-122.3035,60.0,6.033333333333333
2026-01-20T23:06:03+00:00,SAT-55776,86.09904512830634,69.77841344933643,421699.2165480827,96.27516945689713,-3371963.677943559,10.5,10496628036.322056,47.655,-122.3035,60.0,6.05
2026-01-20T23:06:04+00:00,SAT-55776,80.42919553951901,70.03194210938523,421795.2349837544,103.94603441347614,-3640629.8164495504,10.5,10496359370.18355,47.655,-122.3035,60.0,6.066666666666666
2026-01-20T23:06:05+00:00,SAT-55776,74.6724773853331,70.10221500067179,421898.9038287428,111.49234768598453,-3904933.628126287,10.5,10496095066.371874,47.655,-122.3035,60.0,6.083333333333333
2026-01-20T23:06:06+00:00,SAT-55776,68.92996566740844,69.98747482256267,422010.0988635016,118.90522314099167,-4164563.882992722,10.5,10495835436.117008,47.655,-122.3035,60.0,6.1
2026-01-20T23:06:07+00:00,SAT-55776,63.30120705060146,69.69104974820733,422128.6870060475,126.17596343311462,-4419215.963223809,10.5,10495580784.036776,47.655,-122.3035,60.0,6.116666666666666
2026-01-20T23:06:08+00:00,SAT-55776,57.87387303753351,69.22092298737742,422254.52650024486,133.29607330258426,-4668592.328887522,10.5,10495331407.671112,47.655,-122.3035,60.0,6.133333333333334
2026-01-20T23:06:09+00:00,SAT-55776,52.716339666458744,68.58875625420764,422387.46711735195,140.25726859179588,-4912402.833742592,10.5,10495087597.166258,47.655,-122.3035,60.0,6.15
2026-01-20T23:06:10+00:00,SAT-55776,47.87446965176542,67.80862716428896,422527.35036656086,147.05148774281795,-5150365.127929898,10.5,10494849634.87207,47.655,-122.3035,60.0,6.166666666666667
2026-01-20T23:06:11+00:00,SAT-55776,43.37234004553066,66.89576120853039,422674.00971700303,153.67090060987385,-5382204.966622861,10.5,10494617795.033377,47.655,-122.3035,60.0,6.183333333333334
2026-01-20T23:06:12+00:00,SAT-55776,39.21564301616833,65.86546404040232,422827.2708285446,160.10791973177038,-5607656.604835566,10.5,10494392343.395164,47.655,-122.3035,60.0,6.2
2026-01-20T23:06:13+00:00,SAT-55776,35.396253097826744,64.73234916685003,422986.9517938238,166.35520719092932,-5826463.037655063,10.5,10494173536.962345,47.655,-122.3035,60.0,6.216666666666667
2026-01-20T23:06:14+00:00,SAT-55776,31.896777415975084,63.50986278077924,423152.8633871288,172.40568463766039,-6038376.351333809,10.5,10493961623.648666,47.655,-122.3035,60.0,6.233333333333333
2026-01-20T23:06:15+00:00,SAT-55776,28.69441404846876,62.21005363031914,423324.8093232741,178.25254004491444,-6243157.959869696,10.5,10493756842.04013,47.655,-122.3035,60.0,6.25
2026-01-20T23:06:16+00:00,SAT-55776,25.763880151962503,60.843518362614425,423502.58652321226,183.88923634655563,-6440578.907554886,10.5,10493559421.092445,47.655,-122.3035,60.0,6.266666666666667
2026-01-20T23:06:17+00:00,SAT-55776,23.079443931496964,59.41945774330721,423685.9853882619,189.30951729816817,-6630420.074246051,10.5,10493369579.925755,47.655,-122.3035,60.0,6.283333333333333
2026-01-20T23:06:18+00:00,SAT-55776,20.616219399811182,57.94579361078973,423874.79008018057,194.50741429302352,-6812472.414088372,10.5,10493187527.58591,47.655,-122.3035,60.0,6.3
2026-01-20T23:06:19+00:00,SAT-55776,18.350911747862867,56.42931198227545,424068.7788080355,199.4772522649754,-6986537.162259905,10.5,10493013462.83774,47.655,-122.3035,60.0,6.316666666666666
2026-01-20T23:06:20+00:00,SAT-55776,16.262182070890738,54.875810725236754,424267.72412096115,204.2136552442373,-7152426.029558394,10.5,10492847573.970442,47.655,-122.3035,60.0,6.333333333333333
2026-01-20T23:06:21+00:00,SAT-55776,14.330764267554585,53.29023962937451,424471.393206458,208.71155042014814,-7309961.344696522,10.5,10492690038.655304,47.655,-122.3035,60.0,6.35
2026-01-20T23:06:22+00:00,SAT-55776,12.539430514533125,51.67682695743313,424679.54819274374,212.9661724927694,-7458976.2067132415,10.5,10492541023.793287,47.655,-122.3035,60.0,6.366666666666666
2026-01-20T23:06:23+00:00,SAT-55776,10.872871334300386,50.03919035850859,424891.9464554432,216.97306875996176,-7599314.663144723,10.5,10492400685.336855,47.655,-122.3035,60.0,6.383333333333334
2026-01-20T23:06:24+00:00,SAT-55776,9.317533400718727,48.38043218929021,425108.34092935314,220.7281006354417,-7730831.763193116,10.5,10492269168.236807,47.655,-122.3035,60.0,6.4
2026-01-20T23:06:25+00:00,SAT-55776,7.861442082069069,46.703220430300306,425328.4804217202,224.22744751691113,-7853393.693204807,10.5,10492146606.306795,47.655,-122.3035,60.0,6.416666666666667
2026-01-20T23:06:26+00:00,SAT-55776,6.494024733692721,45.00985681079361,425552.1099293771,227.4676076088368,-7966877.805487643,10.5,10492033122.194511,47.655,-122.3035,60.0,6.433333333333334
2026-01-20T23:06:27+00:00,SAT-55776,5.205943657699469,43.302333908889906,425778.97095669893,230.44540203654225,-8071172.762403828,10.5,10491928827.237597,47.655,-122.3035,60.0,6.45
2026-01-20T23:06:28+00:00,SAT-55776,3.9889430979273532,41.582382867777305,426008.8018376634,233.15797396774363,-8166178.505602392,10.5,10491833821.494398,47.655,-122.3035,60.0,6.466666666666667
2026-01-20T23:08:48+00:00,SAT-55776,147.40408762173877,40.62819015272289,421795.1049318887,-83.00382071642701,2907144.9073027833,10.5,10502907144.907303,47.655,-122.3035,60.0,8.8
2026-01-20T23:08:49+00:00,SAT-55776,146.20661089075043,42.37805807129842,421712.3224546942,-75.0573826796075,2628827.0338537963,10.5,10502628827.033854,47.655,-122.3035,60.0,8.816666666666666
2026-01-20T23:08:50+00:00,SAT-55776,144.94085605157048,44.115215123013414,421637.4652250351,-67.0203849485393,2347337.3768450925,10.5,10502347337.376844,47.655,-122.3035,60.0,8.833333333333334
2026-01-20T23:08:51+00:00,SAT-55776,143.5988965691205,45.837979216393826,421570.6235611131,-58.902487404905926,2063014.2661944893,10.5,10502063014.266195,47.655,-122.3035,60.0,8.85
2026-01-20T23:08:52+00:00,SAT-55776,142.17177292725867,47.54442299577595,421511.8781470079,-50.713462026075355,1776199.9578848353,10.5,10501776199.957886,47.655,-122.3035,60.0,8.866666666666667
2026-01-20T23:08:53+00:00,SAT-55776,140.64934473883892,49.232329125919954,421461.2999208806,-42.463179605097686,1487240.1688421585,10.5,10501487240.168842,47.655,-122.3035,60.0,8.883333333333333
2026-01-20T23:08:54+00:00,SAT-55776,139.02012794723848,50.89913679508685,421418.9499764211,-34.1615950485985,1196483.5620057,10.5,10501196483.562006,47.655,-122.3035,60.0,8.9
2026-01-20T23:08:55+00:00,SAT-55776,137.27112042415328,52.54187779140451,421384.87947895925,-25.81873340019858,904281.2568089524,10.5,10500904281.25681,47.655,-122.3035,60.0,8.916666666666666
2026-01-20T23:08:56+00:00,SAT-55776,135.38762303996518,54.157100453292095,421359.12959551485,-17.44467539412705,610986.3232060829,10.5,10500610986.323206,47.655,-122.3035,60.0,8.933333333333334
2026-01-20T23:08:57+00:00,SAT-55776,133.35306943206447,55.74077979507328,421341.73143925506,-9.049543013193128,316953.27585101506,10.5,10500316953.27585,47.655,-122.3035,60.0,8.95
2026-01-20T23:08:58+00:00,SAT-55776,131.14888716770608,57.28821245502933,421332.7060283566,-0.6434847832316112,22537.559046705297,10.5,10500022537.559046,47.655,-122.3035,60.0,8.966666666666667
2026-01-20T23:08:59+00:00,SAT-55776,128.7544272398325,58.79389595227581,421332.0642595327,7.76333884456616,-271904.96522745973,10.5,10499728095.034773,47.655,-122.3035,60.0,8.983333333333333
2026-01-20T23:09:00+00:00,SAT-55776,126.14701928140887,60.25139350383185,421339.8068961404,16.16077006207691,-566018.5275635172,10.5,10499433981.472437,47.655,-122.3035,60.0,9.0
2026-01-20T23:09:01+00:00,SAT-55776,123.30223773437282,61.65318883163977,421355.9245708157,24.538668433088564,-859447.9669913173,10.5,10499140552.033009,47.655,-122.3035,60.0,9.016666666666667
2026-01-20T23:09:02+00:00,SAT-55776,120.1944990035357,62.99054072458054,421380.3978027996,32.88692546946602,-1151839.2414975069,10.5,10498848160.758503,47.655,-122.3035,60.0,9.033333333333333
2026-01-20T23:09:03+00:00,SAT-55776,116.79814712055304,64.25335534951589,421413.19702980114,41.19547892908905,-1442839.9287997931,10.5,10498557160.0712,47.655,-122.3035,60.0,9.05
2026-01-20T23:09:04+00:00,SAT-55776,113.08921308344125,65.43010611323625,421454.2826541197,49.454327443148976,-1732099.7386567486,10.5,10498267900.261343,47.655,-122.3035,60.0,9.066666666666666
2026-01-20T23:09:05+00:00,SAT-55776,109.04802527355918,66.5078458044588,421503.60510335636,57.653544716898715,-2019271.0102381445,10.5,10497980728.989761,47.655,-122.3035,60.0,9.083333333333334
2026-01-20T23:09:06+00:00,SAT-55776,104.66276268107251,67.4723711621154,421561.1049052874,65.78329336123181,-2304009.196565359,10.5,10497695990.803434,47.655,-122.3035,60.0,9.1
2026-01-20T23:09:07+00:00,SAT-55776,99.93382532406918,68.30860942333288,421626.712776533,73.8338386102903,-2585973.344960026,10.5,10497414026.65504,47.655,-122.3035,60.0,9.116666666666667
2026-01-20T23:09:08+00:00,SAT-55776,94.87851214526505,69.0012881258474,421700.34972490696,81.79556264425231,-2864826.598688648,10.5,10497135173.401312,47.655,-122.3035,60.0,9.133333333333333
2026-01-20T23:09:09+00:00,SAT-55776,89.53499121320894,69.53590906044583,421781.9271660508,89.65897691131167,-3140236.6285304367,10.5,10496859763.37147,47.655,-122.3035,60.0,9.15
2026-01-20T23:09:10+00:00,SAT-55776,83.96411971614779,69.89996623797948,421871.3470523571,97.41473605969723,-3411876.1207355685,10.5,10496588123.879265,47.655,-122.3035,60.0,9.166666666666666
2026-01-20T23:09:11+00:00,SAT-55776,78.24767332112681,70.08423836297368,421968.50201578723,105.05364954557523,-3679423.1835830235,10.5,10496320576.816418,47.655,-122.3035,60.0,9.183333333333334
2026-01-20T23:09:12+00:00,SAT-55776,72.48229346308217,70.08389206011253,422073.2755222674,112.56669521834093,-3942561.8231949643,10.5,10496057438.176805,47.655,-122.3035,60.0,9.2
2026-01-20T23:09:13+00:00,SAT-55776,66.76988813649446,69.89911540822239,422185.5420396318,119.9450305717749,-4200982.337599822,10.5,10495799017.6624,47.655,-122.3035,60.0,9.216666666666667
2026-01-20T23:09:14+00:00,SAT-55776,61.206682757525364,69.53510035982413,422305.1672167887,127.18000430556302,-4454381.721665632,10.5,10495545618.278334,47.655,-122.3035,60.0,9.233333333333333
2026-01-20T23:09:15+00:00,SAT-55776,55.87372565905918,69.0013787475616,422432.00807441614,134.2631675505619,-4702464.060256312,10.5,10495297535.939743,47.655,-122.3035,60.0,9.25
2026-01-20T23:09:16+00:00,SAT-55776,50.830998625917395,68.3107004351782,422565.9132068532,141.1862849071046,-4944940.91483982,10.5,10495055059.08516,47.655,-122.3035,60.0,9.266666666666667
2026-01-20T23:09:17+00:00,SAT-55776,46.115806284856156,67.47773606595308,422706.7229950006,147.9413447308484,-5181531.683742052,10.5,10494818468.316257,47.655,-122.3035,60.0,9.283333333333333
2026-01-20T23:09:18+00:00,SAT-55776,41.744708713611686,66.51786538937624,422854.2698294788,154.52056788202614,-5411963.9085826315,10.5,10494588036.091417,47.655,-122.3035,60.0,9.3
2026-01-20T23:09:19+00:00,SAT-55776,37.7175442681752,65.44621574492324,423008.37834251317,160.91641890029607,-5635973.665665427,10.5,10494364026.334335,47.655,-122.3035,60.0,9.316666666666666
2026-01-20T23:09:20+00:00,SAT-55776,34.022111056670205,64.27700620574664,423168.8656509631,167.12161352717536,-5853305.829445987,10.5,10494146694.170553,47.655,-122.3035,60.0,9.333333333333334
2026-01-20T23:09:21+00:00,SAT-55776,30.638512106878032,63.02317355274856,423335.5416068541,173.12912723216246,-6063714.371152411,10.5,10493936285.628847,47.655,-122.3035,60.0,9.35
2026-01-20T23:09:22+00:00,SAT-55776,27.542672374942505,61.69621752858875,423508.20905641373,178.93220308989964,-6266962.634676908,10.5,10493733037.365324,47.655,-122.3035,60.0,9.366666666666667
2026-01-20T23:09:23+00:00,SAT-55776,24.708913474994116,60.306195697626016,423686.66410696204,184.52436002416428,-6462823.625315234,10.5,10493537176.374685,47.655,-122.3035,60.0,9.383333333333333
2026-01-20T23:09:24+00:00,SAT-55776,22.11168326025802,58.86180818264407,423870.6964020261,189.89939800449338,-6651080.191774473,10.5,10493348919.808226,47.655,-122.3035,60.0,9.4
2026-01-20T23:09:25+00:00,SAT-55776,19.726619166617716,57.37052818479364,424060.0894016359,195.0514059693379,-6831525.303675411,10.5,10493168474.696325,47.655,-122.3035,60.0,9.416666666666666
2026-01-20T23:09:26+00:00,SAT-55776,17.531129804159924,55.838749023793014,424254.6206705227,199.97476543678113,-7003962.1780151725,10.5,10492996037.821985,47.655,-122.3035,60.0,9.433333333333334
2026-01-20T23:09:27+00:00,SAT-55776,15.50465094864139,54.271930147270716,424454.0621699183,204.66415879927084,-7168204.569683817,10.5,10492831795.430317,47.655,-122.3035,60.0,9.45
2026-01-20T23:09:28+00:00,SAT-55776,13.628694477205702,52.674732625013895,424658.18055762746,209.11457111944844,-7324076.834361886,10.5,10492675923.165638,47.655,-122.3035,60.0,9.466666666666667
2026-01-20T23:09:29+00:00,SAT-55776,11.886774325318163,51.05113995128971,424866.7374898906,213.32129614831663,-7471414.13930208,10.5,10492528585.860699,47.655,-122.3035,60.0,9.483333333333333
2026-01-20T23:09:30+00:00,SAT-55776,10.264265870831272,49.404563000661284,425079.48992924916,217.2799382643134,-7610062.531243833,10.5,10492389937.468756,47.655,-122.3035,60.0,9.5
2026-01-20T23:09:31+00:00,SAT-55776,8.74823504711756,47.73792974813601,425296.19045434473,220.98641805946838,-7739879.13206415,10.5,10492260120.867935,47.655,-122.3035,60.0,9.516666666666667
2026-01-20T23:09:32+00:00,SAT-55776,7.327259410763771,46.05376112823499,425516.5875752894,224.4369729708642,-7860732.160894034,10.5,10492139267.839106,47.655,-122.3035,60.0,9.533333333333333
2026-01-20T23:09:33+00:00,SAT-55776,5.991254122469194,44.35423478148126,425740.42604966566,227.62815954958933,-7972501.013586833,10.5,10492027498.986414,47.655,-122.3035,60.0,9.55
2026-01-20T23:09:34+00:00,SAT-55776,4.731309733337919,42.641238408091844,425967.4472007898,230.5568564833207,-8075076.368581852,10.5,10491924923.631418,47.655,-122.3035,60.0,9.566666666666666
2026-01-20T23:09:35+00:00,SAT-55776,3.539544933828326,40.91641433485374,426197.38923898916,233.22026435959856,-8168360.178613249,10.5,10491831639.821386,47.655,-122.3035,60.0,9.583333333333334
2026-01-20T23:11:55+00:00,SAT-55776,146.93819953266973,41.340926146918804,421935.3708428965,-81.39412265031031,2850766.472011308,10.5,10502850766.472012,47.655,-122.3035,60.0,11.916666666666666
2026-01-20T23:11:56+00:00,SAT-55776,145.71393015950213,43.08599101148214,421854.19377123995,-73.4416249482863,2572236.363454501,10.5,10502572236.363455,47.655,-122.3035,60.0,11.933333333333334
2026-01-20T23:11:57+00:00,SAT-55776,144.41827220897147,44.817698750352996,421780.9479906248,-65.40050144717996,2290602.204527072,10.5,10502290602.204527,47.655,-122.3035,60.0,11.95
2026-01-20T23:11:58+00:00,SAT-55776,143.04289364140678,46.53427258676852,421715.72189051483,-57.28042106695285,2006202.6417055659,10.5,10502006202.641706,47.655,-122.3035,60.0,11.966666666666667
2026-01-20T23:11:59+00:00,SAT-55776,141.57837054037947,48.23367318560609,421658.59421723743,-49.09116255019923,1719380.1679196744,10.5,10501719380.16792,47.655,-122.3035,60.0,11.983333333333333
2026-01-20T23:12:00+00:00,SAT-55776,140.01403275446768,49.91355053106837,421609.63396445406,-40.84260007580256,1430480.6186816308,10.5,10501430480.618681,47.655,-122.3035,60.0,12.0
2026-01-20T23:12:01+00:00,SAT-55776,138.33779559403382,51.57118634708222,421568.9002779784,-32.54468958608335,1139852.6932050944,10.5,10501139852.693205,47.655,-122.3035,60.0,12.016666666666667
2026-01-20T23:12:02+00:00,SAT-55776,136.53598215766482,53.20342541739574,421536.44237423124,-24.207454099654626,847847.4399992197,10.5,10500847847.439999,47.655,-122.3035,60.0,12.033333333333333
2026-01-20T23:12:03+00:00,SAT-55776,134.5931455621072,54.80659403827952,421512.29947334254,-15.84096946422465,554817.7578715433,10.5,10500554817.757872,47.655,-122.3035,60.0,12.05
2026-01-20T23:12:04+00:00,SAT-55776,132.49190765917683,56.37640401303306,421496.50074646354,-7.455349964788881,261117.89186598966,10.5,10500261117.891867,47.655,-122.3035,60.0,12.066666666666666
2026-01-20T23:12:05+00:00,SAT-55776,130.2128420704323,57.90784109578374,421489.065277432,0.9392664132796062,-32897.08288604067,10.5,10499967102.917114,47.655,-122.3035,60.0,12.083333333333334
2026-01-20T23:12:06+00:00,SAT-55776,127.73444600474545,59.39503793400599,421490.0020391348,9.332732568202196,-326871.7719580626,10.5,10499673128.228043,47.655,-122.3035,60.0,12.1
2026-01-20T23:12:07+00:00,SAT-55776,125.03326868604516,60.83113385641615,421499.3098844162,17.714906841437283,-620450.9715687761,10.5,10499379549.02843,47.655,-122.3035,60.0,12.116666666666667
2026-01-20T23:12:08+00:00,SAT-55776,122.08429524028178,62.20812776610673,421516.977551506,26.07566770436963,-913280.1829720516,10.5,10499086719.817028,47.655,-122.3035,60.0,12.133333333333333
2026-01-20T23:12:09+00:00,SAT-55776,118.86172160621591,63.51673690308571,421542.98368409654,34.40492826883857,-1205006.1206770083,10.5,10498794993.879322,47.655,-122.3035,60.0,12.15
2026-01-20T23:12:10+00:00,SAT-55776,115.34029189333995,64.74628382194057,421577.29686589,42.692650730402285,-1495277.218312223,10.5,10498504722.781689,47.655,-122.3035,60.0,12.166666666666666
2026-01-20T23:12:11+00:00,SAT-55776,111.49738692155312,65.88464721661715,421619.8756695518,50.92886049421277,-1783744.1233736244,10.5,10498216255.876627,47.655,-122.3035,60.0,12.183333333333334
2026-01-20T23:12:12+00:00,SAT-55776,107.31601941457576,66.91832786619803,421670.66871975135,59.103660853573714,-2070060.2113296792,10.5,10497929939.78867,47.655,-122.3035,60.0,12.2
2026-01-20T23:12:13+00:00,SAT-55776,102.78875826136431,67.8326951027282,421729.6147708426,67.20724632556207,-2353882.0526912715,10.5,10497646117.94731,47.655,-122.3035,60.0,12.216666666666667
2026-01-20T23:12:14+00:00,SAT-55776,97.92232017003967,68.61248306015734,421796.64279784466,75.22991701792124,-2634869.916201071,10.5,10497365130.0838,47.655,-122.3035,60.0,12.233333333333333
2026-01-20T23:12:15+00:00,SAT-55776,92.74211956128944,69.24258635452706,421871.67210175056,83.16209134512624,-2912688.2142039263,10.5,10497087311.785795,47.655,-122.3035,60.0,12.25
2026-01-20T23:12:16+00:00,SAT-55776,87.29555835532105,69.70914800290323,421954.6124275187,90.9943203457721,-3187006.004102368,10.5,10496812993.995897,47.655,-122.3035,60.0,12.266666666666667
2026-01-20T23:12:17+00:00,SAT-55776,81.65253626153995,70.00083647033311,422045.3640963436,98.71729984250837,-3457497.414248953,10.5,10496542502.58575,47.655,-122.3035,60.0,12.283333333333333
2026-01-20T23:12:18+00:00,SAT-55776,75.90194433431746,70.11009822158856,422143.8181500532,106.32188273337894,-3723842.074440975,10.5,10496276157.925558,47.655,-122.3035,60.0,12.3
2026-01-20T23:12:19+00:00,SAT-55776,70.14397323914767,70.03410197822576,422249.85650776594,113.79909265355015,-3985725.5944119734,10.5,10496014274.405588,47.655,-122.3035,60.0,12.316666666666666
2026-01-20T23:12:20+00:00,SAT-55776,64.47961838413744,69.77511990677371,422363.3521361724,121.14013421978508,-4242839.922636557,10.5,10495757160.077364,47.655,-122.3035,60.0,12.333333333333334
2026-01-20T23:12:21+00:00,SAT-55776,58.999977070725784,69.34023364062632,422484.1692300343,128.33640578098667,-4494883.792908359,10.5,10495505116.207092,47.655,-122.3035,60.0,12.35
2026-01-20T23:12:22+00:00,SAT-55776,53.77802720047553,68.74045117543633,422612.1634053999,135.3795091663893,-4741563.065762942,10.5,10495258436.934237,47.655,-122.3035,60.0,12.366666666666667
2026-01-20T23:12:23+00:00,SAT-55776,48.86448950538757,67.98947615011943,422747.18190254184,142.26126206901262,-4982591.162198725,10.5,10495017408.837801,47.655,-122.3035,60.0,12.383333333333333
2026-01-20T23:12:24+00:00,SAT-55776,44.28781499721262,67.1024165717291,422889.0638012453,148.97370689548328,-5217689.3736351915,10.5,10494782310.626366,47.655,-122.3035,60.0,12.4
2026-01-20T23:12:25+00:00,SAT-55776,40.05716708397195,66.09466047425468,423037.6402449224,155.50912066098454,-5446587.2084758645,10.5,10494553412.791525,47.655,-122.3035,60.0,12.416666666666666
2026-01-20T23:12:26+00:00,SAT-55776,36.16687531941961,64.98103708893778,423192.73467459495,161.86002427635847,-5669022.717381916,10.5,10494330977.282618,47.655,-122.3035,60.0,12.433333333333334
2026-01-20T23:12:27+00:00,SAT-55776,32.60107721764141,63.775281709809775,423354.1630721399,168.01919220223257,-5884742.831400522,10.5,10494115257.1686,47.655,-122.3035,60.0,12.45
2026-01-20T23:12:28+00:00,SAT-55776,29.337764554619696,62.48975975946632,423521.7342131629,173.97965922029587,-6093503.599123587,10.5,10493906496.400877,47.655,-122.3035,60.0,12.466666666666667
2026-01-20T23:12:29+00:00,SAT-55776,26.351916874031442,61.13538146740267,423695.2499266253,179.7347293076455,-6295070.497504903,10.5,10493704929.502495,47.655,-122.3035,60.0,12.483333333333333
2026-01-20T23:12:30+00:00,SAT-55776,23.617713749241563,59.72164010564366,423874.50536332146,185.27798172273884,-6489218.64501594,10.5,10493510781.354984,47.655,-122.3035,60.0,12.5
2026-01-20T23:12:31+00:00,SAT-55776,21.109969493333686,58.25672016376098,424059.28927042626,190.60327946021897,-6675733.097769588,10.5,10493324266.902231,47.655,-122.3035,60.0,12.516666666666667
2026-01-20T23:12:32+00:00,SAT-55776,18.80497835259928,56.74763766389985,424249.38427447464,195.70477376488168,-6854409.00761839,10.5,10493145590.992382,47.655,-122.3035,60.0,12.533333333333333
2026-01-20T23:12:33+00:00,SAT-55776,16.680945824375108,55.20038859154723,424444.56716884277,200.57691010847043,-7025051.831487166,10.5,10492974948.168512,47.655,-122.3035,60.0,12.55
2026-01-20T23:12:34+00:00,SAT-55776,14.718147229397674,53.62009157118183,424644.6092071909,205.21443417733428,-7187477.54108614,10.5,10492812522.458914,47.655,-122.3035,60.0,12.566666666666666
2026-01-20T23:12:35+00:00,SAT-55776,12.898917408517823,52.01111778404827,424849.2764028772,209.61239559048278,-7341512.753132933,10.5,10492658487.246866,47.655,-122.3035,60.0,12.583333333333334
2026-01-20T23:12:36+00:00,SAT-55776,11.207543442521212,50.37720540629832,425058.3298320794,213.76615258938884,-7486994.893609308,10.5,10492513005.10639,47.655,-122.3035,60.0,12.6
2026-01-20T23:12:37+00:00,SAT-55776,9.630107766419208,48.721558276279026,425271.5259415952,217.67137430069718,-7623772.277010786,10.5,10492376227.72299,47.655,-122.3035,60.0,12.616666666666667
2026-01-20T23:12:38+00:00,SAT-55776,8.154311576046686,47.04692981388197,425488.61685889773,221.32404600427608,-7751704.290856106,10.5,10492248295.709145,47.655,-122.3035,60.0,12.633333333333333
2026-01-20T23:12:39+00:00,SAT-55776,6.769296455212803,45.35569374905836,425709.35070744605,224.72046984007343,-7870661.42044431,10.5,10492129338.579556,47.655,-122.3035,60.0,12.65
2026-01-20T23:12:40+00:00,SAT-55776,5.4654743756736375,43.649903442897106,425933.4719226999,227.8572675920229,-7980525.346358915,10.5,10492019474.65364,47.655,-122.3035,60.0,12.666666666666666
2026-01-20T23:12:41+00:00,SAT-55776,4.234371194485372,41.93134148292883,426160.72157091164,230.73138120709504,-8081188.962647279,10.5,10491918811.037354,47.655,-122.3035,60.0,12.683333333333334
2026-01-20T23:12:42+00:00,SAT-55776,3.068485745815851,40.20156111307265,426390.83766843553,233.34007650320336,-8172556.506687155,10.5,10491827443.493313,47.655,-122.3035,60.0,12.7
