satellites_20260120_184412/SAT-64205.csv

timestamp,satellite,azimuth_deg,elevation_deg,distance_km,relative_velocity_kms,doppler_shift_hz,tx_freq_ghz,rx_freq_hz,ue_lat,ue_lon,ue_alt_m,time_minutes
2026-01-20T23:08:35+00:00,SAT-64205,205.80070914749456,40.19715289575139,1077.8011806357238,-4.716471433150821,165190.78024332295,10.5,10500165190.780243,47.655,-122.3035,60.0,8.583333333333334
2026-01-20T23:08:36+00:00,SAT-64205,205.89322137314207,40.48747405793946,1073.097286459728,-4.691335270463705,164310.4055001574,10.5,10500164310.4055,47.655,-122.3035,60.0,8.6
2026-01-20T23:08:37+00:00,SAT-64205,205.98773011991295,40.779997371247006,1068.4184614166522,-4.665862178680896,163418.23007485198,10.5,10500163418.230074,47.655,-122.3035,60.0,8.616666666666667
2026-01-20T23:08:38+00:00,SAT-64205,206.08428785465279,41.074735427380645,1063.7650415371145,-4.640048094045744,162514.11163745925,10.5,10500162514.111637,47.655,-122.3035,60.0,8.633333333333333
2026-01-20T23:08:39+00:00,SAT-64205,206.1829488656997,41.37170045342019,1059.1373669046527,-4.613888981423266,161597.9088604834,10.5,10500161597.908861,47.655,-122.3035,60.0,8.65
2026-01-20T23:08:40+00:00,SAT-64205,206.28376934170882,41.67090428930393,1054.53578162718,-4.587380754306482,160669.47861716407,10.5,10500160669.478617,47.655,-122.3035,60.0,8.666666666666666
2026-01-20T23:08:41+00:00,SAT-64205,206.3868074526878,41.97235835904461,1049.9606338882184,-4.560519378577355,159728.67961562335,10.5,10500159728.679615,47.655,-122.3035,60.0,8.683333333333334
2026-01-20T23:08:42+00:00,SAT-64205,206.49212343743002,42.2760736473512,1045.4122758946505,-4.533300756172239,158775.36832433759,10.5,10500158775.368324,47.655,-122.3035,60.0,8.7
2026-01-20T23:08:43+00:00,SAT-64205,206.59977969267933,42.58206066737146,1040.8910639404946,-4.505720845855737,157809.40320214874,10.5,10500157809.403202,47.655,-122.3035,60.0,8.716666666666667
2026-01-20T23:08:44+00:00,SAT-64205,206.70984086968954,42.89032943500978,1036.397358350228,-4.477775590883995,156830.642164727,10.5,10500156830.642164,47.655,-122.3035,60.0,8.733333333333333
2026-01-20T23:08:45+00:00,SAT-64205,206.82237397402295,43.200889437073876,1031.931523494253,-4.449460951303218,155838.9437158015,10.5,10500155838.943716,47.655,-122.3035,60.0,8.75
2026-01-20T23:08:46+00:00,SAT-64205,206.9374484712819,43.513749600119965,1027.4939277721533,-4.420772885584507,154834.1663039346,10.5,10500154834.166304,47.655,-122.3035,60.0,8.766666666666667
2026-01-20T23:08:47+00:00,SAT-64205,207.05513639787844,43.8289182564789,1023.0849436142636,-4.3917073908838935,153816.1697325984,10.5,10500153816.169733,47.655,-122.3035,60.0,8.783333333333333
2026-01-20T23:08:48+00:00,SAT-64205,207.17551247865137,44.14640311151081,1018.7049474430887,-4.362260473530775,152784.8141265553,10.5,10500152784.814127,47.655,-122.3035,60.0,8.8
2026-01-20T23:08:49+00:00,SAT-64205,207.29865424992244,44.4662112071537,1014.354319664154,-4.332428144022457,151739.95975654532,10.5,10500151739.959757,47.655,-122.3035,60.0,8.816666666666666
2026-01-20T23:08:50+00:00,SAT-64205,207.4246421889039,44.788348883327494,1010.033444661849,-4.302206496885052,150681.46983635274,10.5,10500150681.469837,47.655,-122.3035,60.0,8.833333333333334
2026-01-20T23:08:51+00:00,SAT-64205,207.5535598523339,45.11282174337067,1005.7427107156223,-4.27159157579766,149609.20579888448,10.5,10500149609.2058,47.655,-122.3035,60.0,8.85
2026-01-20T23:08:52+00:00,SAT-64205,207.68549401860975,45.43963460770581,1001.4825100506935,-4.240579548921972,148523.03343695425,10.5,10500148523.033438,47.655,-122.3035,60.0,8.866666666666667
2026-01-20T23:08:53+00:00,SAT-64205,207.8205348428958,45.7687914785291,997.2532387139019,-4.209166539235003,147422.81696081738,10.5,10500147422.816961,47.655,-122.3035,60.0,8.883333333333333
2026-01-20T23:08:54+00:00,SAT-64205,207.9587760154421,46.100295489752995,993.0552966187715,-4.177348784445906,146308.4245991339,10.5,10500146308.424599,47.655,-122.3035,60.0,8.9
2026-01-20T23:08:55+00:00,SAT-64205,208.1003149336642,46.434148866916416,988.8890874310841,-4.145122529500246,145179.72483401358,10.5,10500145179.724834,47.655,-122.3035,60.0,8.916666666666666
2026-01-20T23:08:56+00:00,SAT-64205,208.24525288028389,46.77035287671368,984.7550185616625,-4.112484081362282,144036.58831972335,10.5,10500144036.58832,47.655,-122.3035,60.0,8.933333333333334
2026-01-20T23:08:57+00:00,SAT-64205,208.39369521314273,47.108907778333794,980.6535011045172,-4.079429804983514,142878.88774148846,10.5,10500142878.887741,47.655,-122.3035,60.0,8.95
2026-01-20T23:08:58+00:00,SAT-64205,208.54575156553486,47.44981277210517,976.5849497790136,-4.0459561502063135,141706.4987577716,10.5,10500141706.498758,47.655,-122.3035,60.0,8.966666666666667
2026-01-20T23:08:59+00:00,SAT-64205,208.7015360588455,47.793065947830044,972.5497828452078,-4.0120596033690745,140519.2983052805,10.5,10500140519.298306,47.655,-122.3035,60.0,8.983333333333333
2026-01-20T23:09:00+00:00,SAT-64205,208.8611675254462,48.138664226475484,968.5484220674477,-3.9777367469817606,139317.1666890582,10.5,10500139317.166689,47.655,-122.3035,60.0,9.0
2026-01-20T23:09:01+00:00,SAT-64205,209.02476974655264,48.486603303972224,964.5812926184581,-3.9429842245988995,138099.9863521865,10.5,10500138099.986353,47.655,-122.3035,60.0,9.016666666666667
2026-01-20T23:09:02+00:00,SAT-64205,209.1924717024111,48.83687758919015,960.648823018458,-3.907798790091489,136867.6436014966,10.5,10500136867.643602,47.655,-122.3035,60.0,9.033333333333333
2026-01-20T23:09:03+00:00,SAT-64205,209.3644078389632,49.18948014305636,956.75144502514,-3.872177257609203,135620.02685503394,10.5,10500135620.026855,47.655,-122.3035,60.0,9.05
2026-01-20T23:09:04+00:00,SAT-64205,209.54071834788047,49.54440261010756,952.8895935735511,-3.836116575644021,134357.02923607978,10.5,10500134357.029236,47.655,-122.3035,60.0,9.066666666666666
2026-01-20T23:09:05+00:00,SAT-64205,209.7215494662971,49.90163515323586,949.0637066421089,-3.799613758758778,133078.54618199624,10.5,10500133078.546183,47.655,-122.3035,60.0,9.083333333333334
2026-01-20T23:09:06+00:00,SAT-64205,209.9070537910646,50.261166378766745,945.2742251867069,-3.762665965293207,131784.47816582053,10.5,10500131784.478167,47.655,-122.3035,60.0,9.1
2026-01-20T23:09:07+00:00,SAT-64205,210.09739061526275,50.622983264854845,941.521592997321,-3.7252704354094086,130474.72852635535,10.5,10500130474.728527,47.655,-122.3035,60.0,9.116666666666667
2026-01-20T23:09:08+00:00,SAT-64205,210.29272628177694,50.98707108025745,937.806256616406,-3.68742455596267,129149.20574021926,10.5,10500129149.20574,47.655,-122.3035,60.0,9.133333333333333
2026-01-20T23:09:09+00:00,SAT-64205,210.4932345612357,51.353413304977,934.1286651925926,-3.649125832769444,127807.82245055397,10.5,10500127807.82245,47.655,-122.3035,60.0,9.15
2026-01-20T23:09:10+00:00,SAT-64205,210.69909705133523,51.721991543978326,930.4892703620438,-3.610371917653141,126450.49641428264,10.5,10500126450.496414,47.655,-122.3035,60.0,9.166666666666666
2026-01-20T23:09:11+00:00,SAT-64205,210.9105036017951,52.09278543889672,926.8885261028379,-3.5711605954877172,125077.1500483212,10.5,10500125077.15005,47.655,-122.3035,60.0,9.183333333333334
2026-01-20T23:09:12+00:00,SAT-64205,211.1276527644123,52.465772573603196,923.3268886022714,-3.531489807832677,123687.71125737629,10.5,10500123687.711258,47.655,-122.3035,60.0,9.2
2026-01-20T23:09:13+00:00,SAT-64205,211.35075227198635,52.840928376946515,919.8048161005929,-3.4913576411459366,122282.11302110988,10.5,10500122282.113022,47.655,-122.3035,60.0,9.216666666666667
2026-01-20T23:09:14+00:00,SAT-64205,211.5800195458482,53.21822601879178,916.3227687464902,-3.4507623644274075,120860.29471257672,10.5,10500120860.294712,47.655,-122.3035,60.0,9.233333333333333
2026-01-20T23:09:15+00:00,SAT-64205,211.81568223708467,53.59763630420239,912.8812084150345,-3.409702409059697,119422.20139216051,10.5,10500119422.201391,47.655,-122.3035,60.0,9.25
2026-01-20T23:09:16+00:00,SAT-64205,212.05797879989757,53.97912755935797,909.4805985457323,-3.3681763770407604,117967.78409591607,10.5,10500117967.784096,47.655,-122.3035,60.0,9.266666666666667
2026-01-20T23:09:17+00:00,SAT-64205,212.3071591009565,54.36266551170041,906.1214039723637,-3.3261830715707257,116497.00090684943,10.5,10500116497.000906,47.655,-122.3035,60.0,9.283333333333333
2026-01-20T23:09:18+00:00,SAT-64205,212.56348506883862,54.74821316648404,902.8040907223171,-3.2837214945370956,115009.81686683894,10.5,10500115009.816866,47.655,-122.3035,60.0,9.3
2026-01-20T23:09:19+00:00,SAT-64205,212.82723138383756,55.1357306757351,899.529125818432,-3.2407908105831043,113506.20271815709,10.5,10500113506.202719,47.655,-122.3035,60.0,9.316666666666666
2026-01-20T23:09:20+00:00,SAT-64205,213.09868620775455,55.52517519494821,896.2969771166772,-3.1973904513482876,111986.13855441626,10.5,10500111986.138554,47.655,-122.3035,60.0,9.333333333333334
2026-01-20T23:09:21+00:00,SAT-64205,213.37815196776293,55.91650074352374,893.1081130398659,-3.1535200124097775,110449.61021101692,10.5,10500110449.61021,47.655,-122.3035,60.0,9.35
2026-01-20T23:09:22+00:00,SAT-64205,213.66594618055257,56.309658043999576,889.9630024141559,-3.1091793486564723,108896.61260555447,10.5,10500108896.612606,47.655,-122.3035,60.0,9.366666666666667
2026-01-20T23:09:23+00:00,SAT-64205,213.9624023360402,56.70459436292848,886.8621142104291,-3.0643685247115657,107327.1480014065,10.5,10500107327.148,47.655,-122.3035,60.0,9.383333333333333
2026-01-20T23:09:24+00:00,SAT-64205,214.2678708316222,57.10125333538103,883.8059173351168,-3.019087849222894,105741.2272087258,10.5,10500105741.22721,47.655,-122.3035,60.0,9.4
2026-01-20T23:09:25+00:00,SAT-64205,214.58271996747666,57.499574782469104,880.7948803868252,-2.9733378971835696,104138.87036620341,10.5,10500104138.870367,47.655,-122.3035,60.0,9.416666666666666
2026-01-20T23:09:26+00:00,SAT-64205,214.9073370057727,57.89949451990914,877.8294713907007,-2.927119455608876,102520.10503844362,10.5,10500102520.105038,47.655,-122.3035,60.0,9.433333333333334
2026-01-20T23:09:27+00:00,SAT-64205,215.24212928895946,58.30094414656157,874.9101575869735,-2.8804336029421793,100884.96899709493,10.5,10500100884.968998,47.655,-122.3035,60.0,9.45
2026-01-20T23:09:28+00:00,SAT-64205,215.587525434677,58.70385082952966,872.0374051403059,-2.8332816859164405,99233.50941044229,10.5,10500099233.50941,47.655,-122.3035,60.0,9.466666666666667
2026-01-20T23:09:29+00:00,SAT-64205,215.9439766004702,59.1081370715724,869.2116788722185,-2.7856653063604515,97565.78238130575,10.5,10500097565.782381,47.655,-122.3035,60.0,9.483333333333333
2026-01-20T23:09:30+00:00,SAT-64205,216.31195782195687,59.51372046052053,866.4334420066749,-2.737586360279412,95881.85431580746,10.5,10500095881.854317,47.655,-122.3035,60.0,9.5
2026-01-20T23:09:31+00:00,SAT-64205,216.69196943439934,59.92051340695634,863.7031558766897,-2.689047022024006,94181.8013689059,10.5,10500094181.801369,47.655,-122.3035,60.0,9.516666666666667
2026-01-20T23:09:32+00:00,SAT-64205,217.08453857402594,60.32842286105924,861.0212796467243,-2.6400497654594126,92465.71018582408,10.5,10500092465.710186,47.655,-122.3035,60.0,9.533333333333333
2026-01-20T23:09:33+00:00,SAT-64205,217.4902207668811,60.7373500125885,858.3882700139728,-2.590597361335011,90733.67780992549,10.5,10500090733.67781,47.655,-122.3035,60.0,9.55
2026-01-20T23:09:34+00:00,SAT-64205,217.90960160436558,61.14718996895526,855.8045809122682,-2.5406928826696045,88985.81187132749,10.5,10500088985.81187,47.655,-122.3035,60.0,9.566666666666666
2026-01-20T23:09:35+00:00,SAT-64205,218.34329850831375,61.55783141090209,853.2706632106189,-2.4903397213469565,87222.23116814715,10.5,10500087222.231169,47.655,-122.3035,60.0,9.583333333333334
2026-01-20T23:09:36+00:00,SAT-64205,218.79196258864133,61.96915622584691,850.7869643951956,-2.43954156869735,85443.06498638526,10.5,10500085443.064987,47.655,-122.3035,60.0,9.6
2026-01-20T23:09:37+00:00,SAT-64205,219.25628058734438,62.381039111253486,848.3539282706814,-2.388302453262505,83648.45442261359,10.5,10500083648.454422,47.655,-122.3035,60.0,9.616666666666667
2026-01-20T23:09:38+00:00,SAT-64205,219.73697691737,62.793347155212395,845.9719946239609,-2.3366267104723963,81838.55132192874,10.5,10500081838.551321,47.655,-122.3035,60.0,9.633333333333333
2026-01-20T23:09:39+00:00,SAT-64205,220.2348157810302,63.205939381051095,843.6415989180498,-2.284519021920857,80013.5196535498,10.5,10500080013.519653,47.655,-122.3035,60.0,9.65
2026-01-20T23:09:40+00:00,SAT-64205,220.75060337577855,63.61866626532241,841.3631719468541,-2.2319843726669846,78173.53401533316,10.5,10500078173.534016,47.655,-122.3035,60.0,9.666666666666666
2026-01-20T23:09:41+00:00,SAT-64205,221.28519016241805,64.03136921273966,839.1371395325142,-2.179028127064963,76318.78228965357,10.5,10500076318.78229,47.655,-122.3035,60.0,9.683333333333334
2026-01-20T23:09:42+00:00,SAT-64205,221.83947321038048,64.44388000667288,836.9639221471214,-2.125655933828863,74449.4623183718,10.5,10500074449.462318,47.655,-122.3035,60.0,9.7
2026-01-20T23:09:43+00:00,SAT-64205,222.4143985652836,64.85602020200766,834.8439346291161,-2.071873815601676,72565.78503992117,10.5,10500072565.78504,47.655,-122.3035,60.0,9.716666666666667
2026-01-20T23:09:44+00:00,SAT-64205,223.0109636608712,65.26760049135173,832.777585810356,-2.017688127033917,70667.97302104287,10.5,10500070667.97302,47.655,-122.3035,60.0,9.733333333333333
2026-01-20T23:09:45+00:00,SAT-64205,223.63021971774424,65.67842001836505,830.7652781849943,-1.9631055659953318,68756.26084946735,10.5,10500068756.260849,47.655,-122.3035,60.0,9.75
2026-01-20T23:09:46+00:00,SAT-64205,224.273274106608,66.08826564548951,828.8074075671749,-1.908133151654874,66830.89436618242,10.5,10500066830.894365,47.655,-122.3035,60.0,9.766666666666667
2026-01-20T23:09:47+00:00,SAT-64205,224.94129262211726,66.49691116736514,826.9043627705911,-1.8527782806410198,64892.132632405,10.5,10500064892.132633,47.655,-122.3035,60.0,9.783333333333333
2026-01-20T23:09:48+00:00,SAT-64205,225.6355016386229,66.90411648433906,825.0565252320317,-1.797048670712085,62940.24595667744,10.5,10500062940.245956,47.655,-122.3035,60.0,9.8
2026-01-20T23:09:49+00:00,SAT-64205,226.35719004448046,67.30962671174575,823.2642686911082,-1.740952363252605,60975.51598230117,10.5,10500060975.515982,47.655,-122.3035,60.0,9.816666666666666
2026-01-20T23:09:50+00:00,SAT-64205,227.10771088808616,67.71317123568966,821.527958867491,-1.6844977706065052,58998.23734514463,10.5,10500058998.237345,47.655,-122.3035,60.0,9.833333333333334
2026-01-20T23:09:51+00:00,SAT-64205,227.88848265650884,68.11446272646135,819.8479530909394,-1.6276936145593885,57008.71551903277,10.5,10500057008.715519,47.655,-122.3035,60.0,9.85
2026-01-20T23:09:52+00:00,SAT-64205,228.70099002120196,68.51319608653016,818.2245999926855,-1.5705489610456242,55007.26803133605,10.5,10500055007.268032,47.655,-122.3035,60.0,9.866666666666667
2026-01-20T23:09:53+00:00,SAT-64205,229.546783944776,68.90904735785378,816.6582391622027,-1.513073200007598,52994.22375755623,10.5,10500052994.223757,47.655,-122.3035,60.0,9.883333333333333
2026-01-20T23:09:54+00:00,SAT-64205,230.42748095318566,69.30167258095055,815.1492008240617,-1.4552760407056071,50969.92275705907,10.5,10500050969.922756,47.655,-122.3035,60.0,9.9
2026-01-20T23:09:55+00:00,SAT-64205,231.3447613758787,69.69070661672082,813.6978055194646,-1.3971675137494677,48934.716344229746,10.5,10500048934.716345,47.655,-122.3035,60.0,9.916666666666666
2026-01-20T23:09:56+00:00,SAT-64205,232.30036632068038,70.0757619433646,812.3043637857519,-1.3387579655549815,46888.96689431495,10.5,10500046888.966894,47.655,-122.3035,60.0,9.933333333333334
2026-01-20T23:09:57+00:00,SAT-64205,233.29609310605906,70.45642744118025,810.9691758414383,-1.2800580347835027,44833.04701823679,10.5,10500044833.047018,47.655,-122.3035,60.0,9.95
2026-01-20T23:09:58+00:00,SAT-64205,234.3337888225427,70.83226717903158,809.6925312947476,-1.221078673806345,42767.34031436716,10.5,10500042767.340315,47.655,-122.3035,60.0,9.966666666666667
2026-01-20T23:09:59+00:00,SAT-64205,235.41534170169314,71.20281923968444,808.4747088307381,-1.1618311112319595,40692.24005607097,10.5,10500040692.240057,47.655,-122.3035,60.0,9.983333333333333
2026-01-20T23:10:00+00:00,SAT-64205,236.54266985550467,71.56759459860298,807.3159759358028,-1.1023268670494868,38608.14972209745,10.5,10500038608.149721,47.655,-122.3035,60.0,10.0
2026-01-20T23:10:01+00:00,SAT-64205,237.71770699773066,71.92607611001924,806.2165886070654,-1.042577722060608,36515.481925954206,10.5,10500036515.481926,47.655,-122.3035,60.0,10.016666666666667
2026-01-20T23:10:02+00:00,SAT-64205,238.94238465017452,72.27771763410547,805.1767910922637,-0.9825957283481098,34414.65878256068,10.5,10500034414.658783,47.655,-122.3035,60.0,10.033333333333333
2026-01-20T23:10:03+00:00,SAT-64205,240.2186104006924,72.62194337510317,804.1968156191912,-0.9223931836112937,32306.11100936563,10.5,10500032306.11101,47.655,-122.3035,60.0,10.05
2026-01-20T23:10:04+00:00,SAT-64205,241.548241708737,72.95814748671096,803.2768821507361,-0.8619826292024705,30190.277857576857,10.5,10500030190.277857,47.655,-122.3035,60.0,10.066666666666666
2026-01-20T23:10:05+00:00,SAT-64205,242.93305484912133,73.28569403138316,802.4171981418782,-0.8013768298896474,28067.606403364884,10.5,10500028067.606403,47.655,-122.3035,60.0,10.083333333333334
2026-01-20T23:10:06+00:00,SAT-64205,244.374708605173,73.60391737720192,801.6179583168683,-0.7405887685668506,25938.551362596092,10.5,10500025938.551363,47.655,-122.3035,60.0,10.1
2026-01-20T23:10:07+00:00,SAT-64205,245.8747024861939,73.912123138341,800.8793444516842,-0.6796316332508142,23803.574635401765,10.5,10500023803.574635,47.655,-122.3035,60.0,10.116666666666667
2026-01-20T23:10:08+00:00,SAT-64205,247.43432939481755,74.20958976607518,800.2015251694554,-0.6185187942583547,21663.144506833203,10.5,10500021663.144506,47.655,-122.3035,60.0,10.133333333333333
2026-01-20T23:10:09+00:00,SAT-64205,249.05462290492449,74.49557090143938,799.5846557586484,-0.557263806347374,19517.735721848705,10.5,10500019517.735722,47.655,-122.3035,60.0,10.15
2026-01-20T23:10:10+00:00,SAT-64205,250.73629971865864,74.76929861666449,799.028877989118,-0.49588037629574216,17367.828349788884,10.5,10500017367.82835,47.655,-122.3035,60.0,10.166666666666666
2026-01-20T23:10:11+00:00,SAT-64205,252.47969815115286,75.02998764210007,798.5343199604923,-0.43438236500456373,15213.907858041975,10.5,10500015213.907858,47.655,-122.3035,60.0,10.183333333333334
2026-01-20T23:10:12+00:00,SAT-64205,254.28471414774518,75.27684069150433,798.1010959484612,-0.3727837574804323,13056.464060695413,10.5,10500013056.46406,47.655,-122.3035,60.0,10.2
2026-01-20T23:10:13+00:00,SAT-64205,256.15073671249615,75.5090549438263,797.7293062810007,-0.3110986590480494,10895.990985885705,10.5,10500010895.990986,47.655,-122.3035,60.0,10.216666666666667
2026-01-20T23:10:14+00:00,SAT-64205,258.0765853841272,75.72582973057038,797.4190372183767,-0.24934127226065672,8732.986067104115,10.5,10500008732.986067,47.655,-122.3035,60.0,10.233333333333333
2026-01-20T23:10:15+00:00,SAT-64205,260.06045281116417,75.92637540519134,797.1703608561754,-0.18752588383065671,6567.949685451712,10.5,10500006567.949686,47.655,-122.3035,60.0,10.25
2026-01-20T23:10:16+00:00,SAT-64205,262.0998560572616,76.109923322054,796.9833350413684,-0.12566684730617958,4401.384562899462,10.5,10500004401.384563,47.655,-122.3035,60.0,10.266666666666667
2026-01-20T23:10:17+00:00,SAT-64205,264.1916005339026,76.27573677059287,796.858003305655,-0.06377856746060466,2233.795215543244,10.5,10500002233.795216,47.655,-122.3035,60.0,10.283333333333333
2026-01-20T23:10:18+00:00,SAT-64205,266.33176055210595,76.42312263090155,796.7943948143743,-0.0018754820010957794,65.68731295937299,10.5,10500000065.687313,47.655,-122.3035,60.0,10.3
2026-01-20T23:10:19+00:00,SAT-64205,268.5156801645414,76.5514434284248,796.7925243336585,0.06002795308045238,-2102.4328348672134,10.5,10499997897.567165,47.655,-122.3035,60.0,10.316666666666666
2026-01-20T23:10:20+00:00,SAT-64205,270.73799739725337,76.6601293940675,796.8523922121974,0.12191728195846008,-4270.058923776631,10.5,10499995729.941076,47.655,-122.3035,60.0,10.333333333333334
2026-01-20T23:10:21+00:00,SAT-64205,272.9926938247985,76.74869006671705,796.973984381404,0.18377806491982004,-6436.685213935938,10.5,10499993563.314787,47.655,-122.3035,60.0,10.35
2026-01-20T23:10:22+00:00,SAT-64205,275.27316999369845,76.81672493958428,797.1572723714839,0.24559589567386286,-8601.80713610734,10.5,10499991398.192863,47.655,-122.3035,60.0,10.366666666666667
2026-01-20T23:10:23+00:00,SAT-64205,277.57234555754735,76.86393265110345,797.4022133447694,0.3073564170907795,-10764.921842874328,10.5,10499989235.078157,47.655,-122.3035,60.0,10.383333333333333
2026-01-20T23:10:24+00:00,SAT-64205,279.88278104947995,76.89011825163742,797.7087501447479,0.3690453378195186,-12925.528790670729,10.5,10499987074.471209,47.655,-122.3035,60.0,10.4
2026-01-20T23:10:25+00:00,SAT-64205,282.19681653957883,76.89519815612832,798.0768113616666,0.43064845270500723,-15083.13045487814,10.5,10499984916.869545,47.655,-122.3035,60.0,10.416666666666666
2026-01-20T23:10:26+00:00,SAT-64205,284.50672096918214,76.8792025031757,798.5063114184977,0.49215165003320527,-17237.23258357839,10.5,10499982762.767416,47.655,-122.3035,60.0,10.433333333333334
2026-01-20T23:10:27+00:00,SAT-64205,286.80484491315286,76.84227478140441,798.9971506641309,0.5535409355837487,-19387.345039978827,10.5,10499980612.65496,47.655,-122.3035,60.0,10.45
2026-01-20T23:10:28+00:00,SAT-64205,289.0837694014818,76.78466873789336,799.549215490553,0.6148024458378196,-21532.982265007835,10.5,10499978467.017735,47.655,-122.3035,60.0,10.466666666666667
2026-01-20T23:10:29+00:00,SAT-64205,291.33644359730687,76.70674273510491,800.1623784632019,0.6759224614044232,-23673.6637475598,10.5,10499976326.336252,47.655,-122.3035,60.0,10.483333333333333
2026-01-20T23:10:30+00:00,SAT-64205,293.556305211031,76.60895186015102,800.8364984647094,0.7368874240907272,-25808.914622370638,10.5,10499974191.085377,47.655,-122.3035,60.0,10.5
2026-01-20T23:10:31+00:00,SAT-64205,295.73737900027896,76.4918381960709,801.5714208556692,0.7976839478010885,-27938.266051747803,10.5,10499972061.733948,47.655,-122.3035,60.0,10.516666666666667
2026-01-20T23:10:32+00:00,SAT-64205,297.87435043403457,76.35601973540324,802.3669776462762,0.8582988386344776,-30061.255929467097,10.5,10499969938.74407,47.655,-122.3035,60.0,10.533333333333333
2026-01-20T23:10:33+00:00,SAT-64205,299.96261348424866,76.20217844266277,803.2229876880075,0.9187191023730972,-32177.42914305576,10.5,10499967822.570856,47.655,-122.3035,60.0,10.55
2026-01-20T23:10:34+00:00,SAT-64205,301.9982931506021,76.03104796560437,804.1392568727744,0.9789319602300777,-34286.33812534342,10.5,10499965713.661875,47.655,-122.3035,60.0,10.566666666666666
2026-01-20T23:10:35+00:00,SAT-64205,303.9782448101416,75.84340144892597,805.1155783477772,1.0389248609611201,-36387.543278663004,10.5,10499963612.456722,47.655,-122.3035,60.0,10.583333333333334
2026-01-20T23:10:36+00:00,SAT-64205,305.90003348959834,75.6400398391205,806.1517327424423,1.098685492364998,-38480.61337764701,10.5,10499961519.386621,47.655,-122.3035,60.0,10.6
2026-01-20T23:10:37+00:00,SAT-64205,307.761896798962,75.42178098782372,807.2474884068276,1.1582017938365876,-40565.12600888768,10.5,10499959434.873991,47.655,-122.3035,60.0,10.616666666666667
2026-01-20T23:10:38+00:00,SAT-64205,309.5626955115047,75.18944977474986,808.4026016625473,1.2174619628864376,-42640.667799279974,10.5,10499957359.332201,47.655,-122.3035,60.0,10.633333333333333
2026-01-20T23:10:39+00:00,SAT-64205,311.3018556775762,74.9438693899421,809.6168170601994,1.2764544688248398,-44706.83489529552,10.5,10499955293.165104,47.655,-122.3035,60.0,10.65
2026-01-20T23:10:40+00:00,SAT-64205,312.97930585321575,74.68585383803972,810.8898676504408,1.335168066870901,-46763.23345714207,10.5,10499953236.766542,47.655,-122.3035,60.0,10.666666666666666
2026-01-20T23:10:41+00:00,SAT-64205,314.5954125199864,74.41620166650146,812.2214752691333,1.393591797719919,-48809.47964361114,10.5,10499951190.520357,47.655,-122.3035,60.0,10.683333333333334
2026-01-20T23:10:42+00:00,SAT-64205,316.150916189939,74.13569087420909,813.6113508220593,1.4517149929906101,-50845.199802862975,10.5,10499949154.800198,47.655,-122.3035,60.0,10.7
2026-01-20T23:10:43+00:00,SAT-64205,317.64687013792684,73.8450749177172,815.0591945750687,1.5095273007627719,-52870.031366863484,10.5,10499947129.968634,47.655,-122.3035,60.0,10.716666666666667
2026-01-20T23:10:44+00:00,SAT-64205,319.08458316237005,73.54507970680261,816.5646964696961,1.5670186694564232,-54883.62228676361,10.5,10499945116.377714,47.655,-122.3035,60.0,10.733333333333333
2026-01-20T23:10:45+00:00,SAT-64205,320.4655672244117,73.23640148135348,818.1275364227006,1.6241793765110288,-56885.63203736701,10.5,10499943114.367962,47.655,-122.3035,60.0,10.75
2026-01-20T23:10:46+00:00,SAT-64205,321.791490501561,72.91970544030224,819.7473846542076,1.6810000043934599,-58875.730776827375,10.5,10499941124.269222,47.655,-122.3035,60.0,10.766666666666667
2026-01-20T23:10:47+00:00,SAT-64205,323.06413597019736,72.59562501538156,821.4239019919227,1.7374714864697824,-60853.60095327253,10.5,10499939146.399046,47.655,-122.3035,60.0,10.783333333333333
2026-01-20T23:10:48+00:00,SAT-64205,324.2853654958528,72.2647616650295,823.1567402210951,1.7935850695248132,-62818.93599208069,10.5,10499937181.064009,47.655,-122.3035,60.0,10.8
2026-01-20T23:10:49+00:00,SAT-64205,325.4570891060565,71.92768510358685,824.9455423971013,1.8493323388801184,-64771.44117561904,10.5,10499935228.558825,47.655,-122.3035,60.0,10.816666666666666
2026-01-20T23:10:50+00:00,SAT-64205,326.581239126329,71.58493386336472,826.7899431830778,1.9047052185453361,-66710.83364854372,10.5,10499933289.166351,47.655,-122.3035,60.0,10.833333333333334
2026-01-20T23:10:51+00:00,SAT-64205,327.6597487187694,71.23701611602415,828.6895691877069,1.9596959753522918,-68636.84256259396,10.5,10499931363.157438,47.655,-122.3035,60.0,10.85
2026-01-20T23:10:52+00:00,SAT-64205,328.69453435705606,70.88441068545019,830.6440393071249,2.0142972156407652,-70549.20896051373,10.5,10499929450.79104,47.655,-122.3035,60.0,10.866666666666667
2026-01-20T23:10:53+00:00,SAT-64205,329.68748176159306,70.52756819715265,832.652965063524,2.0685018752034963,-72447.68542388319,10.5,10499927552.314575,47.655,-122.3035,60.0,10.883333333333333
2026-01-20T23:10:54+00:00,SAT-64205,330.6404348369526,70.16691231877215,834.715950933727,2.122303252022012,-74332.03721966592,10.5,10499925667.96278,47.655,-122.3035,60.0,10.9
2026-01-20T23:10:55+00:00,SAT-64205,331.5551872042555,69.80284104638623,836.8325947104103,2.1756949719741208,-76202.04109914022,10.5,10499923797.9589,47.655,-122.3035,60.0,10.916666666666666
2026-01-20T23:10:56+00:00,SAT-64205,332.4334759040869,69.435728018348,839.0024878291257,2.228671006535585,-78057.4859178867,10.5,10499921942.514082,47.655,-122.3035,60.0,10.933333333333334
2026-01-20T23:10:57+00:00,SAT-64205,333.27697694412427,69.06592382373645,841.2252157129773,2.281225660688302,-79898.17221228151,10.5,10499920101.827787,47.655,-122.3035,60.0,10.95
2026-01-20T23:10:58+00:00,SAT-64205,334.0873023661912,68.69375729247268,843.5003581052371,2.3333535816883706,-81723.9125065911,10.5,10499918276.087494,47.655,-122.3035,60.0,10.966666666666667
2026-01-20T23:10:59+00:00,SAT-64205,334.8659985691059,68.31953674994118,845.8274894107076,2.3850497454940753,-83534.53083762298,10.5,10499916465.469162,47.655,-122.3035,60.0,10.983333333333333
2026-01-20T23:11:00+00:00,SAT-64205,335.614545643664,67.94355123000577,848.206179023547,2.4363094756494323,-85329.86341610715,10.5,10499914670.136583,47.655,-122.3035,60.0,11.0
2026-01-20T23:11:01+00:00,SAT-64205,336.3343575293401,67.56607163437663,850.6359916739281,2.4871284017818165,-87109.75717310765,10.5,10499912890.242826,47.655,-122.3035,60.0,11.016666666666667
2026-01-20T23:11:02+00:00,SAT-64205,337.02678280284425,67.18735184350682,853.1164877333051,2.5375024825790877,-88874.0705647786,10.5,10499911125.929436,47.655,-122.3035,60.0,11.033333333333333
2026-01-20T23:11:03+00:00,SAT-64205,337.6931059759505,66.80762976625861,855.6472235425974,2.5874280146103774,-90622.67388130547,10.5,10499909377.326118,47.655,-122.3035,60.0,11.05
2026-01-20T23:11:04+00:00,SAT-64205,338.33454917608896,66.4271283299351,858.2277517491688,2.6369015855664446,-92355.44760918457,10.5,10499907644.552391,47.655,-122.3035,60.0,11.066666666666666
2026-01-20T23:11:05+00:00,SAT-64205,338.9522740964171,66.04605641906342,860.8576215971736,2.685920111070152,-94072.2837204817,10.5,10499905927.71628,47.655,-122.3035,60.0,11.083333333333334
2026-01-20T23:11:06+00:00,SAT-64205,339.5473841560216,65.66460975142348,863.5363792546143,2.7344808025756637,-95773.08454852612,10.5,10499904226.915451,47.655,-122.3035,60.0,11.1
2026-01-20T23:11:07+00:00,SAT-64205,340.1209267855294,65.28297170325993,866.2635681083831,2.782581180730806,-97457.76325591707,10.5,10499902542.236744,47.655,-122.3035,60.0,11.116666666666667
2026-01-20T23:11:08+00:00,SAT-64205,340.6738957956314,64.90131407911134,869.0387290726319,2.830219027831333,-99126.24216927098,10.5,10499900873.757832,47.655,-122.3035,60.0,11.133333333333333
2026-01-20T23:11:09+00:00,SAT-64205,341.2072337725331,64.51979783712319,871.8614008497225,2.877392468841703,-100778.45561691176,10.5,10499899221.544384,47.655,-122.3035,60.0,11.15
2026-01-20T23:11:10+00:00,SAT-64205,341.7218344918092,64.13857375480984,874.7311202719806,2.924099859073172,-102414.34599488258,10.5,10499897585.654005,47.655,-122.3035,60.0,11.166666666666666
2026-01-20T23:11:11+00:00,SAT-64205,342.2185452858101,63.75778306432637,877.6474225314296,2.970339852180676,-104033.86614848427,10.5,10499895966.133852,47.655,-122.3035,60.0,11.183333333333334
2026-01-20T23:11:12+00:00,SAT-64205,342.69816937960934,63.37755803531677,880.6098414773378,3.016111361941403,-105636.97803359928,10.5,10499894363.021967,47.655,-122.3035,60.0,11.2
2026-01-20T23:11:13+00:00,SAT-64205,343.16146815930983,62.99802252243915,883.6179098756472,3.0614135728140757,-107223.65308652226,10.5,10499892776.346914,47.655,-122.3035,60.0,11.216666666666667
2026-01-20T23:11:14+00:00,SAT-64205,343.6091633703433,62.61929247366259,886.6711596789338,3.1062459073131437,-108793.87108126652,10.5,10499891206.12892,47.655,-122.3035,60.0,11.233333333333333
2026-01-20T23:11:15+00:00,SAT-64205,344.04193923089224,62.24147640730488,889.7691222638275,3.150608041992936,-110347.62068939647,10.5,10499889652.37931,47.655,-122.3035,60.0,11.25
2026-01-20T23:11:16+00:00,SAT-64205,344.4604444628844,61.86467585404709,892.9113286843751,3.1944998975249206,-111884.8991324914,10.5,10499888115.100868,47.655,-122.3035,60.0,11.266666666666667
2026-01-20T23:11:17+00:00,SAT-64205,344.86529423304944,61.488985769547824,896.0973099155067,3.2379216241255198,-113405.71167176579,10.5,10499886594.288328,47.655,-122.3035,60.0,11.283333333333333
2026-01-20T23:11:18+00:00,SAT-64205,345.25707200238975,61.11449492027482,899.3265970819679,3.2808735791931714,-114910.07082482474,10.5,10499885089.929174,47.655,-122.3035,60.0,11.3
2026-01-20T23:11:19+00:00,SAT-64205,345.63633128339757,60.74128624534096,902.5987216649498,3.3233563648367976,-116397.99768006965,10.5,10499883602.00232,47.655,-122.3035,60.0,11.316666666666666
2026-01-20T23:11:20+00:00,SAT-64205,346.00359731317644,60.369437189375596,905.913215746147,3.365370761124702,-117869.51955879213,10.5,10499882130.480442,47.655,-122.3035,60.0,11.333333333333334
2026-01-20T23:11:21+00:00,SAT-64205,346.3593686317802,59.999020020155164,909.2696121852421,3.4069177959257737,-119324.67246130863,10.5,10499880675.32754,47.655,-122.3035,60.0,11.35
2026-01-20T23:11:22+00:00,SAT-64205,346.7041185839313,59.630102117182844,912.6674448670453,3.4479986338074435,-120763.49717569666,10.5,10499879236.502825,47.655,-122.3035,60.0,11.366666666666667
2026-01-20T23:11:23+00:00,SAT-64205,347.03829672713994,59.26274625281819,916.1062488378293,3.4886146666296667,-122186.0424507794,10.5,10499877813.95755,47.655,-122.3035,60.0,11.383333333333333
2026-01-20T23:11:24+00:00,SAT-64205,347.36233017112914,58.897010845114124,919.5855605320147,3.5287674595623275,-123592.36310542688,10.5,10499876407.636894,47.655,-122.3035,60.0,11.4
2026-01-20T23:11:25+00:00,SAT-64205,347.6766248362377,58.532950199630605,923.1049179450182,3.568458736159458,-124982.51950579195,10.5,10499875017.480494,47.655,-122.3035,60.0,11.416666666666666
2026-01-20T23:11:26+00:00,SAT-64205,347.98156663900846,58.17061473693351,926.6638607912145,3.607690395420816,-126356.57816287884,10.5,10499873643.421837,47.655,-122.3035,60.0,11.433333333333334
2026-01-20T23:11:27+00:00,SAT-64205,348.2775226111579,57.81005120362952,930.2619306789142,3.646464488353674,-127714.61091163801,10.5,10499872285.389088,47.655,-122.3035,60.0,11.45
2026-01-20T23:11:28+00:00,SAT-64205,348.5648419517095,57.451302872179944,933.8986712619657,3.6847832289666305,-129056.69529601581,10.5,10499870943.304705,47.655,-122.3035,60.0,11.466666666666667
2026-01-20T23:11:29+00:00,SAT-64205,348.8438570187248,57.09440972695646,937.5736284023216,3.7226489556773066,-130382.91321728886,10.5,10499869617.086782,47.655,-122.3035,60.0,11.483333333333333
2026-01-20T23:11:30+00:00,SAT-64205,349.1148842599892,56.739408642272835,941.2863502941171,3.760064156142949,-131693.35180373673,10.5,10499868306.648197,47.655,-122.3035,60.0,11.5
2026-01-20T23:11:31+00:00,SAT-64205,349.37822509105564,56.38633354697381,945.0363876125103,3.797031440920797,-132988.1024881165,10.5,10499867011.897512,47.655,-122.3035,60.0,11.516666666666667
2026-01-20T23:11:32+00:00,SAT-64205,349.6341667196614,56.03521558131807,948.8232936362555,3.833553557046818,-134267.26148324783,10.5,10499865732.738516,47.655,-122.3035,60.0,11.533333333333333
2026-01-20T23:11:33+00:00,SAT-64205,349.88298292257133,55.68608324305333,952.6466243838167,3.8696333511883902,-135530.9284914636,10.5,10499864469.071508,47.655,-122.3035,60.0,11.55
2026-01-20T23:11:34+00:00,SAT-64205,350.12493477418974,55.3389625279717,956.5059387127353,3.905273777033554,-136779.20696341307,10.5,10499863220.793037,47.655,-122.3035,60.0,11.566666666666666
2026-01-20T23:11:35+00:00,SAT-64205,350.36027133289116,54.993877061373375,960.4007984263635,3.9404779208736516,-138012.20499407407,10.5,10499861987.795006,47.655,-122.3035,60.0,11.583333333333334
2026-01-20T23:11:36+00:00,SAT-64205,350.58923028848307,54.65084821952665,964.3307684061148,3.975248934698234,-139230.0329794536,10.5,10499860769.96702,47.655,-122.3035,60.0,11.6
2026-01-20T23:11:37+00:00,SAT-64205,350.81203856764773,54.30989524977323,968.2954166769871,4.009590080541165,-140432.80516977594,10.5,10499859567.19483,47.655,-122.3035,60.0,11.616666666666667
2026-01-20T23:11:38+00:00,SAT-64205,351.02891290657493,53.97103537985965,972.2943145173135,4.043504690513722,-141620.63826967284,10.5,10499858379.36173,47.655,-122.3035,60.0,11.633333333333333
2026-01-20T23:11:39+00:00,SAT-64205,351.2400603879193,53.63428392433115,976.3270365286526,4.076996192401583,-142793.65233469824,10.5,10499857206.347666,47.655,-122.3035,60.0,11.65
2026-01-20T23:11:40+00:00,SAT-64205,351.4456789478624,53.2996543827391,980.3931607312077,4.110068089534501,-143951.97006627914,10.5,10499856048.029934,47.655,-122.3035,60.0,11.666666666666666
2026-01-20T23:11:41+00:00,SAT-64205,351.64595785267346,52.967158533958724,984.4922686391701,4.142723936306242,-145095.71595432045,10.5,10499854904.284046,47.655,-122.3035,60.0,11.683333333333334
2026-01-20T23:11:42+00:00,SAT-64205,351.841078146532,52.63680652716545,988.6239453116463,4.174967365143529,-146225.017221771,10.5,10499853774.982779,47.655,-122.3035,60.0,11.7
2026-01-20T23:11:43+00:00,SAT-64205,352.0312130749243,52.30860696562106,992.7877794304826,4.2068020667841886,-147340.00313388128,10.5,10499852659.996866,47.655,-122.3035,60.0,11.716666666666667
2026-01-20T23:11:44+00:00,SAT-64205,352.21652848280047,51.98256698739787,996.9833633584221,4.238231772309924,-148440.80436891512,10.5,10499851559.195631,47.655,-122.3035,60.0,11.733333333333333
2026-01-20T23:11:45+00:00,SAT-64205,352.3971831892441,51.658692343059954,1001.2102931793393,4.269260282080805,-149527.55403155758,10.5,10499850472.445969,47.655,-122.3035,60.0,11.75
2026-01-20T23:11:46+00:00,SAT-64205,352.57332934212883,51.336987466942986,1005.4681687673345,4.299891427552829,-150600.38631560476,10.5,10499849399.613684,47.655,-122.3035,60.0,11.766666666666667
2026-01-20T23:11:47+00:00,SAT-64205,352.74511275111064,51.017455547465815,1009.7565938177472,4.330129083310677,-151659.4369254016,10.5,10499848340.563074,47.655,-122.3035,60.0,11.783333333333333
2026-01-20T23:11:48+00:00,SAT-64205,352.9126732024102,50.70009859278202,1014.075175890169,4.359977163643939,-152704.84295592707,10.5,10499847295.157043,47.655,-122.3035,60.0,11.8
2026-01-20T23:11:49+00:00,SAT-64205,353.076144755882,50.38491749320939,1018.4235264480433,4.389439599179068,-153736.74207434602,10.5,10499846263.257925,47.655,-122.3035,60.0,11.816666666666666
2026-01-20T23:11:50+00:00,SAT-64205,353.2356560246577,50.071912082028405,1022.8012608749578,4.41852037458762,-154755.2738407115,10.5,10499845244.72616,47.655,-122.3035,60.0,11.833333333333334
2026-01-20T23:11:51+00:00,SAT-64205,353.39133044076175,49.76108119044271,1027.2079985285466,4.447223460592293,-155760.5773265286,10.5,10499844239.422674,47.655,-122.3035,60.0,11.85
2026-01-20T23:11:52+00:00,SAT-64205,353.5432865036427,49.45242270441018,1031.6433627265774,4.4755529086492984,-156752.79443093142,10.5,10499843247.205568,47.655,-122.3035,60.0,11.866666666666667
2026-01-20T23:11:53+00:00,SAT-64205,353.6916380184507,49.14593361203351,1036.1069808274701,4.503512710772315,-157732.06497112516,10.5,10499842267.935028,47.655,-122.3035,60.0,11.883333333333333
2026-01-20T23:11:54+00:00,SAT-64205,353.83649431657955,48.8416100580158,1040.5984841710138,4.531106929542353,-158698.53123588156,10.5,10499841301.468763,47.655,-122.3035,60.0,11.9
2026-01-20T23:11:55+00:00,SAT-64205,353.97796046868285,48.53944738659881,1045.117508148744,4.5583396142549235,-159652.33504865787,10.5,10499840347.664951,47.655,-122.3035,60.0,11.916666666666666
2026-01-20T23:11:56+00:00,SAT-64205,354.1161374834606,48.239440187878124,1049.663692190694,4.585214829308812,-160593.61876189205,10.5,10499839406.381239,47.655,-122.3035,60.0,11.933333333333334
2026-01-20T23:11:57+00:00,SAT-64205,354.25112249679233,47.941582339907654,1054.2366797804584,4.611736626892572,-161522.52430036786,10.5,10499838477.4757,47.655,-122.3035,60.0,11.95
2026-01-20T23:11:58+00:00,SAT-64205,354.38300894998844,47.64586705041884,1058.8361184430125,4.637909088238117,-162439.19460609055,10.5,10499837560.805393,47.655,-122.3035,60.0,11.966666666666667
2026-01-20T23:11:59+00:00,SAT-64205,354.51188675989033,47.35228689382918,1063.461659773682,4.663736261055947,-163343.77144700364,10.5,10499836656.228554,47.655,-122.3035,60.0,11.983333333333333
2026-01-20T23:12:00+00:00,SAT-64205,354.63784247823884,47.060833850309805,1068.1129594047084,4.689222221019322,-164236.3975704248,10.5,10499835763.60243,47.655,-122.3035,60.0,12.0
2026-01-20T23:12:01+00:00,SAT-64205,354.7609594444889,46.77149933908978,1072.7896770331383,4.714371004976816,-165117.21436386692,10.5,10499834882.785637,47.655,-122.3035,60.0,12.016666666666667
2026-01-20T23:12:02+00:00,SAT-64205,354.8813179288999,46.48427425417846,1077.4914763821018,4.739186661066088,-165986.3636102344,10.5,10499834013.63639,47.655,-122.3035,60.0,12.033333333333333
2026-01-20T23:12:03+00:00,SAT-64205,354.9989952696248,46.199148995274975,1082.2180252120718,4.7636732506427055,-166843.98755537876,10.5,10499833156.012445,47.655,-122.3035,60.0,12.05
2026-01-20T23:12:04+00:00,SAT-64205,355.1140660027714,45.91611349705768,1086.9689953340462,4.787834745225113,-167690.22529867542,10.5,10499832309.774702,47.655,-122.3035,60.0,12.066666666666666
2026-01-20T23:12:05+00:00,SAT-64205,355.22660198337843,45.63515726304784,1091.7440625199506,4.811675181276019,-168525.21821412267,10.5,10499831474.781786,47.655,-122.3035,60.0,12.083333333333334
2026-01-20T23:12:06+00:00,SAT-64205,355.33667250404244,45.35626938879708,1096.5429065674098,4.835198543270809,-169349.10585490277,10.5,10499830650.894146,47.655,-122.3035,60.0,12.1
2026-01-20T23:12:07+00:00,SAT-64205,355.44434440478744,45.07943859068065,1101.3652112478987,4.85840878704096,-170162.0267709673,10.5,10499829837.973228,47.655,-122.3035,60.0,12.116666666666667
2026-01-20T23:12:08+00:00,SAT-64205,355.54968217803975,44.80465323189954,1106.2106642781741,4.881309877891047,-170964.11984405556,10.5,10499829035.880156,47.655,-122.3035,60.0,12.133333333333333
2026-01-20T23:12:09+00:00,SAT-64205,355.6527480692752,44.53190134508952,1111.0789573297243,4.903905725444573,-171755.52200572038,10.5,10499828244.477995,47.655,-122.3035,60.0,12.15
2026-01-20T23:12:10+00:00,SAT-64205,355.7536021712655,44.261170657405486,1115.9697859732341,4.926200245528118,-172536.37040477264,10.5,10499827463.629595,47.655,-122.3035,60.0,12.166666666666666
2026-01-20T23:12:11+00:00,SAT-64205,355.8523025150698,43.992448610991254,1120.882849684774,4.948197315859914,-173306.80085530735,10.5,10499826693.199144,47.655,-122.3035,60.0,12.183333333333334
2026-01-20T23:12:12+00:00,SAT-64205,355.9489051556673,43.725722384831386,1125.817851807792,4.969900776073345,-174066.94783752738,10.5,10499825933.052162,47.655,-122.3035,60.0,12.2
2026-01-20T23:12:13+00:00,SAT-64205,356.0434642534882,43.460978915518034,1130.774499515129,4.991314467453254,-174816.94588947654,10.5,10499825183.05411,47.655,-122.3035,60.0,12.216666666666667
2026-01-20T23:12:14+00:00,SAT-64205,356.13603215279926,43.19820491489772,1135.7525038106692,5.012442165005515,-175556.92722782874,10.5,10499824443.072773,47.655,-122.3035,60.0,12.233333333333333
2026-01-20T23:12:15+00:00,SAT-64205,356.2266594550783,42.93738689038367,1140.7515794632347,5.033287665367863,-176287.02482689725,10.5,10499823712.975174,47.655,-122.3035,60.0,12.25
2026-01-20T23:12:16+00:00,SAT-64205,356.31539509052914,42.67851115974383,1145.7714450281615,5.053854679157902,-177007.36864820652,10.5,10499822992.631351,47.655,-122.3035,60.0,12.266666666666667
2026-01-20T23:12:17+00:00,SAT-64205,356.40228638429636,42.42156387062639,1150.8118227615082,5.074146915121716,-177718.08858773232,10.5,10499822281.911413,47.655,-122.3035,60.0,12.283333333333333
2026-01-20T23:12:18+00:00,SAT-64205,356.48737912109215,42.16653101487248,1155.8724386181896,5.094168059091158,-178419.3137388972,10.5,10499821580.68626,47.655,-122.3035,60.0,12.3
2026-01-20T23:12:19+00:00,SAT-64205,356.57071760643584,41.91339844318555,1160.9530222291232,5.113921741796892,-179111.171265247,10.5,10499820888.828735,47.655,-122.3035,60.0,12.316666666666666
2026-01-20T23:12:20+00:00,SAT-64205,356.6523447245268,41.662151880634674,1166.0533068462753,5.13341155681948,-179793.78702917384,10.5,10499820206.21297,47.655,-122.3035,60.0,12.333333333333334
2026-01-20T23:12:21+00:00,SAT-64205,356.732301993785,41.41277694051077,1171.1730293056098,5.152641096846288,-180467.28686178633,10.5,10499819532.713139,47.655,-122.3035,60.0,12.35
2026-01-20T23:12:22+00:00,SAT-64205,356.81062962042597,41.1652591357478,1176.311930026198,5.171613895501922,-181131.79452556538,10.5,10499818868.205475,47.655,-122.3035,60.0,12.366666666666667
2026-01-20T23:12:23+00:00,SAT-64205,356.8873665486861,40.9195838925471,1181.4697529513119,5.190333444789568,-181787.43232523368,10.5,10499818212.567675,47.655,-122.3035,60.0,12.383333333333333
2026-01-20T23:12:24+00:00,SAT-64205,356.96255050907104,40.67573656246931,1186.6462455069154,5.208803206366097,-182434.32150265775,10.5,10499817565.678497,47.655,-122.3035,60.0,12.4
2026-01-20T23:12:25+00:00,SAT-64205,357.0362180646359,40.43370243340123,1191.841158571398,5.227026627229805,-183072.58278629862,10.5,10499816927.417213,47.655,-122.3035,60.0,12.416666666666666
2026-01-20T23:12:26+00:00,SAT-64205,357.108404655397,40.193466739250475,1197.054246460955,5.245007100713008,-183702.3350250078,10.5,10499816297.664974,47.655,-122.3035,60.0,12.433333333333334
