satellites_20260120_184412/SAT-66194.csv

timestamp,satellite,azimuth_deg,elevation_deg,distance_km,relative_velocity_kms,doppler_shift_hz,tx_freq_ghz,rx_freq_hz,ue_lat,ue_lon,ue_alt_m,time_minutes
2026-01-20T23:01:10+00:00,SAT-66194,255.03964527637538,40.85653548106999,463547.1296360533,-196.859073066857,6894837.451854771,10.5,10506894837.451855,47.655,-122.3035,60.0,1.1666666666666667
2026-01-20T23:01:11+00:00,SAT-66194,252.97517359706094,41.997261004283,463350.7955205146,-196.1746250349469,6870865.1865649745,10.5,10506870865.186565,47.655,-122.3035,60.0,1.1833333333333333
2026-01-20T23:01:12+00:00,SAT-66194,250.8352710303443,43.09977466729474,463155.1440278131,-195.26803639010114,6839112.617356312,10.5,10506839112.617357,47.655,-122.3035,60.0,1.2
2026-01-20T23:01:13+00:00,SAT-66194,248.61700619591147,44.16105491141834,462960.3967061867,-194.14001519750187,6799604.54366657,10.5,10506799604.543667,47.655,-122.3035,60.0,1.2166666666666666
2026-01-20T23:01:14+00:00,SAT-66194,246.31780597771993,45.17791464406603,462766.77439769637,-192.7915235979327,6752374.663735848,10.5,10506752374.663736,47.655,-122.3035,60.0,1.2333333333333334
2026-01-20T23:01:15+00:00,SAT-66194,243.93557359538332,46.14701214872651,462574.49698482803,-191.22377954545155,6697465.635467191,10.5,10506697465.635468,47.655,-122.3035,60.0,1.25
2026-01-20T23:01:16+00:00,SAT-66194,241.46882106685234,47.064868508488246,462383.7831353614,-189.43825594245743,6634929.0461329855,10.5,10506634929.046133,47.655,-122.3035,60.0,1.2666666666666666
2026-01-20T23:01:17+00:00,SAT-66194,238.91681345265425,47.92789262472442,462194.85004810145,-187.43667949399233,6564825.3722477555,10.5,10506564825.372248,47.655,-122.3035,60.0,1.2833333333333334
2026-01-20T23:01:18+00:00,SAT-66194,236.27972036829698,48.73241480596647,462007.91319975274,-185.2210323553165,6487224.0372732235,10.5,10506487224.037273,47.655,-122.3035,60.0,1.3
2026-01-20T23:01:19+00:00,SAT-66194,233.55876802734267,49.474729657461815,461823.18609015044,-182.79354907374272,6402203.30450841,10.5,10506402203.304508,47.655,-122.3035,60.0,1.3166666666666667
2026-01-20T23:01:20+00:00,SAT-66194,230.75638287564752,50.1511485475351,461640.87999054085,-180.1567162816554,6309850.266337861,10.5,10506309850.266338,47.655,-122.3035,60.0,1.3333333333333333
2026-01-20T23:01:21+00:00,SAT-66194,227.8763156360603,50.75806136245437,461461.2036921693,-177.3132704418036,6210260.765262273,10.5,10506210260.765263,47.655,-122.3035,60.0,1.35
2026-01-20T23:01:22+00:00,SAT-66194,224.92373306404306,51.29200647252322,461284.3632571153,-174.26619720913982,6103539.371547393,10.5,10506103539.371548,47.655,-122.3035,60.0,1.3666666666666667
2026-01-20T23:01:23+00:00,SAT-66194,221.90526410399266,51.74974695037714,461110.5617697654,-171.0187273528969,5989799.240397893,10.5,10505989799.240398,47.655,-122.3035,60.0,1.3833333333333333
2026-01-20T23:01:24+00:00,SAT-66194,218.82898815372832,52.128350125878406,460939.9990923521,-167.57433533324746,5869162.062105973,10.5,10505869162.062105,47.655,-122.3035,60.0,1.4
2026-01-20T23:01:25+00:00,SAT-66194,215.70435580765334,52.42526671627158,460772.8716219131,-163.93673505307478,5741757.9132603975,10.5,10505741757.91326,47.655,-122.3035,60.0,1.4166666666666667
2026-01-20T23:01:26+00:00,SAT-66194,212.54203720829415,52.63840510888025,460609.3720514868,-160.10987868143954,5607725.215539328,10.5,10505607725.21554,47.655,-122.3035,60.0,1.4333333333333333
2026-01-20T23:01:27+00:00,SAT-66194,209.35369929995446,52.766196107738416,460449.6891324819,-156.09794984106085,5467210.497107099,10.5,10505467210.497107,47.655,-122.3035,60.0,1.45
2026-01-20T23:01:28+00:00,SAT-66194,206.15172060436626,52.807643644414306,460294.0074438404,-151.9053620706789,5320368.338759637,10.5,10505320368.33876,47.655,-122.3035,60.0,1.4666666666666666
2026-01-20T23:01:29+00:00,SAT-66194,202.9488589278101,52.76235770084883,460142.5071627352,-147.53675274625874,5167361.161019323,10.5,10505167361.161018,47.655,-122.3035,60.0,1.4833333333333334
2026-01-20T23:01:30+00:00,SAT-66194,199.7578932377708,52.63056689562516,459995.36384132964,-142.9969795509363,5008359.100497555,10.5,10505008359.100498,47.655,-122.3035,60.0,1.5
2026-01-20T23:01:31+00:00,SAT-66194,196.59126403766703,52.41310975517287,459852.7481870575,-138.29111396401575,4843539.781851902,10.5,10504843539.781853,47.655,-122.3035,60.0,1.5166666666666666
2026-01-20T23:01:32+00:00,SAT-66194,193.46073686918257,52.111405391917216,459714.82584939734,-133.42443671519183,4673088.158573736,10.5,10504673088.158573,47.655,-122.3035,60.0,1.5333333333333334
2026-01-20T23:01:33+00:00,SAT-66194,190.37711057285924,51.727405906837525,459581.7572111801,-128.40243147058982,4497196.2918466525,10.5,10504497196.291847,47.655,-122.3035,60.0,1.55
2026-01-20T23:01:34+00:00,SAT-66194,187.3499866124219,51.26353411338036,459453.6971861934,-123.23077895608648,4316063.144720298,10.5,10504316063.14472,47.655,-122.3035,60.0,1.5666666666666667
2026-01-20T23:01:35+00:00,SAT-66194,184.38760882120886,50.72261098407698,459330.7950226479,-117.91534999328402,4129894.3382007373,10.5,10504129894.338202,47.655,-122.3035,60.0,1.5833333333333333
2026-01-20T23:01:36+00:00,SAT-66194,181.49677576158084,50.10777750464211,459213.1941135879,-112.46219894980176,3938901.921851945,10.5,10503938901.921852,47.655,-122.3035,60.0,1.6
2026-01-20T23:01:37+00:00,SAT-66194,178.68282143298777,49.4224154037142,459101.0318138353,-106.87755646469118,3743304.1190090827,10.5,10503743304.119009,47.655,-122.3035,60.0,1.6166666666666667
2026-01-20T23:01:38+00:00,SAT-66194,175.9496552107916,48.670070632865084,458994.4392641879,-101.16782231898297,3543325.077074892,10.5,10503543325.077074,47.655,-122.3035,60.0,1.6333333333333333
2026-01-20T23:01:39+00:00,SAT-66194,173.29984888755277,47.85438262882998,458893.5412227284,-95.33955698899297,3339194.5716807395,10.5,10503339194.57168,47.655,-122.3035,60.0,1.65
2026-01-20T23:01:40+00:00,SAT-66194,170.73475758918028,46.979021467585774,458798.45590455807,-89.39947406072339,3131147.7410068656,10.5,10503131147.741007,47.655,-122.3035,60.0,1.6666666666666667
2026-01-20T23:01:41+00:00,SAT-66194,168.2546616863419,46.04763410243421,458709.29482909484,-83.35443204032008,2919424.7989499485,10.5,10502919424.79895,47.655,-122.3035,60.0,1.6833333333333333
2026-01-20T23:01:42+00:00,SAT-66194,165.85891834465315,45.063800099720645,458626.1626755399,-77.2114253920356,2704270.7212346676,10.5,10502704270.721235,47.655,-122.3035,60.0,1.7
2026-01-20T23:01:43+00:00,SAT-66194,163.54611346236166,44.03099666891726,458549.15714728227,-70.97757606161146,2485934.948526691,10.5,10502485934.948526,47.655,-122.3035,60.0,1.7166666666666666
2026-01-20T23:01:44+00:00,SAT-66194,161.31420701134326,42.95257232615837,458478.36884475686,-64.66012398901026,2264671.0541484263,10.5,10502264671.054148,47.655,-122.3035,60.0,1.7333333333333334
2026-01-20T23:01:45+00:00,SAT-66194,159.16066704439123,41.83172826893155,458413.8811477651,-58.26641844073991,2040736.4405003448,10.5,10502040736.4405,47.655,-122.3035,60.0,1.75
2026-01-20T23:01:46+00:00,SAT-66194,157.08258949841925,40.6715063760923,458355.77010644024,-51.803908209554876,1814391.9958130708,10.5,10501814391.995813,47.655,-122.3035,60.0,1.7666666666666666
2026-01-20T23:04:17+00:00,SAT-66194,255.95964645973066,40.31942565284097,463843.22498465463,-196.20354867824503,6871878.214900165,10.5,10506871878.214901,47.655,-122.3035,60.0,4.283333333333333
2026-01-20T23:04:18+00:00,SAT-66194,253.92854006220483,41.47660346258533,463647.5446454395,-195.66414387142163,6852985.97688514,10.5,10506852985.976885,47.655,-122.3035,60.0,4.3
2026-01-20T23:04:19+00:00,SAT-66194,251.82344413775758,42.596884697895455,463452.40227261843,-194.90334547253227,6826339.598781997,10.5,10506826339.598782,47.655,-122.3035,60.0,4.316666666666666
2026-01-20T23:04:20+00:00,SAT-66194,249.64130044496133,43.677325898909245,463258.0186694005,-193.92169804466948,6791958.153493741,10.5,10506791958.153494,47.655,-122.3035,60.0,4.333333333333333
2026-01-20T23:04:21+00:00,SAT-66194,247.37936036102724,44.71481502455746,463064.6140958839,-192.7199984208105,6749869.54948183,10.5,10506749869.549482,47.655,-122.3035,60.0,4.35
2026-01-20T23:04:22+00:00,SAT-66194,245.03529589211576,45.70607977050473,462872.4080174589,-191.29929825542192,6700110.62013418,10.5,10506700110.620134,47.655,-122.3035,60.0,4.366666666666666
2026-01-20T23:04:23+00:00,SAT-66194,242.60732573326007,46.64770189272462,462681.6188506655,-189.66090168336373,6642727.0417700745,10.5,10506642727.04177,47.655,-122.3035,60.0,4.383333333333334
2026-01-20T23:04:24+00:00,SAT-66194,240.0943545294194,47.53613862444091,462492.4637113866,-187.80636778009585,6577773.419807,10.5,10506577773.419807,47.655,-122.3035,60.0,4.4
2026-01-20T23:04:25+00:00,SAT-66194,237.49612166056386,48.36775225500622,462305.15816058725,-185.73750737594514,6505313.177182809,10.5,10506505313.177183,47.655,-122.3035,60.0,4.416666666666667
2026-01-20T23:04:26+00:00,SAT-66194,234.81335394751721,49.13884869650642,462119.915953231,-183.45638531692703,6425418.633539253,10.5,10506425418.63354,47.655,-122.3035,60.0,4.433333333333334
2026-01-20T23:04:27+00:00,SAT-66194,232.04791425778728,49.84572557342579,461936.9487849416,-180.9653171291328,6338170.8883947125,10.5,10506338170.888395,47.655,-122.3035,60.0,4.45
2026-01-20T23:04:28+00:00,SAT-66194,229.2029358826538,50.48472980338947,461756.4660419915,-178.2668686638048,6243659.808713234,10.5,10506243659.808714,47.655,-122.3035,60.0,4.466666666666667
2026-01-20T23:04:29+00:00,SAT-66194,226.28293055007822,51.05232398230352,461578.6745516441,-175.36385364083813,6141983.94286757,10.5,10506141983.942867,47.655,-122.3035,60.0,4.483333333333333
2026-01-20T23:04:30+00:00,SAT-66194,223.29385692716835,51.54516002118788,461403.77833494626,-172.25933254237398,6033250.481888129,10.5,10506033250.481888,47.655,-122.3035,60.0,4.5
2026-01-20T23:04:31+00:00,SAT-66194,220.24313661655955,51.96015756324424,461231.978360624,-168.95660941568246,5917575.1474864185,10.5,10505917575.147486,47.655,-122.3035,60.0,4.516666666666667
2026-01-20T23:04:32+00:00,SAT-66194,217.13960660747145,52.294583782503416,461063.4723021668,-165.4592285800288,5795082.07671556,10.5,10505795082.076715,47.655,-122.3035,60.0,4.533333333333333
2026-01-20T23:04:33+00:00,SAT-66194,213.99340092117873,52.54613041019173,460898.4542981963,-161.7709732547887,5665903.773921095,10.5,10505665903.773922,47.655,-122.3035,60.0,4.55
2026-01-20T23:04:34+00:00,SAT-66194,210.81575974807288,52.71298337407071,460737.1147142035,-157.8958601000137,5530180.919528482,10.5,10505530180.919529,47.655,-122.3035,60.0,4.566666666666666
2026-01-20T23:04:35+00:00,SAT-66194,207.61877134826113,52.79388039829383,460579.6399097304,-153.83813644111177,5388062.2728396775,10.5,10505388062.27284,47.655,-122.3035,60.0,4.583333333333333
2026-01-20T23:04:36+00:00,SAT-66194,204.41505907321334,52.788152414186754,460426.21200831985,-149.60227540028112,5239704.501515351,10.5,10505239704.501514,47.655,-122.3035,60.0,4.6
2026-01-20T23:04:37+00:00,SAT-66194,201.21743235359028,52.69574563016286,460277.0086723207,-145.19297240086874,5085272.059142735,10.5,10505085272.059143,47.655,-122.3035,60.0,4.616666666666666
2026-01-20T23:04:38+00:00,SAT-66194,198.03852486303236,52.51722253829699,460132.2028811795,-140.61513882589367,4924936.963130285,10.5,10504924936.96313,47.655,-122.3035,60.0,4.633333333333334
2026-01-20T23:04:39+00:00,SAT-66194,194.89044477245105,52.25374180195065,459991.96271605714,-135.8738978800159,4758878.649776329,10.5,10504758878.649776,47.655,-122.3035,60.0,4.65
2026-01-20T23:04:40+00:00,SAT-66194,191.78446037921748,51.90701863985054,459856.4511485715,-130.97457796709938,4587283.742323309,10.5,10504587283.742323,47.655,-122.3035,60.0,4.666666666666667
2026-01-20T23:04:41+00:00,SAT-66194,188.7307401367329,51.47926877118107,459725.82583614567,-125.9227081465159,4410345.891818322,10.5,10504410345.891819,47.655,-122.3035,60.0,4.683333333333334
2026-01-20T23:04:42+00:00,SAT-66194,185.73815965322922,50.9731400117625,459600.23892188753,-120.72401026482979,4228265.501531439,10.5,10504228265.501532,47.655,-122.3035,60.0,4.7
2026-01-20T23:04:43+00:00,SAT-66194,182.8141811482018,50.39163614570273,459479.83684231667,-115.3843935244002,4041249.5367251765,10.5,10504041249.536726,47.655,-122.3035,60.0,4.716666666666667
2026-01-20T23:04:44+00:00,SAT-66194,179.96480383477044,49.73803768371916,459364.76014050836,-109.90994652939224,3849511.2460721694,10.5,10503849511.246073,47.655,-122.3035,60.0,4.733333333333333
2026-01-20T23:04:45+00:00,SAT-66194,177.19457816482654,49.01582369870789,459255.14328716975,-104.30693154700812,3653269.9606592013,10.5,10503653269.960659,47.655,-122.3035,60.0,4.75
2026-01-20T23:04:46+00:00,SAT-66194,174.50667289429177,48.22859816078865,459151.1145074402,-98.58177521797785,3452750.768629301,10.5,10503452750.76863,47.655,-122.3035,60.0,4.766666666666667
2026-01-20T23:04:47+00:00,SAT-66194,171.9029821112833,47.3800233207932,459052.79561695614,-92.74106190816644,3248184.2823269013,10.5,10503248184.282328,47.655,-122.3035,60.0,4.783333333333333
2026-01-20T23:04:48+00:00,SAT-66194,169.38425896770045,46.47376172574269,458960.3018645464,-86.79152536785004,3039806.346170408,10.5,10503039806.34617,47.655,-122.3035,60.0,4.8
2026-01-20T23:04:49+00:00,SAT-66194,166.9502640117994,45.51342762749073,458873.74178324617,-80.74004014080143,2827857.735762035,10.5,10502827857.735762,47.655,-122.3035,60.0,4.816666666666666
2026-01-20T23:04:50+00:00,SAT-66194,164.59991785827444,44.502547839687736,458793.2170498791,-74.59361311993803,2612583.862130879,10.5,10502612583.862131,47.655,-122.3035,60.0,4.833333333333333
2026-01-20T23:04:51+00:00,SAT-66194,162.3314501716096,43.4445315680015,458718.82235306076,-68.35937452810433,2394234.4558417657,10.5,10502394234.455841,47.655,-122.3035,60.0,4.85
2026-01-20T23:04:52+00:00,SAT-66194,160.14253923530111,42.342648394462444,458650.6452701981,-62.0445692560553,2173063.2636147924,10.5,10502173063.263615,47.655,-122.3035,60.0,4.866666666666666
2026-01-20T23:04:53+00:00,SAT-66194,158.0304384162253,41.20001338493531,458588.7661531267,-55.65654705871025,1949327.7049566659,10.5,10501949327.704956,47.655,-122.3035,60.0,4.883333333333334
2026-01-20T23:04:54+00:00,SAT-66194,155.99208760443375,40.019578235176496,458533.25802352687,-49.2027534531236,1723288.5533691372,10.5,10501723288.55337,47.655,-122.3035,60.0,4.9
2026-01-20T23:07:25+00:00,SAT-66194,254.80700340026175,40.98208840802437,463938.81562325306,-195.02926732366862,6830749.914657694,10.5,10506830749.914658,47.655,-122.3035,60.0,7.416666666666667
2026-01-20T23:07:26+00:00,SAT-66194,252.73390417953607,42.11844165090995,463744.3064339756,-194.40799364721894,6808990.2825233815,10.5,10506808990.282524,47.655,-122.3035,60.0,7.433333333333334
2026-01-20T23:07:27+00:00,SAT-66194,250.5850461172961,43.216226631947166,463550.41686164483,-193.56658598616067,6779520.627082243,10.5,10506779520.627083,47.655,-122.3035,60.0,7.45
2026-01-20T23:07:28+00:00,SAT-66194,248.35753738022981,44.27240313628106,463357.36645322124,-192.5056843950397,6742363.365751906,10.5,10506742363.365751,47.655,-122.3035,60.0,7.466666666666667
2026-01-20T23:07:29+00:00,SAT-66194,246.0488575060756,45.28376654688405,463165.3741173179,-191.2261800424402,6697549.711025827,10.5,10506697549.711025,47.655,-122.3035,60.0,7.483333333333333
2026-01-20T23:07:30+00:00,SAT-66194,243.65697715156563,46.24695946560958,462974.65787375555,-189.7292180438751,6645119.769693101,10.5,10506645119.769693,47.655,-122.3035,60.0,7.5
2026-01-20T23:07:31+00:00,SAT-66194,241.1804919661783,47.158489979278436,462785.43460029317,-188.01619495864477,6585122.455167868,10.5,10506585122.455168,47.655,-122.3035,60.0,7.516666666666667
2026-01-20T23:07:32+00:00,SAT-66194,238.618767813631,48.01475762854463,462597.9197818544,-186.08875942793378,6517615.509838158,10.5,10506517615.509838,47.655,-122.3035,60.0,7.533333333333333
2026-01-20T23:07:33+00:00,SAT-66194,235.97209254478798,48.81208804722809,462412.3272591183,-183.94881256200094,6442665.518626922,10.5,10506442665.518627,47.655,-122.3035,60.0,7.55
2026-01-20T23:07:34+00:00,SAT-66194,233.2418273608523,49.546776945348526,462228.8689767231,-181.59850604091733,6360347.842471847,10.5,10506360347.842472,47.655,-122.3035,60.0,7.566666666666666
2026-01-20T23:07:35+00:00,SAT-66194,230.43054854017413,50.215143660550666,462047.75473336497,-179.04024131201822,6270746.590216727,10.5,10506270746.590218,47.655,-122.3035,60.0,7.583333333333333
2026-01-20T23:07:36+00:00,SAT-66194,227.54216816289838,50.81359389925772,461869.19193269644,-176.27666704857648,6173954.529603454,10.5,10506173954.529604,47.655,-122.3035,60.0,7.6
2026-01-20T23:07:37+00:00,SAT-66194,224.5820210262904,51.33869049266653,461693.38533676,-173.310679709251,6070073.106866268,10.5,10506070073.106867,47.655,-122.3035,60.0,7.616666666666666
2026-01-20T23:07:38+00:00,SAT-66194,221.5569044647193,51.78723010469377,461520.53681886336,-170.14541857870728,5959212.273033321,10.5,10505959212.273033,47.655,-122.3035,60.0,7.633333333333334
2026-01-20T23:07:39+00:00,SAT-66194,218.47505906490733,52.15632286459031,461350.84512140084,-166.78426482130433,5841490.450782773,10.5,10505841490.450783,47.655,-122.3035,60.0,7.65
2026-01-20T23:07:40+00:00,SAT-66194,215.34608109816207,52.44347108246205,461184.505614619,-163.23083776382046,5717034.404248137,10.5,10505717034.404247,47.655,-122.3035,60.0,7.666666666666667
2026-01-20T23:07:41+00:00,SAT-66194,212.18076247256715,52.64664257627151,461021.71005908924,-159.48899230234548,5585979.148196676,10.5,10505585979.148197,47.655,-122.3035,60.0,7.683333333333334
2026-01-20T23:07:42+00:00,SAT-66194,208.9908603499882,52.7643339234593,460862.6463707664,-155.56281485636353,5448467.8063242575,10.5,10505448467.806324,47.655,-122.3035,60.0,7.7
2026-01-20T23:07:43+00:00,SAT-66194,205.78880580653964,52.79561920847849,460707.49839008297,-151.4566193167857,5304651.46933833,10.5,10505304651.469337,47.655,-122.3035,60.0,7.716666666666667
2026-01-20T23:07:44+00:00,SAT-66194,202.5873677748968,52.74018063242107,460556.4456550844,-147.1749424417556,5154689.033699553,10.5,10505154689.033699,47.655,-122.3035,60.0,7.733333333333333
2026-01-20T23:07:45+00:00,SAT-66194,199.39929391213283,52.59831861423979,460409.6631791558,-142.72254036679783,4998747.0793924285,10.5,10504998747.079391,47.655,-122.3035,60.0,7.75
2026-01-20T23:07:46+00:00,SAT-66194,196.23695289007375,52.37094060002261,460267.32123222994,-138.10438236339095,4836999.651324133,10.5,10504836999.651323,47.655,-122.3035,60.0,7.766666666666667
2026-01-20T23:07:47+00:00,SAT-66194,193.11200250457196,52.059529497275676,460129.58512821957,-133.3256453529266,4669628.0671801595,10.5,10504669628.06718,47.655,-122.3035,60.0,7.783333333333333
2026-01-20T23:07:48+00:00,SAT-66194,190.03510470728796,51.666094219914854,459996.6150179209,-128.39170950287513,4496820.763183405,10.5,10504496820.763184,47.655,-122.3035,60.0,7.8
2026-01-20T23:07:49+00:00,SAT-66194,187.0157030255379,51.19310604920404,459868.56568631006,-123.30815093190492,4318773.038596594,10.5,10504318773.038597,47.655,-122.3035,60.0,7.816666666666666
2026-01-20T23:07:50+00:00,SAT-66194,184.0618709453073,50.643425271716524,459745.58635711396,-118.08073592030777,4135686.852946887,10.5,10504135686.852947,47.655,-122.3035,60.0,7.833333333333333
2026-01-20T23:07:51+00:00,SAT-66194,181.18023258556207,50.020222764741945,459627.82050315605,-112.71541357914424,3947770.569268339,10.5,10503947770.56927,47.655,-122.3035,60.0,7.85
2026-01-20T23:07:52+00:00,SAT-66194,178.3759508010735,49.326900945740185,459515.4056640132,-107.21831006801995,3755238.7515839688,10.5,10503755238.751583,47.655,-122.3035,60.0,7.866666666666666
2026-01-20T23:07:53+00:00,SAT-66194,175.6527731146258,48.567017856194134,459408.4732694386,-101.59572008633204,3558311.866893217,10.5,10503558311.866894,47.655,-122.3035,60.0,7.883333333333334
2026-01-20T23:07:54+00:00,SAT-66194,173.01312322145478,47.744217317934066,459307.14847127255,-95.8540998606495,3357216.039560341,10.5,10503357216.03956,47.655,-122.3035,60.0,7.9
2026-01-20T23:07:55+00:00,SAT-66194,170.45822476858098,46.86216714493116,459211.54998234485,-90.00005881973188,3152182.759738354,10.5,10503152182.759739,47.655,-122.3035,60.0,7.916666666666667
2026-01-20T23:07:56+00:00,SAT-66194,167.98824473130887,45.924506518048425,459121.789923682,-84.04035223492141,2943448.6256044335,10.5,10502943448.625605,47.655,-122.3035,60.0,7.933333333333334
2026-01-20T23:07:57+00:00,SAT-66194,165.6024452271461,44.93480284391503,459037.973679053,-77.9818719947754,2731255.0202485137,10.5,10502731255.020248,47.655,-122.3035,60.0,7.95
2026-01-20T23:07:58+00:00,SAT-66194,163.2993348196835,43.896517844756254,458960.19975871686,-71.83163832711736,2515847.821744509,10.5,10502515847.821745,47.655,-122.3035,60.0,7.966666666666667
2026-01-20T23:07:59+00:00,SAT-66194,161.07681258847305,42.812982176355504,458888.5596714253,-65.59679075490449,2297477.086386533,10.5,10502297477.086386,47.655,-122.3035,60.0,7.983333333333333
2026-01-20T23:08:00+00:00,SAT-66194,158.9323004628927,41.68737762682446,458823.1378054457,-59.28457934118673,2076396.7420503309,10.5,10502076396.74205,47.655,-122.3035,60.0,8.0
2026-01-20T23:08:01+00:00,SAT-66194,156.862861164685,40.52272581025098,458764.01131831616,-52.90235494839583,1852864.2470323795,10.5,10501852864.247032,47.655,-122.3035,60.0,8.016666666666667
2026-01-20T23:10:32+00:00,SAT-66194,255.61353927396925,40.5153083205399,464223.8658387657,-194.27667140214845,6804390.822008467,10.5,10506804390.822008,47.655,-122.3035,60.0,10.533333333333333
2026-01-20T23:10:33+00:00,SAT-66194,253.56971878803006,41.66616280584681,464030.1072384873,-193.78785318395398,6787270.340308284,10.5,10506787270.34031,47.655,-122.3035,60.0,10.55
2026-01-20T23:10:34+00:00,SAT-66194,251.45138391203812,42.77960491510953,463836.8361529118,-193.0797382843595,6762469.16120143,10.5,10506762469.161201,47.655,-122.3035,60.0,10.566666666666666
2026-01-20T23:10:35+00:00,SAT-66194,249.25552661721883,43.85266233570014,463644.27129392955,-192.15281780765764,6730004.485237601,10.5,10506730004.485237,47.655,-122.3035,60.0,10.583333333333334
2026-01-20T23:10:36+00:00,SAT-66194,246.97946695031126,44.88219540283827,463452.63088363607,-191.00783260654012,6689902.260211867,10.5,10506689902.260212,47.655,-122.3035,60.0,10.6
2026-01-20T23:10:37+00:00,SAT-66194,244.62096667190562,45.864906399905365,463262.13240524975,-189.6457753200508,6642197.252542403,10.5,10506642197.252542,47.655,-122.3035,60.0,10.616666666666667
2026-01-20T23:10:38+00:00,SAT-66194,242.17835769503347,46.79735505340879,463072.99235199724,-188.0678892600884,6586933.008271103,10.5,10506586933.00827,47.655,-122.3035,60.0,10.633333333333333
2026-01-20T23:10:39+00:00,SAT-66194,239.65068317997537,47.675981312424454,462885.42597710853,-186.27566900025846,6524161.873687676,10.5,10506524161.873688,47.655,-122.3035,60.0,10.65
2026-01-20T23:10:40+00:00,SAT-66194,237.03784730904454,48.49713643994312,462699.6470432256,-184.27085953422878,6453944.965851682,10.5,10506453944.96585,47.655,-122.3035,60.0,10.666666666666666
2026-01-20T23:10:41+00:00,SAT-66194,234.3407677000442,49.25712321169173,462515.86757265014,-182.05545668132945,6376352.186798371,10.5,10506376352.186798,47.655,-122.3035,60.0,10.683333333333334
2026-01-20T23:10:42+00:00,SAT-66194,231.56152209516534,49.952245658163896,462334.29759718664,-179.63170463116023,6291462.13754044,10.5,10506291462.13754,47.655,-122.3035,60.0,10.7
2026-01-20T23:10:43+00:00,SAT-66194,228.70347880596626,50.578868220299604,462155.1449104345,-177.0020961864953,6199362.126575582,10.5,10506199362.126575,47.655,-122.3035,60.0,10.716666666666667
2026-01-20T23:10:44+00:00,SAT-66194,225.77139853702477,51.133483490526956,461978.6148198378,-174.16936893763224,6100148.035896014,10.5,10506100148.035896,47.655,-122.3035,60.0,10.733333333333333
2026-01-20T23:10:45+00:00,SAT-66194,222.7714944275292,51.612786821287095,461804.9099025507,-171.1365055823838,5993924.332195942,10.5,10505993924.332195,47.655,-122.3035,60.0,10.75
2026-01-20T23:10:46+00:00,SAT-66194,219.71143749837296,52.01375517643671,461634.22976098314,-167.90673051240208,5880803.947310181,10.5,10505880803.94731,47.655,-122.3035,60.0,10.766666666666667
2026-01-20T23:10:47+00:00,SAT-66194,216.60029704354895,52.33372667561994,461466.7707817522,-164.48350610201962,5760908.14823369,10.5,10505760908.148233,47.655,-122.3035,60.0,10.783333333333333
2026-01-20T23:10:48+00:00,SAT-66194,213.448409592205,52.57047657707113,461302.72589833307,-160.87053191676023,5634366.509400255,10.5,10505634366.5094,47.655,-122.3035,60.0,10.8
2026-01-20T23:10:49+00:00,SAT-66194,210.26717586289163,52.722285054072714,461142.2843545014,-157.07173913973722,5501316.717471394,10.5,10505501316.717472,47.655,-122.3035,60.0,10.816666666666666
2026-01-20T23:10:50+00:00,SAT-66194,207.06879225989334,52.78799216603534,460985.6314733327,-153.09128791733164,5361904.478370775,10.5,10505361904.47837,47.655,-122.3035,60.0,10.833333333333334
2026-01-20T23:10:51+00:00,SAT-66194,203.86593045995454,52.767036022463614,460832.9484288498,-148.93356296316432,5216283.363316717,10.5,10505216283.363317,47.655,-122.3035,60.0,10.85
2026-01-20T23:10:52+00:00,SAT-66194,200.67138484215195,52.659471216895646,460684.41202205454,-144.60316953995593,5064614.66808994,10.5,10505064614.66809,47.655,-122.3035,60.0,10.866666666666667
2026-01-20T23:10:53+00:00,SAT-66194,197.49771145267934,52.46596609179272,460540.1944609667,-140.10492768719124,4907067.210861949,10.5,10504907067.210861,47.655,-122.3035,60.0,10.883333333333333
2026-01-20T23:10:54+00:00,SAT-66194,194.35688331069207,52.18777907843328,460400.46314642,-135.44386830985962,4743817.195206178,10.5,10504743817.195206,47.655,-122.3035,60.0,10.9
2026-01-20T23:10:55+00:00,SAT-66194,191.2599847282931,51.8267159985362,460265.380461759,-130.62522607931638,4575047.961456128,10.5,10504575047.961456,47.655,-122.3035,60.0,10.916666666666666
2026-01-20T23:10:56+00:00,SAT-66194,188.2169626566348,51.3850716036185,460135.1035696159,-125.6544357732545,4400949.858515695,10.5,10504400949.858515,47.655,-122.3035,60.0,10.933333333333334
2026-01-20T23:10:57+00:00,SAT-66194,185.23644634547676,50.86555956134319,460009.78421233804,-120.53712395924522,4221719.952581578,10.5,10504221719.952581,47.655,-122.3035,60.0,10.95
2026-01-20T23:10:58+00:00,SAT-66194,182.32563957397423,50.27123554590005,459889.56852070935,-115.27910394122826,4037561.8501480008,10.5,10504037561.850147,47.655,-122.3035,60.0,10.966666666666667
2026-01-20T23:10:59+00:00,SAT-66194,179.49028281467523,49.60541798651282,459774.59682771197,-109.8863683312093,3848685.437836123,10.5,10503848685.437836,47.655,-122.3035,60.0,10.983333333333333
2026-01-20T23:11:00+00:00,SAT-66194,176.73467746987967,48.87161054460581,459665.0034896963,-104.36508231011915,3655306.6463608337,10.5,10503655306.64636,47.655,-122.3035,60.0,11.0
2026-01-20T23:11:01+00:00,SAT-66194,174.06176072220765,48.07342959621967,459560.91671427235,-98.7215759631118,3457647.1820804575,10.5,10503457647.182081,47.655,-122.3035,60.0,11.016666666666667
2026-01-20T23:11:02+00:00,SAT-66194,171.47321794558485,47.214539086539574,459462.45839584514,-92.96233651181953,3255934.254937478,10.5,10503255934.254938,47.655,-122.3035,60.0,11.033333333333333
2026-01-20T23:11:03+00:00,SAT-66194,168.96961961122642,46.29859420040599,459369.74395889736,-87.09400106611444,3050400.3245945624,10.5,10503050400.324594,47.655,-122.3035,60.0,11.05
2026-01-20T23:11:04+00:00,SAT-66194,166.55057082993966,45.329194460698645,459282.88220850076,-81.12334747387585,2841282.779954713,10.5,10502841282.779955,47.655,-122.3035,60.0,11.066666666666666
2026-01-20T23:11:05+00:00,SAT-66194,164.21486370037243,44.3098462200624,459201.97518995346,-75.05728647999675,2628823.6645365036,10.5,10502628823.664537,47.655,-122.3035,60.0,11.083333333333334
2026-01-20T23:11:06+00:00,SAT-66194,161.96062482054734,43.24393398877514,459127.1180562374,-68.90285255819681,2413269.3553653923,10.5,10502413269.355366,47.655,-122.3035,60.0,11.1
2026-01-20T23:11:07+00:00,SAT-66194,159.78545264025502,42.13469974443754,459058.39894461934,-62.66719568088705,2194870.274719566,10.5,10502194870.27472,47.655,-122.3035,60.0,11.116666666666667
2026-01-20T23:11:08+00:00,SAT-66194,157.68654127585205,40.98522916609374,458995.8988614603,-56.357571470212235,1973880.545177786,10.5,10501973880.545177,47.655,-122.3035,60.0,11.133333333333333
2026-01-20T23:13:39+00:00,SAT-66194,256.3508782078115,40.07765701090111,464501.93672574183,-193.41660344701205,6774267.604135747,10.5,10506774267.604136,47.655,-122.3035,60.0,13.65
2026-01-20T23:13:40+00:00,SAT-66194,254.33371274246372,41.24155526590226,464309.0358999041,-193.05235790345424,6761510.184443231,10.5,10506761510.184443,47.655,-122.3035,60.0,13.666666666666666
2026-01-20T23:13:41+00:00,SAT-66194,252.24321801046057,42.36908675543422,464116.49834828835,-192.46976197199572,6741105.210545207,10.5,10506741105.210545,47.655,-122.3035,60.0,13.683333333333334
2026-01-20T23:13:42+00:00,SAT-66194,250.07629225026102,43.457342641150085,463924.541839015,-191.66916722459808,6713064.995978918,10.5,10506713064.99598,47.655,-122.3035,60.0,13.7
2026-01-20T23:13:43+00:00,SAT-66194,247.8301239123015,44.503244719941634,463733.3837895696,-190.6511737937702,6677410.5599233825,10.5,10506677410.559923,47.655,-122.3035,60.0,13.716666666666667
2026-01-20T23:13:44+00:00,SAT-66194,245.50229953291264,45.503552733229526,463543.24101890594,-189.4166307336723,6634171.639846787,10.5,10506634171.639847,47.655,-122.3035,60.0,13.733333333333333
2026-01-20T23:13:45+00:00,SAT-66194,243.09092684744377,46.45487745002882,463354.3294991876,-187.96663752060869,6583386.74406009,10.5,10506583386.74406,47.655,-122.3035,60.0,13.75
2026-01-20T23:13:46+00:00,SAT-66194,240.5947715039652,47.35370064257693,463166.8641060337,-186.3025434766007,6525103.131528103,10.5,10506525103.131529,47.655,-122.3035,60.0,13.766666666666667
2026-01-20T23:13:47+00:00,SAT-66194,238.01340414220658,48.1964030060155,462981.0583693397,-184.42594672946328,6459376.77544698,10.5,10506459376.775448,47.655,-122.3035,60.0,13.783333333333333
2026-01-20T23:13:48+00:00,SAT-66194,235.34735259384013,48.979300918965656,462797.12422513484,-182.33869567049322,6386272.414298624,10.5,10506386272.414299,47.655,-122.3035,60.0,13.8
2026-01-20T23:13:49+00:00,SAT-66194,232.59825167711455,49.69869264214056,462615.27176598617,-180.0428868084644,6305863.476688516,10.5,10506305863.476688,47.655,-122.3035,60.0,13.816666666666666
2026-01-20T23:13:50+00:00,SAT-66194,229.76898086665705,50.35091404268527,462435.7089935425,-177.54086359036273,6218232.040042878,10.5,10506218232.040043,47.655,-122.3035,60.0,13.833333333333334
2026-01-20T23:13:51+00:00,SAT-66194,226.86377807487312,50.9324032948689,462258.641572255,-174.8352148999181,6123468.778020893,10.5,10506123468.77802,47.655,-122.3035,60.0,13.85
2026-01-20T23:13:52+00:00,SAT-66194,223.88831652944327,51.439773184233864,462084.27258459484,-171.928774487292,6021672.940539973,10.5,10506021672.94054,47.655,-122.3035,60.0,13.866666666666667
2026-01-20T23:13:53+00:00,SAT-66194,220.8497316335243,51.86988872608514,461912.80228683946,-168.82461707082902,5912952.2172425855,10.5,10505912952.217243,47.655,-122.3035,60.0,13.883333333333333
2026-01-20T23:13:54+00:00,SAT-66194,217.75658631687182,52.21994687114805,461744.42786874756,-165.52605704505623,5797422.692244947,10.5,10505797422.692245,47.655,-122.3035,60.0,13.9
2026-01-20T23:13:55+00:00,SAT-66194,214.61876671914808,52.48755428773108,461579.3432145213,-162.03664449584988,5675208.704571293,10.5,10505675208.70457,47.655,-122.3035,60.0,13.916666666666666
2026-01-20T23:13:56+00:00,SAT-66194,211.44730540527877,52.670798665256875,461417.7386677441,-158.36016354791627,5546442.790275668,10.5,10505546442.790276,47.655,-122.3035,60.0,13.933333333333334
2026-01-20T23:13:57+00:00,SAT-66194,208.25413588152384,52.76830887644646,461259.80079796567,-154.50062747378226,5411265.511138088,10.5,10505411265.511139,47.655,-122.3035,60.0,13.95
2026-01-20T23:13:58+00:00,SAT-66194,205.05178949178585,52.77929971229858,461105.7121721651,-150.46227547052712,5269825.341772056,10.5,10505269825.341772,47.655,-122.3035,60.0,13.966666666666667
2026-01-20T23:13:59+00:00,SAT-66194,201.85305230859677,52.703597821379816,460955.65112942917,-146.24956757283616,5122278.491458179,10.5,10505122278.491459,47.655,-122.3035,60.0,13.983333333333333
2026-01-20T23:14:00+00:00,SAT-66194,198.67060457831954,52.54164683507859,460809.79156070313,-141.8671817501145,4968788.802472816,10.5,10504968788.802473,47.655,-122.3035,60.0,14.0
2026-01-20T23:14:01+00:00,SAT-66194,195.51666739134023,52.29449129203483,460668.3026914377,-137.3200074457695,4809527.523806418,10.5,10504809527.523806,47.655,-122.3035,60.0,14.016666666666667
2026-01-20T23:14:02+00:00,SAT-66194,192.40268045230354,51.96374066351443,460531.34887067846,-132.61314023890316,4644673.124193414,10.5,10504644673.124193,47.655,-122.3035,60.0,14.033333333333333
2026-01-20T23:14:03+00:00,SAT-66194,189.3390308780592,51.551516284236456,460399.08936548023,-127.75187764409081,4474411.1450026985,10.5,10504474411.145002,47.655,-122.3035,60.0,14.05
2026-01-20T23:14:04+00:00,SAT-66194,186.33484691216537,51.06038510703403,460271.67815950984,-122.74171208321445,4298933.954081499,10.5,10504298933.95408,47.655,-122.3035,60.0,14.066666666666666
2026-01-20T23:14:05+00:00,SAT-66194,183.39786342449844,50.49328483245185,460149.2637586589,-117.58832461723422,4118440.5262155035,10.5,10504118440.526215,47.655,-122.3035,60.0,14.083333333333334
2026-01-20T23:14:06+00:00,SAT-66194,180.53435897447213,49.85344505815848,460031.9890029073,-112.29757867451274,3933136.223468249,10.5,10503933136.223469,47.655,-122.3035,60.0,14.1
2026-01-20T23:14:07+00:00,SAT-66194,177.74915830638142,49.14430873247378,459919.9908844426,-106.87551333828094,3743232.56007978,10.5,10503743232.56008,47.655,-122.3035,60.0,14.116666666666667
2026-01-20T23:14:08+00:00,SAT-66194,175.04568993156425,48.369457501883566,459813.4003724732,-101.32833576286058,3548946.9368506796,10.5,10503548946.936852,47.655,-122.3035,60.0,14.133333333333333
2026-01-20T23:14:09+00:00,SAT-66194,172.42608614836715,47.532543663200116,459712.3422456057,-95.66241408688526,3350502.392933098,10.5,10503350502.392933,47.655,-122.3035,60.0,14.15
2026-01-20T23:14:10+00:00,SAT-66194,169.89131226123413,46.63723049078526,459616.9349312897,-89.88426896227708,3148127.309139676,10.5,10503148127.30914,47.655,-122.3035,60.0,14.166666666666666
2026-01-20T23:14:11+00:00,SAT-66194,167.4413126379398,45.687141856396124,459527.2903537113,-84.00056665228053,2942055.1662075017,10.5,10502942055.166208,47.655,-122.3035,60.0,14.183333333333334
2026-01-20T23:14:12+00:00,SAT-66194,165.0751629096659,44.685821302950664,459443.5137885701,-78.01810975977769,2732524.2200644873,10.5,10502732524.220064,47.655,-122.3035,60.0,14.2
2026-01-20T23:14:13+00:00,SAT-66194,162.79121992241684,43.63670021052944,459365.7037271031,-71.94382926406159,2519777.2229234893,10.5,10502519777.222923,47.655,-122.3035,60.0,14.216666666666667
2026-01-20T23:14:14+00:00,SAT-66194,160.58726323831297,42.543074275337375,459293.95174805034,-65.78477536195187,2304061.1024994324,10.5,10502304061.102499,47.655,-122.3035,60.0,14.233333333333333
2026-01-20T23:14:15+00:00,SAT-66194,158.460624167076,41.40808732165508,459228.342398756,-59.54810894440426,2085626.6634841252,10.5,10502085626.663485,47.655,-122.3035,60.0,14.25
2026-01-20T23:14:16+00:00,SAT-66194,156.40830004749338,40.234721346142294,459168.9530847688,-53.241092235639144,1864728.2596889446,10.5,10501864728.25969,47.655,-122.3035,60.0,14.266666666666667
