satellites_20260120_184412/SAT-66479.csv

timestamp,satellite,azimuth_deg,elevation_deg,distance_km,relative_velocity_kms,doppler_shift_hz,tx_freq_ghz,rx_freq_hz,ue_lat,ue_lon,ue_alt_m,time_minutes
2026-01-20T23:02:05+00:00,SAT-66479,150.86786496701023,40.189769905400134,361537.21652582276,-134.535182629578,4711991.178946099,10.5,10504711991.178946,47.655,-122.3035,60.0,2.0833333333333335
2026-01-20T23:02:06+00:00,SAT-66479,148.56110596161543,40.671767692163684,361403.0401036802,-127.73730514899216,4473900.754582752,10.5,10504473900.754583,47.655,-122.3035,60.0,2.1
2026-01-20T23:02:07+00:00,SAT-66479,146.221280076468,41.10729762033898,361275.64343134494,-120.80555658237988,4231121.598512624,10.5,10504231121.598513,47.655,-122.3035,60.0,2.1166666666666667
2026-01-20T23:02:08+00:00,SAT-66479,143.85087418848795,41.49493692563155,361155.1600229135,-113.74695725000373,3983899.5920472397,10.5,10503983899.592047,47.655,-122.3035,60.0,2.1333333333333333
2026-01-20T23:02:09+00:00,SAT-66479,141.45273194289925,41.833372727998984,361041.7163908828,-106.56869052561632,3732486.327321054,10.5,10503732486.327322,47.655,-122.3035,60.0,2.15
2026-01-20T23:02:10+00:00,SAT-66479,139.0300369320302,42.12141981716973,360935.4318835319,-99.27809373423604,3477138.788493066,10.5,10503477138.788492,47.655,-122.3035,60.0,2.1666666666666665
2026-01-20T23:02:11+00:00,SAT-66479,136.58628684126793,42.35803760922949,360836.41853138094,-91.88265040463352,3218119.080396118,10.5,10503218119.080397,47.655,-122.3035,60.0,2.183333333333333
2026-01-20T23:02:12+00:00,SAT-66479,134.125258590925,42.54234574574805,360744.78090137744,-84.38998015060287,2955694.074136215,10.5,10502955694.074137,47.655,-122.3035,60.0,2.2
2026-01-20T23:02:13+00:00,SAT-66479,131.65096503063995,42.67363780342508,360660.6159611739,-76.8078298557474,2690135.0983464294,10.5,10502690135.098347,47.655,-122.3035,60.0,2.216666666666667
2026-01-20T23:02:14+00:00,SAT-66479,129.16760411682975,42.75139262869193,360584.01295219775,-69.14406431312875,2421717.6113478206,10.5,10502421717.611347,47.655,-122.3035,60.0,2.2333333333333334
2026-01-20T23:02:15+00:00,SAT-66479,126.6795019711583,42.77528287235759,360515.0532720561,-61.40665568187768,2150720.831875349,10.5,10502150720.831875,47.655,-122.3035,60.0,2.25
2026-01-20T23:02:16+00:00,SAT-66479,124.19105161726526,42.74518039471974,360453.81036745606,-53.603673995632896,1877427.40664325,10.5,10501877427.406643,47.655,-122.3035,60.0,2.2666666666666666
2026-01-20T23:02:17+00:00,SAT-66479,121.70664939167102,42.66115833068782,360400.3496365911,-45.7432762674152,1602123.0287516424,10.5,10501602123.028751,47.655,-122.3035,60.0,2.283333333333333
2026-01-20T23:02:18+00:00,SAT-66479,119.23063125717738,42.52348973477712,360354.7283423937,-37.83369656293247,1325096.0900116805,10.5,10501325096.090012,47.655,-122.3035,60.0,2.3
2026-01-20T23:02:19+00:00,SAT-66479,116.76721116232292,42.332642862808534,360316.9955356883,-29.883234819940046,1046637.2893522575,10.5,10501046637.289352,47.655,-122.3035,60.0,2.316666666666667
2026-01-20T23:02:20+00:00,SAT-66479,114.32042355464945,42.0892732825934,360287.1919894945,-21.90024625085829,767039.2616548481,10.5,10500767039.261654,47.655,-122.3035,60.0,2.3333333333333335
2026-01-20T23:02:21+00:00,SAT-66479,111.89407181450427,41.79421312308991,360265.3501439003,-13.89313023258433,486596.18862771883,10.5,10500486596.188627,47.655,-122.3035,60.0,2.35
2026-01-20T23:02:22+00:00,SAT-66479,109.49168407397396,41.44845787263857,360251.49406201503,-5.870319358218523,205603.41535107762,10.5,10500205603.415352,47.655,-122.3035,60.0,2.3666666666666667
2026-01-20T23:02:23+00:00,SAT-66479,107.11647741115456,41.05315120371074,360245.63939684175,2.159731823329208,-75642.94410954356,10.5,10499924357.055891,47.655,-122.3035,60.0,2.3833333333333333
2026-01-20T23:02:24+00:00,SAT-66479,104.77133100155964,40.6095683477782,360247.79336938023,10.188557995395065,-356846.39855632454,10.5,10499643153.601444,47.655,-122.3035,60.0,2.4
2026-01-20T23:02:25+00:00,SAT-66479,102.45876832435849,40.11909855069473,360257.95475788764,18.207694229741524,-637710.4703957762,10.5,10499362289.529604,47.655,-122.3035,60.0,2.4166666666666665
2026-01-20T23:05:27+00:00,SAT-66479,151.27419031166426,40.09925805609198,361747.7194892857,-137.66140712350315,4821484.784639857,10.5,10504821484.78464,47.655,-122.3035,60.0,5.45
2026-01-20T23:05:28+00:00,SAT-66479,148.97343615688035,40.589155405859344,361610.42517924786,-130.92923541759268,4585695.6544407895,10.5,10504585695.65444,47.655,-122.3035,60.0,5.466666666666667
2026-01-20T23:05:29+00:00,SAT-66479,146.6392096947408,41.032844137286205,361479.84508845804,-124.0599747429896,4345105.088672346,10.5,10504345105.088673,47.655,-122.3035,60.0,5.483333333333333
2026-01-20T23:05:30+00:00,SAT-66479,144.27393381408388,41.42888354557799,361356.11594031437,-117.06056621534499,4099956.194565517,10.5,10504099956.194565,47.655,-122.3035,60.0,5.5
2026-01-20T23:05:31+00:00,SAT-66479,141.88039024556915,41.775939597269854,361239.36753560894,-109.93811799058471,3850497.9298082925,10.5,10503850497.929808,47.655,-122.3035,60.0,5.516666666666667
2026-01-20T23:05:32+00:00,SAT-66479,139.46170430842412,42.07280281237995,361129.722585933,-102.69989585869662,3596984.773100311,10.5,10503596984.7731,47.655,-122.3035,60.0,5.533333333333333
2026-01-20T23:05:33+00:00,SAT-66479,137.0213206637493,42.31840540943862,361027.29655646323,-95.35331602626187,3339676.471366566,10.5,10503339676.471367,47.655,-122.3035,60.0,5.55
2026-01-20T23:05:34+00:00,SAT-66479,134.56297001312228,42.51183718910769,360932.1975159464,-87.90593515781934,3078837.6909638704,10.5,10503078837.690964,47.655,-122.3035,60.0,5.566666666666666
2026-01-20T23:05:35+00:00,SAT-66479,132.09062722310117,42.65235961956236,360844.52599661564,-80.36544160033333,2814737.7103245873,10.5,10502814737.710325,47.655,-122.3035,60.0,5.583333333333333
2026-01-20T23:05:36+00:00,SAT-66479,129.60846172997347,42.73941762894819,360764.3748628596,-72.73964544394356,2547650.0718420586,10.5,10502547650.071842,47.655,-122.3035,60.0,5.6
2026-01-20T23:05:37+00:00,SAT-66479,127.12078157311078,42.77264866606174,360691.8291898035,-65.03646970915794,2277852.2732088156,10.5,10502277852.273209,47.655,-122.3035,60.0,5.616666666666666
2026-01-20T23:05:38+00:00,SAT-66479,124.63197272082706,42.75188868312454,360626.96615068027,-57.26393926151415,2005625.379161135,10.5,10502005625.379162,47.655,-122.3035,60.0,5.633333333333334
2026-01-20T23:05:39+00:00,SAT-66479,122.14643575067919,42.67717480486109,360569.8549152567,-49.43017129796587,1731253.6882720434,10.5,10501731253.688272,47.655,-122.3035,60.0,5.65
2026-01-20T23:05:40+00:00,SAT-66479,119.66852199620442,42.5487445814937,360520.55655774893,-41.543364500220605,1455024.353055327,10.5,10501455024.353056,47.655,-122.3035,60.0,5.666666666666667
2026-01-20T23:05:41+00:00,SAT-66479,117.20247140183669,42.367031858847234,360479.123975554,-33.6117888386639,1177227.022855828,10.5,10501177227.022856,47.655,-122.3035,60.0,5.683333333333334
2026-01-20T23:05:42+00:00,SAT-66479,114.7523541411561,42.132659432214055,360445.60181815224,-25.6437743705127,898153.4515133911,10.5,10500898153.451513,47.655,-122.3035,60.0,5.7
2026-01-20T23:05:43+00:00,SAT-66479,112.32201789542356,41.84642877697967,360420.02642718004,-17.647700467833015,618097.1200824761,10.5,10500618097.120083,47.655,-122.3035,60.0,5.716666666666667
2026-01-20T23:05:44+00:00,SAT-66479,109.91504228225857,41.50930724944698,360402.42578724684,-9.63198499110904,337352.85764475405,10.5,10500337352.857645,47.655,-122.3035,60.0,5.733333333333333
2026-01-20T23:05:45+00:00,SAT-66479,107.53470150215135,41.12241322305835,360392.819487549,-1.6050728472889741,56216.44056347218,10.5,10500056216.440563,47.655,-122.3035,60.0,5.75
2026-01-20T23:05:46+00:00,SAT-66479,105.18393590410726,40.68699968420868,360391.218694896,6.42457498652594,-225015.79195338654,10.5,10499774984.208046,47.655,-122.3035,60.0,5.766666666666667
2026-01-20T23:05:47+00:00,SAT-66479,102.86533258910073,40.204436810287646,360397.6261376826,14.448492737266157,-506047.332722742,10.5,10499493952.667276,47.655,-122.3035,60.0,5.783333333333333
2026-01-20T23:08:49+00:00,SAT-66479,151.60486094729757,40.024315946430626,361958.79271178186,-140.68451688017177,4927366.876059983,10.5,10504927366.87606,47.655,-122.3035,60.0,8.816666666666666
2026-01-20T23:08:50+00:00,SAT-66479,149.30908815526124,40.52057530400898,361818.48335361335,-134.0185380730146,4693896.101170942,10.5,10504693896.101171,47.655,-122.3035,60.0,8.833333333333334
2026-01-20T23:08:51+00:00,SAT-66479,146.97952011711706,40.970841424678135,361684.82219830854,-127.21235340864675,4455514.724092195,10.5,10504455514.724092,47.655,-122.3035,60.0,8.85
2026-01-20T23:08:52+00:00,SAT-66479,144.61852716729888,41.37365932450297,361557.94907784235,-120.27282503210019,4212463.086169606,10.5,10504212463.08617,47.655,-122.3035,60.0,8.866666666666667
2026-01-20T23:08:53+00:00,SAT-66479,142.22883994143498,41.7276780449051,361437.99698034365,-113.20698447706349,3964987.4614563067,10.5,10503964987.461456,47.655,-122.3035,60.0,8.883333333333333
2026-01-20T23:08:54+00:00,SAT-66479,139.81353542343584,42.03166859664167,361325.0918811585,-106.02202575702053,3713339.814735151,10.5,10503713339.814735,47.655,-122.3035,60.0,8.9
2026-01-20T23:08:55+00:00,SAT-66479,137.37601398896416,42.284541249749864,361219.3525808035,-98.72529608049003,3457777.4763271236,10.5,10503457777.476328,47.655,-122.3035,60.0,8.916666666666666
2026-01-20T23:08:56+00:00,SAT-66479,134.91996741650013,42.4853616338587,361120.8905521792,-91.32428827375323,3198562.876703218,10.5,10503198562.876703,47.655,-122.3035,60.0,8.933333333333334
2026-01-20T23:08:57+00:00,SAT-66479,132.44933818474735,42.633365121859946,361029.8097953409,-83.8266306151577,2935963.190438753,10.5,10502935963.19044,47.655,-122.3035,60.0,8.95
2026-01-20T23:08:58+00:00,SAT-66479,129.96827092789036,42.72796898606464,360946.20670240733,-76.24007750930886,2670250.009584107,10.5,10502670250.009584,47.655,-122.3035,60.0,8.966666666666667
2026-01-20T23:08:59+00:00,SAT-66479,127.48105729259719,42.76878188248312,360870.1699317714,-68.57250079955313,2401699.0393911367,10.5,10502401699.03939,47.655,-122.3035,60.0,8.983333333333333
2026-01-20T23:09:00+00:00,SAT-66479,124.99207582172322,42.755610301169156,360801.780290974,-60.831878925479174,2130589.7185630044,10.5,10502130589.718563,47.655,-122.3035,60.0,9.0
2026-01-20T23:09:01+00:00,SAT-66479,122.50572888387758,42.68846172881804,360741.11063039233,-53.02628732811904,1857204.8832037328,10.5,10501857204.883204,47.655,-122.3035,60.0,9.016666666666667
2026-01-20T23:09:02+00:00,SAT-66479,120.02637875686987,42.56754440159777,360688.2257464971,-45.163887557164024,1581830.385306832,10.5,10501581830.385307,47.655,-122.3035,60.0,9.033333333333333
2026-01-20T23:09:03+00:00,SAT-66479,117.55828511254502,42.39326366229139,360643.1822959734,-37.25291758997166,1304754.753685973,10.5,10501304754.753687,47.655,-122.3035,60.0,9.05
2026-01-20T23:09:04+00:00,SAT-66479,115.10554595668559,42.16621506798638,360606.02871949703,-29.301680295416162,1026268.7899302313,10.5,10501026268.78993,47.655,-122.3035,60.0,9.066666666666666
2026-01-20T23:09:05+00:00,SAT-66479,112.67204399914068,41.88717452626348,360576.8051770157,-21.318533069197496,746665.2053887683,10.5,10500746665.205389,47.655,-122.3035,60.0,9.083333333333334
2026-01-20T23:09:06+00:00,SAT-66479,110.26139995552413,41.557085836421244,360555.543493368,-13.311876592833269,466238.2274631783,10.5,10500466238.227463,47.655,-122.3035,60.0,9.1
2026-01-20T23:09:07+00:00,SAT-66479,107.87693398315385,41.1770461000327,360542.2671151128,-5.290144010610536,185283.22053855882,10.5,10500185283.22054,47.655,-122.3035,60.0,9.116666666666667
2026-01-20T23:09:08+00:00,SAT-66479,105.52163590779156,40.748289505843786,360536.99107815285,2.7382104771751448,-95903.71352950786,10.5,10499904096.28647,47.655,-122.3035,60.0,9.133333333333333
2026-01-20T23:09:09+00:00,SAT-66479,103.19814455065344,40.27217002865793,360539.7219867354,10.764722682579489,-377026.1230757334,10.5,10499622973.876925,47.655,-122.3035,60.0,9.15
2026-01-20T23:12:12+00:00,SAT-66479,149.5681637163329,40.466743251452925,362026.4187368666,-136.98070527191211,4797643.726431161,10.5,10504797643.72643,47.655,-122.3035,60.0,12.2
2026-01-20T23:12:13+00:00,SAT-66479,147.24226572295112,40.92201890338355,361889.8033134754,-130.2372909041871,4561460.830658937,10.5,10504561460.83066,47.655,-122.3035,60.0,12.216666666666667
2026-01-20T23:12:14+00:00,SAT-66479,144.88465684344223,41.33000509242178,361759.9133220136,-123.35746217735645,4320500.126998668,10.5,10504320500.126999,47.655,-122.3035,60.0,12.233333333333333
2026-01-20T23:12:15+00:00,SAT-66479,142.4980277878404,41.68933794028309,361636.8848130687,-116.34817455958776,4075005.2253671824,10.5,10504075005.225367,47.655,-122.3035,60.0,12.25
2026-01-20T23:12:16+00:00,SAT-66479,140.0854176021537,41.99877350662354,361520.846900308,-109.21655032806314,3825225.5780386007,10.5,10503825225.57804,47.655,-122.3035,60.0,12.266666666666667
2026-01-20T23:12:17+00:00,SAT-66479,137.6501917161029,42.257205182958195,361411.9215941141,-101.96986815998785,3571416.1150774257,10.5,10503571416.115078,47.655,-122.3035,60.0,12.283333333333333
2026-01-20T23:12:18+00:00,SAT-66479,135.19601097062906,42.46367995401744,361310.2236456026,-94.61555669919471,3313837.0190138156,10.5,10503313837.019014,47.655,-122.3035,60.0,12.3
2026-01-20T23:12:19+00:00,SAT-66479,132.72679184943595,42.617413004589324,361215.8603970546,-87.16118378891085,3052753.347729528,10.5,10503052753.347729,47.655,-122.3035,60.0,12.316666666666666
2026-01-20T23:12:20+00:00,SAT-66479,130.24665877112048,42.71780015222118,361128.9316430891,-79.61444825990183,2788434.746843996,10.5,10502788434.746843,47.655,-122.3035,60.0,12.333333333333334
2026-01-20T23:12:21+00:00,SAT-66479,127.75988959405473,42.764427656396606,361049.52950002457,-71.98316982098049,2521155.0956371794,10.5,10502521155.095636,47.655,-122.3035,60.0,12.35
2026-01-20T23:12:22+00:00,SAT-66479,125.27085599102966,42.75707902803442,360977.7382853231,-64.2752799610109,2251192.1883992637,10.5,10502251192.188398,47.655,-122.3035,60.0,12.366666666666667
2026-01-20T23:12:23+00:00,SAT-66479,122.78396059020203,42.69573857543556,360913.63440610864,-56.49881137071658,1978827.363937635,10.5,10501978827.363937,47.655,-122.3035,60.0,12.383333333333333
2026-01-20T23:12:24+00:00,SAT-66479,120.30357305742041,42.580591547047185,360857.28625823493,-48.66188784158083,1704345.1517936408,10.5,10501704345.151794,47.655,-122.3035,60.0,12.4
2026-01-20T23:12:25+00:00,SAT-66479,117.83396730682337,42.41202086969713,360808.7541354276,-40.77271376018779,1428032.90428998,10.5,10501428032.90429,47.655,-122.3035,60.0,12.416666666666666
2026-01-20T23:12:26+00:00,SAT-66479,115.37926198296007,42.19060061682036,360768.09014890407,-32.83956391871706,1150180.4396511174,10.5,10501150180.439651,47.655,-122.3035,60.0,12.433333333333334
2026-01-20T23:12:27+00:00,SAT-66479,112.94336610961717,41.91708646443699,360735.3381571558,-24.870772024720818,871079.6395670787,10.5,10500871079.639566,47.655,-122.3035,60.0,12.45
2026-01-20T23:12:28+00:00,SAT-66479,110.52993157705568,41.592403509409664,360710.5337071898,-16.874720262663804,591024.0835944243,10.5,10500591024.083595,47.655,-122.3035,60.0,12.466666666666667
2026-01-20T23:12:29+00:00,SAT-66479,108.14231361051559,41.217631898131536,360693.7039861812,-8.85982814574464,310308.65869987535,10.5,10500310308.658699,47.655,-122.3035,60.0,12.483333333333333
2026-01-20T23:12:30+00:00,SAT-66479,105.78354000381225,40.79399077398062,360684.86778424383,-0.8345413562028253,29229.168400659586,10.5,10500029229.1684,47.655,-122.3035,60.0,12.5
2026-01-20T23:12:31+00:00,SAT-66479,103.45628941850819,40.32282107451813,360684.0354683313,7.192679453665689,-251918.0594712951,10.5,10499748081.940529,47.655,-122.3035,60.0,12.516666666666667
