satellites_20260120_184412/SAT-65078.csv

timestamp,satellite,azimuth_deg,elevation_deg,distance_km,relative_velocity_kms,doppler_shift_hz,tx_freq_ghz,rx_freq_hz,ue_lat,ue_lon,ue_alt_m,time_minutes
2026-01-20T23:07:45+00:00,SAT-65078,215.3959113106864,40.12930249534245,1170.500082134046,-5.649329735758082,197863.42398733684,10.5,10500197863.423986,47.655,-122.3035,60.0,7.75
2026-01-20T23:07:46+00:00,SAT-65078,215.45156682796053,40.35679938883085,1164.8658172775833,-5.633999280235535,197326.48658717467,10.5,10500197326.486588,47.655,-122.3035,60.0,7.766666666666667
2026-01-20T23:07:47+00:00,SAT-65078,215.50847577635568,40.586194588302696,1159.2468419954282,-5.618438136397554,196781.46950639537,10.5,10500196781.469507,47.655,-122.3035,60.0,7.783333333333333
2026-01-20T23:07:48+00:00,SAT-65078,215.5666692296173,40.81750885829131,1153.6433863607278,-5.602642499583134,196228.2394896769,10.5,10500196228.23949,47.655,-122.3035,60.0,7.8
2026-01-20T23:07:49+00:00,SAT-65078,215.62617928721747,41.05076310124718,1148.0556842411436,-5.586608435333722,195666.65873563796,10.5,10500195666.658735,47.655,-122.3035,60.0,7.816666666666666
2026-01-20T23:07:50+00:00,SAT-65078,215.68703911577606,41.28597834882209,1142.4839734283041,-5.570332005311778,195096.58930703878,10.5,10500195096.589308,47.655,-122.3035,60.0,7.833333333333333
2026-01-20T23:07:51+00:00,SAT-65078,215.74928299401864,41.52317575790007,1136.9284956416732,-5.553809216425816,194517.8913489247,10.5,10500194517.89135,47.655,-122.3035,60.0,7.85
2026-01-20T23:07:52+00:00,SAT-65078,215.81294635936317,41.762376604101796,1131.3894965831578,-5.53703595192749,193930.4206753548,10.5,10500193930.420675,47.655,-122.3035,60.0,7.866666666666666
2026-01-20T23:07:53+00:00,SAT-65078,215.878065856017,42.00360227177159,1125.8672260604353,-5.520008096583078,193334.03315343687,10.5,10500193334.033154,47.655,-122.3035,60.0,7.883333333333334
2026-01-20T23:07:54+00:00,SAT-65078,215.9446793870237,42.24687424879539,1120.3619379854433,-5.502721447920015,192728.58159480503,10.5,10500192728.581594,47.655,-122.3035,60.0,7.9
2026-01-20T23:07:55+00:00,SAT-65078,216.01282616789518,42.49221411704734,1114.8738904613842,-5.4851716876974566,192113.9147563989,10.5,10500192113.914757,47.655,-122.3035,60.0,7.916666666666667
2026-01-20T23:07:56+00:00,SAT-65078,216.08254678253365,42.73964354085573,1109.4033458981876,-5.467354530637197,191489.88254964896,10.5,10500191489.88255,47.655,-122.3035,60.0,7.933333333333334
2026-01-20T23:07:57+00:00,SAT-65078,216.1538832440967,42.989184261491296,1103.950570979632,-5.44926557041044,190856.33064628203,10.5,10500190856.330647,47.655,-122.3035,60.0,7.95
2026-01-20T23:07:58+00:00,SAT-65078,216.2268790569268,43.240858084116105,1098.5158367840759,-5.430900294340612,190213.10099327593,10.5,10500190213.100994,47.655,-122.3035,60.0,7.966666666666667
2026-01-20T23:07:59+00:00,SAT-65078,216.3015792818801,43.49468686450947,1093.0994188905202,-5.412254225306833,189560.03678291914,10.5,10500189560.036783,47.655,-122.3035,60.0,7.983333333333333
2026-01-20T23:08:00+00:00,SAT-65078,216.37803060718653,43.750692501647734,1087.7015973431476,-5.393322742877736,188896.9761881609,10.5,10500188896.976189,47.655,-122.3035,60.0,8.0
2026-01-20T23:08:01+00:00,SAT-65078,216.45628142048142,44.008896921176934,1082.3226567942506,-5.37410117457581,188223.75555907417,10.5,10500188223.75556,47.655,-122.3035,60.0,8.016666666666667
2026-01-20T23:08:02+00:00,SAT-65078,216.5363818860023,44.26932206220984,1076.9628865561406,-5.35458480991671,187540.2099145718,10.5,10500187540.209915,47.655,-122.3035,60.0,8.033333333333333
2026-01-20T23:08:03+00:00,SAT-65078,216.61838402626046,44.53198986394571,1071.6225806390503,-5.334768841488794,186846.17087876282,10.5,10500186846.17088,47.655,-122.3035,60.0,8.05
2026-01-20T23:08:04+00:00,SAT-65078,216.70234180718535,44.79692224846909,1066.3020378478054,-5.314648396351958,186141.46778067233,10.5,10500186141.467781,47.655,-122.3035,60.0,8.066666666666666
2026-01-20T23:08:05+00:00,SAT-65078,216.78831122845597,45.064141103996164,1061.001561847177,-5.294218607862571,185425.93016985434,10.5,10500185425.93017,47.655,-122.3035,60.0,8.083333333333334
2026-01-20T23:08:06+00:00,SAT-65078,216.8763504201142,45.33366827071906,1055.7214611556024,-5.273474411788896,184699.38067549188,10.5,10500184699.380676,47.655,-122.3035,60.0,8.1
2026-01-20T23:08:07+00:00,SAT-65078,216.96651974098668,45.60552551517625,1050.4620493422447,-5.252410794452328,183961.64369735227,10.5,10500183961.643698,47.655,-122.3035,60.0,8.116666666666667
2026-01-20T23:08:08+00:00,SAT-65078,217.0588818870354,45.87973451594987,1045.2236449765776,-5.231022661027956,183212.5407931161,10.5,10500183212.540792,47.655,-122.3035,60.0,8.133333333333333
2026-01-20T23:08:09+00:00,SAT-65078,217.15350200358236,46.15631684150526,1040.0065717093123,-5.209304773860657,182451.8885179456,10.5,10500182451.888517,47.655,-122.3035,60.0,8.15
2026-01-20T23:08:10+00:00,SAT-65078,217.2504478026517,46.4352939232635,1034.8111584148487,-5.187251935114453,181679.50482163817,10.5,10500181679.504822,47.655,-122.3035,60.0,8.166666666666666
2026-01-20T23:08:11+00:00,SAT-65078,217.34978969069837,46.716687036903316,1029.6377391515612,-5.164858835304092,180895.20374356105,10.5,10500180895.203743,47.655,-122.3035,60.0,8.183333333333334
2026-01-20T23:08:12+00:00,SAT-65078,217.45160090075177,47.00051727414984,1024.4866532731512,-5.142120084515875,180098.79650613724,10.5,10500180098.796507,47.655,-122.3035,60.0,8.2
2026-01-20T23:08:13+00:00,SAT-65078,217.55595763293675,47.286805514500756,1019.3582455088607,-5.119030279630521,179290.0938692743,10.5,10500179290.09387,47.655,-122.3035,60.0,8.216666666666667
2026-01-20T23:08:14+00:00,SAT-65078,217.66293920470164,47.5755723989628,1014.2528659766426,-5.095583938835362,178468.9038367046,10.5,10500178468.903837,47.655,-122.3035,60.0,8.233333333333333
2026-01-20T23:08:15+00:00,SAT-65078,217.7726282086663,47.866838298410464,1009.1708702616442,-5.07177552181846,177635.03236326858,10.5,10500177635.032364,47.655,-122.3035,60.0,8.25
2026-01-20T23:08:16+00:00,SAT-65078,217.88511068035882,48.16062328109697,1004.1126194745505,-5.047599430181789,176788.28336938613,10.5,10500176788.28337,47.655,-122.3035,60.0,8.266666666666667
2026-01-20T23:08:17+00:00,SAT-65078,218.00047627617113,48.45694707815849,999.0784803095158,-5.023050001903289,175928.45854709437,10.5,10500175928.458548,47.655,-122.3035,60.0,8.283333333333333
2026-01-20T23:08:18+00:00,SAT-65078,218.11881846201118,48.75582904659324,994.0688251076176,-4.99812155360017,175055.3588402874,10.5,10500175055.35884,47.655,-122.3035,60.0,8.3
2026-01-20T23:08:19+00:00,SAT-65078,218.24023471471634,49.05728813248517,989.0840318781604,-4.972808338417438,174168.78296979406,10.5,10500174168.78297,47.655,-122.3035,60.0,8.316666666666666
2026-01-20T23:08:20+00:00,SAT-65078,218.3648267349178,49.36134282933941,984.1244843619787,-4.947104549056507,173268.52753945306,10.5,10500173268.52754,47.655,-122.3035,60.0,8.333333333333334
2026-01-20T23:08:21+00:00,SAT-65078,218.49270067336198,49.668011133962864,979.1905720917197,-4.921004328829486,172354.3874232807,10.5,10500172354.387423,47.655,-122.3035,60.0,8.35
2026-01-20T23:08:22+00:00,SAT-65078,218.62396737179722,49.97731050024138,974.2826904411004,-4.8945018074838424,171426.15702020214,10.5,10500171426.15702,47.655,-122.3035,60.0,8.366666666666667
2026-01-20T23:08:23+00:00,SAT-65078,218.75874262030584,50.28925779229416,969.4012406384365,-4.867591064800278,170483.628979095,10.5,10500170483.628979,47.655,-122.3035,60.0,8.383333333333333
2026-01-20T23:08:24+00:00,SAT-65078,218.8971474301973,50.603869232307666,964.5466298164758,-4.840266115376618,169526.59366585698,10.5,10500169526.593666,47.655,-122.3035,60.0,8.4
2026-01-20T23:08:25+00:00,SAT-65078,219.03930832415858,50.92116034403485,959.7192710774068,-4.812520959718393,168554.84095281386,10.5,10500168554.840952,47.655,-122.3035,60.0,8.416666666666666
2026-01-20T23:08:26+00:00,SAT-65078,219.18535764692348,51.24114589606951,954.9195835069144,-4.784349587944011,167568.16034849058,10.5,10500167568.160349,47.655,-122.3035,60.0,8.433333333333334
2026-01-20T23:08:27+00:00,SAT-65078,219.33543389673338,51.56383984176808,950.1479921845381,-4.75574591763723,166566.33882094166,10.5,10500166566.338821,47.655,-122.3035,60.0,8.45
2026-01-20T23:08:28+00:00,SAT-65078,219.48968207680736,51.889255251025865,945.4049282560146,-4.726703900038787,165549.16451703152,10.5,10500165549.164516,47.655,-122.3035,60.0,8.466666666666667
2026-01-20T23:08:29+00:00,SAT-65078,219.6482540741,52.2174042450274,940.6908288997092,-4.697217386502636,164516.42208516694,10.5,10500164516.422085,47.655,-122.3035,60.0,8.483333333333333
2026-01-20T23:08:30+00:00,SAT-65078,219.81130905906045,52.548297917318216,936.0061374262374,-4.667280316686552,163467.8992665279,10.5,10500163467.899267,47.655,-122.3035,60.0,8.5
2026-01-20T23:08:31+00:00,SAT-65078,219.97901391957546,52.88194626318598,931.3513031903952,-4.63688652458218,162403.38010141967,10.5,10500162403.380102,47.655,-122.3035,60.0,8.516666666666667
2026-01-20T23:08:32+00:00,SAT-65078,220.15154371774298,53.21835809032586,926.7267816965453,-4.606029883004194,161322.64998989413,10.5,10500161322.64999,47.655,-122.3035,60.0,8.533333333333333
2026-01-20T23:08:33+00:00,SAT-65078,220.32908218387874,53.55754093418818,922.1330345598958,-4.5747042745904,160225.49467605088,10.5,10500160225.494677,47.655,-122.3035,60.0,8.55
2026-01-20T23:08:34+00:00,SAT-65078,220.51182224421586,53.89950096553723,917.5705294967044,-4.542903564774345,159111.6993014235,10.5,10500159111.6993,47.655,-122.3035,60.0,8.566666666666666
2026-01-20T23:08:35+00:00,SAT-65078,220.69996658493025,54.24424288975191,913.039740341436,-4.510621640582184,157981.04976381006,10.5,10500157981.049765,47.655,-122.3035,60.0,8.583333333333334
2026-01-20T23:08:36+00:00,SAT-65078,220.89372825805094,54.591769842254166,908.5411470252287,-4.47785238740208,156833.33190363928,10.5,10500156833.331903,47.655,-122.3035,60.0,8.6
2026-01-20T23:08:37+00:00,SAT-65078,221.0933313300717,54.942083274974614,904.0752355775264,-4.444589747630473,155668.33355801087,10.5,10500155668.333557,47.655,-122.3035,60.0,8.616666666666667
2026-01-20T23:08:38+00:00,SAT-65078,221.29901158038749,55.29518283964429,899.6424980692229,-4.410827667395922,154485.8426947391,10.5,10500154485.842695,47.655,-122.3035,60.0,8.633333333333333
2026-01-20T23:08:39+00:00,SAT-65078,221.51101724850994,55.65106625867041,895.2434326089401,-4.376560140703189,153285.6489584654,10.5,10500153285.648958,47.655,-122.3035,60.0,8.65
2026-01-20T23:08:40+00:00,SAT-65078,221.72960983856498,56.009729190517426,890.8785432952786,-4.3417811952896175,152067.5431752889,10.5,10500152067.543175,47.655,-122.3035,60.0,8.666666666666666
2026-01-20T23:08:41+00:00,SAT-65078,221.95506498305318,56.37116508434598,886.5483401831766,-4.306484910454369,150831.31797722168,10.5,10500150831.317978,47.655,-122.3035,60.0,8.683333333333334
2026-01-20T23:08:42+00:00,SAT-65078,222.18767337231486,56.7353650256803,882.2533392324834,-4.270665462863887,149576.7694064899,10.5,10500149576.769407,47.655,-122.3035,60.0,8.7
2026-01-20T23:08:43+00:00,SAT-65078,222.42774175705682,57.102317574863086,877.9940622108538,-4.234317045640899,148303.69408168847,10.5,10500148303.694082,47.655,-122.3035,60.0,8.716666666666667
2026-01-20T23:08:44+00:00,SAT-65078,222.6755940225349,57.47200858649782,873.7710366773346,-4.197433941494192,147011.89175909496,10.5,10500147011.89176,47.655,-122.3035,60.0,8.733333333333333
2026-01-20T23:08:45+00:00,SAT-65078,222.9315723494254,57.84442102193662,869.5847958930178,-4.160010557699124,145701.16655783515,10.5,10500145701.166557,47.655,-122.3035,60.0,8.75
2026-01-20T23:08:46+00:00,SAT-65078,223.1960384667582,58.21953475083193,865.4358786968058,-4.122041351809359,144371.32435799393,10.5,10500144371.324358,47.655,-122.3035,60.0,8.766666666666667
2026-01-20T23:08:47+00:00,SAT-65078,223.4693749975908,58.59732633071222,861.324829455268,-4.083520911282078,143022.17558942668,10.5,10500143022.175589,47.655,-122.3035,60.0,8.783333333333333
2026-01-20T23:08:48+00:00,SAT-65078,223.75198691514805,58.97776877691998,857.2521979330826,-4.044443919468801,141653.5340406142,10.5,10500141653.53404,47.655,-122.3035,60.0,8.8
2026-01-20T23:08:49+00:00,SAT-65078,224.0443031113094,59.36083131130687,853.2185391973991,-4.0048052129214735,140265.21886576436,10.5,10500140265.218866,47.655,-122.3035,60.0,8.816666666666666
2026-01-20T23:08:50+00:00,SAT-65078,224.34677809333138,59.746479096497296,849.2244134650454,-3.964599762083947,138857.05390854576,10.5,10500138857.05391,47.655,-122.3035,60.0,8.833333333333334
2026-01-20T23:08:51+00:00,SAT-65078,224.65989381420363,60.13467294690188,845.2703859689937,-3.9238226459279844,137428.86681373365,10.5,10500137428.866814,47.655,-122.3035,60.0,8.85
2026-01-20T23:08:52+00:00,SAT-65078,224.98416164667748,60.52536901354257,841.3570268501214,-3.882469153913334,135980.4925982828,10.5,10500135980.492598,47.655,-122.3035,60.0,8.866666666666667
2026-01-20T23:08:53+00:00,SAT-65078,225.32012452385166,60.918518453194714,837.4849109472852,-3.840534730285445,134511.77170039807,10.5,10500134511.7717,47.655,-122.3035,60.0,8.883333333333333
2026-01-20T23:08:54+00:00,SAT-65078,225.66835924687342,61.31406706402391,833.6546176429472,-3.7980149915986283,133022.55059326944,10.5,10500133022.550592,47.655,-122.3035,60.0,8.9
2026-01-20T23:08:55+00:00,SAT-65078,226.02947897938728,61.71195489205575,829.8667306913262,-3.7549057604239877,131512.68296566646,10.5,10500131512.682966,47.655,-122.3035,60.0,8.916666666666666
2026-01-20T23:08:56+00:00,SAT-65078,226.40413594534803,62.112115807290856,826.12183801293,-3.7112030729507386,129982.02998816854,10.5,10500129982.029987,47.655,-122.3035,60.0,8.933333333333334
2026-01-20T23:08:57+00:00,SAT-65078,226.7930243441551,62.51447704363608,822.4205314815072,-3.6669031970437604,128430.46094561687,10.5,10500128430.460945,47.655,-122.3035,60.0,8.95
2026-01-20T23:08:58+00:00,SAT-65078,227.19688350075825,62.91895870007713,818.7634066929888,-3.622002594467369,126857.85191403105,10.5,10500126857.851913,47.655,-122.3035,60.0,8.966666666666667
2026-01-20T23:08:59+00:00,SAT-65078,227.61650126179688,63.32547319279655,815.1510627721067,-3.5764980352088473,125264.08976470282,10.5,10500125264.089766,47.655,-122.3035,60.0,8.983333333333333
2026-01-20T23:09:00+00:00,SAT-65078,228.0527176731015,63.73392467066462,811.5841020649917,-3.530386520061959,123649.0694527431,10.5,10500123649.069452,47.655,-122.3035,60.0,9.0
2026-01-20T23:09:01+00:00,SAT-65078,228.50642893560257,64.14420836795183,808.0631299089832,-3.483665324778545,122012.69556345786,10.5,10500122012.695564,47.655,-122.3035,60.0,9.016666666666667
2026-01-20T23:09:02+00:00,SAT-65078,228.97859167109993,64.5562099020179,804.5887543584042,-3.4363320361053686,120354.88357451065,10.5,10500120354.883575,47.655,-122.3035,60.0,9.033333333333333
2026-01-20T23:09:03+00:00,SAT-65078,229.47022751620165,64.96980450940343,801.1615858743951,-3.388384535779896,118675.5592953873,10.5,10500118675.559296,47.655,-122.3035,60.0,9.05
2026-01-20T23:09:04+00:00,SAT-65078,229.982428053976,65.3848562073944,797.7822370307106,-3.339821024871729,116974.65971993582,10.5,10500116974.65972,47.655,-122.3035,60.0,9.066666666666666
2026-01-20T23:09:05+00:00,SAT-65078,230.5163601033721,65.8012168783356,794.4513221952385,-3.2906400655188945,115252.13448814777,10.5,10500115252.13449,47.655,-122.3035,60.0,9.083333333333334
2026-01-20T23:09:06+00:00,SAT-65078,231.07327138153641,66.21872527092835,791.1694571698944,-3.2408405218667267,113507.94381758806,10.5,10500113507.943817,47.655,-122.3035,60.0,9.1
2026-01-20T23:09:07+00:00,SAT-65078,231.65449652908902,66.63720589683966,787.9372588894192,-3.1904216836302,111742.06283107062,10.5,10500111742.062832,47.655,-122.3035,60.0,9.116666666666667
2026-01-20T23:09:08+00:00,SAT-65078,232.2614635295272,67.05646783605341,784.7553449969455,-3.139383170120817,109954.47819527394,10.5,10500109954.478195,47.655,-122.3035,60.0,9.133333333333333
2026-01-20T23:09:09+00:00,SAT-65078,232.89570047595603,67.47630341243755,781.6243335152783,-3.0877250280383843,108145.19154582279,10.5,10500108145.191545,47.655,-122.3035,60.0,9.15
2026-01-20T23:09:10+00:00,SAT-65078,233.55884269818915,67.89648675313303,778.544842420648,-3.0354477008145593,106314.21841356953,10.5,10500106314.218414,47.655,-122.3035,60.0,9.166666666666666
2026-01-20T23:09:11+00:00,SAT-65078,234.2526401888498,68.31677220303959,775.5174892470355,-2.9825520512330788,104461.5890168502,10.5,10500104461.589016,47.655,-122.3035,60.0,9.183333333333334
2026-01-20T23:09:12+00:00,SAT-65078,234.97896527787424,68.73689258855245,772.5428906679391,-2.929039412880022,102587.35006349038,10.5,10500102587.350063,47.655,-122.3035,60.0,9.2
2026-01-20T23:09:13+00:00,SAT-65078,235.73982047589783,69.15655732179587,769.6216620268268,-2.874911514770498,100691.56211091283,10.5,10500100691.56211,47.655,-122.3035,60.0,9.216666666666667
2026-01-20T23:09:14+00:00,SAT-65078,236.53734632881097,69.57545031387153,766.7544169427623,-2.820170601354961,98774.30376926657,10.5,10500098774.30377,47.655,-122.3035,60.0,9.233333333333333
2026-01-20T23:09:15+00:00,SAT-65078,237.37382916148337,69.99322771208796,763.9417667963443,-2.7648193809538366,96835.66989538904,10.5,10500096835.669895,47.655,-122.3035,60.0,9.25
2026-01-20T23:09:16+00:00,SAT-65078,238.25170843626125,70.40951542459554,761.184320267073,-2.708861044714118,94875.77225674648,10.5,10500094875.772257,47.655,-122.3035,60.0,9.266666666666667
2026-01-20T23:09:17+00:00,SAT-65078,239.17358343718865,70.8239064319983,758.4826828518115,-2.6522992930493703,92894.7404574747,10.5,10500092894.740458,47.655,-122.3035,60.0,9.283333333333333
2026-01-20T23:09:18+00:00,SAT-65078,240.14221888560797,71.23595787982607,755.8374563568768,-2.595138357225099,90892.72269438993,10.5,10500090892.722694,47.655,-122.3035,60.0,9.3
2026-01-20T23:09:19+00:00,SAT-65078,241.16054897637935,71.64518794847288,753.2492383686044,-2.537382963090279,88869.88448671358,10.5,10500088869.884487,47.655,-122.3035,60.0,9.316666666666666
2026-01-20T23:09:20+00:00,SAT-65078,242.23167916283853,72.05107249509524,750.7186217600824,-2.479038418312388,86826.41173141211,10.5,10500086826.411732,47.655,-122.3035,60.0,9.333333333333334
2026-01-20T23:09:21+00:00,SAT-65078,243.3588849261347,72.45304150003815,748.2461941108855,-2.420110521245598,84762.50751137569,10.5,10500084762.507511,47.655,-122.3035,60.0,9.35
2026-01-20T23:09:22+00:00,SAT-65078,244.54560644872436,72.85047531497742,745.8325372176965,-2.360605685681324,82678.39646470993,10.5,10500082678.396465,47.655,-122.3035,60.0,9.366666666666667
2026-01-20T23:09:23+00:00,SAT-65078,245.79543805933042,73.24270079047501,743.4782264805103,-2.300530840463634,80574.32126884311,10.5,10500080574.321268,47.655,-122.3035,60.0,9.383333333333333
2026-01-20T23:09:24+00:00,SAT-65078,247.11211087066346,73.62898731118675,741.1838303889546,-2.2398935223280474,78450.54589213346,10.5,10500078450.545893,47.655,-122.3035,60.0,9.4
2026-01-20T23:09:25+00:00,SAT-65078,248.49946696570402,74.00854286423163,738.9499099160195,-2.178701806706645,76307.35317037151,10.5,10500076307.35317,47.655,-122.3035,60.0,9.416666666666666
2026-01-20T23:09:26+00:00,SAT-65078,249.96142304145184,74.38051024314954,736.7770179807974,-2.116964389758049,74145.04767981693,10.5,10500074145.04768,47.655,-122.3035,60.0,9.433333333333334
2026-01-20T23:09:27+00:00,SAT-65078,251.50192135494893,74.7439635866895,734.665698829412,-2.0546905235007866,71963.9534652945,10.5,10500071963.953465,47.655,-122.3035,60.0,9.45
2026-01-20T23:09:28+00:00,SAT-65078,253.12486545833272,75.09790545324306,732.6164874806406,-1.9918900637961037,69764.41572075535,10.5,10500069764.41572,47.655,-122.3035,60.0,9.466666666666667
2026-01-20T23:09:29+00:00,SAT-65078,254.83403832136307,75.44126473673455,730.6299091236813,-1.9285734489022288,67546.8000381564,10.5,10500067546.800037,47.655,-122.3035,60.0,9.483333333333333
2026-01-20T23:09:30+00:00,SAT-65078,256.633000465749,75.77289576504445,728.7064785373094,-1.8647517063170465,65311.492647119856,10.5,10500065311.492647,47.655,-122.3035,60.0,9.5
2026-01-20T23:09:31+00:00,SAT-65078,258.52496624532193,76.09157900770212,726.8466995022092,-1.8004364592810227,63058.90064269308,10.5,10500063058.900642,47.655,-122.3035,60.0,9.516666666666667
2026-01-20T23:09:32+00:00,SAT-65078,260.5126572512476,76.39602387981262,725.0510642068197,-1.7356399010178323,60789.45108314646,10.5,10500060789.451082,47.655,-122.3035,60.0,9.533333333333333
2026-01-20T23:09:33+00:00,SAT-65078,262.59813317275405,76.68487417440812,723.3200526788712,-1.670374819798233,58503.591867816256,10.5,10500058503.591867,47.655,-122.3035,60.0,9.55
2026-01-20T23:09:34+00:00,SAT-65078,264.7826025659112,76.9567166935409,721.6541321919258,-1.6046545733443396,56201.790840634036,10.5,10500056201.79084,47.655,-122.3035,60.0,9.566666666666666
2026-01-20T23:09:35+00:00,SAT-65078,267.06621858808364,77.21009360957171,720.0537566974436,-1.538493098717292,53884.536136434646,10.5,10500053884.536137,47.655,-122.3035,60.0,9.583333333333334
2026-01-20T23:09:36+00:00,SAT-65078,269.44786820222964,77.44351901736799,718.5193662469895,-1.4719048666966557,51552.33458312979,10.5,10500051552.334583,47.655,-122.3035,60.0,9.6
2026-01-20T23:09:37+00:00,SAT-65078,271.9249669920424,77.65549995443527,717.0513864599375,-1.4049049280906765,49205.713323689095,10.5,10500049205.713324,47.655,-122.3035,60.0,9.616666666666667
2026-01-20T23:09:38+00:00,SAT-65078,274.4932757155643,77.84456192263167,715.6502279449884,-1.3375088563817743,46845.21780734267,10.5,10500046845.217808,47.655,-122.3035,60.0,9.633333333333333
2026-01-20T23:09:39+00:00,SAT-65078,277.14675751590744,78.00927854751802,714.3162857788902,-1.2697327499317075,44471.41186681531,10.5,10500044471.411867,47.655,-122.3035,60.0,9.65
2026-01-20T23:09:40+00:00,SAT-65078,279.8774965519245,78.14830458558443,713.0499389829585,-1.201593223392915,42084.87741751531,10.5,10500042084.877417,47.655,-122.3035,60.0,9.666666666666666
2026-01-20T23:09:41+00:00,SAT-65078,282.6756979108468,78.26041098088606,711.8515500081612,-1.1331073853866132,39686.21367572709,10.5,10500039686.213676,47.655,-122.3035,60.0,9.683333333333334
2026-01-20T23:09:42+00:00,SAT-65078,285.5297847249602,78.34452019551082,710.721464242469,-1.064292816658621,37276.03639353569,10.5,10500037276.036394,47.655,-122.3035,60.0,9.7
2026-01-20T23:09:43+00:00,SAT-65078,288.4266011323419,78.39973966693859,709.6600095399881,-0.9951675588896316,34854.97746691523,10.5,10500034854.977467,47.655,-122.3035,60.0,9.716666666666667
2026-01-20T23:09:44+00:00,SAT-65078,291.3517195268804,78.42539106440708,708.6674957612555,-0.9257500938711614,32423.684206382513,10.5,10500032423.684206,47.655,-122.3035,60.0,9.733333333333333
2026-01-20T23:09:45+00:00,SAT-65078,294.28983861851066,78.42103309738553,707.7442143343013,-0.8560593089387281,29982.818126320726,10.5,10500029982.818127,47.655,-122.3035,60.0,9.75
2026-01-20T23:09:46+00:00,SAT-65078,297.22524724941275,78.38647601022704,706.8904378501863,-0.7861144998044137,27533.055044187753,10.5,10500027533.055044,47.655,-122.3035,60.0,9.766666666666667
2026-01-20T23:09:47+00:00,SAT-65078,300.1423201007116,78.3217865451902,706.1064196557147,-0.7159353093937597,25075.08293832554,10.5,10500025075.08294,47.655,-122.3035,60.0,9.783333333333333
2026-01-20T23:09:48+00:00,SAT-65078,303.0260065618131,78.22728299335014,705.392393507146,-0.645541741373686,22609.60242176507,10.5,10500022609.602423,47.655,-122.3035,60.0,9.8
2026-01-20T23:09:49+00:00,SAT-65078,305.8622754916012,78.10352083824357,704.7485732104161,-0.5749541003216857,20137.324646698416,10.5,10500020137.324646,47.655,-122.3035,60.0,9.816666666666666
2026-01-20T23:09:50+00:00,SAT-65078,308.63848426651276,77.9512703136012,704.1751523210287,-0.5041929850902519,17658.97107207295,10.5,10500017658.971071,47.655,-122.3035,60.0,9.833333333333334
2026-01-20T23:09:51+00:00,SAT-65078,311.34365111406646,77.77148778614622,703.6723038505652,-0.4332792497377379,15175.272095224784,10.5,10500015175.272095,47.655,-122.3035,60.0,9.85
2026-01-20T23:09:52+00:00,SAT-65078,313.96862129914507,77.56528320730595,703.2401800121601,-0.36223397583355643,12686.9660818897,10.5,10500012686.966082,47.655,-122.3035,60.0,9.866666666666667
2026-01-20T23:09:53+00:00,SAT-65078,316.50612940115525,77.33388590656938,702.8789119935955,-0.2910784437239416,10194.798359808594,10.5,10500010194.798359,47.655,-122.3035,60.0,9.883333333333333
2026-01-20T23:09:54+00:00,SAT-65078,318.950769221158,77.07861078290072,702.5886097590549,-0.21983410017232594,7699.520085356591,10.5,10500007699.520086,47.655,-122.3035,60.0,9.9
2026-01-20T23:09:55+00:00,SAT-65078,321.29888897700954,76.80082656550418,702.3693618831496,-0.14852252328696713,5201.887015160184,10.5,10500005201.887014,47.655,-122.3035,60.0,9.916666666666666
2026-01-20T23:09:56+00:00,SAT-65078,323.54843221279987,76.50192734762469,702.2212354199247,-0.07716539594956694,2702.6585754550665,10.5,10500002702.658575,47.655,-122.3035,60.0,9.933333333333334
2026-01-20T23:09:57+00:00,SAT-65078,325.6987448791481,76.18330810073684,702.1442757983643,-0.005784468505841298,202.59655535208168,10.5,10500000202.596556,47.655,-122.3035,60.0,9.95
2026-01-20T23:09:58+00:00,SAT-65078,327.75036660214505,75.84634447684952,702.1385067551079,0.06559847267015916,-2297.5359941732463,10.5,10499997702.464006,47.655,-122.3035,60.0,9.966666666666667
2026-01-20T23:09:59+00:00,SAT-65078,329.70482095398586,75.49237684258996,702.2039302985175,0.1369616368738431,-4796.97587047154,10.5,10499995203.02413,47.655,-122.3035,60.0,9.983333333333333
2026-01-20T23:10:00+00:00,SAT-65078,331.5644155557502,75.12269826818846,702.3405267043598,0.20828326583901657,-7294.961007023311,10.5,10499992705.038994,47.655,-122.3035,60.0,10.0
2026-01-20T23:10:01+00:00,SAT-65078,333.3320593615064,74.73854601386435,702.5482545481565,0.2795416630133743,-9790.731498790507,10.5,10499990209.268501,47.655,-122.3035,60.0,10.016666666666667
2026-01-20T23:10:02+00:00,SAT-65078,335.0111010957692,74.3410960247974,702.8270507667352,0.35071522687586326,-12283.530769131505,10.5,10499987716.46923,47.655,-122.3035,60.0,10.033333333333333
2026-01-20T23:10:03+00:00,SAT-65078,336.60519056262075,73.93145988993285,703.176830753006,0.42178248707669846,-14772.606835577344,10.5,10499985227.393164,47.655,-122.3035,60.0,10.05
2026-01-20T23:10:04+00:00,SAT-65078,338.1181626210573,73.51068376531514,703.597488486784,0.49272213198020637,-17257.21327449861,10.5,10499982742.786726,47.655,-122.3035,60.0,10.066666666666666
2026-01-20T23:10:05+00:00,SAT-65078,339.5539424233142,73.07974881647675,704.0888966930788,0.563513041711688,-19736.610378546364,10.5,10499980263.389622,47.655,-122.3035,60.0,10.083333333333334
2026-01-20T23:10:06+00:00,SAT-65078,340.9164698672248,72.63957278127293,704.6509070333459,0.6341343167041241,-22210.0661564785,10.5,10499977789.933844,47.655,-122.3035,60.0,10.1
2026-01-20T23:10:07+00:00,SAT-65078,342.2096408411608,72.19101232925452,705.2833503252054,0.7045653176593671,-24676.857732769764,10.5,10499975323.142267,47.655,-122.3035,60.0,10.116666666666667
2026-01-20T23:10:08+00:00,SAT-65078,343.4372628070108,71.73486594453615,705.9860368020178,0.7747856755380917,-27136.27169750202,10.5,10499972863.728302,47.655,-122.3035,60.0,10.133333333333333
2026-01-20T23:10:09+00:00,SAT-65078,344.60302229740256,71.27187714095196,706.7587563824211,0.8447753451157384,-29587.605982119978,10.5,10499970412.394018,47.655,-122.3035,60.0,10.15
2026-01-20T23:10:10+00:00,SAT-65078,345.7104622368832,70.80273782025947,707.6012789932831,0.9145146025426785,-32030.169773977854,10.5,10499967969.830227,47.655,-122.3035,60.0,10.166666666666666
2026-01-20T23:10:11+00:00,SAT-65078,346.7629670866442,70.32809168495749,708.513354890219,0.9839841008960651,-34463.28546200012,10.5,10499965536.714539,47.655,-122.3035,60.0,10.183333333333334
2026-01-20T23:10:12+00:00,SAT-65078,347.7637542487686,69.8485375848094,709.4947150335128,1.0531648716117414,-36886.28868683309,10.5,10499963113.711313,47.655,-122.3035,60.0,10.2
2026-01-20T23:10:13+00:00,SAT-65078,348.7158702733034,69.36463276420469,710.5450714654669,1.122038359738304,-39298.52957559122,10.5,10499960701.470425,47.655,-122.3035,60.0,10.216666666666667
2026-01-20T23:10:14+00:00,SAT-65078,349.62219076291325,68.87689595112289,711.6641177229126,1.1905864481432282,-41699.373589658135,10.5,10499958300.62641,47.655,-122.3035,60.0,10.233333333333333
2026-01-20T23:10:15+00:00,SAT-65078,350.4854230241844,68.38581026812228,712.8515292738607,1.2587914689253248,-44088.201924399014,10.5,10499955911.798075,47.655,-122.3035,60.0,10.25
2026-01-20T23:10:16+00:00,SAT-65078,351.3081107037176,67.89182595704413,714.1069639655357,1.326636230294991,-46464.41245062077,10.5,10499953535.58755,47.655,-122.3035,60.0,10.266666666666667
2026-01-20T23:10:17+00:00,SAT-65078,352.09263982495156,67.39536290521065,715.4300624992165,1.3941040274261,-48827.42009465112,10.5,10499951172.579905,47.655,-122.3035,60.0,10.283333333333333
2026-01-20T23:10:18+00:00,SAT-65078,352.8412457445915,66.8968129810404,716.8204489159027,1.4611786702759537,-51176.65781271093,10.5,10499948823.342188,47.655,-122.3035,60.0,10.3
2026-01-20T23:10:19+00:00,SAT-65078,353.55602067577615,66.39654217814206,718.2777311097246,1.5278444871402754,-53511.57671542522,10.5,10499946488.423285,47.655,-122.3035,60.0,10.316666666666666
2026-01-20T23:10:20+00:00,SAT-65078,354.2389214868436,65.8948925849612,719.8015013448992,1.5940863433692969,-55831.646723339574,10.5,10499944168.353277,47.655,-122.3035,60.0,10.333333333333334
2026-01-20T23:10:21+00:00,SAT-65078,354.89177757614607,65.39218418435036,721.3913367913528,1.6598896528876992,-58136.356970397304,10.5,10499941863.64303,47.655,-122.3035,60.0,10.35
2026-01-20T23:10:22+00:00,SAT-65078,355.5162986646085,64.88871649682311,723.0468000718329,1.7252403843918467,-60425.21602099273,10.5,10499939574.78398,47.655,-122.3035,60.0,10.366666666666667
2026-01-20T23:10:23+00:00,SAT-65078,356.1140823939657,64.38477008004645,724.7674398151997,1.7901250861618383,-62697.75273899419,10.5,10499937302.247261,47.655,-122.3035,60.0,10.383333333333333
2026-01-20T23:10:24+00:00,SAT-65078,356.68662165918806,63.880607890890076,726.5527912344651,1.854530861088603,-64953.51541308732,10.5,10499935046.484587,47.655,-122.3035,60.0,10.4
2026-01-20T23:10:25+00:00,SAT-65078,357.2353116078415,63.376476534821194,728.402376679924,1.9184454092974044,-67192.0732496304,10.5,10499932807.92675,47.655,-122.3035,60.0,10.416666666666666
2026-01-20T23:10:26+00:00,SAT-65078,357.76145629702586,62.87260739421659,730.3157062347967,1.9818570040934167,-69413.01553016678,10.5,10499930586.98447,47.655,-122.3035,60.0,10.433333333333334
2026-01-20T23:10:27+00:00,SAT-65078,358.26627497057126,62.369217663807454,732.2922782868792,2.044754525607017,-71615.95278982529,10.5,10499928384.04721,47.655,-122.3035,60.0,10.45
2026-01-20T23:10:28+00:00,SAT-65078,358.75090796778005,61.86651128729549,734.3315801337512,2.1071274022593207,-73800.51476719561,10.5,10499926199.485233,47.655,-122.3035,60.0,10.466666666666667
2026-01-20T23:10:29+00:00,SAT-65078,359.2164222445471,61.36467982616132,736.4330885296046,2.168965705221048,-75966.35371267746,10.5,10499924033.646288,47.655,-122.3035,60.0,10.483333333333333
2026-01-20T23:10:30+00:00,SAT-65078,359.6638165513527,60.863903231608084,738.5962703262784,2.2302600582589145,-78113.14123091983,10.5,10499921886.858768,47.655,-122.3035,60.0,10.5
2026-01-20T23:10:31+00:00,SAT-65078,0.09402623902933963,60.36435057087903,740.8205830243819,2.29100166998751,-80240.5694104181,10.5,10499919759.43059,47.655,-122.3035,60.0,10.516666666666667
2026-01-20T23:10:32+00:00,SAT-65078,0.5079277369603259,59.866180684689944,743.1054753565828,2.3511823563065652,-82348.35160936216,10.5,10499917651.64839,47.655,-122.3035,60.0,10.533333333333333
2026-01-20T23:10:33+00:00,SAT-65078,0.9063427164992208,59.36954278507797,745.4503878932726,2.4107944794000984,-84436.22031912835,10.5,10499915563.77968,47.655,-122.3035,60.0,10.55
2026-01-20T23:10:34+00:00,SAT-65078,1.2900419437233073,58.8745770165463,747.8547535873943,2.4698310006636888,-86503.92901801664,10.5,10499913496.070982,47.655,-122.3035,60.0,10.566666666666666
2026-01-20T23:10:35+00:00,SAT-65078,1.6597488602085155,58.38141496088115,750.3179983720562,2.5282854313644707,-88551.25044315471,10.5,10499911448.749557,47.655,-122.3035,60.0,10.583333333333334
2026-01-20T23:10:36+00:00,SAT-65078,2.0161428927467377,57.890180111493095,752.8395417089371,2.586151840503421,-90577.97686586872,10.5,10499909422.023134,47.655,-122.3035,60.0,10.6
2026-01-20T23:10:37+00:00,SAT-65078,2.3598625202222077,57.40098830874935,755.4187971445324,2.643424853146998,-92583.92003325008,10.5,10499907416.079967,47.655,-122.3035,60.0,10.616666666666667
2026-01-20T23:10:38+00:00,SAT-65078,2.691508112579247,56.91394814225078,758.0551728647376,2.7000996286203254,-94568.91040438855,10.5,10499905431.089596,47.655,-122.3035,60.0,10.633333333333333
2026-01-20T23:10:39+00:00,SAT-65078,3.0116445562366687,56.429161326556255,760.7480722276816,2.7561718506972723,-96532.79680678745,10.5,10499903467.203194,47.655,-122.3035,60.0,10.65
2026-01-20T23:10:40+00:00,SAT-65078,3.320803683385557,55.94672305078326,763.4968942867771,2.811637722517376,-98475.44625833265,10.5,10499901524.553741,47.655,-122.3035,60.0,10.666666666666666
2026-01-20T23:10:41+00:00,SAT-65078,3.619486520458136,55.466722303625936,766.3010343087011,2.8664939685879647,-100396.74403741548,10.5,10499899603.255962,47.655,-122.3035,60.0,10.683333333333334
2026-01-20T23:10:42+00:00,SAT-65078,3.9081653700038688,54.9892421750929,769.1598842933729,2.920737785453305,-102296.59195515754,10.5,10499897703.408045,47.655,-122.3035,60.0,10.7
2026-01-20T23:10:43+00:00,SAT-65078,4.187285733893879,54.51436014520835,772.0728334447315,2.9743668634757507,-104174.90911827871,10.5,10499895825.090881,47.655,-122.3035,60.0,10.716666666666667
2026-01-20T23:10:44+00:00,SAT-65078,4.457268097154786,54.04214834956769,775.0392686632381,3.027379355810584,-106031.6308424648,10.5,10499893968.369158,47.655,-122.3035,60.0,10.733333333333333
2026-01-20T23:10:45+00:00,SAT-65078,4.718509578229688,53.572673832016704,778.0585750074332,3.0797738760067053,-107866.70856833365,10.5,10499892133.291431,47.655,-122.3035,60.0,10.75
2026-01-20T23:10:46+00:00,SAT-65078,4.97138545864208,53.105998781265285,781.1301361531039,3.131549478243748,-109680.10916925519,10.5,10499890319.890831,47.655,-122.3035,60.0,10.766666666666667
2026-01-20T23:10:47+00:00,SAT-65078,5.216250600098762,52.64218075530077,784.2533348327389,3.182705646900485,-111471.814585993,10.5,10499888528.185413,47.655,-122.3035,60.0,10.783333333333333
2026-01-20T23:10:48+00:00,SAT-65078,5.453440758570687,52.181272893351775,787.427553264581,3.233242248231768,-113241.82013422622,10.5,10499886758.179865,47.655,-122.3035,60.0,10.8
2026-01-20T23:10:49+00:00,SAT-65078,5.683273800841974,51.72332412155108,790.6521735334842,3.283159592838779,-114990.13669252205,10.5,10499885009.863308,47.655,-122.3035,60.0,10.816666666666666
2026-01-20T23:10:50+00:00,SAT-65078,5.906050838824301,51.26837933765032,793.9265780340754,3.332458355930611,-116716.78790955915,10.5,10499883283.21209,47.655,-122.3035,60.0,10.833333333333334
2026-01-20T23:10:51+00:00,SAT-65078,6.122057278089338,50.81647959581959,797.2501498343902,3.381139561222857,-118421.80964018781,10.5,10499881578.19036,47.655,-122.3035,60.0,10.85
2026-01-20T23:10:52+00:00,SAT-65078,6.33156379204913,50.36766228272794,800.6222730234498,3.4292046114412114,-120105.25101379541,10.5,10499879894.748985,47.655,-122.3035,60.0,10.866666666666667
2026-01-20T23:10:53+00:00,SAT-65078,6.534827230153614,49.92196127963039,804.0423330892605,3.476655246127664,-121767.17295650071,10.5,10499878232.827044,47.655,-122.3035,60.0,10.883333333333333
2026-01-20T23:10:54+00:00,SAT-65078,6.732091460679275,49.47940712089195,807.5097172547318,3.5234935172275375,-123407.64733610857,10.5,10499876592.352663,47.655,-122.3035,60.0,10.9
2026-01-20T23:10:55+00:00,SAT-65078,6.923588154419263,49.040027146751086,811.0238147892468,3.569721779864142,-125026.75663899955,10.5,10499874973.24336,47.655,-122.3035,60.0,10.916666666666666
2026-01-20T23:10:56+00:00,SAT-65078,7.10953751466378,48.603845648850346,814.5840173110312,3.615342717651183,-126624.59485667723,10.5,10499873375.405144,47.655,-122.3035,60.0,10.933333333333334
2026-01-20T23:10:57+00:00,SAT-65078,7.290148959078955,48.17088400501383,818.1897191147686,3.66035927469739,-128201.2651042829,10.5,10499871798.734896,47.655,-122.3035,60.0,10.95
2026-01-20T23:10:58+00:00,SAT-65078,7.4656217525039485,47.74116081497379,821.8403174314002,3.7047746325087014,-129756.87881161229,10.5,10499870243.12119,47.655,-122.3035,60.0,10.966666666666667
2026-01-20T23:10:59+00:00,SAT-65078,7.63614559685795,47.31469203143571,825.535212664889,3.748592285373131,-131291.55836341245,10.5,10499868708.441637,47.655,-122.3035,60.0,10.983333333333333
2026-01-20T23:11:00+00:00,SAT-65078,7.801901185519534,46.89149107595159,829.2738087041678,3.791815915776158,-132805.4327359018,10.5,10499867194.567265,47.655,-122.3035,60.0,11.0
2026-01-20T23:11:01+00:00,SAT-65078,7.963060715997433,46.4715689626939,833.0555131108351,3.834449457466861,-134298.63970561273,10.5,10499865701.360294,47.655,-122.3035,60.0,11.016666666666667
2026-01-20T23:11:02+00:00,SAT-65078,8.119788372147532,46.05493440899246,836.8797373697488,3.8764970588770207,-135771.32456817417,10.5,10499864228.675432,47.655,-122.3035,60.0,11.033333333333333
2026-01-20T23:11:03+00:00,SAT-65078,8.27224077390671,45.641593944223054,840.7458971031355,3.917963036049552,-137223.63848966573,10.5,10499862776.361511,47.655,-122.3035,60.0,11.05
2026-01-20T23:11:04+00:00,SAT-65078,8.42056739655332,45.23155201816348,844.6534122377554,3.958851933586124,-138655.74064126157,10.5,10499861344.25936,47.655,-122.3035,60.0,11.066666666666666
2026-01-20T23:11:05+00:00,SAT-65078,8.564910965838598,44.82481109760041,848.6017072328522,3.999168451403671,-140067.79563393336,10.5,10499859932.204367,47.655,-122.3035,60.0,11.083333333333334
2026-01-20T23:11:06+00:00,SAT-65078,8.70540782563423,44.42137176566005,852.5902112350519,4.038917426773269,-141459.97288937576,10.5,10499858540.027111,47.655,-122.3035,60.0,11.1
2026-01-20T23:11:07+00:00,SAT-65078,8.842188282268067,44.02123281782794,856.618358215354,4.078103903660371,-142832.449068595,10.5,10499857167.550932,47.655,-122.3035,60.0,11.116666666666667
2026-01-20T23:11:08+00:00,SAT-65078,8.975376929878172,43.62439134661631,860.6855871752712,4.11673301564762,-144185.4039713701,10.5,10499855814.59603,47.655,-122.3035,60.0,11.133333333333333
2026-01-20T23:11:09+00:00,SAT-65078,9.105092952180689,43.23084283318959,864.7913422362103,4.1548100468421865,-145519.0226694861,10.5,10499854480.977331,47.655,-122.3035,60.0,11.15
2026-01-20T23:11:10+00:00,SAT-65078,9.231450407843761,42.84058122878878,868.9350727895943,4.192340394632284,-146833.49420230906,10.5,10499853166.505798,47.655,-122.3035,60.0,11.166666666666666
2026-01-20T23:11:11+00:00,SAT-65078,9.354558497651345,42.45359903555868,873.116233609841,4.229329557125122,-148129.01113681047,10.5,10499851870.988863,47.655,-122.3035,60.0,11.183333333333334
2026-01-20T23:11:12+00:00,SAT-65078,9.474521815384154,42.0698873845702,877.3342849548137,4.265783155369068,-149405.77034588112,10.5,10499850594.229654,47.655,-122.3035,60.0,11.2
2026-01-20T23:11:13+00:00,SAT-65078,9.591440584469089,41.68943610805766,881.5886926884351,4.301706869362038,-150663.97076707447,10.5,10499849336.029232,47.655,-122.3035,60.0,11.216666666666667
2026-01-20T23:11:14+00:00,SAT-65078,9.705410879094327,41.312233813706435,885.8789283394789,4.337106453821313,-151903.8139549321,10.5,10499848096.186045,47.655,-122.3035,60.0,11.233333333333333
2026-01-20T23:11:15+00:00,SAT-65078,9.816524832911751,40.93826795386381,890.20446917609,4.371987782127902,-153125.50562010126,10.5,10499846874.494379,47.655,-122.3035,60.0,11.25
2026-01-20T23:11:16+00:00,SAT-65078,9.924870836773675,40.567524887736674,894.5647983241322,4.406356733223364,-154329.25166798334,10.5,10499845670.748331,47.655,-122.3035,60.0,11.266666666666667
2026-01-20T23:11:17+00:00,SAT-65078,10.030533722416767,40.199989949898935,898.9594047727337,4.440219250725569,-155515.26026921757,10.5,10499844484.73973,47.655,-122.3035,60.0,11.283333333333333
