satellites_20260120_184412/SAT-60096.csv

timestamp,satellite,azimuth_deg,elevation_deg,distance_km,relative_velocity_kms,doppler_shift_hz,tx_freq_ghz,rx_freq_hz,ue_lat,ue_lon,ue_alt_m,time_minutes
2026-01-20T23:07:16+00:00,SAT-60096,207.79200838634165,40.22985904703674,1106.5528799177202,-4.8003990033666675,168130.27876555192,10.5,10500168130.278765,47.655,-122.3035,60.0,7.266666666666667
2026-01-20T23:07:17+00:00,SAT-60096,207.88411734543837,40.508429123220346,1101.7652819783627,-4.776683700884861,167299.668557009,10.5,10500167299.668556,47.655,-122.3035,60.0,7.283333333333333
2026-01-20T23:07:18+00:00,SAT-60096,207.9781646254651,40.78907998397514,1097.00133610068,-4.75265272340684,166458.00207479476,10.5,10500166458.002075,47.655,-122.3035,60.0,7.3
2026-01-20T23:07:19+00:00,SAT-60096,208.07419984515965,41.07182407583797,1092.261357117869,-4.728302180986608,165605.1430765459,10.5,10500165605.143076,47.655,-122.3035,60.0,7.316666666666666
2026-01-20T23:07:20+00:00,SAT-60096,208.17227429925427,41.35667354257495,1087.5456637426985,-4.703628207051574,164740.9561385348,10.5,10500164740.956139,47.655,-122.3035,60.0,7.333333333333333
2026-01-20T23:07:21+00:00,SAT-60096,208.27244102905516,41.64364020580088,1082.854578544199,-4.678626885597028,163865.3041057117,10.5,10500163865.304106,47.655,-122.3035,60.0,7.35
2026-01-20T23:07:22+00:00,SAT-60096,208.37475489494528,41.93273554026098,1078.1884279969636,-4.653294288731376,162978.04940669806,10.5,10500162978.049406,47.655,-122.3035,60.0,7.366666666666666
2026-01-20T23:07:23+00:00,SAT-60096,208.4792726531502,42.22397065014833,1073.547542493002,-4.627626531191233,162079.0559631355,10.5,10500162079.055964,47.655,-122.3035,60.0,7.383333333333334
2026-01-20T23:07:24+00:00,SAT-60096,208.58605303758742,42.51735624774814,1068.9322562992274,-4.601619656151292,161168.1851902644,10.5,10500161168.18519,47.655,-122.3035,60.0,7.4
2026-01-20T23:07:25+00:00,SAT-60096,208.69515684312313,42.8129026237947,1064.342907628826,-4.575269757690173,160245.30028619606,10.5,10500160245.300285,47.655,-122.3035,60.0,7.416666666666667
2026-01-20T23:07:26+00:00,SAT-60096,208.80664701584405,43.11061962424077,1059.7798385904894,-4.548572883742435,159310.26283288145,10.5,10500159310.262833,47.655,-122.3035,60.0,7.433333333333334
2026-01-20T23:07:27+00:00,SAT-60096,208.92058874551455,43.41051661958771,1055.243395234437,-4.521525114164039,158362.93553029408,10.5,10500158362.93553,47.655,-122.3035,60.0,7.45
2026-01-20T23:07:28+00:00,SAT-60096,209.03704956463105,43.712602477877816,1050.7339275205773,-4.494122546571325,157403.1817004513,10.5,10500157403.1817,47.655,-122.3035,60.0,7.466666666666667
2026-01-20T23:07:29+00:00,SAT-60096,209.1560994521679,44.016885535431136,1046.2517893007969,-4.466361245773904,156430.86351633968,10.5,10500156430.863516,47.655,-122.3035,60.0,7.483333333333333
2026-01-20T23:07:30+00:00,SAT-60096,209.27781094132325,44.32337356278545,1041.7973383516785,-4.438237300450818,155445.84398695445,10.5,10500155445.843987,47.655,-122.3035,60.0,7.5
2026-01-20T23:07:31+00:00,SAT-60096,209.40225923423267,44.63207373277001,1037.3709363506955,-4.409746842324146,154447.98762883997,10.5,10500154447.987629,47.655,-122.3035,60.0,7.516666666666667
2026-01-20T23:07:32+00:00,SAT-60096,209.52952232324097,44.94299258843893,1032.9729488332841,-4.380885982958953,153437.15825255687,10.5,10500153437.158253,47.655,-122.3035,60.0,7.533333333333333
2026-01-20T23:07:33+00:00,SAT-60096,209.65968111668067,45.25613600497875,1028.6037452129465,-4.3516508682148505,152413.22086980563,10.5,10500152413.22087,47.655,-122.3035,60.0,7.55
2026-01-20T23:07:34+00:00,SAT-60096,209.7928195728002,45.57150915363308,1024.2636987470469,-4.322037679918032,151376.04175198876,10.5,10500151376.041752,47.655,-122.3035,60.0,7.566666666666666
2026-01-20T23:07:35+00:00,SAT-60096,209.92902484084672,45.88911646398475,1019.953186500942,-4.292042604339205,150325.48732617433,10.5,10500150325.487326,47.655,-122.3035,60.0,7.583333333333333
2026-01-20T23:07:36+00:00,SAT-60096,210.06838740863333,46.208961582105154,1015.6725893435477,-4.261661873974326,149261.42563843424,10.5,10500149261.425638,47.655,-122.3035,60.0,7.6
2026-01-20T23:07:37+00:00,SAT-60096,210.21100125933353,46.5310473297199,1011.4222919012374,-4.230891745604388,148183.72558540502,10.5,10500148183.725586,47.655,-122.3035,60.0,7.616666666666666
2026-01-20T23:07:38+00:00,SAT-60096,210.35696403595156,46.85537565972546,1007.2026825336212,-4.19972854832166,147092.2585963701,10.5,10500147092.258596,47.655,-122.3035,60.0,7.633333333333334
2026-01-20T23:07:39+00:00,SAT-60096,210.50637721636824,47.181947613190054,1003.0141532614283,-4.168168592083187,145986.89543041628,10.5,10500145986.89543,47.655,-122.3035,60.0,7.65
2026-01-20T23:07:40+00:00,SAT-60096,210.659346294694,47.51076326715013,998.8570997855908,-4.136208300698668,144867.51083423189,10.5,10500144867.510834,47.655,-122.3035,60.0,7.666666666666667
2026-01-20T23:07:41+00:00,SAT-60096,210.81598097727823,47.84182169019483,994.7319213736939,-4.103844106259881,143733.97984457883,10.5,10500143733.979845,47.655,-122.3035,60.0,7.683333333333334
2026-01-20T23:07:42+00:00,SAT-60096,210.9763953856879,48.17512088750817,990.6390208517174,-4.071072506601535,142586.17980081445,10.5,10500142586.1798,47.655,-122.3035,60.0,7.7
2026-01-20T23:07:43+00:00,SAT-60096,211.14070827301185,48.51065774769707,986.5788045384669,-4.037890105150519,141423.9917405809,10.5,10500141423.991741,47.655,-122.3035,60.0,7.716666666666667
2026-01-20T23:07:44+00:00,SAT-60096,211.3090432539475,48.84842799032344,982.5516821402633,-4.004293479568131,140247.29579910033,10.5,10500140247.2958,47.655,-122.3035,60.0,7.733333333333333
2026-01-20T23:07:45+00:00,SAT-60096,211.48152904227058,49.188426099743225,978.5580667766407,-3.9702793792667497,139055.9781270444,10.5,10500139055.978127,47.655,-122.3035,60.0,7.75
2026-01-20T23:07:46+00:00,SAT-60096,211.65829971002108,49.53064527226246,974.598374809052,-3.9358445521656176,137849.9248227885,10.5,10500137849.924822,47.655,-122.3035,60.0,7.766666666666667
2026-01-20T23:07:47+00:00,SAT-60096,211.8394949538961,49.87507734577292,970.6730258423588,-3.9009858994988793,136629.02735444476,10.5,10500136629.027355,47.655,-122.3035,60.0,7.783333333333333
2026-01-20T23:07:48+00:00,SAT-60096,212.02526038375757,50.221712739203625,966.7824425719253,-3.8657003345151253,135393.1776109218,10.5,10500135393.17761,47.655,-122.3035,60.0,7.8
2026-01-20T23:07:49+00:00,SAT-60096,212.2157478210314,50.57054037630582,962.9270507716357,-3.829984936518671,134142.27329710225,10.5,10500134142.273296,47.655,-122.3035,60.0,7.816666666666666
2026-01-20T23:07:50+00:00,SAT-60096,212.41111562169948,50.92154761928658,959.1072791282809,-3.7938368358003496,132876.2139036322,10.5,10500132876.213903,47.655,-122.3035,60.0,7.833333333333333
2026-01-20T23:07:51+00:00,SAT-60096,212.61152901228846,51.27472018845048,955.3235591907094,-3.757253290682094,131594.90340534845,10.5,10500131594.903406,47.655,-122.3035,60.0,7.85
2026-01-20T23:07:52+00:00,SAT-60096,212.81716044924195,51.63004208466742,951.5763252421358,-3.7202316618067415,130298.24936079876,10.5,10500130298.249361,47.655,-122.3035,60.0,7.866666666666666
2026-01-20T23:07:53+00:00,SAT-60096,213.02818999793058,51.98749550525499,947.8660141980939,-3.6827694182721196,128986.16312708326,10.5,10500128986.163128,47.655,-122.3035,60.0,7.883333333333334
2026-01-20T23:07:54+00:00,SAT-60096,213.24480573408076,52.347060755854685,944.1930654982705,-3.644864191913232,127658.5617610465,10.5,10500127658.561762,47.655,-122.3035,60.0,7.9
2026-01-20T23:07:55+00:00,SAT-60096,213.46720417203142,52.708716162782046,940.5579209442024,-3.6065137066381143,126315.36554432001,10.5,10500126315.365545,47.655,-122.3035,60.0,7.916666666666667
2026-01-20T23:07:56+00:00,SAT-60096,213.69559071405214,53.072437973579426,936.9610246074486,-3.567715833870166,124956.49992514736,10.5,10500124956.499926,47.655,-122.3035,60.0,7.933333333333334
2026-01-20T23:07:57+00:00,SAT-60096,213.93018012947732,53.43820025748006,933.4028226824687,-3.5284685890174172,123581.89539472297,10.5,10500123581.895395,47.655,-122.3035,60.0,7.95
2026-01-20T23:07:58+00:00,SAT-60096,214.1711970620708,53.805974799923774,929.8837633430221,-3.488770159146367,122191.48845644692,10.5,10500122191.488457,47.655,-122.3035,60.0,7.966666666666667
2026-01-20T23:07:59+00:00,SAT-60096,214.41887656947662,54.1757309939507,926.4042965709667,-3.4486188526356996,120785.21986258522,10.5,10500120785.219862,47.655,-122.3035,60.0,7.983333333333333
2026-01-20T23:08:00+00:00,SAT-60096,214.67346469119082,54.54743571998633,922.9648740352714,-3.4080131609257505,119363.03677699718,10.5,10500119363.036777,47.655,-122.3035,60.0,8.0
2026-01-20T23:08:01+00:00,SAT-60096,214.9352190546699,54.9210532251672,919.5659489094414,-3.366951760909298,117924.89285887116,10.5,10500117924.892859,47.655,-122.3035,60.0,8.016666666666667
2026-01-20T23:08:02+00:00,SAT-60096,215.2044095178943,55.296544995895886,916.2079756865612,-3.3254334845311253,116470.7471979726,10.5,10500116470.747198,47.655,-122.3035,60.0,8.033333333333333
2026-01-20T23:08:03+00:00,SAT-60096,215.48131884780346,55.67386961936172,912.8914100246556,-3.2834573555174487,115000.56560106395,10.5,10500115000.565601,47.655,-122.3035,60.0,8.05
2026-01-20T23:08:04+00:00,SAT-60096,215.7662434418384,56.05298264079776,909.6167085554195,-3.241022592603744,113514.32070495686,10.5,10500113514.320705,47.655,-122.3035,60.0,8.066666666666666
2026-01-20T23:08:05+00:00,SAT-60096,216.05949409264971,56.43383641241028,906.3843286897293,-3.198128622237829,112011.99242142777,10.5,10500112011.992422,47.655,-122.3035,60.0,8.083333333333334
2026-01-20T23:08:06+00:00,SAT-60096,216.36139679916738,56.81637993445751,903.1947284104841,-3.154775058959913,110493.5672500443,10.5,10500110493.56725,47.655,-122.3035,60.0,8.1
2026-01-20T23:08:07+00:00,SAT-60096,216.6722936234844,57.200558684006154,900.0483660850148,-3.110961751915629,108959.03990724846,10.5,10500108959.039907,47.655,-122.3035,60.0,8.116666666666667
2026-01-20T23:08:08+00:00,SAT-60096,216.99254360230253,57.586314438520695,896.9457002311043,-3.0666887474608475,107408.41201661884,10.5,10500107408.412016,47.655,-122.3035,60.0,8.133333333333333
2026-01-20T23:08:09+00:00,SAT-60096,217.32252370749472,57.97358508349882,893.8871893203033,-3.0219563459094894,105841.69409641932,10.5,10500105841.694096,47.655,-122.3035,60.0,8.15
2026-01-20T23:08:10+00:00,SAT-60096,217.6626298677241,58.36230441481954,890.8732915246496,-2.976765071727457,104258.9045156643,10.5,10500104258.904516,47.655,-122.3035,60.0,8.166666666666666
2026-01-20T23:08:11+00:00,SAT-60096,218.01327804503367,58.75240192436967,887.9044644931133,-2.9311156644666294,102660.06917658886,10.5,10500102660.069176,47.655,-122.3035,60.0,8.183333333333334
2026-01-20T23:08:12+00:00,SAT-60096,218.3749053702447,59.14380257025107,884.9811651370853,-2.885009163983784,101045.22449937595,10.5,10500101045.224499,47.655,-122.3035,60.0,8.2
2026-01-20T23:08:13+00:00,SAT-60096,218.74797135103242,59.53642654301033,882.1038493308722,-2.838446813115501,99414.41401341977,10.5,10500099414.414013,47.655,-122.3035,60.0,8.216666666666667
2026-01-20T23:08:14+00:00,SAT-60096,219.13295913313587,59.93018900300847,879.2729717092583,-2.7914301614993224,97767.69199358206,10.5,10500097767.691994,47.655,-122.3035,60.0,8.233333333333333
2026-01-20T23:08:15+00:00,SAT-60096,219.53037684091325,60.32499981422894,876.488985361523,-2.743960976491093,96105.12034014036,10.5,10500096105.12034,47.655,-122.3035,60.0,8.25
2026-01-20T23:08:16+00:00,SAT-60096,219.94075897405503,60.72076324738364,873.7523416143026,-2.6960413527823697,94426.77241805357,10.5,10500094426.772419,47.655,-122.3035,60.0,8.266666666666667
2026-01-20T23:08:17+00:00,SAT-60096,220.36466788811506,61.11737767828747,871.0634897051275,-2.6476736205046323,92732.72983838251,10.5,10500092732.72984,47.655,-122.3035,60.0,8.283333333333333
2026-01-20T23:08:18+00:00,SAT-60096,220.80269533088307,61.514735251996136,868.4228765476109,-2.5988604101524526,91023.08473217412,10.5,10500091023.084732,47.655,-122.3035,60.0,8.3
2026-01-20T23:08:19+00:00,SAT-60096,221.25546405597723,61.912721533155135,865.8309464318855,-2.5496046641299936,89297.94015486851,10.5,10500089297.940155,47.655,-122.3035,60.0,8.316666666666666
2026-01-20T23:08:20+00:00,SAT-60096,221.723629505353,62.31121513391493,863.2881407135267,-2.4999095758094882,87557.40795186925,10.5,10500087557.407951,47.655,-122.3035,60.0,8.333333333333334
2026-01-20T23:08:21+00:00,SAT-60096,222.20788154378405,62.71008730632191,860.7948975632526,-2.4497786828781245,85801.61202794604,10.5,10500085801.612028,47.655,-122.3035,60.0,8.35
2026-01-20T23:08:22+00:00,SAT-60096,222.70894626752192,63.10920152107832,858.3516516235288,-2.3992157913948904,84030.68568738426,10.5,10500084030.685688,47.655,-122.3035,60.0,8.366666666666667
2026-01-20T23:08:23+00:00,SAT-60096,223.22758784932876,63.50841300474942,855.958833740911,-2.3482250472302666,82244.77413610519,10.5,10500082244.774136,47.655,-122.3035,60.0,8.383333333333333
2026-01-20T23:08:24+00:00,SAT-60096,223.7646104378987,63.90756825674656,853.6168706271401,-2.296810888369927,80444.03281113975,10.5,10500080444.03281,47.655,-122.3035,60.0,8.4
2026-01-20T23:08:25+00:00,SAT-60096,224.3208600747715,64.30650452509965,851.3261845678057,-2.2449780728335402,78628.62835846316,10.5,10500078628.628359,47.655,-122.3035,60.0,8.416666666666666
2026-01-20T23:08:26+00:00,SAT-60096,224.8972266268306,64.7050492513648,849.0871931031664,-2.1927316780745567,76798.73861197285,10.5,10500076798.738611,47.655,-122.3035,60.0,8.433333333333334
2026-01-20T23:08:27+00:00,SAT-60096,225.4946457068675,65.103019478242,846.9003087095667,-2.140077113599311,74954.55303546284,10.5,10500074954.553036,47.655,-122.3035,60.0,8.45
2026-01-20T23:08:28+00:00,SAT-60096,226.11410055831996,65.50022122062457,844.7659384682704,-2.0870200923494178,73096.2717203142,10.5,10500073096.27172,47.655,-122.3035,60.0,8.466666666666667
2026-01-20T23:08:29+00:00,SAT-60096,226.75662385822952,65.89644879093284,842.6844837628339,-2.033566679069555,71224.10707953943,10.5,10500071224.10708,47.655,-122.3035,60.0,8.483333333333333
2026-01-20T23:08:30+00:00,SAT-60096,227.423299418015,66.29148409162711,840.6563399282418,-1.979723227368388,69338.2816433897,10.5,10500069338.281643,47.655,-122.3035,60.0,8.5
2026-01-20T23:08:31+00:00,SAT-60096,228.1152636971745,66.68509585320403,838.6818959628131,-1.9254964512214028,67439.0305636866,10.5,10500067439.030563,47.655,-122.3035,60.0,8.516666666666667
2026-01-20T23:08:32+00:00,SAT-60096,228.83370710865557,67.07703884270876,836.761534168795,-1.8708933805189554,65526.60005692682,10.5,10500065526.600058,47.655,-122.3035,60.0,8.533333333333333
2026-01-20T23:08:33+00:00,SAT-60096,229.57987500459106,67.46705302115282,834.8956298372907,-1.8159213657566342,63601.24756855844,10.5,10500063601.247568,47.655,-122.3035,60.0,8.55
2026-01-20T23:08:34+00:00,SAT-60096,230.35506826619772,67.85486266013793,833.0845509285094,-1.7605880835846393,61663.24196734366,10.5,10500061663.241968,47.655,-122.3035,60.0,8.566666666666666
2026-01-20T23:08:35+00:00,SAT-60096,231.1606433912927,68.2401754202897,831.328657746481,-1.7049015383412043,59712.86359906574,10.5,10500059712.8636,47.655,-122.3035,60.0,8.583333333333334
2026-01-20T23:08:36+00:00,SAT-60096,231.99801195235838,68.62268139471509,829.628302612242,-1.6488700637481501,57750.40434591445,10.5,10500057750.404346,47.655,-122.3035,60.0,8.6
2026-01-20T23:08:37+00:00,SAT-60096,232.86863927783105,69.00205212320868,827.9838295353305,-1.592502284255559,55776.166272613074,10.5,10500055776.166273,47.655,-122.3035,60.0,8.616666666666667
2026-01-20T23:08:38+00:00,SAT-60096,233.77404216257867,69.37793957570071,826.395573923833,-1.5358071654125791,53790.463390616984,10.5,10500053790.46339,47.655,-122.3035,60.0,8.633333333333333
2026-01-20T23:08:39+00:00,SAT-60096,234.71578545490848,69.74997513558861,824.8638622441948,-1.4787939791487734,51793.62044211973,10.5,10500051793.620441,47.655,-122.3035,60.0,8.65
2026-01-20T23:08:40+00:00,SAT-60096,235.69547725347348,70.11776857789697,823.3890117156571,-1.4214722903403463,49785.97242954536,10.5,10500049785.97243,47.655,-122.3035,60.0,8.666666666666666
2026-01-20T23:08:41+00:00,SAT-60096,236.71476246650872,70.48090706413659,821.9713300180911,-1.3638519745141062,47767.865235616155,10.5,10500047767.865236,47.655,-122.3035,60.0,8.683333333333334
2026-01-20T23:08:42+00:00,SAT-60096,237.77531447240176,70.83895418396659,820.6111149821756,-1.3059431983707048,45739.65494119402,10.5,10500045739.654942,47.655,-122.3035,60.0,8.7
2026-01-20T23:08:43+00:00,SAT-60096,238.87882455051425,71.19144906233936,819.3086542990006,-1.24775642003951,43701.70783420728,10.5,10500043701.707834,47.655,-122.3035,60.0,8.716666666666667
2026-01-20T23:08:44+00:00,SAT-60096,240.0269887656642,71.53790557084399,818.0642252294145,-1.1893023726902965,41654.39983566269,10.5,10500041654.399836,47.655,-122.3035,60.0,8.733333333333333
2026-01-20T23:08:45+00:00,SAT-60096,241.22149194780673,71.8778116793498,816.878094329718,-1.1305920621900993,39598.1164175786,10.5,10500039598.116417,47.655,-122.3035,60.0,8.75
2026-01-20T23:08:46+00:00,SAT-60096,242.46398842997542,72.21062899979803,815.7505171796938,-1.0716367626010217,37533.252445299106,10.5,10500037533.252445,47.655,-122.3035,60.0,8.766666666666667
2026-01-20T23:08:47+00:00,SAT-60096,243.7560792099174,72.53579257788601,814.6817381151263,-1.0124480028960041,35460.211712224074,10.5,10500035460.211712,47.655,-122.3035,60.0,8.783333333333333
2026-01-20T23:08:48+00:00,SAT-60096,245.09928522727256,72.85271099461141,813.6719899735715,-0.9530375477157208,33379.40626583431,10.5,10500033379.406265,47.655,-122.3035,60.0,8.8
2026-01-20T23:08:49+00:00,SAT-60096,246.49501650853944,73.16076684797605,812.7214938593163,-0.8934174109310571,31291.256882706835,10.5,10500031291.256884,47.655,-122.3035,60.0,8.816666666666666
2026-01-20T23:08:50+00:00,SAT-60096,247.9445370887862,73.45931770504147,811.8304588948143,-0.8335998190435369,29196.191786643067,10.5,10500029196.191786,47.655,-122.3035,60.0,8.833333333333334
2026-01-20T23:08:51+00:00,SAT-60096,249.44892565149325,73.74769759454601,810.9990820086216,-0.7735972137717805,27094.646739257514,10.5,10500027094.64674,47.655,-122.3035,60.0,8.85
2026-01-20T23:08:52+00:00,SAT-60096,251.0090321391523,74.02521914139545,810.2275477207533,-0.7134222388033575,24987.064575971603,10.5,10500024987.064575,47.655,-122.3035,60.0,8.866666666666667
2026-01-20T23:08:53+00:00,SAT-60096,252.6254307663461,74.29117642735223,809.5160279412534,-0.653087724901662,22873.894684393465,10.5,10500022873.894684,47.655,-122.3035,60.0,8.883333333333333
2026-01-20T23:08:54+00:00,SAT-60096,254.2983701856554,74.5448486612897,808.864681783618,-0.592606677656163,20755.5925752799,10.5,10500020755.592575,47.655,-122.3035,60.0,8.9
2026-01-20T23:08:55+00:00,SAT-60096,256.02772192013015,74.78550473244294,808.2736553904357,-0.5319922665367494,18632.619499173223,10.5,10500018632.6195,47.655,-122.3035,60.0,8.916666666666666
2026-01-20T23:08:56+00:00,SAT-60096,257.81292857399905,75.01240870100177,807.743081769943,-0.4712578038646119,16505.441709872583,10.5,10500016505.44171,47.655,-122.3035,60.0,8.933333333333334
2026-01-20T23:08:57+00:00,SAT-60096,259.6529537052274,75.22482624753385,807.2730806535554,-0.41041674185605553,14374.530360895813,10.5,10500014374.530361,47.655,-122.3035,60.0,8.95
2026-01-20T23:08:58+00:00,SAT-60096,261.5462357296217,75.42203207721978,806.8637583563443,-0.3494826482658137,12240.36065240522,10.5,10500012240.360653,47.655,-122.3035,60.0,8.966666666666667
2026-01-20T23:08:59+00:00,SAT-60096,263.4906484373604,75.60331821194353,806.5152076618072,-0.28846919673481075,10103.41149314541,10.5,10500010103.411493,47.655,-122.3035,60.0,8.983333333333333
2026-01-20T23:09:00+00:00,SAT-60096,265.48347104548026,75.76800306355288,806.2275077162636,-0.22739014850085731,7964.1648598745005,10.5,10500007964.16486,47.655,-122.3035,60.0,9.0
2026-01-20T23:09:01+00:00,SAT-60096,267.52137068230985,75.91544111114737,806.0007239414922,-0.16625934185410673,5823.105428049564,10.5,10500005823.105429,47.655,-122.3035,60.0,9.016666666666667
2026-01-20T23:09:02+00:00,SAT-60096,269.6004001290677,76.045032951458,805.8349079578829,-0.10509067172212079,3680.719856809301,10.5,10500003680.719856,47.655,-122.3035,60.0,9.033333333333333
2026-01-20T23:09:03+00:00,SAT-60096,271.7160131057343,76.15623542302284,805.7300975279521,-0.04389807619658272,1537.496317082528,10.5,10500001537.496317,47.655,-122.3035,60.0,9.05
2026-01-20T23:09:04+00:00,SAT-60096,273.86309879279963,76.2485714649203,805.686316513292,0.017304478978459607,-606.0760516991587,10.5,10499999393.923948,47.655,-122.3035,60.0,9.066666666666666
2026-01-20T23:09:05+00:00,SAT-60096,276.0360362749003,76.32163933360002,805.7035748469933,0.07850301689908747,-2749.507719238282,10.5,10499997250.492281,47.655,-122.3035,60.0,9.083333333333334
2026-01-20T23:09:06+00:00,SAT-60096,278.2287684188932,76.37512079085214,805.7818685225141,0.13968356556062073,-4892.309326829422,10.5,10499995107.690674,47.655,-122.3035,60.0,9.1
2026-01-20T23:09:07+00:00,SAT-60096,280.43489341478016,76.40878789227999,805.9211795985664,0.20083217237339085,-7033.99219576299,10.5,10499992966.007805,47.655,-122.3035,60.0,9.116666666666667
2026-01-20T23:09:08+00:00,SAT-60096,282.64777092889415,76.42250805022451,806.1214762184801,0.2619349221943782,-9174.068958869442,10.5,10499990825.931042,47.655,-122.3035,60.0,9.133333333333333
2026-01-20T23:09:09+00:00,SAT-60096,284.86063875143236,76.41624711677271,806.3827126475486,0.3229779507997371,-11312.054032384096,10.5,10499988687.945967,47.655,-122.3035,60.0,9.15
2026-01-20T23:09:10+00:00,SAT-60096,287.0667348526206,76.3900703248548,806.704829323813,0.3839474634052135,-13447.464264610491,10.5,10499986552.535736,47.655,-122.3035,60.0,9.166666666666666
2026-01-20T23:09:11+00:00,SAT-60096,289.25941946297525,76.3441410360088,807.0877529273158,0.4448297435134887,-15579.819245791807,10.5,10499984420.180754,47.655,-122.3035,60.0,9.183333333333334
2026-01-20T23:09:12+00:00,SAT-60096,291.4322916449872,76.27871735688579,807.5313964581798,0.5056111794964875,-17708.64223913571,10.5,10499982291.357761,47.655,-122.3035,60.0,9.2
2026-01-20T23:09:13+00:00,SAT-60096,293.57929546130896,76.19414679209204,808.0356593411977,0.5662782661258815,-19833.460234419093,10.5,10499980166.539766,47.655,-122.3035,60.0,9.216666666666667
2026-01-20T23:09:14+00:00,SAT-60096,295.6948114320277,76.09085919897717,808.6004275319473,0.626817631430218,-21953.804888638286,10.5,10499978046.195112,47.655,-122.3035,60.0,9.233333333333333
2026-01-20T23:09:15+00:00,SAT-60096,297.7737303782159,75.96935837308784,809.2255736496936,0.6872160390742765,-24069.21260934424,10.5,10499975930.78739,47.655,-122.3035,60.0,9.25
2026-01-20T23:09:16+00:00,SAT-60096,299.8115077784835,75.83021264300696,809.9109571126637,0.7474604153428716,-26179.225499729386,10.5,10499973820.7745,47.655,-122.3035,60.0,9.266666666666667
2026-01-20T23:09:17+00:00,SAT-60096,301.804198256579,75.6740448587109,810.6564243002323,0.8075378525348699,-28283.391477500525,10.5,10499971716.608522,47.655,-122.3035,60.0,9.283333333333333
2026-01-20T23:09:18+00:00,SAT-60096,303.74847080988275,75.50152215403479,811.4618087184938,0.8674356236240622,-30381.264788364537,10.5,10499969618.735212,47.655,-122.3035,60.0,9.3
2026-01-20T23:09:19+00:00,SAT-60096,305.64160647813895,75.31334582279682,812.3269311804548,0.9271412009686366,-32472.406661313293,10.5,10499967527.593338,47.655,-122.3035,60.0,9.316666666666666
2026-01-20T23:09:20+00:00,SAT-60096,307.4814808095837,75.11024159887452,813.2516000048876,0.9866422597219703,-34556.38542808401,10.5,10499965443.614573,47.655,-122.3035,60.0,9.333333333333334
2026-01-20T23:09:21+00:00,SAT-60096,309.2665338638688,74.8929505753199,814.2356112185837,1.0459267042685685,-36632.77744905767,10.5,10499963367.222551,47.655,-122.3035,60.0,9.35
2026-01-20T23:09:22+00:00,SAT-60096,310.99573073468025,74.66222092649173,815.2787487849741,1.1049826482995644,-38701.16641541872,10.5,10499961298.833584,47.655,-122.3035,60.0,9.366666666666667
2026-01-20T23:09:23+00:00,SAT-60096,312.66851538242184,74.41880055195381,816.3807848128782,1.163798468670418,-40761.1452354795,10.5,10499959238.854765,47.655,-122.3035,60.0,9.383333333333333
2026-01-20T23:09:24+00:00,SAT-60096,314.2847605536138,74.1634306794625,817.5414798189655,1.2223627808095598,-42812.31517338698,10.5,10499957187.684826,47.655,-122.3035,60.0,9.4
2026-01-20T23:09:25+00:00,SAT-60096,315.84471596153077,73.89684045188665,818.760582965693,1.2806644649551104,-44854.286768043574,10.5,10499955145.713232,47.655,-122.3035,60.0,9.416666666666666
2026-01-20T23:09:26+00:00,SAT-60096,317.3489567300025,73.61974245719823,820.0378323254081,1.3386926603577425,-46886.67963006693,10.5,10499953113.32037,47.655,-122.3035,60.0,9.433333333333334
2026-01-20T23:09:27+00:00,SAT-60096,318.7983335565199,73.33282915164301,821.3729551386716,1.3964367997179081,-48909.12364792724,10.5,10499951090.876352,47.655,-122.3035,60.0,9.45
2026-01-20T23:09:28+00:00,SAT-60096,320.19392575169945,73.03677009184801,822.7656681069236,1.4538865908121685,-50921.25834442363,10.5,10499949078.741655,47.655,-122.3035,60.0,9.466666666666667
2026-01-20T23:09:29+00:00,SAT-60096,321.53699784638997,72.7322099009629,824.215677666827,1.5110320291068293,-52922.73331846696,10.5,10499947077.266682,47.655,-122.3035,60.0,9.483333333333333
2026-01-20T23:09:30+00:00,SAT-60096,322.82896025622694,72.41976687099326,825.7226802771895,1.5678634120013042,-54913.20874394276,10.5,10499945086.791256,47.655,-122.3035,60.0,9.5
2026-01-20T23:09:31+00:00,SAT-60096,324.0713342015606,72.1000321104444,827.286362720092,1.6243713477837134,-56892.355683374095,10.5,10499943107.644316,47.655,-122.3035,60.0,9.516666666666667
2026-01-20T23:09:32+00:00,SAT-60096,325.265720882909,71.7735691515811,828.9064024109484,1.6805467440958177,-58859.85568391479,10.5,10499941140.144316,47.655,-122.3035,60.0,9.533333333333333
2026-01-20T23:09:33+00:00,SAT-60096,326.4137747608581,71.44091394084668,830.58246769706,1.7363808151752769,-60815.401031003945,10.5,10499939184.598969,47.655,-122.3035,60.0,9.55
2026-01-20T23:09:34+00:00,SAT-60096,327.51718072163044,71.10257513541208,832.3142181633948,1.7918651136723687,-62758.69586272204,10.5,10499937241.304138,47.655,-122.3035,60.0,9.566666666666666
2026-01-20T23:09:35+00:00,SAT-60096,328.57763484024576,70.75903463659756,834.1013049700974,1.8469914920457404,-64689.454817706835,10.5,10499935310.545183,47.655,-122.3035,60.0,9.583333333333334
2026-01-20T23:09:36+00:00,SAT-60096,329.5968283603111,70.41074831773082,835.9433711514976,1.9017521369804502,-66607.40424061878,10.5,10499933392.595758,47.655,-122.3035,60.0,9.6
2026-01-20T23:09:37+00:00,SAT-60096,330.5764345906621,70.05814688398947,837.8400519494461,1.9561395418864174,-68512.2812189204,10.5,10499931487.71878,47.655,-122.3035,60.0,9.616666666666667
2026-01-20T23:09:38+00:00,SAT-60096,331.5180983365101,69.70163683565792,839.7909751192209,2.0101465585959333,-70403.83539354183,10.5,10499929596.164606,47.655,-122.3035,60.0,9.633333333333333
2026-01-20T23:09:39+00:00,SAT-60096,332.423427576459,69.3416014864886,841.7957612869939,2.0637663326298052,-72281.82669162728,10.5,10499927718.17331,47.655,-122.3035,60.0,9.65
2026-01-20T23:09:40+00:00,SAT-60096,333.2939870187058,68.9784020311953,843.8540242427366,2.1169923525834835,-74146.02705624627,10.5,10499925853.972944,47.655,-122.3035,60.0,9.666666666666666
2026-01-20T23:09:41+00:00,SAT-60096,334.13129331154823,68.61237861898022,845.9653712823799,2.16981843033673,-75996.21975325233,10.5,10499924003.780247,47.655,-122.3035,60.0,9.683333333333334
2026-01-20T23:09:42+00:00,SAT-60096,334.9368116196364,68.24385142839364,848.1294035302358,2.222238703122457,-77832.19944374252,10.5,10499922167.800556,47.655,-122.3035,60.0,9.7
2026-01-20T23:09:43+00:00,SAT-60096,335.7119533514872,67.8731217259365,850.3457162634833,2.2742476325478904,-79653.77214977454,10.5,10499920346.22785,47.655,-122.3035,60.0,9.716666666666667
2026-01-20T23:09:44+00:00,SAT-60096,336.45807483872096,67.5004728987045,852.6138992356776,2.3258400023183854,-81460.755174645,10.5,10499918539.244825,47.655,-122.3035,60.0,9.733333333333333
2026-01-20T23:09:45+00:00,SAT-60096,337.1764767943845,67.12617145374118,854.9335369979899,2.377010918537907,-83252.97711341365,10.5,10499916747.022886,47.655,-122.3035,60.0,9.75
2026-01-20T23:09:46+00:00,SAT-60096,337.86840440293463,66.75046797835475,857.3042092207451,2.427755793980776,-85030.27730203322,10.5,10499914969.722698,47.655,-122.3035,60.0,9.766666666666667
2026-01-20T23:09:47+00:00,SAT-60096,338.5350479105076,66.37359806037185,859.7254909992752,2.4780703783050777,-86792.50687555094,10.5,10499913207.493124,47.655,-122.3035,60.0,9.783333333333333
2026-01-20T23:09:48+00:00,SAT-60096,339.17754362114084,65.99578315903993,862.1969531899048,2.5279507003288058,-88539.52674637486,10.5,10499911460.473253,47.655,-122.3035,60.0,9.8
2026-01-20T23:09:49+00:00,SAT-60096,339.7969751838854,65.61723143928927,864.718162688366,2.5773931273455926,-90271.20968176164,10.5,10499909728.790318,47.655,-122.3035,60.0,9.816666666666666
2026-01-20T23:09:50+00:00,SAT-60096,340.39437512712794,65.23813855116236,867.288682767372,2.626394304771446,-91987.43818999003,10.5,10499908012.56181,47.655,-122.3035,60.0,9.833333333333334
2026-01-20T23:09:51+00:00,SAT-60096,340.970726545662,64.85868837332053,869.9080733539975,2.6749511870443903,-93688.1056025969,10.5,10499906311.894398,47.655,-122.3035,60.0,9.85
2026-01-20T23:09:52+00:00,SAT-60096,341.52696491234565,64.47905370781015,872.5758913378763,2.723061018223554,-95373.11539487533,10.5,10499904626.884605,47.655,-122.3035,60.0,9.866666666666667
2026-01-20T23:09:53+00:00,SAT-60096,342.0639799592589,64.09939693513603,875.2916908600513,2.77072132781783,-97042.38103977658,10.5,10499902957.61896,47.655,-122.3035,60.0,9.883333333333333
2026-01-20T23:09:54+00:00,SAT-60096,342.58261759805663,63.71987062899357,878.0550235976616,2.8179299386527368,-98695.82628344085,10.5,10499901304.173717,47.655,-122.3035,60.0,9.9
2026-01-20T23:09:55+00:00,SAT-60096,343.08368185387275,63.34061813092443,880.865439056478,2.864684923591439,-100333.38362938438,10.5,10499899666.616371,47.655,-122.3035,60.0,9.916666666666666
2026-01-20T23:09:56+00:00,SAT-60096,343.56793678164274,62.96177409376987,883.7224848202732,2.9109846588017683,-101954.99620413588,10.5,10499898045.003796,47.655,-122.3035,60.0,9.933333333333334
2026-01-20T23:09:57+00:00,SAT-60096,344.0361083650929,62.58346498285798,886.6257068533181,2.956827758013553,-103560.61545464997,10.5,10499896439.384546,47.655,-122.3035,60.0,9.95
2026-01-20T23:09:58+00:00,SAT-60096,344.4888863639528,62.205809552922986,889.5746497373102,3.002213101665145,-105150.20216914204,10.5,10499894849.79783,47.655,-122.3035,60.0,9.966666666666667
2026-01-20T23:09:59+00:00,SAT-60096,344.9269261162244,61.828919289978586,892.5688569373709,3.0471398319180407,-106723.72630247899,10.5,10499893276.273697,47.655,-122.3035,60.0,9.983333333333333
2026-01-20T23:10:00+00:00,SAT-60096,345.3508502817227,61.452898824759295,895.6078710630707,3.0916073090873253,-108281.16545018926,10.5,10499891718.834549,47.655,-122.3035,60.0,10.0
2026-01-20T23:10:01+00:00,SAT-60096,345.7612505166995,61.07784632422059,898.6912340860003,3.1356151544825672,-109822.50634893207,10.5,10499890177.49365,47.655,-122.3035,60.0,10.016666666666667
2026-01-20T23:10:02+00:00,SAT-60096,346.15868908864405,60.70385385211947,901.818487600071,3.1791632175196467,-111347.74372461463,10.5,10499888652.256275,47.655,-122.3035,60.0,10.033333333333333
2026-01-20T23:10:03+00:00,SAT-60096,346.54370041817225,60.33100770982622,904.9891730490106,3.222251555604275,-112856.87958782767,10.5,10499887143.120413,47.655,-122.3035,60.0,10.05
2026-01-20T23:10:04+00:00,SAT-60096,346.9167925498729,59.9593887571282,908.2028319337999,3.2648804639977773,-114349.92427987186,10.5,10499885650.07572,47.655,-122.3035,60.0,10.066666666666666
2026-01-20T23:10:05+00:00,SAT-60096,347.27844855808985,59.58907270871341,911.4590060498937,3.307050428973598,-115826.89483210006,10.5,10499884173.105167,47.655,-122.3035,60.0,10.083333333333334
2026-01-20T23:10:06+00:00,SAT-60096,347.62912787924733,59.22013041669723,914.7572376777233,3.3487621500389446,-117287.81574421367,10.5,10499882712.184256,47.655,-122.3035,60.0,10.1
2026-01-20T23:10:07+00:00,SAT-60096,347.96926758032515,58.852628132453475,918.0970697953621,3.3900165198766308,-118732.71828174085,10.5,10499881267.28172,47.655,-122.3035,60.0,10.116666666666667
2026-01-20T23:10:08+00:00,SAT-60096,348.29928356032235,58.48662775388114,921.4780462711858,3.4308146190870343,-120161.64029187772,10.5,10499879838.359709,47.655,-122.3035,60.0,10.133333333333333
2026-01-20T23:10:09+00:00,SAT-60096,348.6195716885885,58.12218705749753,924.8997120512886,3.471157704438688,-121574.62579197448,10.5,10499878425.374208,47.655,-122.3035,60.0,10.15
2026-01-20T23:10:10+00:00,SAT-60096,348.9305088817021,57.75935991711832,928.361613335182,3.5110472364402225,-122971.72593522129,10.5,10499877028.274065,47.655,-122.3035,60.0,10.166666666666666
2026-01-20T23:10:11+00:00,SAT-60096,349.2324541248176,57.39819650603423,931.8632977789919,3.550484774423218,-124352.99533600605,10.5,10499875647.004663,47.655,-122.3035,60.0,10.183333333333334
2026-01-20T23:10:12+00:00,SAT-60096,349.52574942841966,57.0387434972679,935.4043145940167,3.5894721369992637,-125718.49768979933,10.5,10499874281.50231,47.655,-122.3035,60.0,10.2
2026-01-20T23:10:13+00:00,SAT-60096,349.81072074609807,56.681044235470196,938.9842148053173,3.6280111944497575,-127068.29850176703,10.5,10499872931.701498,47.655,-122.3035,60.0,10.216666666666667
2026-01-20T23:10:14+00:00,SAT-60096,350.08767882445846,56.3251389188299,942.6025513032483,3.666104054522169,-128402.47159414121,10.5,10499871597.528406,47.655,-122.3035,60.0,10.233333333333333
2026-01-20T23:10:15+00:00,SAT-60096,350.35692002058005,55.97106475192087,946.2588790802919,3.703752879508653,-129721.09269953969,10.5,10499870278.9073,47.655,-122.3035,60.0,10.25
2026-01-20T23:10:16+00:00,SAT-60096,350.618727059794,55.618856106913825,949.9527552854552,3.740960039348402,-131024.24482325776,10.5,10499868975.755177,47.655,-122.3035,60.0,10.266666666666667
2026-01-20T23:10:17+00:00,SAT-60096,350.8733697622758,55.268544660793324,953.6837394313653,3.77772799408403,-132312.01412639377,10.5,10499867687.985874,47.655,-122.3035,60.0,10.283333333333333
2026-01-20T23:10:18+00:00,SAT-60096,351.12110572028183,54.92015953547767,957.4513934841318,3.8140593239761444,-133584.4909805887,10.5,10499866415.50902,47.655,-122.3035,60.0,10.3
2026-01-20T23:10:19+00:00,SAT-60096,351.3621809395158,54.57372742698302,961.255281983244,3.849956730188418,-134841.76999202024,10.5,10499865158.230007,47.655,-122.3035,60.0,10.316666666666666
2026-01-20T23:10:20+00:00,SAT-60096,351.5968304444046,54.22927272709503,965.094972162152,3.8854230284790634,-136083.94978045166,10.5,10499863916.05022,47.655,-122.3035,60.0,10.333333333333334
2026-01-20T23:10:21+00:00,SAT-60096,351.82527884879744,53.886817638672376,968.9700340625551,3.920461134501714,-137311.13246440643,10.5,10499862688.867537,47.655,-122.3035,60.0,10.35
2026-01-20T23:10:22+00:00,SAT-60096,352.0477408936615,53.54638228572312,972.8800406340314,3.9550740292253943,-138523.4224500292,10.5,10499861476.57755,47.655,-122.3035,60.0,10.366666666666667
2026-01-20T23:10:23+00:00,SAT-60096,352.2644219526549,53.20798482023781,976.8245677991789,3.9892648586492654,-139720.92992351824,10.5,10499860279.070076,47.655,-122.3035,60.0,10.383333333333333
2026-01-20T23:10:24+00:00,SAT-60096,352.4755185148341,52.87164151469573,980.8031946182051,4.023036759048593,-140903.76473049974,10.5,10499859096.23527,47.655,-122.3035,60.0,10.4
2026-01-20T23:10:25+00:00,SAT-60096,352.68121863083024,52.537366864056025,984.8155032792295,4.056393024498215,-142072.04224340848,10.5,10499857927.957756,47.655,-122.3035,60.0,10.416666666666666
2026-01-20T23:10:26+00:00,SAT-60096,352.8817023430632,52.205173668364566,988.8610792556624,4.0893369785897375,-143225.8788684812,10.5,10499856774.121132,47.655,-122.3035,60.0,10.433333333333334
2026-01-20T23:10:27+00:00,SAT-60096,353.0771420853253,51.87507312134054,992.9395113356426,4.121872027954698,-144365.3939203645,10.5,10499855634.60608,47.655,-122.3035,60.0,10.45
2026-01-20T23:10:28+00:00,SAT-60096,353.2677030629624,51.54707488989675,997.0503917048561,4.154001649859943,-145490.70918765207,10.5,10499854509.290812,47.655,-122.3035,60.0,10.466666666666667
2026-01-20T23:10:29+00:00,SAT-60096,353.45354361136674,51.221187190416984,1001.193316016983,4.18572937066012,-146601.9481782002,10.5,10499853398.051823,47.655,-122.3035,60.0,10.483333333333333
2026-01-20T23:10:30+00:00,SAT-60096,353.6348155337818,50.89741686267965,1005.3678834426547,4.217058777665502,-147699.2365347889,10.5,10499852300.763466,47.655,-122.3035,60.0,10.5
2026-01-20T23:10:31+00:00,SAT-60096,353.8116644210995,50.57576943898345,1009.5736967302464,4.247993497673389,-148782.701283201,10.5,10499851217.298717,47.655,-122.3035,60.0,10.516666666666667
2026-01-20T23:10:32+00:00,SAT-60096,353.984229953321,50.25624921129504,1013.8103622452593,4.278537209366377,-149852.4712664618,10.5,10499850147.528734,47.655,-122.3035,60.0,10.533333333333333
2026-01-20T23:10:33+00:00,SAT-60096,354.1526461851419,49.93885929398341,1018.0774900220674,4.308693640393275,-150908.67704260055,10.5,10499849091.322958,47.655,-122.3035,60.0,10.55
2026-01-20T23:10:34+00:00,SAT-60096,354.31704181595615,49.62360168357121,1022.374693812753,4.338466543571591,-151951.45005116073,10.5,10499848048.54995,47.655,-122.3035,60.0,10.566666666666666
2026-01-20T23:10:35+00:00,SAT-60096,354.4775404444067,49.3104773171359,1026.7015911122085,4.3678597057733635,-152980.92292441963,10.5,10499847019.077076,47.655,-122.3035,60.0,10.583333333333334
2026-01-20T23:10:36+00:00,SAT-60096,354.6342608096692,48.9994861271166,1031.0578031920998,4.396876967693266,-153997.23017975088,10.5,10499846002.769821,47.655,-122.3035,60.0,10.6
2026-01-20T23:10:37+00:00,SAT-60096,354.78731702056274,48.69062709196118,1035.4429551545459,4.425522128914553,-155000.50489463215,10.5,10499844999.495106,47.655,-122.3035,60.0,10.616666666666667
2026-01-20T23:10:38+00:00,SAT-60096,354.9368187692173,48.38389829081062,1039.8566758911165,4.4537990925904545,-155990.88377399996,10.5,10499844009.116226,47.655,-122.3035,60.0,10.633333333333333
2026-01-20T23:10:39+00:00,SAT-60096,355.082871538475,48.07929694551173,1044.2985981861268,4.48171172816551,-156968.50234216987,10.5,10499843031.497658,47.655,-122.3035,60.0,10.65
2026-01-20T23:10:40+00:00,SAT-60096,355.225576793742,47.776819469880124,1048.7683586830171,4.5092639500409994,-157933.49769803247,10.5,10499842066.502302,47.655,-122.3035,60.0,10.666666666666666
2026-01-20T23:10:41+00:00,SAT-60096,355.3650321674488,47.47646151122969,1053.2655979291912,4.536459650464267,-158886.00616455404,10.5,10499841113.993835,47.655,-122.3035,60.0,10.683333333333334
2026-01-20T23:10:42+00:00,SAT-60096,355.5013316318468,47.17821799427944,1057.789960353921,4.563302749029199,-159826.1650224923,10.5,10499840173.834978,47.655,-122.3035,60.0,10.7
2026-01-20T23:10:43+00:00,SAT-60096,355.63456566444717,46.882083159658386,1062.3410942956195,4.589797191406312,-160754.1124659189,10.5,10499839245.887533,47.655,-122.3035,60.0,10.716666666666667
2026-01-20T23:10:44+00:00,SAT-60096,355.76482140488645,46.588050600641324,1066.9186520278488,4.615946890933309,-161669.98555647366,10.5,10499838330.014444,47.655,-122.3035,60.0,10.733333333333333
2026-01-20T23:10:45+00:00,SAT-60096,355.89218280212543,46.296113301773566,1071.522289727073,4.641755785440906,-162573.92221364527,10.5,10499837426.077785,47.655,-122.3035,60.0,10.75
2026-01-20T23:10:46+00:00,SAT-60096,356.0167307558323,46.00626367205201,1076.151667497086,4.66722779044021,-163466.0595751952,10.5,10499836533.940424,47.655,-122.3035,60.0,10.766666666666667
2026-01-20T23:10:47+00:00,SAT-60096,356.13854324933845,45.71849357937673,1080.8064493467516,4.69236684538354,-164346.5356174076,10.5,10499835653.464382,47.655,-122.3035,60.0,10.783333333333333
2026-01-20T23:10:48+00:00,SAT-60096,356.2576954772023,45.432794380526225,1085.4863032138808,4.717176850879091,-165215.48695608097,10.5,10499834784.513044,47.655,-122.3035,60.0,10.8
2026-01-20T23:10:49+00:00,SAT-60096,356.3742599647565,45.14915695345135,1090.190900926491,4.741661726800905,-166073.05088178537,10.5,10499833926.949118,47.655,-122.3035,60.0,10.816666666666666
2026-01-20T23:10:50+00:00,SAT-60096,356.48830668327054,44.86757172454911,1094.9199182220204,4.765825361899649,-166919.3635950185,10.5,10499833080.636404,47.655,-122.3035,60.0,10.833333333333334
2026-01-20T23:10:51+00:00,SAT-60096,356.59990315816424,44.58802869758588,1099.6730347162884,4.789671660715867,-167754.56184930642,10.5,10499832245.43815,47.655,-122.3035,60.0,10.85
2026-01-20T23:10:52+00:00,SAT-60096,356.70911457307733,44.31051747850934,1104.4499339192423,4.813204455772694,-168578.7798758209,10.5,10499831421.220123,47.655,-122.3035,60.0,10.866666666666667
2026-01-20T23:10:53+00:00,SAT-60096,356.8160038668468,44.03502730407372,1109.250303163133,4.836427620400517,-169392.15333497626,10.5,10499830607.846664,47.655,-122.3035,60.0,10.883333333333333
2026-01-20T23:10:54+00:00,SAT-60096,356.9206318284044,43.76154706270336,1114.0738336432125,4.859345010122722,-170194.81726351028,10.5,10499829805.182737,47.655,-122.3035,60.0,10.9
2026-01-20T23:10:55+00:00,SAT-60096,357.0230571857245,43.49006531766332,1118.9202203999748,4.881960407035733,-170986.90412643805,10.5,10499829013.095873,47.655,-122.3035,60.0,10.916666666666666
2026-01-20T23:10:56+00:00,SAT-60096,357.1233366894126,43.22057033215381,1123.7891622459251,4.904277613097716,-171768.54708441673,10.5,10499828231.452915,47.655,-122.3035,60.0,10.933333333333334
2026-01-20T23:10:57+00:00,SAT-60096,357.22152519429636,42.953050088094614,1128.680361785388,4.9263004040933875,-172539.87838139868,10.5,10499827460.121618,47.655,-122.3035,60.0,10.95
2026-01-20T23:10:58+00:00,SAT-60096,357.3176757362089,42.687492306514216,1133.5935253884036,4.948032535862382,-173301.02956277505,10.5,10499826698.970438,47.655,-122.3035,60.0,10.966666666666667
2026-01-20T23:10:59+00:00,SAT-60096,357.4118396052787,42.423884466618134,1138.528363170837,4.969477722809553,-174052.13072271587,10.5,10499825947.869278,47.655,-122.3035,60.0,10.983333333333333
2026-01-20T23:11:00+00:00,SAT-60096,357.5040664154254,42.162213825066786,1143.4845889530525,4.990639652617437,-174793.31101946233,10.5,10499825206.68898,47.655,-122.3035,60.0,11.0
2026-01-20T23:11:01+00:00,SAT-60096,357.5944041709165,41.902467433540004,1148.4619202332628,5.011522007626802,-175524.69942416434,10.5,10499824475.300575,47.655,-122.3035,60.0,11.016666666666667
2026-01-20T23:11:02+00:00,SAT-60096,357.6828993302594,41.64463215437561,1153.4600781822028,5.03212842800925,-176246.4234310295,10.5,10499823753.576569,47.655,-122.3035,60.0,11.033333333333333
2026-01-20T23:11:03+00:00,SAT-60096,357.769596866498,41.38869467730815,1158.4787876010707,5.052462509125387,-176958.60896479446,10.5,10499823041.391035,47.655,-122.3035,60.0,11.05
2026-01-20T23:11:04+00:00,SAT-60096,357.85454032473604,41.13464153553203,1163.5177768768385,5.072527853913372,-177661.38221559397,10.5,10499822338.617785,47.655,-122.3035,60.0,11.066666666666666
2026-01-20T23:11:05+00:00,SAT-60096,357.93777187796087,40.88245911837791,1168.576777989808,5.092328009542628,-178354.8674203058,10.5,10499821645.13258,47.655,-122.3035,60.0,11.083333333333334
2026-01-20T23:11:06+00:00,SAT-60096,358.0193323792914,40.632133686495614,1173.6555264579918,5.111866490900206,-179039.18768514236,10.5,10499820960.812315,47.655,-122.3035,60.0,11.1
2026-01-20T23:11:07+00:00,SAT-60096,358.09926141228135,40.383651385133206,1178.7537613049165,5.131146777498774,-179714.46487735567,10.5,10499820285.535122,47.655,-122.3035,60.0,11.116666666666667
2026-01-20T23:11:08+00:00,SAT-60096,358.17759733896276,40.136998256924684,1183.8712250243416,5.150172331877731,-180380.820269722,10.5,10499819619.17973,47.655,-122.3035,60.0,11.133333333333333
