satellites_20260120_184412/SAT-55656.csv

timestamp,satellite,azimuth_deg,elevation_deg,distance_km,relative_velocity_kms,doppler_shift_hz,tx_freq_ghz,rx_freq_hz,ue_lat,ue_lon,ue_alt_m,time_minutes
2026-01-20T23:00:24+00:00,SAT-55656,186.74613781570775,40.689083045679986,24273.144440223376,-53.4290157892212,1871310.1374512312,10.5,10501871310.137451,47.655,-122.3035,60.0,0.4
2026-01-20T23:00:25+00:00,SAT-55656,186.3662103912685,41.440346222002134,24219.857901809595,-52.765293846007125,1848063.7874588387,10.5,10501848063.787458,47.655,-122.3035,60.0,0.4166666666666667
2026-01-20T23:00:26+00:00,SAT-55656,185.97767137896568,42.19258358851459,24167.233315413843,-52.089393780244585,1824390.9081013913,10.5,10501824390.908102,47.655,-122.3035,60.0,0.43333333333333335
2026-01-20T23:00:27+00:00,SAT-55656,185.58006500324163,42.945722817706645,24115.28282668368,-51.401380273380624,1800293.7647967667,10.5,10501800293.764797,47.655,-122.3035,60.0,0.45
2026-01-20T23:00:28+00:00,SAT-55656,185.1729066169069,43.69968680634958,24064.018516757696,-50.70132358383426,1775774.8182919922,10.5,10501775774.818293,47.655,-122.3035,60.0,0.4666666666666667
2026-01-20T23:00:29+00:00,SAT-55656,184.75568040003014,44.45439333773483,24013.45239670342,-49.98929908561024,1750836.7085035457,10.5,10501750836.708504,47.655,-122.3035,60.0,0.48333333333333334
2026-01-20T23:00:30+00:00,SAT-55656,184.32783685253065,45.20975470380896,23963.59640241537,-49.26538789902816,1725482.2766081584,10.5,10501725482.276608,47.655,-122.3035,60.0,0.5
2026-01-20T23:00:31+00:00,SAT-55656,183.88879005050913,45.96567729951562,23914.462388884072,-48.52967649321741,1699714.551120505,10.5,10501699714.55112,47.655,-122.3035,60.0,0.5166666666666667
2026-01-20T23:00:32+00:00,SAT-55656,183.43791465107367,46.722061170061444,23866.062124861506,-47.782257017346325,1673536.7594942513,10.5,10501673536.759495,47.655,-122.3035,60.0,0.5333333333333333
2026-01-20T23:00:33+00:00,SAT-55656,182.97454261359388,47.47879951723992,23818.407287196205,-47.02322717890968,1646952.3238591666,10.5,10501646952.323858,47.655,-122.3035,60.0,0.55
2026-01-20T23:00:34+00:00,SAT-55656,182.49795961267301,48.235778152722624,23771.50945528977,-46.25269055188059,1619964.8718139073,10.5,10501619964.871815,47.655,-122.3035,60.0,0.5666666666666667
2026-01-20T23:00:35+00:00,SAT-55656,182.00740110705593,48.992874899101864,23725.38010524603,-45.47075655706074,1592578.2357377976,10.5,10501592578.235737,47.655,-122.3035,60.0,0.5833333333333334
2026-01-20T23:00:36+00:00,SAT-55656,181.50204803263193,49.74995892692615,23680.030604039785,-44.6775402674688,1564796.4459747097,10.5,10501564796.445974,47.655,-122.3035,60.0,0.6
2026-01-20T23:00:37+00:00,SAT-55656,180.98102208362064,50.50689001708393,23635.4722038797,-43.873162687905996,1536623.7406246325,10.5,10501536623.740625,47.655,-122.3035,60.0,0.6166666666666667
2026-01-20T23:00:38+00:00,SAT-55656,180.4433805352839,51.263517747547354,23591.71603629229,-43.057750959723975,1508064.5727155076,10.5,10501508064.572716,47.655,-122.3035,60.0,0.6333333333333333
2026-01-20T23:00:39+00:00,SAT-55656,179.8881105628466,52.019680593920896,23548.773106001794,-42.23143806225177,1479123.5997459404,10.5,10501479123.599747,47.655,-122.3035,60.0,0.65
2026-01-20T23:00:40+00:00,SAT-55656,179.31412301353106,52.77520492402756,23506.65428510771,-41.39436283238061,1449805.6843711406,10.5,10501449805.684372,47.655,-122.3035,60.0,0.6666666666666666
2026-01-20T23:00:41+00:00,SAT-55656,178.7202455756365,53.52990387907854,23465.37030724288,-40.54667041813168,1420115.910288786,10.5,10501420115.910288,47.655,-122.3035,60.0,0.6833333333333333
2026-01-20T23:00:42+00:00,SAT-55656,178.10521528161541,54.28357613520711,23424.9317612792,-39.688511906736906,1390059.5692128371,10.5,10501390059.569212,47.655,-122.3035,60.0,0.7
2026-01-20T23:00:43+00:00,SAT-55656,177.46767029646776,55.036004514630896,23385.349085404214,-38.82004438379164,1359642.1629453138,10.5,10501359642.162945,47.655,-122.3035,60.0,0.7166666666666667
2026-01-20T23:00:44+00:00,SAT-55656,176.80614092414612,55.78695443553041,23346.63256113878,-37.94143095469743,1328869.404127315,10.5,10501328869.404127,47.655,-122.3035,60.0,0.7333333333333333
2026-01-20T23:00:45+00:00,SAT-55656,176.1190397691756,56.536172179381765,23308.792307333293,-37.052840957171185,1297747.2236819828,10.5,10501297747.223682,47.655,-122.3035,60.0,0.75
2026-01-20T23:00:46+00:00,SAT-55656,175.40465098706866,57.28338295629449,23271.838273952006,-36.154449678349565,1266281.7609063082,10.5,10501266281.760906,47.655,-122.3035,60.0,0.7666666666666667
2026-01-20T23:00:47+00:00,SAT-55656,174.6611185728109,58.02828873248542,23235.780236139464,-35.24643841172598,1234479.3654653006,10.5,10501234479.365465,47.655,-122.3035,60.0,0.7833333333333333
2026-01-20T23:00:48+00:00,SAT-55656,173.88643362994196,58.77056579674833,23200.627788230173,-34.328994444075086,1202346.5969340308,10.5,10501202346.596933,47.655,-122.3035,60.0,0.8
2026-01-20T23:00:49+00:00,SAT-55656,173.07842058175842,59.5098620316217,23166.39033777128,-33.40231109070688,1169890.2260323784,10.5,10501169890.226032,47.655,-122.3035,60.0,0.8166666666666667
2026-01-20T23:00:50+00:00,SAT-55656,172.2347223037293,60.245793853689705,23133.07709951015,-32.46658759493693,1137117.231104052,10.5,10501137117.231104,47.655,-122.3035,60.0,0.8333333333333334
2026-01-20T23:00:51+00:00,SAT-55656,171.35278419051957,60.97794277963726,23100.69708948213,-31.522028990997015,1104034.793315143,10.5,10501104034.793316,47.655,-122.3035,60.0,0.85
2026-01-20T23:00:52+00:00,SAT-55656,170.42983721386614,61.705851572718025,23069.25911923511,-30.568846111853617,1070650.2969279601,10.5,10501070650.296928,47.655,-122.3035,60.0,0.8666666666666667
2026-01-20T23:00:53+00:00,SAT-55656,169.4628800846075,62.42901992491421,23038.771790046223,-29.607255708480988,1036971.3334784772,10.5,10501036971.333479,47.655,-122.3035,60.0,0.8833333333333333
2026-01-20T23:00:54+00:00,SAT-55656,168.44866071734359,63.14689962700055,23009.24348701963,-28.637479984478244,1003005.6854766558,10.5,10501003005.685476,47.655,-122.3035,60.0,0.9
2026-01-20T23:00:55+00:00,SAT-55656,167.3836573381162,63.858889160156764,22980.682373648448,-27.659746829126725,968761.3345690992,10.5,10500968761.33457,47.655,-122.3035,60.0,0.9166666666666666
2026-01-20T23:00:56+00:00,SAT-55656,166.2640596956663,64.56432767299131,22953.096386144196,-26.674289631938574,934246.455043759,10.5,10500934246.455044,47.655,-122.3035,60.0,0.9333333333333333
2026-01-20T23:00:57+00:00,SAT-55656,165.0857510834351,65.2624882850228,22926.493227951276,-25.681347147978496,899469.4091129345,10.5,10500899469.409113,47.655,-122.3035,60.0,0.95
2026-01-20T23:00:58+00:00,SAT-55656,163.84429214707464,65.95257067564546,22900.880364395693,-24.681163395203377,864438.7433176703,10.5,10500864438.743319,47.655,-122.3035,60.0,0.9666666666666667
2026-01-20T23:00:59+00:00,SAT-55656,162.53490781573828,66.63369293135898,22876.26501743621,-23.673987482667723,829163.1825107859,10.5,10500829163.18251,47.655,-122.3035,60.0,0.9833333333333333
2026-01-20T23:01:00+00:00,SAT-55656,161.15247916543467,67.30488264406752,22852.654160586826,-22.66007368330076,793651.6324058358,10.5,10500793651.632406,47.655,-122.3035,60.0,1.0
2026-01-20T23:01:01+00:00,SAT-55656,159.69154258804784,67.9650672976258,22830.054513766685,-21.639681073456583,757913.1669526327,10.5,10500757913.166952,47.655,-122.3035,60.0,1.0166666666666666
2026-01-20T23:01:02+00:00,SAT-55656,158.14629939363533,68.61306401303008,22808.47253850942,-20.613073478864056,721957.0264441828,10.5,10500721957.026443,47.655,-122.3035,60.0,1.0333333333333334
2026-01-20T23:01:03+00:00,SAT-55656,156.51063979029212,69.24756881751564,22787.9144332265,-19.580519263581355,685792.6101249825,10.5,10500685792.610125,47.655,-122.3035,60.0,1.05
2026-01-20T23:01:04+00:00,SAT-55656,154.77818619341272,69.86714569289155,22768.386128680955,-18.542291347161644,649429.4767922324,10.5,10500649429.476791,47.655,-122.3035,60.0,1.0666666666666667
2026-01-20T23:01:05+00:00,SAT-55656,152.94236185287153,70.47021580844302,22749.893283444053,-17.498666792661684,612877.330366155,10.5,10500612877.330366,47.655,-122.3035,60.0,1.0833333333333333
2026-01-20T23:01:06+00:00,SAT-55656,150.9964919009573,71.05504750305136,22732.44127976284,-16.449926823380498,576146.0204762564,10.5,10500576146.020475,47.655,-122.3035,60.0,1.1
2026-01-20T23:01:07+00:00,SAT-55656,148.9339447365165,71.61974783386705,22716.03521941099,-15.396356451911862,539245.5294691721,10.5,10500539245.529469,47.655,-122.3035,60.0,1.1166666666666667
2026-01-20T23:01:08+00:00,SAT-55656,146.74832217833512,72.1622567545831,22700.679919909617,-14.338244562671031,502185.97529910447,10.5,10500502185.9753,47.655,-122.3035,60.0,1.1333333333333333
2026-01-20T23:01:09+00:00,SAT-55656,144.43370632740573,72.68034532245606,22686.379910665775,-13.27588340453283,464977.5937578614,10.5,10500464977.593758,47.655,-122.3035,60.0,1.15
2026-01-20T23:01:10+00:00,SAT-55656,141.9849694310306,73.17161961861606,22673.139429616993,-12.20956858755877,427630.7383602261,10.5,10500427630.73836,47.655,-122.3035,60.0,1.1666666666666667
2026-01-20T23:01:11+00:00,SAT-55656,139.39814909294287,73.63353239329699,22660.962419878997,-11.139598822422546,390155.87121753657,10.5,10500390155.871218,47.655,-122.3035,60.0,1.1833333333333333
2026-01-20T23:01:12+00:00,SAT-55656,136.6708847621639,74.06340460764748,22649.852526653434,-10.066275692101508,352563.5550413541,10.5,10500352563.555042,47.655,-122.3035,60.0,1.2
2026-01-20T23:01:13+00:00,SAT-55656,133.80290171073824,74.45845903518605,22639.81309436318,-8.989903434118686,314864.4455166587,10.5,10500314864.445517,47.655,-122.3035,60.0,1.2166666666666666
2026-01-20T23:01:14+00:00,SAT-55656,130.7965158726644,74.81586773790468,22630.847164004885,-7.910788696117554,277069.2827410432,10.5,10500277069.282742,47.655,-122.3035,60.0,1.2333333333333334
2026-01-20T23:01:15+00:00,SAT-55656,127.65711792363341,75.13281442632788,22622.957470745292,-6.829240363351915,239188.885182679,10.5,10500239188.885183,47.655,-122.3035,60.0,1.25
2026-01-20T23:01:16+00:00,SAT-55656,124.3935801154135,75.40657136568886,22616.146441689572,-5.745569253026261,201234.13897482285,10.5,10500201234.138975,47.655,-122.3035,60.0,1.2666666666666666
2026-01-20T23:01:17+00:00,SAT-55656,121.01851864434684,75.63458858952045,22610.416193954556,-4.6600879161957804,163215.99097751715,10.5,10500163215.990978,47.655,-122.3035,60.0,1.2833333333333334
2026-01-20T23:01:18+00:00,SAT-55656,117.54834235952362,75.81459092069689,22605.76853293947,-3.5731103722926734,125145.43947957848,10.5,10500125145.43948,47.655,-122.3035,60.0,1.3
2026-01-20T23:01:19+00:00,SAT-55656,114.00303035131292,75.94467600335399,22602.204950861502,-2.484951896275587,87033.52674367034,10.5,10500087033.526743,47.655,-122.3035,60.0,1.3166666666666667
2026-01-20T23:01:20+00:00,SAT-55656,110.40560845344709,76.0234047747992,22599.72662550362,-1.3959287280376806,48891.3288285446,10.5,10500048891.328829,47.655,-122.3035,60.0,1.3333333333333333
2026-01-20T23:01:21+00:00,SAT-55656,106.78133616786666,76.04987511734369,22598.334419252187,-0.30635785583588626,10729.948003818046,10.5,10500010729.948004,47.655,-122.3035,60.0,1.35
2026-01-20T23:01:22+00:00,SAT-55656,103.15666309019382,76.02377028818219,22598.028878350633,0.7834432526305319,-27439.496668794065,10.5,10499972560.503332,47.655,-122.3035,60.0,1.3666666666666667
2026-01-20T23:01:23+00:00,SAT-55656,99.55805651846858,75.94537620316783,22598.810232421256,1.8731568934376954,-65605.87785399125,10.5,10499934394.122147,47.655,-122.3035,60.0,1.3833333333333333
2026-01-20T23:01:24+00:00,SAT-55656,96.01082709296699,75.8155653924455,22600.678394229646,2.9624653894916633,-103758.06915617091,10.5,10499896241.930843,47.655,-122.3035,60.0,1.4
2026-01-20T23:01:25+00:00,SAT-55656,92.53807978186407,75.63574966779173,22603.63295971143,4.051051328509455,-141884.95345453048,10.5,10499858115.046545,47.655,-122.3035,60.0,1.4166666666666667
2026-01-20T23:01:26+00:00,SAT-55656,89.15989289178495,75.40780731322083,22607.6732082364,5.138597831241181,-179975.43229734086,10.5,10499820024.567703,47.655,-122.3035,60.0,1.4333333333333333
2026-01-20T23:01:27+00:00,SAT-55656,85.89278560703634,75.13399313960798,22612.79810314009,6.224788782868598,-218018.43400650285,10.5,10499781981.565994,47.655,-122.3035,60.0,1.45
2026-01-20T23:01:28+00:00,SAT-55656,82.74948691863678,74.81684065616203,22619.006292486207,7.309309133358933,-256002.92419720846,10.5,10499743997.075802,47.655,-122.3035,60.0,1.4666666666666666
2026-01-20T23:01:29+00:00,SAT-55656,79.73897701996603,74.45906496787313,22626.29611012854,8.39184503452972,-293917.9105785311,10.5,10499706082.089422,47.655,-122.3035,60.0,1.4833333333333334
2026-01-20T23:01:30+00:00,SAT-55656,76.86674434586301,74.06347326981523,22634.665576909647,9.472084215192226,-331752.45609253575,10.5,10499668247.543907,47.655,-122.3035,60.0,1.5
2026-01-20T23:01:31+00:00,SAT-55656,74.13518911591508,73.6328875088474,22644.112402233597,10.549716164159385,-369495.6853239902,10.5,10499630504.314676,47.655,-122.3035,60.0,1.5166666666666666
2026-01-20T23:01:32+00:00,SAT-55656,71.5441060046576,73.17008152870478,22654.633985821318,11.624432340835776,-407136.7918761173,10.5,10499592863.208124,47.655,-122.3035,60.0,1.5333333333333334
2026-01-20T23:01:33+00:00,SAT-55656,69.09118904864638,72.67773309519858,22666.227419675914,12.695926433673822,-444665.0474228245,10.5,10499555334.952578,47.655,-122.3035,60.0,1.55
2026-01-20T23:01:34+00:00,SAT-55656,66.7725166924523,72.15838982881951,22678.889490305763,13.763894627188382,-482069.81106068386,10.5,10499517930.18894,47.655,-122.3035,60.0,1.5666666666666667
2026-01-20T23:01:35+00:00,SAT-55656,64.58298993274451,71.61444725313257,22692.616681213945,14.828035779927188,-519340.5355422099,10.5,10499480659.464458,47.655,-122.3035,60.0,1.5833333333333333
2026-01-20T23:01:36+00:00,SAT-55656,62.5167094517154,71.04813681003898,22707.405175565127,15.888051674758907,-556466.7760420061,10.5,10499443533.223957,47.655,-122.3035,60.0,1.6
2026-01-20T23:01:37+00:00,SAT-55656,60.567287386385715,70.46152165857367,22723.250859102085,16.943647134495194,-593438.1942063384,10.5,10499406561.805794,47.655,-122.3035,60.0,1.6166666666666667
2026-01-20T23:01:38+00:00,SAT-55656,58.72809600971597,69.85649826236822,22740.149323177557,17.99453047081947,-630244.5738765197,10.5,10499369755.426123,47.655,-122.3035,60.0,1.6333333333333333
2026-01-20T23:01:39+00:00,SAT-55656,56.9924594221559,69.23480204046179,22758.095868233784,19.040413424861843,-666875.8190075927,10.5,10499333124.180992,47.655,-122.3035,60.0,1.65
2026-01-20T23:01:40+00:00,SAT-55656,55.35379627934229,68.59801570705605,22777.08550722285,20.0810113998377,-703321.961816317,10.5,10499296678.038183,47.655,-122.3035,60.0,1.6666666666666667
2026-01-20T23:01:41+00:00,SAT-55656,53.80572191118917,67.94757920440685,22797.112969258953,21.116043930593975,-739573.179226666,10.5,10499260426.820774,47.655,-122.3035,60.0,1.6833333333333333
2026-01-20T23:01:42+00:00,SAT-55656,52.34211779506679,67.28480041011886,22818.172703739066,22.14523446368826,-775619.7851672665,10.5,10499224380.214832,47.655,-122.3035,60.0,1.7
2026-01-20T23:01:43+00:00,SAT-55656,50.95717553455472,66.61086605672051,22840.258884244184,23.168310847064618,-811452.2477219173,10.5,10499188547.752277,47.655,-122.3035,60.0,1.7166666666666666
2026-01-20T23:01:44+00:00,SAT-55656,49.64542132664594,65.92685243678366,22863.36541292899,24.1850052305279,-847061.1856437793,10.5,10499152938.814356,47.655,-122.3035,60.0,1.7333333333333334
2026-01-20T23:01:45+00:00,SAT-55656,48.401725932782156,65.23373564817861,22887.485924812237,25.195054556960507,-882437.3855598639,10.5,10499117562.61444,47.655,-122.3035,60.0,1.75
2026-01-20T23:01:46+00:00,SAT-55656,47.22130410483055,64.53240120160424,22912.613792557047,26.198200345308493,-917571.7943702879,10.5,10499082428.20563,47.655,-122.3035,60.0,1.7666666666666666
2026-01-20T23:01:47+00:00,SAT-55656,46.09970663321906,63.823652926284375,22938.742131034764,27.194189196414744,-952455.5369646918,10.5,10499047544.463036,47.655,-122.3035,60.0,1.7833333333333334
2026-01-20T23:01:48+00:00,SAT-55656,45.032807386883505,63.108221121216886,22965.863802393324,28.18277250571621,-987079.9061596813,10.5,10499012920.09384,47.655,-122.3035,60.0,1.8
2026-01-20T23:01:49+00:00,SAT-55656,44.01678720137858,62.386769977731056,22993.971420839025,29.163707070298212,-1021436.3839604373,10.5,10498978563.61604,47.655,-122.3035,60.0,1.8166666666666667
2026-01-20T23:01:50+00:00,SAT-55656,43.0481159290963,61.659904276539045,23023.057358023805,30.136754836805256,-1055516.6327314852,10.5,10498944483.367268,47.655,-122.3035,60.0,1.8333333333333333
2026-01-20T23:01:51+00:00,SAT-55656,42.12353367146363,60.92817542336857,23053.11374818104,31.101683163849074,-1089312.504387336,10.5,10498910687.495613,47.655,-122.3035,60.0,1.85
2026-01-20T23:01:52+00:00,SAT-55656,41.24003187453298,60.19208685847892,23084.13249352312,32.05826482827808,-1122816.0406120685,10.5,10498877183.959389,47.655,-122.3035,60.0,1.8666666666666667
2026-01-20T23:01:53+00:00,SAT-55656,40.39483478454609,59.45209889866947,23116.10526964519,33.006278358687425,-1156019.4845402613,10.5,10498843980.51546,47.655,-122.3035,60.0,1.8833333333333333
2026-01-20T23:01:54+00:00,SAT-55656,39.58538158055652,58.708633056620336,23149.023531261588,33.94550781788465,-1188915.2731380216,10.5,10498811084.726862,47.655,-122.3035,60.0,1.9
2026-01-20T23:01:55+00:00,SAT-55656,38.80930940544028,57.96207590103149,23182.878517725294,34.87574295012711,-1221496.0423598604,10.5,10498778503.95764,47.655,-122.3035,60.0,1.9166666666666667
2026-01-20T23:01:56+00:00,SAT-55656,38.06443740322827,57.212782496569815,23217.66125869422,35.79677947861751,-1253754.6375682466,10.5,10498746245.362432,47.655,-122.3035,60.0,1.9333333333333333
2026-01-20T23:01:57+00:00,SAT-55656,37.34875181698524,56.46107946513796,23253.362580094225,36.708418857557675,-1285684.104849481,10.5,10498714315.895151,47.655,-122.3035,60.0,1.95
2026-01-20T23:01:58+00:00,SAT-55656,36.660392170884556,55.70726772082509,23289.97310983483,37.610468562598335,-1317277.7011864737,10.5,10498682722.298813,47.655,-122.3035,60.0,1.9666666666666666
2026-01-20T23:01:59+00:00,SAT-55656,35.997638505827936,54.95162490361122,23327.483283814596,38.50274181034225,-1348528.8846345616,10.5,10498651471.115366,47.655,-122.3035,60.0,1.9833333333333334
2026-01-20T23:02:00+00:00,SAT-55656,35.358899640668064,54.194407556726304,23365.88335164678,39.38505809902116,-1379431.3332582975,10.5,10498620568.666742,47.655,-122.3035,60.0,2.0
2026-01-20T23:02:01+00:00,SAT-55656,34.742702392575296,53.43585306068323,23405.163382924202,40.25724271373754,-1409978.9278029276,10.5,10498590021.072197,47.655,-122.3035,60.0,2.0166666666666666
2026-01-20T23:02:02+00:00,SAT-55656,34.14768171560157,52.67618137102726,23445.313272990705,41.119127148896986,-1440165.7664897572,10.5,10498559834.233511,47.655,-122.3035,60.0,2.033333333333333
2026-01-20T23:02:03+00:00,SAT-55656,33.57257167920137,51.91559656501369,23486.32274913387,41.9705486332951,-1469986.1483826872,10.5,10498530013.851618,47.655,-122.3035,60.0,2.05
2026-01-20T23:02:04+00:00,SAT-55656,33.016197237361006,51.154288235062666,23528.181376304143,42.81135087275264,-1499434.599398437,10.5,10498500565.400602,47.655,-122.3035,60.0,2.066666666666667
2026-01-20T23:02:05+00:00,SAT-55656,32.477466708872065,50.392432724709444,23570.878563574566,43.641383319043356,-1528505.8467013044,10.5,10498471494.1533,47.655,-122.3035,60.0,2.0833333333333335
2026-01-20T23:02:06+00:00,SAT-55656,31.955364929609946,49.63019425040335,23614.403569871425,44.46050148564491,-1557194.8297621002,10.5,10498442805.170238,47.655,-122.3035,60.0,2.1
2026-01-20T23:02:07+00:00,SAT-55656,31.448947005282804,48.867725903992074,23658.745510019777,45.268566948519435,-1585496.700385485,10.5,10498414503.299614,47.655,-122.3035,60.0,2.1166666666666667
2026-01-20T23:02:08+00:00,SAT-55656,30.95733261639993,48.10517055449003,23703.893360789763,46.065447257097865,-1613406.8195922647,10.5,10498386593.180408,47.655,-122.3035,60.0,2.1333333333333333
2026-01-20T23:02:09+00:00,SAT-55656,30.47970082703356,47.34266166170961,23749.835966854178,46.85101602995941,-1640920.7609704905,10.5,10498359079.239029,47.655,-122.3035,60.0,2.15
2026-01-20T23:02:10+00:00,SAT-55656,30.01528534984393,46.58032400844855,23796.56204684139,47.6251524533081,-1668034.2931099855,10.5,10498331965.70689,47.655,-122.3035,60.0,2.1666666666666665
2026-01-20T23:02:11+00:00,SAT-55656,29.563370231399517,45.8182743695363,23844.060198888157,48.387742067473326,-1694743.4071489214,10.5,10498305256.592852,47.655,-122.3035,60.0,2.183333333333333
2026-01-20T23:02:12+00:00,SAT-55656,29.123285906842447,45.05662210447233,23892.318906976787,49.13867585867648,-1721044.2849636432,10.5,10498278955.715036,47.655,-122.3035,60.0,2.2
2026-01-20T23:02:13+00:00,SAT-55656,28.69440560565081,44.295469707816856,23941.326546366505,49.877850832713406,-1746933.3192614564,10.5,10498253066.680738,47.655,-122.3035,60.0,2.216666666666667
2026-01-20T23:02:14+00:00,SAT-55656,28.276142062419225,43.534913299424,23991.071389596997,50.60516944354872,-1772407.0935675823,10.5,10498227592.906433,47.655,-122.3035,60.0,2.2333333333333334
2026-01-20T23:02:15+00:00,SAT-55656,27.867944514370567,42.77504307783284,24041.541611922028,51.320540158521254,-1797462.4020210449,10.5,10498202537.597979,47.655,-122.3035,60.0,2.25
2026-01-20T23:02:16+00:00,SAT-55656,27.469295949707472,42.01594372401339,24092.725297306795,52.02387669821397,-1822096.2227516968,10.5,10498177903.777248,47.655,-122.3035,60.0,2.2666666666666666
2026-01-20T23:02:17+00:00,SAT-55656,27.079710594142885,41.25769477965213,24144.61044366715,52.715098542323716,-1846305.7355979215,10.5,10498153694.264402,47.655,-122.3035,60.0,2.283333333333333
2026-01-20T23:02:18+00:00,SAT-55656,26.69873160386931,40.50037098459198,24197.184968613357,53.394130340650776,-1870088.3014769943,10.5,10498129911.698523,47.655,-122.3035,60.0,2.3
2026-01-20T23:09:00+00:00,SAT-55656,186.794668191873,40.52752737733715,24424.715433110916,-54.88395819522014,1922268.37490959,10.5,10501922268.37491,47.655,-122.3035,60.0,9.0
2026-01-20T23:09:01+00:00,SAT-55656,186.41799804521295,41.27493261886293,24369.97783213755,-54.2464625853751,1899940.5820490604,10.5,10501899940.582048,47.655,-122.3035,60.0,9.016666666666667
2026-01-20T23:09:02+00:00,SAT-55656,186.03286569601775,42.023352633210486,24315.876026785736,-53.59664692190205,1877181.2887967033,10.5,10501877181.288797,47.655,-122.3035,60.0,9.033333333333333
2026-01-20T23:09:03+00:00,SAT-55656,185.6388255799188,42.77271821879163,24262.422304255622,-52.93456467935572,1853992.3680576214,10.5,10501853992.368057,47.655,-122.3035,60.0,9.05
2026-01-20T23:09:04+00:00,SAT-55656,185.23540406933932,43.52295553169892,24209.628898415413,-52.26027481255872,1830375.8846790818,10.5,10501830375.88468,47.655,-122.3035,60.0,9.066666666666666
2026-01-20T23:09:05+00:00,SAT-55656,184.82209724676275,44.27398575888072,24157.507984335687,-51.57384131073431,1806334.0798343574,10.5,10501806334.079834,47.655,-122.3035,60.0,9.083333333333334
2026-01-20T23:09:06+00:00,SAT-55656,184.398368478996,45.025724752887314,24106.07167326845,-50.875333495908656,1781869.3814740358,10.5,10501781869.381474,47.655,-122.3035,60.0,9.1
2026-01-20T23:09:07+00:00,SAT-55656,183.96364576660105,45.77808263495489,24055.33200732853,-50.16482578624706,1756984.3960370547,10.5,10501756984.396036,47.655,-122.3035,60.0,9.116666666666667
2026-01-20T23:09:08+00:00,SAT-55656,183.51731885018071,46.53096335479524,24005.300954411046,-49.442398480981154,1731681.9359421711,10.5,10501731681.935942,47.655,-122.3035,60.0,9.133333333333333
2026-01-20T23:09:09+00:00,SAT-55656,183.05873603967729,47.28426421768062,23955.990402326013,-48.708137262015995,1705965.0021321347,10.5,10501705965.002132,47.655,-122.3035,60.0,9.15
2026-01-20T23:09:10+00:00,SAT-55656,182.58720074979402,48.03787535507557,23907.41215343003,-47.962133108394774,1679836.7810778785,10.5,10501679836.781078,47.655,-122.3035,60.0,9.166666666666666
2026-01-20T23:09:11+00:00,SAT-55656,182.10196770841026,48.791679138692956,23859.577919343257,-47.2044831513764,1653300.6747269547,10.5,10501653300.674726,47.655,-122.3035,60.0,9.183333333333334
2026-01-20T23:09:12+00:00,SAT-55656,181.60223879492557,49.54554954635994,23812.499314813616,-46.4352899073002,1626360.2736352098,10.5,10501626360.273636,47.655,-122.3035,60.0,9.2
2026-01-20T23:09:13+00:00,SAT-55656,181.08715848754278,50.2993514473597,23766.18785234607,-45.6546618715078,1599019.3777684423,10.5,10501599019.377768,47.655,-122.3035,60.0,9.216666666666667
2026-01-20T23:09:14+00:00,SAT-55656,180.55580886591628,51.05293982011134,23720.654936239553,-44.86271318196667,1571281.9847210767,10.5,10501571281.98472,47.655,-122.3035,60.0,9.233333333333333
2026-01-20T23:09:15+00:00,SAT-55656,180.00720413503154,51.806158878138596,23675.911856959407,-44.059564213192004,1543152.3105178184,10.5,10501543152.310518,47.655,-122.3035,60.0,9.25
2026-01-20T23:09:16+00:00,SAT-55656,179.44028461201964,52.55884110898316,23631.969784917448,-43.24534090285149,1514634.7660285058,10.5,10501514634.76603,47.655,-122.3035,60.0,9.266666666666667
2026-01-20T23:09:17+00:00,SAT-55656,178.8539101396797,53.31080619303752,23588.83976492367,-42.42017546078879,1485733.981801111,10.5,10501485733.981802,47.655,-122.3035,60.0,9.283333333333333
2026-01-20T23:09:18+00:00,SAT-55656,178.24685285499427,54.061859811796424,23546.532709930776,-41.58420589773712,1456454.7915552957,10.5,10501456454.791555,47.655,-122.3035,60.0,9.3
2026-01-20T23:09:19+00:00,SAT-55656,177.61778926913655,54.81179231021426,23505.059395248765,-40.73757636645261,1426802.2441303455,10.5,10501426802.244131,47.655,-122.3035,60.0,9.316666666666666
2026-01-20T23:09:20+00:00,SAT-55656,176.9652915876051,55.560377209565516,23464.430452419292,-39.88043710730229,1396781.6015794303,10.5,10501396781.60158,47.655,-122.3035,60.0,9.333333333333334
2026-01-20T23:09:21+00:00,SAT-55656,176.28781821290403,56.307369544409895,23424.656363144273,-39.01294441095259,1366398.3378627966,10.5,10501366398.337862,47.655,-122.3035,60.0,9.35
2026-01-20T23:09:22+00:00,SAT-55656,175.58370336728646,57.052504001487875,23385.74745325175,-38.1352604759093,1335658.1338582162,10.5,10501335658.133858,47.655,-122.3035,60.0,9.366666666666667
2026-01-20T23:09:23+00:00,SAT-55656,174.85114577765572,57.79549283328631,23347.71388680378,-37.24755377167914,1304566.89008044,10.5,10501304566.89008,47.655,-122.3035,60.0,9.383333333333333
2026-01-20T23:09:24+00:00,SAT-55656,174.08819635879433,58.536023527685224,23310.56565984216,-36.349998796694585,1273130.718202701,10.5,10501273130.718203,47.655,-122.3035,60.0,9.4
2026-01-20T23:09:25+00:00,SAT-55656,173.2927448611053,59.27375619072969,23274.312594375588,-35.44277595851624,1241355.9368608952,10.5,10501241355.936861,47.655,-122.3035,60.0,9.416666666666666
2026-01-20T23:09:26+00:00,SAT-55656,172.46250545486748,60.008320609191436,23238.964332486295,-34.52607182388929,1209249.0804116144,10.5,10501209249.080412,47.655,-122.3035,60.0,9.433333333333334
2026-01-20T23:09:27+00:00,SAT-55656,171.59500124175779,60.73931296144379,23204.53033018727,-33.6000788752613,1176816.8904043734,10.5,10501176816.890404,47.655,-122.3035,60.0,9.45
2026-01-20T23:09:28+00:00,SAT-55656,170.68754774161818,61.46629212392893,23171.019851522342,-32.6649955837506,1144066.3181372671,10.5,10501144066.318138,47.655,-122.3035,60.0,9.466666666666667
2026-01-20T23:09:29+00:00,SAT-55656,169.73723543977317,62.18877553318716,23138.441962593482,-31.721026184561758,1111004.5167910743,10.5,10501111004.51679,47.655,-122.3035,60.0,9.483333333333333
2026-01-20T23:09:30+00:00,SAT-55656,168.74091157213556,62.90623454735112,23106.805525812077,-30.768380874227805,1077638.848337512,10.5,10501077638.848337,47.655,-122.3035,60.0,9.5
2026-01-20T23:09:31+00:00,SAT-55656,167.69516141089338,63.61808926457232,23076.119193953513,-29.807275618633245,1043976.8768153903,10.5,10501043976.876816,47.655,-122.3035,60.0,9.516666666666667
2026-01-20T23:09:32+00:00,SAT-55656,166.59628947904807,64.32370273741066,23046.3914044032,-28.837932005760425,1010026.3631731671,10.5,10501010026.363173,47.655,-122.3035,60.0,9.533333333333333
2026-01-20T23:09:33+00:00,SAT-55656,165.44030130354122,65.02237453328125,23017.630373549455,-27.860577166687754,975795.262501972,10.5,10500975795.262503,47.655,-122.3035,60.0,9.55
2026-01-20T23:09:34+00:00,SAT-55656,164.2228865683018,65.71333359734359,22989.84409125521,-26.87544395804474,941291.7304259527,10.5,10500941291.730427,47.655,-122.3035,60.0,9.566666666666666
2026-01-20T23:09:35+00:00,SAT-55656,162.93940484709492,66.39573039080875,22963.04031514772,-25.88277042788107,906524.1043947518,10.5,10500906524.104395,47.655,-122.3035,60.0,9.583333333333334
2026-01-20T23:09:36+00:00,SAT-55656,161.58487556304624,67.06862827248654,22937.22656544098,-24.882800088881535,871500.913252648,10.5,10500871500.913252,47.655,-122.3035,60.0,9.6
2026-01-20T23:09:37+00:00,SAT-55656,160.15397429187945,67.73099415912111,22912.41011948567,-23.87578147606032,836230.8617471403,10.5,10500836230.861748,47.655,-122.3035,60.0,9.616666666666667
2026-01-20T23:09:38+00:00,SAT-55656,158.6410382568736,68.38168850759044,22888.59800676021,-22.8619683533625,800722.8377650055,10.5,10500800722.837765,47.655,-122.3035,60.0,9.633333333333333
2026-01-20T23:09:39+00:00,SAT-55656,157.04008459490606,69.01945476225693,22865.797003655793,-21.841619317960074,764985.8984730722,10.5,10500764985.898474,47.655,-122.3035,60.0,9.65
2026-01-20T23:09:40+00:00,SAT-55656,155.34484597211747,69.64290846954367,22844.013628656012,-20.814997664748365,729029.2655723108,10.5,10500729029.265572,47.655,-122.3035,60.0,9.666666666666666
2026-01-20T23:09:41+00:00,SAT-55656,153.548829118637,70.25052640804196,22823.254137651704,-19.782371489970007,692862.3289271842,10.5,10500692862.328928,47.655,-122.3035,60.0,9.683333333333334
2026-01-20T23:09:42+00:00,SAT-55656,151.6454029060388,70.84063624637731,22803.52451915237,-18.744013223128277,656494.630171273,10.5,10500656494.63017,47.655,-122.3035,60.0,9.7
2026-01-20T23:09:43+00:00,SAT-55656,149.6279236227808,71.41140742511718,22784.830489964508,-17.70019965700458,619935.8637586142,10.5,10500619935.863758,47.655,-122.3035,60.0,9.716666666666667
2026-01-20T23:09:44+00:00,SAT-55656,147.48990565129148,71.96084424344139,22767.17749083992,-16.651211620096568,583195.8654910991,10.5,10500583195.865492,47.655,-122.3035,60.0,9.733333333333333
2026-01-20T23:09:45+00:00,SAT-55656,145.22524578163635,72.48678240139652,22750.570682450812,-15.59733400991267,546284.6136845879,10.5,10500546284.613684,47.655,-122.3035,60.0,9.75
2026-01-20T23:09:46+00:00,SAT-55656,142.82850812124963,72.98689058823899,22735.014941331592,-14.53885533198826,509212.2130233068,10.5,10500509212.213024,47.655,-122.3035,60.0,9.766666666666667
2026-01-20T23:09:47+00:00,SAT-55656,140.29527369663856,73.45867898669762,22720.514856280486,-13.476067778281635,471988.8973056059,10.5,10500471988.897306,47.655,-122.3035,60.0,9.783333333333333
2026-01-20T23:09:48+00:00,SAT-55656,137.62255329739838,73.89951682789514,22707.07472468295,-12.409266753708325,434625.01286118885,10.5,10500434625.012861,47.655,-122.3035,60.0,9.8
2026-01-20T23:09:49+00:00,SAT-55656,134.80925384780718,74.3066611670401,22694.69854930725,-11.33875091462351,397131.01989892905,10.5,10500397131.0199,47.655,-122.3035,60.0,9.816666666666666
2026-01-20T23:09:50+00:00,SAT-55656,131.85667677910834,74.67729887453788,22683.390035061733,-10.26482178351825,359517.4790119024,10.5,10500359517.479012,47.655,-122.3035,60.0,9.833333333333334
2026-01-20T23:09:51+00:00,SAT-55656,128.76901276470306,75.00860318937178,22673.152586136304,-9.18778360059491,321795.04597893043,10.5,10500321795.045979,47.655,-122.3035,60.0,9.85
2026-01-20T23:09:52+00:00,SAT-55656,125.55378193254008,75.29780506821389,22663.989303291975,-8.107943036789697,283974.46171341586,10.5,10500283974.461714,47.655,-122.3035,60.0,9.866666666666667
2026-01-20T23:09:53+00:00,SAT-55656,122.22215604360856,75.54227786282365,22655.90298143662,-7.025609098080968,246066.5489118147,10.5,10500246066.548912,47.655,-122.3035,60.0,9.883333333333333
2026-01-20T23:09:54+00:00,SAT-55656,118.78909329186205,75.7396317226809,22648.896107296132,-5.941092702459291,208082.1972373386,10.5,10500208082.197237,47.655,-122.3035,60.0,9.9
2026-01-20T23:09:55+00:00,SAT-55656,115.27322272201255,75.88781178393947,22642.970857507546,-4.854706589793665,170032.36016308816,10.5,10500170032.360163,47.655,-122.3035,60.0,9.916666666666666
2026-01-20T23:09:56+00:00,SAT-55656,111.69643644652952,75.98519220174674,22638.129096801993,-3.7667650316014263,131928.0448069677,10.5,10500131928.044807,47.655,-122.3035,60.0,9.933333333333334
2026-01-20T23:09:57+00:00,SAT-55656,108.08318452213581,76.03065691574379,22634.372376477142,-2.677583548230057,93780.30202619574,10.5,10500093780.302027,47.655,-122.3035,60.0,9.95
2026-01-20T23:09:58+00:00,SAT-55656,104.45951342545573,76.02365828502856,22631.701933151708,-1.5874787174087555,55600.21971197132,10.5,10500055600.219711,47.655,-122.3035,60.0,9.966666666666667
2026-01-20T23:09:59+00:00,SAT-55656,100.85193447074377,75.96424660028765,22630.118687710878,-0.49676788353860507,17398.91260758586,10.5,10500017398.912607,47.655,-122.3035,60.0,9.983333333333333
2026-01-20T23:10:00+00:00,SAT-55656,97.28624136541714,75.85306678971764,22629.623244541697,0.5942310639156425,-20812.485453233938,10.5,10499979187.514547,47.655,-122.3035,60.0,10.0
2026-01-20T23:10:01+00:00,SAT-55656,93.78640603610647,75.6913227516743,22630.215890989442,1.6851999657871688,-59022.83119065415,10.5,10499940977.16881,47.655,-122.3035,60.0,10.016666666666667
2026-01-20T23:10:02+00:00,SAT-55656,90.37366655137033,75.48071376796486,22631.896597088653,2.7758206361605335,-97220.98038799096,10.5,10499902779.019611,47.655,-122.3035,60.0,10.033333333333333
2026-01-20T23:10:03+00:00,SAT-55656,87.06588431580485,75.22335049842972,22634.66501553645,3.8657751129565443,-135395.7966682528,10.5,10499864604.203331,47.655,-122.3035,60.0,10.05
2026-01-20T23:10:04+00:00,SAT-55656,83.87720121547233,74.92165959473215,22638.520481915773,4.954745916518541,-173536.1605509258,10.5,10499826463.839449,47.655,-122.3035,60.0,10.066666666666666
2026-01-20T23:10:05+00:00,SAT-55656,80.8179825176117,74.57828588739827,22643.462015176512,6.042416304811907,-211630.9783901402,10.5,10499788369.02161,47.655,-122.3035,60.0,10.083333333333334
2026-01-20T23:10:06+00:00,SAT-55656,77.8949978742215,74.19599972648753,22649.48831837118,7.128470520618091,-249669.1910324507,10.5,10499750330.808968,47.655,-122.3035,60.0,10.1
2026-01-20T23:10:07+00:00,SAT-55656,75.11177475963063,73.77761492847898,22656.597779637075,8.2125940040152,-287639.78125880536,10.5,10499712360.21874,47.655,-122.3035,60.0,10.116666666666667
2026-01-20T23:10:08+00:00,SAT-55656,72.4690554667974,73.32592047066933,22664.78847339041,9.29447371368267,-325531.7850379946,10.5,10499674468.214962,47.655,-122.3035,60.0,10.133333333333333
2026-01-20T23:10:09+00:00,SAT-55656,69.96529639748297,72.843627002373,22674.05816184086,10.373798335921883,-363334.29884743725,10.5,10499636665.701153,47.655,-122.3035,60.0,10.15
2026-01-20T23:10:10+00:00,SAT-55656,67.59716204914466,72.33332768122855,22684.40429671455,11.4502584443063,-401036.4852648033,10.5,10499598963.514734,47.655,-122.3035,60.0,10.166666666666666
2026-01-20T23:10:11+00:00,SAT-55656,65.35998121102273,71.79747181711248,22695.82402113634,12.5235468830296,-438627.5863944876,10.5,10499561372.413605,47.655,-122.3035,60.0,10.183333333333334
2026-01-20T23:10:12+00:00,SAT-55656,63.248146652017965,71.23834927110784,22708.314171894348,13.593358891504895,-476096.9282316015,10.5,10499523903.071768,47.655,-122.3035,60.0,10.2
2026-01-20T23:10:13+00:00,SAT-55656,61.25545065464639,70.65808343879831,22721.87128182881,14.65939236970019,-513433.9299551425,10.5,10499486566.070045,47.655,-122.3035,60.0,10.216666666666667
2026-01-20T23:10:14+00:00,SAT-55656,59.3753563891366,70.05863073797566,22736.491582485523,15.721348049123819,-550628.109916628,10.5,10499449371.890083,47.655,-122.3035,60.0,10.233333333333333
2026-01-20T23:10:15+00:00,SAT-55656,57.60121000109208,69.44178478470619,22752.17100693985,16.77892984326435,-587669.0979139832,10.5,10499412330.902086,47.655,-122.3035,60.0,10.25
2026-01-20T23:10:16+00:00,SAT-55656,55.92640077905655,68.80918374138135,22768.905192970196,17.831844858747033,-624546.6355822862,10.5,10499375453.364418,47.655,-122.3035,60.0,10.266666666666667
2026-01-20T23:10:17+00:00,SAT-55656,54.344477731347425,68.16231965511324,22786.689486242656,18.87980382340933,-661250.5913867853,10.5,10499338749.408613,47.655,-122.3035,60.0,10.283333333333333
2026-01-20T23:10:18+00:00,SAT-55656,52.849230675681326,67.50254886142208,22805.518943922536,19.9225210334054,-697770.9587702727,10.5,10499302229.04123,47.655,-122.3035,60.0,10.3
2026-01-20T23:10:19+00:00,SAT-55656,51.43474330990819,66.8311028060482,22825.388338233184,20.95971478677857,-734097.8713386278,10.5,10499265902.128662,47.655,-122.3035,60.0,10.316666666666666
2026-01-20T23:10:20+00:00,SAT-55656,50.09542463972076,66.1490987995836,22846.2921604472,21.991107408628334,-770221.6037422713,10.5,10499229778.396257,47.655,-122.3035,60.0,10.333333333333334
2026-01-20T23:10:21+00:00,SAT-55656,48.82602414943328,65.45755040607774,22868.224624902738,23.016425538209862,-806132.5817316043,10.5,10499193867.418268,47.655,-122.3035,60.0,10.35
2026-01-20T23:10:22+00:00,SAT-55656,47.621635029698055,64.7573772595413,22891.17967330618,24.03540009269584,-841821.3808877951,10.5,10499158178.619112,47.655,-122.3035,60.0,10.366666666666667
2026-01-20T23:10:23+00:00,SAT-55656,46.47768891074771,64.04941420679755,22915.150978998627,25.047766742862066,-877278.7432833007,10.5,10499122721.256716,47.655,-122.3035,60.0,10.383333333333333
2026-01-20T23:10:24+00:00,SAT-55656,45.389944733895724,63.334419710127214,22940.131951696843,26.053265840237195,-912495.5749303425,10.5,10499087504.42507,47.655,-122.3035,60.0,10.4
2026-01-20T23:10:25+00:00,SAT-55656,44.35447381716596,62.61308351752207,22966.115742161506,27.05164250483774,-947462.9488537577,10.5,10499052537.051146,47.655,-122.3035,60.0,10.416666666666666
2026-01-20T23:10:26+00:00,SAT-55656,43.367642619269816,61.886033613567974,22993.095246952995,28.04264702688936,-982172.1191609772,10.5,10499017827.880838,47.655,-122.3035,60.0,10.433333333333334
2026-01-20T23:10:27+00:00,SAT-55656,42.426094305397854,61.15384247863272,23021.063113587814,29.02603480112826,-1016614.5187409843,10.5,10498983385.481258,47.655,-122.3035,60.0,10.45
2026-01-20T23:10:28+00:00,SAT-55656,41.52672993619508,60.41703271543714,23050.011745629476,30.00156645342522,-1050781.7636992217,10.5,10498949218.236301,47.655,-122.3035,60.0,10.466666666666667
2026-01-20T23:10:29+00:00,SAT-55656,40.66668983429116,59.67608208806333,23079.93330790569,30.969007954752794,-1084665.6573492063,10.5,10498915334.342651,47.655,-122.3035,60.0,10.483333333333333
2026-01-20T23:10:30+00:00,SAT-55656,39.84333551256589,58.93142802587689,23110.819731839227,31.928130844493037,-1118258.1980337107,10.5,10498881741.801966,47.655,-122.3035,60.0,10.5
2026-01-20T23:10:31+00:00,SAT-55656,39.054232410869886,58.18347164096214,23142.662721001474,32.87871218180699,-1151551.5774215152,10.5,10498848448.422579,47.655,-122.3035,60.0,10.516666666666667
2026-01-20T23:10:32+00:00,SAT-55656,38.29713359916472,57.4325813143766,23175.453756617462,33.82053474373871,-1184538.187445851,10.5,10498815461.812553,47.655,-122.3035,60.0,10.533333333333333
2026-01-20T23:10:33+00:00,SAT-55656,37.56996451905976,56.67909589064106,23209.184103268548,34.753386858946136,-1217210.6144809502,10.5,10498782789.385519,47.655,-122.3035,60.0,10.55
2026-01-20T23:10:34+00:00,SAT-55656,36.87080880002433,55.923327530502895,23243.844814429205,35.67706290025544,-1249561.6565933828,10.5,10498750438.343407,47.655,-122.3035,60.0,10.566666666666666
2026-01-20T23:10:35+00:00,SAT-55656,36.197895128618896,55.16556424530307,23279.426738495058,36.59136297469581,-1281584.3126857649,10.5,10498718415.687315,47.655,-122.3035,60.0,10.583333333333334
2026-01-20T23:10:36+00:00,SAT-55656,35.54958515672794,54.406072165178784,23315.920524501824,37.49609314478641,-1313271.7902471623,10.5,10498686728.209753,47.655,-122.3035,60.0,10.6
2026-01-20T23:10:37+00:00,SAT-55656,34.924362390280244,53.64509755987825,23353.31662806489,38.39106530536835,-1344617.501039228,10.5,10498655382.49896,47.655,-122.3035,60.0,10.616666666666667
2026-01-20T23:10:38+00:00,SAT-55656,34.32082200890641,52.88286864699632,23391.605317196107,39.276097521461054,-1375615.0729293565,10.5,10498624384.92707,47.655,-122.3035,60.0,10.633333333333333
2026-01-20T23:10:39+00:00,SAT-55656,33.737661547825624,52.11959720263933,23430.776678457514,40.15101387469039,-1406258.3445119527,10.5,10498593741.655489,47.655,-122.3035,60.0,10.65
2026-01-20T23:10:40+00:00,SAT-55656,33.17367238778285,51.35548000627874,23470.82062296187,41.015644206719095,-1436541.356122276,10.5,10498563458.643877,47.655,-122.3035,60.0,10.666666666666666
2026-01-20T23:10:41+00:00,SAT-55656,32.627731990880044,50.590700140264666,23511.726892117375,41.86982480608334,-1466458.3738923646,10.5,10498533541.626108,47.655,-122.3035,60.0,10.683333333333334
2026-01-20T23:10:42+00:00,SAT-55656,32.098796809140886,49.825428143209706,23553.485064057306,42.713397725442206,-1496003.8658382234,10.5,10498503996.134161,47.655,-122.3035,60.0,10.7
2026-01-20T23:10:43+00:00,SAT-55656,31.585895827312097,49.05982305811391,23596.08455938881,43.54621123008772,-1525172.517568541,10.5,10498474827.482431,47.655,-122.3035,60.0,10.716666666666667
2026-01-20T23:10:44+00:00,SAT-55656,31.088124670061234,48.29403336704807,23639.514647388954,44.368119471098574,-1553959.2208371533,10.5,10498446040.779163,47.655,-122.3035,60.0,10.733333333333333
2026-01-20T23:10:45+00:00,SAT-55656,30.60464023315065,47.52819783830219,23683.764451874795,45.17898277987581,-1582359.0838589275,10.5,10498417640.916142,47.655,-122.3035,60.0,10.75
2026-01-20T23:10:46+00:00,SAT-55656,30.1346557842993,46.76244628513793,23728.82295736726,45.97866742451042,-1610367.4227767244,10.5,10498389632.577223,47.655,-122.3035,60.0,10.766666666666667
2026-01-20T23:10:47+00:00,SAT-55656,29.677436496947834,45.99690025467295,23774.67901501197,46.76704567294489,-1637979.7638735839,10.5,10498362020.236126,47.655,-122.3035,60.0,10.783333333333333
2026-01-20T23:10:48+00:00,SAT-55656,29.23229537390589,45.231673649469656,23821.321348563124,47.54399555774876,-1665191.8353341694,10.5,10498334808.164665,47.655,-122.3035,60.0,10.8
2026-01-20T23:10:49+00:00,SAT-55656,28.798589527728925,44.46687329376311,23868.738560132715,48.30940130018532,-1691999.5820973783,10.5,10498308000.417902,47.655,-122.3035,60.0,10.816666666666666
2026-01-20T23:10:50+00:00,SAT-55656,28.37571677892526,43.702599439880785,23916.91913636277,49.06315274303026,-1718399.1459912502,10.5,10498281600.85401,47.655,-122.3035,60.0,10.833333333333334
2026-01-20T23:10:51+00:00,SAT-55656,27.963112551411395,42.938946236436045,23965.851454031817,49.80514568271154,-1744386.8773659116,10.5,10498255613.122635,47.655,-122.3035,60.0,10.85
2026-01-20T23:10:52+00:00,SAT-55656,27.5602470298127,42.176002148596744,24015.523785992707,50.535281368127464,-1769959.3175400642,10.5,10498230040.68246,47.655,-122.3035,60.0,10.866666666666667
2026-01-20T23:10:53+00:00,SAT-55656,27.16662256129976,41.413850347814424,24065.92430661052,51.25346712587896,-1795113.2206992647,10.5,10498204886.7793,47.655,-122.3035,60.0,10.883333333333333
2026-01-20T23:10:54+00:00,SAT-55656,26.7817712705846,40.65256905755759,24117.04109782406,51.95961554355636,-1819845.5252911726,10.5,10498180154.474709,47.655,-122.3035,60.0,10.9
