satellites_20260120_184412/SAT-52832.csv

timestamp,satellite,azimuth_deg,elevation_deg,distance_km,relative_velocity_kms,doppler_shift_hz,tx_freq_ghz,rx_freq_hz,ue_lat,ue_lon,ue_alt_m,time_minutes
2026-01-20T23:01:57+00:00,SAT-52832,211.34807328112674,40.093040324292,1280.8771245078033,-5.212972996587723,182580.36519441425,10.5,10500182580.365194,47.655,-122.3035,60.0,1.95
2026-01-20T23:01:58+00:00,SAT-52832,211.39368972124214,40.31907862682878,1275.6780527725396,-5.196651665674506,182008.72314667207,10.5,10500182008.723146,47.655,-122.3035,60.0,1.9666666666666666
2026-01-20T23:01:59+00:00,SAT-52832,211.44028599410825,40.5467131426144,1270.4952588446404,-5.180123996136462,181429.85424747696,10.5,10500181429.854248,47.655,-122.3035,60.0,1.9833333333333334
2026-01-20T23:02:00+00:00,SAT-52832,211.48788411960123,40.77595719449768,1265.3289485124935,-5.16338729331005,180843.66411831323,10.5,10500180843.664118,47.655,-122.3035,60.0,2.0
2026-01-20T23:02:01+00:00,SAT-52832,211.53650677739893,41.00682411721849,1260.1793302519657,-5.1464388081407755,180250.05647566405,10.5,10500180250.056477,47.655,-122.3035,60.0,2.0166666666666666
2026-01-20T23:02:02+00:00,SAT-52832,211.58617733139593,41.23932725070398,1255.0466152806466,-5.129275803577023,179648.9354564041,10.5,10500179648.935457,47.655,-122.3035,60.0,2.033333333333333
2026-01-20T23:02:03+00:00,SAT-52832,211.6369198558467,41.47347993603296,1249.931017545879,-5.111895497714754,179040.20362648656,10.5,10500179040.203627,47.655,-122.3035,60.0,2.05
2026-01-20T23:02:04+00:00,SAT-52832,211.68875916214697,41.70929550858287,1244.8327537694915,-5.094295059092657,178423.76181615915,10.5,10500178423.761816,47.655,-122.3035,60.0,2.066666666666667
2026-01-20T23:02:05+00:00,SAT-52832,211.74172082672337,41.94678729059349,1239.7520434972232,-5.076471691316581,177799.51208387,10.5,10500177799.512083,47.655,-122.3035,60.0,2.0833333333333335
2026-01-20T23:02:06+00:00,SAT-52832,211.79583122116193,42.185968587322584,1234.68910906375,-5.058422500527262,177167.35307442673,10.5,10500177167.353075,47.655,-122.3035,60.0,2.1
2026-01-20T23:02:07+00:00,SAT-52832,211.8511175422241,42.42685267672944,1229.644175689891,-5.040144602538127,176527.18377141538,10.5,10500176527.183771,47.655,-122.3035,60.0,2.1166666666666667
2026-01-20T23:02:08+00:00,SAT-52832,211.9076078444636,42.66945280373851,1224.6174714729596,-5.021635095475793,175878.90253895524,10.5,10500175878.902538,47.655,-122.3035,60.0,2.1333333333333333
2026-01-20T23:02:09+00:00,SAT-52832,211.96533107404917,42.91378217291167,1219.6092274044051,-5.002891030796042,175222.40610655537,10.5,10500175222.406107,47.655,-122.3035,60.0,2.15
2026-01-20T23:02:10+00:00,SAT-52832,212.0243171038489,43.15985393932364,1214.619677416358,-4.983909430450969,174557.59017038104,10.5,10500174557.59017,47.655,-122.3035,60.0,2.1666666666666665
2026-01-20T23:02:11+00:00,SAT-52832,212.0845967703332,43.40768119981796,1209.6490584110547,-4.964687331500013,173884.3509557206,10.5,10500173884.350956,47.655,-122.3035,60.0,2.183333333333333
2026-01-20T23:02:12+00:00,SAT-52832,212.1462019128418,43.65727698606205,1204.697610245772,-4.945221703499846,173202.58232363,10.5,10500173202.582323,47.655,-122.3035,60.0,2.2
2026-01-20T23:02:13+00:00,SAT-52832,212.2091654136419,43.908654253088514,1199.765575800148,-4.925509515088024,172512.17810297364,10.5,10500172512.178102,47.655,-122.3035,60.0,2.216666666666667
2026-01-20T23:02:14+00:00,SAT-52832,212.27352124080812,44.16182587064759,1194.8532009771002,-4.905547707560642,171813.03116500264,10.5,10500171813.031164,47.655,-122.3035,60.0,2.2333333333333334
2026-01-20T23:02:15+00:00,SAT-52832,212.33930449281837,44.4168046127795,1189.9607347300932,-4.885333201051525,171105.03363977562,10.5,10500171105.03364,47.655,-122.3035,60.0,2.25
2026-01-20T23:02:16+00:00,SAT-52832,212.40655144542654,44.67360314718523,1185.0884290842444,-4.8648628943635,170388.0769102495,10.5,10500170388.07691,47.655,-122.3035,60.0,2.2666666666666666
2026-01-20T23:02:17+00:00,SAT-52832,212.4752996008426,44.932234024067434,1180.2365391575993,-4.84413366668871,169662.05167253225,10.5,10500169662.051672,47.655,-122.3035,60.0,2.283333333333333
2026-01-20T23:02:18+00:00,SAT-52832,212.54558773938425,45.19270966450638,1175.4053231806886,-4.823142377030529,168926.84791563553,10.5,10500168926.847916,47.655,-122.3035,60.0,2.3
2026-01-20T23:02:19+00:00,SAT-52832,212.61745597369193,45.45504234824081,1170.5950425166634,-4.80188587139842,168182.35517346943,10.5,10500168182.355173,47.655,-122.3035,60.0,2.316666666666667
2026-01-20T23:02:20+00:00,SAT-52832,212.69094580581202,45.719244201230865,1165.8059616742553,-4.780360961108732,167428.46176484428,10.5,10500167428.461765,47.655,-122.3035,60.0,2.3333333333333335
2026-01-20T23:02:21+00:00,SAT-52832,212.7661001868026,45.98532718141411,1161.0383483423764,-4.758564466461614,166665.05632322127,10.5,10500166665.056324,47.655,-122.3035,60.0,2.35
2026-01-20T23:02:22+00:00,SAT-52832,212.84296358013154,46.25330306620119,1156.2924733811585,-4.736493179922271,165892.026507164,10.5,10500165892.026506,47.655,-122.3035,60.0,2.3666666666666667
2026-01-20T23:02:23+00:00,SAT-52832,212.9215820277161,46.5231834372864,1151.568610849716,-4.714143868326899,165109.25907759974,10.5,10500165109.259077,47.655,-122.3035,60.0,2.3833333333333333
2026-01-20T23:02:24+00:00,SAT-52832,213.00200321943007,46.794979664822336,1146.8670380317046,-4.691513305498692,164316.64104017007,10.5,10500164316.64104,47.655,-122.3035,60.0,2.4
2026-01-20T23:02:25+00:00,SAT-52832,213.084276566822,47.068702892712324,1142.188035428354,-4.668598254505394,163514.05902381518,10.5,10500163514.059023,47.655,-122.3035,60.0,2.4166666666666665
2026-01-20T23:02:26+00:00,SAT-52832,213.16845328042803,47.34436402215086,1137.531886769194,-4.645395451598658,162701.3987182623,10.5,10500162701.398718,47.655,-122.3035,60.0,2.433333333333333
2026-01-20T23:02:27+00:00,SAT-52832,213.2545864508734,47.621973693398054,1132.8988790387996,-4.621901625263014,161878.5455412012,10.5,10500161878.545542,47.655,-122.3035,60.0,2.45
2026-01-20T23:02:28+00:00,SAT-52832,213.34273113469294,47.901542267782254,1128.2893024845373,-4.598113516404014,161045.3853453583,10.5,10500161045.385345,47.655,-122.3035,60.0,2.466666666666667
2026-01-20T23:02:29+00:00,SAT-52832,213.43294444516602,48.183079810061685,1123.7034506041769,-4.574027849491885,160201.80340782553,10.5,10500160201.803408,47.655,-122.3035,60.0,2.4833333333333334
2026-01-20T23:02:30+00:00,SAT-52832,213.5252856475667,48.46659606814139,1119.1416201622837,-4.549641336087568,159347.68455355693,10.5,10500159347.684553,47.655,-122.3035,60.0,2.5
2026-01-20T23:02:31+00:00,SAT-52832,213.6198162596667,48.75210045200016,1114.6041112030923,-4.524950694972406,158482.9138603956,10.5,10500158482.91386,47.655,-122.3035,60.0,2.5166666666666666
2026-01-20T23:02:32+00:00,SAT-52832,213.71660015824537,49.039602012832006,1110.0912270433064,-4.499952652231627,157607.37666199758,10.5,10500157607.376661,47.655,-122.3035,60.0,2.533333333333333
2026-01-20T23:02:33+00:00,SAT-52832,213.8157036915441,49.32910942117059,1105.603274264814,-4.474643928233109,156720.9580917731,10.5,10500156720.958092,47.655,-122.3035,60.0,2.55
2026-01-20T23:02:34+00:00,SAT-52832,213.91719579776992,49.62063094308261,1101.1405627203899,-4.449021227571243,155823.5427306782,10.5,10500155823.54273,47.655,-122.3035,60.0,2.566666666666667
2026-01-20T23:02:35+00:00,SAT-52832,214.02114813004607,49.91417441449135,1096.7034055494255,-4.423081323568502,154915.01756681706,10.5,10500154915.017567,47.655,-122.3035,60.0,2.5833333333333335
2026-01-20T23:02:36+00:00,SAT-52832,214.12763519056338,50.20974721983177,1092.2921191093862,-4.396820911706642,153995.26686198267,10.5,10500153995.266863,47.655,-122.3035,60.0,2.6
2026-01-20T23:02:37+00:00,SAT-52832,214.2367344688603,50.50735625979368,1087.9070230534442,-4.370236746115217,153064.17693206205,10.5,10500153064.176931,47.655,-122.3035,60.0,2.6166666666666667
2026-01-20T23:02:38+00:00,SAT-52832,214.34852659151358,50.80700792664722,1083.5484402719853,-4.343325622394516,152121.6355454226,10.5,10500152121.635546,47.655,-122.3035,60.0,2.6333333333333333
2026-01-20T23:02:39+00:00,SAT-52832,214.46309548025937,51.108708077212256,1079.2166968512504,-4.3160842775309485,151167.52841752596,10.5,10500151167.528418,47.655,-122.3035,60.0,2.65
2026-01-20T23:02:40+00:00,SAT-52832,214.58052851674157,51.41246199741313,1074.912122131793,-4.288509536707516,150201.74435285132,10.5,10500150201.744352,47.655,-122.3035,60.0,2.6666666666666665
2026-01-20T23:02:41+00:00,SAT-52832,214.7009167210826,51.71827437537711,1070.6350486205167,-4.260598195154645,149224.1711068121,10.5,10500149224.171106,47.655,-122.3035,60.0,2.683333333333333
2026-01-20T23:02:42+00:00,SAT-52832,214.8243549378774,52.02614926468701,1066.385812020549,-4.232347114876494,148234.69877352013,10.5,10500148234.698774,47.655,-122.3035,60.0,2.7
2026-01-20T23:02:43+00:00,SAT-52832,214.95094203627883,52.33609005273216,1062.1647511646456,-4.203753158555182,147233.2174708325,10.5,10500147233.21747,47.655,-122.3035,60.0,2.716666666666667
2026-01-20T23:02:44+00:00,SAT-52832,215.08078112033883,52.648099422544526,1057.9722080145134,-4.174813190416803,146219.6173706826,10.5,10500146219.61737,47.655,-122.3035,60.0,2.7333333333333334
2026-01-20T23:02:45+00:00,SAT-52832,215.21397975224744,52.96217931261247,1053.808527659271,-4.145524186140042,145193.79254854517,10.5,10500145193.79255,47.655,-122.3035,60.0,2.75
2026-01-20T23:02:46+00:00,SAT-52832,215.35065019305512,53.27833088290396,1049.674058204294,-4.115883078078235,144155.63556245787,10.5,10500144155.635563,47.655,-122.3035,60.0,2.7666666666666666
2026-01-20T23:02:47+00:00,SAT-52832,215.4909096533875,53.59655446719663,1045.569150814424,-4.085886887790368,143105.04209481768,10.5,10500143105.042095,47.655,-122.3035,60.0,2.783333333333333
2026-01-20T23:02:48+00:00,SAT-52832,215.63488056445166,53.91684953306803,1041.494159625001,-4.0555326512551515,142041.90833306118,10.5,10500142041.908333,47.655,-122.3035,60.0,2.8
2026-01-20T23:02:49+00:00,SAT-52832,215.78269086374138,54.23921463381449,1037.4494417274825,-4.024817463952523,140966.13254860966,10.5,10500140966.13255,47.655,-122.3035,60.0,2.816666666666667
2026-01-20T23:02:50+00:00,SAT-52832,215.93447430072672,54.56364736128313,1033.4353571101005,-3.993738471670328,139877.61477488017,10.5,10500139877.614775,47.655,-122.3035,60.0,2.8333333333333335
2026-01-20T23:02:51+00:00,SAT-52832,216.09037076205388,54.89014429531173,1029.452268607688,-3.9622928592647946,138776.2564136298,10.5,10500138776.256414,47.655,-122.3035,60.0,2.85
2026-01-20T23:02:52+00:00,SAT-52832,216.25052661752295,55.2187009493651,1025.5005418627145,-3.9304778900030906,137661.9616128984,10.5,10500137661.961613,47.655,-122.3035,60.0,2.8666666666666667
2026-01-20T23:02:53+00:00,SAT-52832,216.41509509052617,55.549311716314094,1021.5805452470848,-3.898290870642019,136534.63604391678,10.5,10500136534.636044,47.655,-122.3035,60.0,2.8833333333333333
2026-01-20T23:02:54+00:00,SAT-52832,216.58423665163502,55.881969808120246,1017.6926498187645,-3.8657291838567622,135394.1880368985,10.5,10500135394.188036,47.655,-122.3035,60.0,2.9
2026-01-20T23:02:55+00:00,SAT-52832,216.75811944001111,56.216667194724714,1013.8372292460647,-3.8327902909991116,134240.52867764496,10.5,10500134240.528677,47.655,-122.3035,60.0,2.9166666666666665
2026-01-20T23:02:56+00:00,SAT-52832,216.9369197134775,56.55339453955658,1010.0146597291749,-3.7994716875739947,133073.57024814462,10.5,10500133073.570248,47.655,-122.3035,60.0,2.933333333333333
2026-01-20T23:02:57+00:00,SAT-52832,217.1208223271281,56.892141127152534,1006.2253199661011,-3.765770993126136,131893.22937478442,10.5,10500131893.229374,47.655,-122.3035,60.0,2.95
2026-01-20T23:02:58+00:00,SAT-52832,217.31002124920337,57.23289479441317,1002.4695910289566,-3.7316858737281624,130699.4243135553,10.5,10500130699.424314,47.655,-122.3035,60.0,2.966666666666667
2026-01-20T23:02:59+00:00,SAT-52832,217.50472010888612,57.57564185051892,998.7478563175584,-3.697214117612343,129492.07759899551,10.5,10500129492.077599,47.655,-122.3035,60.0,2.9833333333333334
2026-01-20T23:03:00+00:00,SAT-52832,217.70513278629804,57.92036699878373,995.0605014375931,-3.6623535726486316,128271.11385440735,10.5,10500128271.113853,47.655,-122.3035,60.0,3.0
2026-01-20T23:03:01+00:00,SAT-52832,217.9114840407246,58.26705324762382,991.4079141411381,-3.627102198364135,127036.4616137989,10.5,10500127036.461615,47.655,-122.3035,60.0,3.0166666666666666
2026-01-20T23:03:02+00:00,SAT-52832,218.12401018624558,58.61568182067083,987.790484215303,-3.5914580525835405,125788.0528539753,10.5,10500125788.052855,47.655,-122.3035,60.0,3.033333333333333
2026-01-20T23:03:03+00:00,SAT-52832,218.3429598150174,58.966232059655994,984.208603384193,-3.5554192985275486,124525.82324315596,10.5,10500124525.823244,47.655,-122.3035,60.0,3.05
2026-01-20T23:03:04+00:00,SAT-52832,218.5685945730628,59.318681321467,980.6626652037949,-3.5189842163349767,123249.71254452725,10.5,10500123249.712545,47.655,-122.3035,60.0,3.066666666666667
2026-01-20T23:03:05+00:00,SAT-52832,218.8011899931775,59.673004869340396,977.15306494537,-3.482151174385572,121959.66361184613,10.5,10500121959.663612,47.655,-122.3035,60.0,3.0833333333333335
2026-01-20T23:03:06+00:00,SAT-52832,219.04103638670637,60.02917575355522,973.6801995074495,-3.444918713701209,120655.6253455272,10.5,10500120655.625345,47.655,-122.3035,60.0,3.1
2026-01-20T23:03:07+00:00,SAT-52832,219.2884398068861,60.38716469248168,970.2444672436515,-3.4072854434072424,119337.54903125697,10.5,10500119337.54903,47.655,-122.3035,60.0,3.1166666666666667
2026-01-20T23:03:08+00:00,SAT-52832,219.54372307609313,60.74693993410907,966.84626789476,-3.369250154570055,118005.39232706641,10.5,10500118005.392326,47.655,-122.3035,60.0,3.1333333333333333
2026-01-20T23:03:09+00:00,SAT-52832,219.807226898082,61.108467119651486,963.4860024072689,-3.3308117271495097,116659.11600441214,10.5,10500116659.116005,47.655,-122.3035,60.0,3.15
2026-01-20T23:03:10+00:00,SAT-52832,220.07931104643663,61.47170912695514,960.1640728447251,-3.2919692293740863,115298.68742871413,10.5,10500115298.68743,47.655,-122.3035,60.0,3.1666666666666665
2026-01-20T23:03:11+00:00,SAT-52832,220.3603556506692,61.836625913105415,956.8808821999626,-3.252721835346892,113924.07767356966,10.5,10500113924.077673,47.655,-122.3035,60.0,3.183333333333333
2026-01-20T23:03:12+00:00,SAT-52832,220.6507625728268,62.20317433576807,953.63683428951,-3.2130688917413783,112535.2638567194,10.5,10500112535.263857,47.655,-122.3035,60.0,3.2
2026-01-20T23:03:13+00:00,SAT-52832,220.9509568945781,62.57130796824315,950.43233358148,-3.173009902055926,111132.22858857652,10.5,10500111132.228588,47.655,-122.3035,60.0,3.216666666666667
2026-01-20T23:03:14+00:00,SAT-52832,221.2613885165601,62.94097689813889,947.2677850391628,-3.132544537743354,109714.9603620289,10.5,10500109714.960361,47.655,-122.3035,60.0,3.2333333333333334
2026-01-20T23:03:15+00:00,SAT-52832,221.5825338813842,63.31212751124085,944.1435939535202,-3.09167261309533,108283.45267278528,10.5,10500108283.452673,47.655,-122.3035,60.0,3.25
2026-01-20T23:03:16+00:00,SAT-52832,221.91489782615727,63.684702254756935,941.0601658007264,-3.0503941457628363,106837.70613905764,10.5,10500106837.706139,47.655,-122.3035,60.0,3.2666666666666666
2026-01-20T23:03:17+00:00,SAT-52832,222.25901558380903,64.05863938843515,938.0179060393523,-3.008709304587532,105377.72667439516,10.5,10500105377.726675,47.655,-122.3035,60.0,3.283333333333333
2026-01-20T23:03:18+00:00,SAT-52832,222.6154549324693,64.43387270834943,935.017219959577,-2.9666184784527054,103903.5278991355,10.5,10500103903.527899,47.655,-122.3035,60.0,3.3
2026-01-20T23:03:19+00:00,SAT-52832,222.98481851796586,64.81033125596213,932.0585124637335,-2.9241221876691803,102415.12803676465,10.5,10500102415.128036,47.655,-122.3035,60.0,3.316666666666667
2026-01-20T23:03:20+00:00,SAT-52832,223.36774634298922,65.18793899067671,929.1421879352314,-2.8812212055797324,100912.55417301788,10.5,10500100912.554173,47.655,-122.3035,60.0,3.3333333333333335
2026-01-20T23:03:21+00:00,SAT-52832,223.76491846153957,65.5666144498068,926.2686499861999,-2.8379164748951857,99395.83932561589,10.5,10500099395.839325,47.655,-122.3035,60.0,3.35
2026-01-20T23:03:22+00:00,SAT-52832,224.17705786653073,65.94627036736514,923.4383012885711,-2.7942091254812165,97865.02306723398,10.5,10500097865.023067,47.655,-122.3035,60.0,3.3666666666666667
2026-01-20T23:03:23+00:00,SAT-52832,224.60493359582293,66.32681326114326,920.6515433874245,-2.7501005434857713,96320.15394663664,10.5,10500096320.153946,47.655,-122.3035,60.0,3.3833333333333333
2026-01-20T23:03:24+00:00,SAT-52832,225.04936407928054,66.70814299211399,917.908776445388,-2.7055922817353455,94761.28635037618,10.5,10500094761.28635,47.655,-122.3035,60.0,3.4
2026-01-20T23:03:25+00:00,SAT-52832,225.51122071615112,67.09015227095755,915.210399076404,-2.6606861294556228,93188.48294470449,10.5,10500093188.482944,47.655,-122.3035,60.0,3.4166666666666665
2026-01-20T23:03:26+00:00,SAT-52832,225.99143171931036,67.4727261291167,912.5568081099601,-2.6153840884634127,91601.81384171391,10.5,10500091601.81384,47.655,-122.3035,60.0,3.433333333333333
2026-01-20T23:03:27+00:00,SAT-52832,226.4909862237073,67.85574133724042,909.948398379066,-2.5696884063030843,90001.35775991532,10.5,10500090001.35776,47.655,-122.3035,60.0,3.45
2026-01-20T23:03:28+00:00,SAT-52832,227.01093867866533,68.23906577418673,907.3855624751798,-2.5236015354673955,88387.20059597914,10.5,10500088387.200596,47.655,-122.3035,60.0,3.466666666666667
2026-01-20T23:03:29+00:00,SAT-52832,227.55241351697313,68.62255773044154,904.868690543807,-2.4771261816369505,86759.43711428517,10.5,10500086759.437115,47.655,-122.3035,60.0,3.4833333333333334
2026-01-20T23:03:30+00:00,SAT-52832,228.11661012093379,69.00606515318842,902.3981700319877,-2.4302652723481977,85118.16984954331,10.5,10500085118.16985,47.655,-122.3035,60.0,3.5
2026-01-20T23:03:31+00:00,SAT-52832,228.70480806713948,69.3894248149261,899.9743854670324,-2.3830219818657046,83463.50997792579,10.5,10500083463.509977,47.655,-122.3035,60.0,3.5166666666666666
2026-01-20T23:03:32+00:00,SAT-52832,229.31837265179718,69.77246140726541,897.5977182104516,-2.3353997303172944,81795.57728677616,10.5,10500081795.577288,47.655,-122.3035,60.0,3.533333333333333
2026-01-20T23:03:33+00:00,SAT-52832,229.95876067218222,70.15498654886935,895.2685462127487,-2.2874021909479945,80114.50042867303,10.5,10500080114.50043,47.655,-122.3035,60.0,3.55
2026-01-20T23:03:34+00:00,SAT-52832,230.62752643411895,70.53679770115757,892.9872437609765,-2.2390332549939176,78420.41569116504,10.5,10500078420.415691,47.655,-122.3035,60.0,3.566666666666667
2026-01-20T23:03:35+00:00,SAT-52832,231.32632792381816,70.91767697661271,890.7541812613292,-2.1902971018270114,76713.46945353648,10.5,10500076713.469454,47.655,-122.3035,60.0,3.5833333333333335
2026-01-20T23:03:36+00:00,SAT-52832,232.05693310515068,71.29738984910335,888.5697249517738,-2.1411981427689453,74993.81621893212,10.5,10500074993.81622,47.655,-122.3035,60.0,3.6
2026-01-20T23:03:37+00:00,SAT-52832,232.82122620896072,71.67568373699847,886.4342366707187,-2.0917410562259975,73261.61984492943,10.5,10500073261.619844,47.655,-122.3035,60.0,3.6166666666666667
2026-01-20T23:03:38+00:00,SAT-52832,233.6212139106214,72.05228646640647,884.3480735906428,-2.0419307574046184,71517.05248284964,10.5,10500071517.052483,47.655,-122.3035,60.0,3.6333333333333333
2026-01-20T23:03:39+00:00,SAT-52832,234.45903120043636,72.42690459591118,882.3115879819245,-1.9917724414143136,69760.29608740288,10.5,10500069760.296087,47.655,-122.3035,60.0,3.65
2026-01-20T23:03:40+00:00,SAT-52832,235.3369467479166,72.79922160974843,880.3251269336873,-1.9412715517636063,67991.5413132837,10.5,10500067991.541313,47.655,-122.3035,60.0,3.6666666666666665
2026-01-20T23:03:41+00:00,SAT-52832,236.25736744114093,73.16889596182604,878.3890321060618,-1.8904337733812908,66210.98727074567,10.5,10500066210.98727,47.655,-122.3035,60.0,3.683333333333333
2026-01-20T23:03:42+00:00,SAT-52832,237.22284173674177,73.535558973066,876.5036394894095,-1.8392650790742022,64418.84315274911,10.5,10500064418.843153,47.655,-122.3035,60.0,3.7
2026-01-20T23:03:43+00:00,SAT-52832,238.23606138348765,73.89881259509859,874.6692791172129,-1.7877716800412171,62615.326501752024,10.5,10500062615.326502,47.655,-122.3035,60.0,3.716666666666667
2026-01-20T23:03:44+00:00,SAT-52832,239.2998608946731,74.25822702985313,872.8862748283184,-1.7359600442819956,60800.66385446212,10.5,10500060800.663855,47.655,-122.3035,60.0,3.7333333333333334
2026-01-20T23:03:45+00:00,SAT-52832,240.41721408986567,74.61333823336477,871.1549440108212,-1.6838368994009516,58975.09084004372,10.5,10500058975.09084,47.655,-122.3035,60.0,3.75
2026-01-20T23:03:46+00:00,SAT-52832,241.5912268381556,74.96364532620544,869.4755973431519,-1.6314092258009238,57138.85194173131,10.5,10500057138.851942,47.655,-122.3035,60.0,3.7666666666666666
2026-01-20T23:03:47+00:00,SAT-52832,242.82512496575293,75.30860794663556,867.8485385419531,-1.5786842493117004,55292.200238649275,10.5,10500055292.20024,47.655,-122.3035,60.0,3.783333333333333
2026-01-20T23:03:48+00:00,SAT-52832,244.12223611138,75.64764360047458,866.2740641173062,-1.5256694536842195,53435.39784341174,10.5,10500053435.397844,47.655,-122.3035,60.0,3.8
2026-01-20T23:03:49+00:00,SAT-52832,245.48596414383167,75.98012508653888,864.7524631154986,-1.4723725570855342,51568.715078876696,10.5,10500051568.715078,47.655,-122.3035,60.0,3.816666666666667
2026-01-20T23:03:50+00:00,SAT-52832,246.9197545326317,76.30537808926623,863.284016885232,-1.4188015275443728,49692.43101911495,10.5,10500049692.431019,47.655,-122.3035,60.0,3.8333333333333335
2026-01-20T23:03:51+00:00,SAT-52832,248.4270489768159,76.62267907586674,861.8689988284276,-1.3649645701384099,47806.83304065409,10.5,10500047806.83304,47.655,-122.3035,60.0,3.85
2026-01-20T23:03:52+00:00,SAT-52832,250.01122745784974,76.931253655137,860.5076741638096,-1.3108701174434196,45912.216487967504,10.5,10500045912.216488,47.655,-122.3035,60.0,3.8666666666666667
2026-01-20T23:03:53+00:00,SAT-52832,251.67553592819348,77.23027560016767,859.2002997000127,-1.2565268353295218,44008.88487648338,10.5,10500044008.884876,47.655,-122.3035,60.0,3.8833333333333333
2026-01-20T23:03:54+00:00,SAT-52832,253.42299805245108,77.51886678092993,857.9471236029108,-1.2019436126577894,42097.149531716335,10.5,10500042097.149532,47.655,-122.3035,60.0,3.9
2026-01-20T23:03:55+00:00,SAT-52832,255.2563098030187,77.79609828629702,856.7483851732201,-1.1471295524903322,40177.32928140736,10.5,10500040177.32928,47.655,-122.3035,60.0,3.9166666666666665
2026-01-20T23:03:56+00:00,SAT-52832,257.177716455932,78.06099305497159,855.6043146328697,-1.0920939714843727,38249.75043430183,10.5,10500038249.750435,47.655,-122.3035,60.0,3.933333333333333
2026-01-20T23:03:57+00:00,SAT-52832,259.1888726605537,78.31253036165363,854.5151329119759,-1.0368463925976408,36314.746524661496,10.5,10500036314.746525,47.655,-122.3035,60.0,3.95
2026-01-20T23:03:58+00:00,SAT-52832,261.29068779319925,78.54965250736878,853.4810514430918,-0.9813965334313359,34372.65790398579,10.5,10500034372.657904,47.655,-122.3035,60.0,3.966666666666667
2026-01-20T23:03:59+00:00,SAT-52832,263.483160820483,78.77127404038555,852.502271967083,-0.9257543034779915,32423.831644620328,10.5,10500032423.831644,47.655,-122.3035,60.0,3.9833333333333334
2026-01-20T23:04:00+00:00,SAT-52832,265.7652113486399,78.97629377411388,851.5789863417477,-0.8699297907115862,30468.62107008594,10.5,10500030468.62107,47.655,-122.3035,60.0,4.0
2026-01-20T23:04:01+00:00,SAT-52832,268.1345161641548,79.16360975046982,850.7113763638113,-0.8139332653582829,28507.38588714587,10.5,10500028507.385887,47.655,-122.3035,60.0,4.016666666666667
2026-01-20T23:04:02+00:00,SAT-52832,270.58736325838237,79.33213713281691,849.8996135871606,-0.7577751527663846,26540.491235596855,10.5,10500026540.491236,47.655,-122.3035,60.0,4.033333333333333
2026-01-20T23:04:03+00:00,SAT-52832,273.1185373346556,79.48082877391543,849.143859168135,-0.7014660431274367,24568.30802874329,10.5,10500024568.30803,47.655,-122.3035,60.0,4.05
2026-01-20T23:04:04+00:00,SAT-52832,275.72125208372563,79.60869794330235,848.4442637011225,-0.6450166679024519,22591.21212774387,10.5,10500022591.212128,47.655,-122.3035,60.0,4.066666666666666
2026-01-20T23:04:05+00:00,SAT-52832,278.38714380266765,79.71484238275043,847.8009670776678,-0.5884379001254456,20609.584352242706,10.5,10500020609.584352,47.655,-122.3035,60.0,4.083333333333333
2026-01-20T23:04:06+00:00,SAT-52832,281.1063385138861,79.79846858093131,847.2140983452759,-0.5317407383407678,18623.809917786733,10.5,10500018623.809917,47.655,-122.3035,60.0,4.1
2026-01-20T23:04:07+00:00,SAT-52832,283.8675997313112,79.85891491871467,846.6837755822376,-0.4749362970917711,16634.278102698623,10.5,10500016634.278103,47.655,-122.3035,60.0,4.116666666666666
2026-01-20T23:04:08+00:00,SAT-52832,286.65855717111214,79.89567221719355,846.210105781938,-0.41803580057835443,14641.382025937162,10.5,10500014641.382027,47.655,-122.3035,60.0,4.133333333333334
2026-01-20T23:04:09+00:00,SAT-52832,289.4660084831987,79.90840024449666,845.7931847434945,-0.3610505659426316,12645.518061690636,10.5,10500012645.518063,47.655,-122.3035,60.0,4.15
2026-01-20T23:04:10+00:00,SAT-52832,292.2762776655937,79.89693893334527,845.433096979061,-0.30399199659664083,10647.085605685012,10.5,10500010647.085606,47.655,-122.3035,60.0,4.166666666666667
2026-01-20T23:04:11+00:00,SAT-52832,295.075606950006,79.86131342418997,845.1299156277886,-0.2468715703138665,8646.486658098644,10.5,10500008646.486658,47.655,-122.3035,60.0,4.183333333333334
2026-01-20T23:04:12+00:00,SAT-52832,297.85055454739404,79.8017325318699,844.8837023816624,-0.18970082466467658,6644.125313449694,10.5,10500006644.125313,47.655,-122.3035,60.0,4.2
2026-01-20T23:04:13+00:00,SAT-52832,300.5883698549175,79.71858077854849,844.6945074258634,-0.13249135125120506,4640.407558677321,10.5,10500004640.407558,47.655,-122.3035,60.0,4.216666666666667
2026-01-20T23:04:14+00:00,SAT-52832,303.2773208085931,79.61240465312964,844.5623693848821,-0.075254778264741,2635.7406622276685,10.5,10500002635.740662,47.655,-122.3035,60.0,4.233333333333333
2026-01-20T23:04:15+00:00,SAT-52832,305.90695386246006,79.48389418786512,844.4873152860262,-0.01800276213707549,630.5328816487192,10.5,10500000630.53288,47.655,-122.3035,60.0,4.25
2026-01-20T23:04:16+00:00,SAT-52832,308.468275267624,79.33386121435593,844.4693605312548,0.03925302473846921,-1374.8069664712068,10.5,10499998625.193033,47.655,-122.3035,60.0,4.266666666666667
2026-01-20T23:04:17+00:00,SAT-52832,310.9538506547059,79.16321576641599,844.5085088812607,0.09650090660949225,-3379.8699478946482,10.5,10499996620.130053,47.655,-122.3035,60.0,4.283333333333333
2026-01-20T23:04:18+00:00,SAT-52832,313.35782746907904,78.97294204317643,844.6047524521191,0.15372921560671665,-5384.2474044844885,10.5,10499994615.752596,47.655,-122.3035,60.0,4.3
2026-01-20T23:04:19+00:00,SAT-52832,315.6758906321503,78.76407515875988,844.7580717231509,0.2109263034737017,-7387.531365028094,10.5,10499992612.468636,47.655,-122.3035,60.0,4.316666666666666
2026-01-20T23:04:20+00:00,SAT-52832,317.905165333551,78.53767963731848,844.9684355564821,0.2680805542389213,-9389.314989067116,10.5,10499990610.68501,47.655,-122.3035,60.0,4.333333333333333
2026-01-20T23:04:21+00:00,SAT-52832,320.0440821356534,78.29483031738478,845.235801229243,0.32518039542937965,-11389.192959645723,10.5,10499988610.807041,47.655,-122.3035,60.0,4.35
2026-01-20T23:04:22+00:00,SAT-52832,322.09221907501126,78.03659604132903,845.5601144769512,0.3822143078613375,-13386.761826223272,10.5,10499986613.238174,47.655,-122.3035,60.0,4.366666666666666
2026-01-20T23:04:23+00:00,SAT-52832,324.0501336690248,77.7640262555161,845.9413095466582,0.4391708394463565,-15381.620488220364,10.5,10499984618.37951,47.655,-122.3035,60.0,4.383333333333334
2026-01-20T23:04:24+00:00,SAT-52832,325.9191952760907,77.47814044713992,846.379309263866,0.4960386182470838,-17373.370652287656,10.5,10499982626.629347,47.655,-122.3035,60.0,4.4
2026-01-20T23:04:25+00:00,SAT-52832,327.7014255266947,77.17992020929603,846.8740251124644,0.5528063575102798,-19361.61700858378,10.5,10499980638.382992,47.655,-122.3035,60.0,4.416666666666667
2026-01-20T23:04:26+00:00,SAT-52832,329.39935198619,76.87030364347076,847.425357319688,0.6094628728981359,-21345.96783428897,10.5,10499978654.032166,47.655,-122.3035,60.0,4.433333333333334
2026-01-20T23:04:27+00:00,SAT-52832,331.0158780846521,76.55018175615221,848.0331949582585,0.6659970871267968,-23326.035156065755,10.5,10499976673.964844,47.655,-122.3035,60.0,4.45
2026-01-20T23:04:28+00:00,SAT-52832,332.554170511199,76.22039651378064,848.697416053153,0.7223980482657022,-25301.43539097929,10.5,10499974698.56461,47.655,-122.3035,60.0,4.466666666666667
2026-01-20T23:04:29+00:00,SAT-52832,334.0175640629198,75.88174022233514,849.4178877066233,0.7786549364262675,-27271.789580763263,10.5,10499972728.210419,47.655,-122.3035,60.0,4.483333333333333
2026-01-20T23:04:30+00:00,SAT-52832,335.4094829898784,75.53495594185365,850.1944662298857,0.8347570620678604,-29236.723332488018,10.5,10499970763.276667,47.655,-122.3035,60.0,4.5
2026-01-20T23:04:31+00:00,SAT-52832,336.7333773699017,75.18073868079092,851.0269972731214,0.8906938987638724,-31195.86796616698,10.5,10499968804.132034,47.655,-122.3035,60.0,4.516666666666667
2026-01-20T23:04:32+00:00,SAT-52832,337.99267283538853,74.81973713784377,851.9153159881553,0.9464550725630276,-33148.86014214471,10.5,10499966851.139858,47.655,-122.3035,60.0,4.533333333333333
2026-01-20T23:04:33+00:00,SAT-52832,339.19073175715437,74.45255583165114,852.8592471805248,1.002030383370824,-35095.34260996536,10.5,10499964904.65739,47.655,-122.3035,60.0,4.55
2026-01-20T23:04:34+00:00,SAT-52832,340.33082417008427,74.07975746123324,853.8586054828733,1.057409799669129,-37034.96402343068,10.5,10499962965.035976,47.655,-122.3035,60.0,4.566666666666666
2026-01-20T23:04:35+00:00,SAT-52832,341.4161067571726,73.70186539605551,854.9131955230765,1.1125834826756775,-38967.37978676773,10.5,10499961032.620213,47.655,-122.3035,60.0,4.583333333333333
2026-01-20T23:04:36+00:00,SAT-52832,342.44960845103765,73.3193661992344,856.0228121164652,1.1675417892344453,-40892.25215586203,10.5,10499959107.747845,47.655,-122.3035,60.0,4.6
2026-01-20T23:04:37+00:00,SAT-52832,343.4342213343077,72.93271212892199,857.1872404609283,1.222275256443016,-42809.24969984291,10.5,10499957190.7503,47.655,-122.3035,60.0,4.616666666666666
2026-01-20T23:04:38+00:00,SAT-52832,344.3726957249631,72.54232357750625,858.4062563166874,1.2767746600059955,-44718.049344866944,10.5,10499955281.950655,47.655,-122.3035,60.0,4.633333333333334
2026-01-20T23:04:39+00:00,SAT-52832,345.2676385753478,72.14859139383658,859.6796262442667,1.3310309624429686,-46618.334560141506,10.5,10499953381.66544,47.655,-122.3035,60.0,4.65
2026-01-20T23:04:40+00:00,SAT-52832,346.1215143261891,71.75187910352284,861.00710779081,1.385035357857961,-48509.79692594065,10.5,10499951490.203074,47.655,-122.3035,60.0,4.666666666666667
2026-01-20T23:04:41+00:00,SAT-52832,346.93664766238714,71.35252498468765,862.388449721047,1.4387792643217336,-50392.1358668009,10.5,10499949607.864134,47.655,-122.3035,60.0,4.683333333333334
2026-01-20T23:04:42+00:00,SAT-52832,347.71522761990167,70.9508440103618,863.8233922406638,1.4922543264525205,-52265.0587419096,10.5,10499947734.941257,47.655,-122.3035,60.0,4.7
2026-01-20T23:04:43+00:00,SAT-52832,348.45931264618724,70.54712965325169,865.3116672222458,1.545452425998818,-54128.2812157589,10.5,10499945871.718784,47.655,-122.3035,60.0,4.716666666666667
2026-01-20T23:04:44+00:00,SAT-52832,349.1708362965854,70.14165555320339,866.8529984417753,1.5983656900199446,-55981.527544663644,10.5,10499944018.472456,47.655,-122.3035,60.0,4.733333333333333
2026-01-20T23:04:45+00:00,SAT-52832,349.8516133128541,69.73467705315765,868.4471018232884,1.6509864711788005,-57824.529886530385,10.5,10499942175.470114,47.655,-122.3035,60.0,4.75
2026-01-20T23:04:46+00:00,SAT-52832,350.5033458794521,69.32643261664583,870.0936856638775,1.7033073931713814,-59657.02989199116,10.5,10499940342.970108,47.655,-122.3035,60.0,4.766666666666667
2026-01-20T23:04:47+00:00,SAT-52832,351.1276299373306,68.91714511788477,871.7924509040005,1.7553213068177316,-61478.777166522916,10.5,10499938521.222834,47.655,-122.3035,60.0,4.783333333333333
2026-01-20T23:04:48+00:00,SAT-52832,351.725961409099,68.50702303422024,873.5430913539999,1.8070213334630245,-63289.530790536955,10.5,10499936710.46921,47.655,-122.3035,60.0,4.8
2026-01-20T23:04:49+00:00,SAT-52832,352.29974228968996,68.09626152750712,875.345293963907,1.85840082235279,-65089.05782647905,10.5,10499934910.942173,47.655,-122.3035,60.0,4.816666666666666
2026-01-20T23:04:50+00:00,SAT-52832,352.8502865153956,67.6850434422471,877.1987390507336,1.9094534137917958,-66877.13553092071,10.5,10499933122.86447,47.655,-122.3035,60.0,4.833333333333333
2026-01-20T23:04:51+00:00,SAT-52832,353.3788256067928,67.27354020416708,879.1031005887553,1.9601729705515356,-68653.54895215918,10.5,10499931346.451048,47.655,-122.3035,60.0,4.85
2026-01-20T23:04:52+00:00,SAT-52832,353.8865140210887,66.86191265556467,881.0580464313854,2.0105536285829357,-70418.09270639098,10.5,10499929581.907293,47.655,-122.3035,60.0,4.866666666666666
2026-01-20T23:04:53+00:00,SAT-52832,354.3744342366691,66.4503118078043,883.0632385836254,2.060589785921282,-72170.57058911555,10.5,10499927829.42941,47.655,-122.3035,60.0,4.883333333333334
2026-01-20T23:04:54+00:00,SAT-52832,354.8436015453808,66.038879531119,885.1183334634509,2.1102760967378917,-73910.7953667996,10.5,10499926089.204634,47.655,-122.3035,60.0,4.9
2026-01-20T23:04:55+00:00,SAT-52832,355.29496855631834,65.62774918606839,887.2229821572641,2.1596074598961437,-75638.58837606084,10.5,10499924361.411623,47.655,-122.3035,60.0,4.916666666666667
2026-01-20T23:04:56+00:00,SAT-52832,355.7294294160325,65.21704620291179,889.3768306639339,2.208579039425115,-77353.78024074144,10.5,10499922646.219759,47.655,-122.3035,60.0,4.933333333333334
2026-01-20T23:04:57+00:00,SAT-52832,356.14782376055797,64.80688860766082,891.5795201592539,2.2571862692042224,-79056.21103598388,10.5,10499920943.788963,47.655,-122.3035,60.0,4.95
2026-01-20T23:04:58+00:00,SAT-52832,356.5509404057311,64.39738750282633,893.8306872650735,2.305424803714439,-80745.72856333034,10.5,10499919254.271437,47.655,-122.3035,60.0,4.966666666666667
2026-01-20T23:04:59+00:00,SAT-52832,356.9395207792661,63.98864751635502,896.1299642693114,2.3532905875156245,-82422.19078411256,10.5,10499917577.809216,47.655,-122.3035,60.0,4.983333333333333
2026-01-20T23:05:00+00:00,SAT-52832,357.31426212894524,63.580767201150394,898.4769794152604,2.400779781083279,-84085.46322194146,10.5,10499915914.536777,47.655,-122.3035,60.0,5.0
2026-01-20T23:05:01+00:00,SAT-52832,357.675820495283,63.17383941421435,900.8713571169274,2.4478888236472547,-85735.42116358437,10.5,10499914264.578836,47.655,-122.3035,60.0,5.016666666666667
2026-01-20T23:05:02+00:00,SAT-52832,358.0248134852592,62.767951654425666,903.312718237045,2.4946143723170637,-87371.94752687599,10.5,10499912628.052473,47.655,-122.3035,60.0,5.033333333333333
2026-01-20T23:05:03+00:00,SAT-52832,358.36182284085356,62.363186382977055,905.8006803043692,2.54095335700849,-88994.93478448062,10.5,10499911005.065216,47.655,-122.3035,60.0,5.05
2026-01-20T23:05:04+00:00,SAT-52832,358.6873968326619,61.95962130960029,908.3348577857589,2.586902911311345,-90604.28254258858,10.5,10499909395.717457,47.655,-122.3035,60.0,5.066666666666666
2026-01-20T23:05:05+00:00,SAT-52832,359.00205247387197,61.55732966701534,910.9148622893068,2.632460419775759,-92199.8991970821,10.5,10499907800.100803,47.655,-122.3035,60.0,5.083333333333333
2026-01-20T23:05:06+00:00,SAT-52832,359.3062775823437,61.156380456884996,913.5403028146299,2.677623528920349,-93781.70231908793,10.5,10499906218.297682,47.655,-122.3035,60.0,5.1
2026-01-20T23:05:07+00:00,SAT-52832,359.60053269613036,60.75683867547507,916.2107860141398,2.7223900563833636,-95349.6154730661,10.5,10499904650.384527,47.655,-122.3035,60.0,5.116666666666666
2026-01-20T23:05:08+00:00,SAT-52832,359.8852528424121,60.358765535573525,918.9259163637062,2.7667580871080943,-96903.57158563005,10.5,10499903096.428415,47.655,-122.3035,60.0,5.133333333333334
2026-01-20T23:05:09+00:00,SAT-52832,0.16084919091553618,59.962218658128734,921.6852964292485,2.8107259078350086,-98443.51065118385,10.5,10499901556.48935,47.655,-122.3035,60.0,5.15
2026-01-20T23:05:10+00:00,SAT-52832,0.4277105828356009,59.567252259250445,924.488527067996,2.8542920351312073,-99969.38071363248,10.5,10499900030.619286,47.655,-122.3035,60.0,5.166666666666667
2026-01-20T23:05:11+00:00,SAT-52832,0.6862049542914268,59.17391731993022,927.3352076577002,2.8974551721679873,-101481.13635254916,10.5,10499898518.863647,47.655,-122.3035,60.0,5.183333333333334
2026-01-20T23:05:12+00:00,SAT-52832,0.9366806554305017,58.782261749646324,930.2249362827424,2.940214252718952,-102978.74022417534,10.5,10499897021.259775,47.655,-122.3035,60.0,5.2
2026-01-20T23:05:13+00:00,SAT-52832,1.1794676807920486,58.3923305327997,933.1573099641207,2.982568400550329,-104462.16163909785,10.5,10499895537.838362,47.655,-122.3035,60.0,5.216666666666667
2026-01-20T23:05:14+00:00,SAT-52832,1.4148788101245646,58.00416587056137,936.1319248489363,3.024516937444361,-105931.37684326198,10.5,10499894068.623158,47.655,-122.3035,60.0,5.233333333333333
2026-01-20T23:05:15+00:00,SAT-52832,1.6432106706882492,57.61780731215013,939.1483764078808,3.0660593777175245,-107386.3688259763,10.5,10499892613.631174,47.655,-122.3035,60.0,5.25
2026-01-20T23:05:16+00:00,SAT-52832,1.8647447256423515,57.233291878257575,942.2062596272577,3.1071954191792948,-108827.12700325034,10.5,10499891172.872997,47.655,-122.3035,60.0,5.266666666666667
2026-01-20T23:05:17+00:00,SAT-52832,2.079748193914953,56.85065417760815,945.3051691919859,3.147924949516153,-110253.64744138962,10.5,10499889746.352558,47.655,-122.3035,60.0,5.283333333333333
2026-01-20T23:05:18+00:00,SAT-52832,2.288474907685267,56.46992651541905,948.44469967497,3.1882480326045894,-111665.93237761901,10.5,10499888334.067623,47.655,-122.3035,60.0,5.3
2026-01-20T23:05:19+00:00,SAT-52832,2.4911661107743317,56.09113899676404,951.624445712821,3.228164876284382,-113063.9890913667,10.5,10499886936.010908,47.655,-122.3035,60.0,5.316666666666666
2026-01-20T23:05:20+00:00,SAT-52832,2.688051201299484,55.714319627377854,954.8440021494353,3.2676758946119593,-114447.83208464028,10.5,10499885552.167915,47.655,-122.3035,60.0,5.333333333333333
2026-01-20T23:05:21+00:00,SAT-52832,2.879348428508925,55.33949440126214,958.1029642416617,3.3067816415843505,-115817.48076075909,10.5,10499884182.51924,47.655,-122.3035,60.0,5.35
2026-01-20T23:05:22+00:00,SAT-52832,3.0652655392381774,54.96668739074919,961.4009277988683,3.345482816298758,-117172.95960506437,10.5,10499882827.040396,47.655,-122.3035,60.0,5.366666666666666
2026-01-20T23:05:23+00:00,SAT-52832,3.246000382275614,54.59592083065887,964.737489327657,3.3837802978823777,-118514.2994083092,10.5,10499881485.700592,47.655,-122.3035,60.0,5.383333333333334
2026-01-20T23:05:24+00:00,SAT-52832,3.4217414749696995,54.227215193972796,968.1122462114116,3.4216750805708767,-119841.53499283228,10.5,10499880158.465008,47.655,-122.3035,60.0,5.4
2026-01-20T23:05:25+00:00,SAT-52832,3.592668529656745,53.86058927022978,971.524796825101,3.459168315893944,-121154.70669007428,10.5,10499878845.29331,47.655,-122.3035,60.0,5.416666666666667
2026-01-20T23:05:26+00:00,SAT-52832,3.7589529483713786,53.49606023515718,974.9747406921526,3.496261277843174,-122453.85912060979,10.5,10499877546.140879,47.655,-122.3035,60.0,5.433333333333334
2026-01-20T23:05:27+00:00,SAT-52832,3.9207582841899864,53.133643720184295,978.4616786065882,3.532955372208443,-123739.04152114676,10.5,10499876260.958479,47.655,-122.3035,60.0,5.45
2026-01-20T23:05:28+00:00,SAT-52832,4.078240673815212,52.77335387728627,981.9852127644707,3.569252150392977,-125010.30822838865,10.5,10499874989.691772,47.655,-122.3035,60.0,5.466666666666667
2026-01-20T23:05:29+00:00,SAT-52832,4.231549243475669,52.41520343910665,985.5449469091294,3.6051532460508,-126267.71645980967,10.5,10499873732.28354,47.655,-122.3035,60.0,5.483333333333333
2026-01-20T23:05:30+00:00,SAT-52832,4.380826486781499,52.059203782232004,989.1404864131907,3.640660427742744,-127511.32815789118,10.5,10499872488.671843,47.655,-122.3035,60.0,5.5
2026-01-20T23:05:31+00:00,SAT-52832,4.526208621449979,51.70536498207386,992.7714384131261,3.675775576597144,-128741.20920770467,10.5,10499871258.790792,47.655,-122.3035,60.0,5.516666666666667
2026-01-20T23:05:32+00:00,SAT-52832,4.667825923147557,51.353695867219095,996.437411921519,3.7105006651213954,-129957.42869480274,10.5,10499870042.571304,47.655,-122.3035,60.0,5.533333333333333
2026-01-20T23:05:33+00:00,SAT-52832,4.805803038170465,51.00420407306371,1000.1380179182001,3.744837784204932,-131160.05985097794,10.5,10499868839.94015,47.655,-122.3035,60.0,5.55
2026-01-20T23:05:34+00:00,SAT-52832,4.9402592782684955,50.656896090331635,1003.8728694683138,3.778789089683869,-132349.17818273007,10.5,10499867650.821817,47.655,-122.3035,60.0,5.566666666666666
2026-01-20T23:05:35+00:00,SAT-52832,5.071308895858263,50.311777316114444,1007.6415817870918,3.8123568475298617,-133524.86305397164,10.5,10499866475.136946,47.655,-122.3035,60.0,5.583333333333333
2026-01-20T23:05:36+00:00,SAT-52832,5.1990613444613745,49.96885209842146,1011.443772349695,3.845543414515651,-134687.19700885317,10.5,10499865312.802992,47.655,-122.3035,60.0,5.6
2026-01-20T23:05:37+00:00,SAT-52832,5.323621523119485,49.62812378033647,1015.2790609817719,3.8783512090870826,-135836.26475157813,10.5,10499864163.735249,47.655,-122.3035,60.0,5.616666666666666
2026-01-20T23:05:38+00:00,SAT-52832,5.445090005539369,49.28959474467928,1019.1470699209681,3.910782735586765,-136972.15399481807,10.5,10499863027.846004,47.655,-122.3035,60.0,5.633333333333334
2026-01-20T23:05:39+00:00,SAT-52832,5.5635632567410225,48.95326645447002,1023.0474239025933,3.9428405775554816,-138094.9552250996,10.5,10499861905.044775,47.655,-122.3035,60.0,5.65
2026-01-20T23:05:40+00:00,SAT-52832,5.679133837009944,48.619139492144484,1026.9797502386086,3.974527385823838,-139204.76128572354,10.5,10499860795.238714,47.655,-122.3035,60.0,5.666666666666667
2026-01-20T23:05:41+00:00,SAT-52832,5.7918905938328535,48.287213597964744,1030.943678884737,4.0058458344567205,-140301.66583375345,10.5,10499859698.334166,47.655,-122.3035,60.0,5.683333333333334
2026-01-20T23:05:42+00:00,SAT-52832,5.9019188417599695,47.957487710297876,1034.9388424636352,4.036798735702194,-141385.76736601238,10.5,10499858614.232634,47.655,-122.3035,60.0,5.7
2026-01-20T23:05:43+00:00,SAT-52832,6.0093005353112385,47.62995999475485,1038.9648764027088,4.067388879036139,-142457.16358174515,10.5,10499857542.836418,47.655,-122.3035,60.0,5.716666666666667
2026-01-20T23:05:44+00:00,SAT-52832,6.114114427885644,47.30462788497225,1043.0214189114008,4.097619171139823,-143515.95628522497,10.5,10499856484.043715,47.655,-122.3035,60.0,5.733333333333333
2026-01-20T23:05:45+00:00,SAT-52832,6.216436225590494,46.981488110453874,1047.1081110980842,4.127492501395606,-144562.24667484418,10.5,10499855437.753325,47.655,-122.3035,60.0,5.75
2026-01-20T23:05:46+00:00,SAT-52832,6.316338729190093,46.66053673370855,1051.2245969528094,4.157011866607237,-145596.13971134654,10.5,10499854403.860289,47.655,-122.3035,60.0,5.766666666666667
2026-01-20T23:05:47+00:00,SAT-52832,6.413891971427573,46.34176917612273,1055.370523454439,4.186180262506256,-146617.74031792252,10.5,10499853382.259682,47.655,-122.3035,60.0,5.783333333333333
2026-01-20T23:05:48+00:00,SAT-52832,6.5091633443158035,46.0251802509738,1059.5455405695786,4.215000744507877,-147627.15550813728,10.5,10499852372.844492,47.655,-122.3035,60.0,5.8
2026-01-20T23:05:49+00:00,SAT-52832,6.602217721005334,45.71076419043199,1063.7493013121011,4.243476376950763,-148624.49260809296,10.5,10499851375.507391,47.655,-122.3035,60.0,5.816666666666666
2026-01-20T23:05:50+00:00,SAT-52832,6.693117570090456,45.39851467511507,1067.981461752047,4.271610302994017,-149609.8617045169,10.5,10499850390.138296,47.655,-122.3035,60.0,5.833333333333333
2026-01-20T23:05:51+00:00,SAT-52832,6.78192306533777,45.08842485730582,1072.2416810942327,4.299405658699456,-150583.37263555938,10.5,10499849416.627365,47.655,-122.3035,60.0,5.85
2026-01-20T23:05:52+00:00,SAT-52832,6.868692187857184,44.78048738936027,1076.5296216711756,4.3268655813058015,-151545.13528059106,10.5,10499848454.86472,47.655,-122.3035,60.0,5.866666666666666
2026-01-20T23:05:53+00:00,SAT-52832,6.9534808232289365,44.47469445018201,1080.8449489442646,4.353993295399891,-152495.26257828294,10.5,10499847504.737421,47.655,-122.3035,60.0,5.883333333333334
2026-01-20T23:05:54+00:00,SAT-52832,7.036342855243621,44.17103776464489,1085.187331590877,4.380792007560303,-153433.86683658062,10.5,10499846566.133163,47.655,-122.3035,60.0,5.9
2026-01-20T23:05:55+00:00,SAT-52832,7.117330252821197,43.86950862942626,1089.556441486417,4.407264926457319,-154361.06043669002,10.5,10499845638.939564,47.655,-122.3035,60.0,5.916666666666667
2026-01-20T23:05:56+00:00,SAT-52832,7.1964931529346945,43.570097936313246,1093.9519537064036,4.433415309203844,-155276.95745648263,10.5,10499844723.042543,47.655,-122.3035,60.0,5.933333333333334
2026-01-20T23:05:57+00:00,SAT-52832,7.27387994017262,43.27279619141934,1098.373546574783,4.4592464069706725,-156181.6717657122,10.5,10499843818.328234,47.655,-122.3035,60.0,5.95
2026-01-20T23:05:58+00:00,SAT-52832,7.349537321352136,42.977593537197734,1102.8209016580017,4.484761478830149,-157075.31751087803,10.5,10499842924.68249,47.655,-122.3035,60.0,5.966666666666667
2026-01-20T23:05:59+00:00,SAT-52832,7.423510396697379,42.68447977254601,1107.2937037728882,4.509963804984362,-157958.00957853248,10.5,10499842041.990421,47.655,-122.3035,60.0,5.983333333333333
2026-01-20T23:06:00+00:00,SAT-52832,7.495842727684618,42.39344437126226,1111.7916410077262,4.534856665984671,-158829.86286746096,10.5,10499841170.137133,47.655,-122.3035,60.0,6.0
2026-01-20T23:06:01+00:00,SAT-52832,7.566576401246429,42.10447650098403,1116.3144047226015,4.559443322474713,-159690.99157919604,10.5,10499840309.00842,47.655,-122.3035,60.0,6.016666666666667
2026-01-20T23:06:02+00:00,SAT-52832,7.63575209056303,41.817565042586864,1120.8616895295495,4.583727071169014,-160541.5111786256,10.5,10499839458.488821,47.655,-122.3035,60.0,6.033333333333333
2026-01-20T23:06:03+00:00,SAT-52832,7.703409113761021,41.53269860526426,1125.433193328529,4.607711193596628,-161381.53659877792,10.5,10499838618.463402,47.655,-122.3035,60.0,6.05
2026-01-20T23:06:04+00:00,SAT-52832,7.769585489011321,41.249865544143006,1130.0286172922758,4.631398954839084,-162211.18219661948,10.5,10499837788.817802,47.655,-122.3035,60.0,6.066666666666666
2026-01-20T23:06:05+00:00,SAT-52832,7.834317987040055,40.96905397713494,1134.647665849902,4.654793641797574,-163030.5630933335,10.5,10499836969.436907,47.655,-122.3035,60.0,6.083333333333333
2026-01-20T23:06:06+00:00,SAT-52832,7.897642181656821,40.69025179884896,1139.290046708655,4.677898521583588,-163839.79371698425,10.5,10499836160.206284,47.655,-122.3035,60.0,6.1
2026-01-20T23:06:07+00:00,SAT-52832,7.959592497360142,40.41344669629833,1143.955470834181,4.700716843287141,-164638.98786444782,10.5,10499835361.012136,47.655,-122.3035,60.0,6.116666666666666
2026-01-20T23:06:08+00:00,SAT-52832,8.020202254745739,40.1386261638545,1148.6436524325525,4.723251869770502,-165428.2598149626,10.5,10499834571.740185,47.655,-122.3035,60.0,6.133333333333334
