satellites_20260120_184412/SAT-56487.csv

timestamp,satellite,azimuth_deg,elevation_deg,distance_km,relative_velocity_kms,doppler_shift_hz,tx_freq_ghz,rx_freq_hz,ue_lat,ue_lon,ue_alt_m,time_minutes
2026-01-20T23:06:04+00:00,SAT-56487,264.2921784116885,40.0118866054604,2840.022042457971,-4.657263747709328,163117.07665090074,10.5,10500163117.07665,47.655,-122.3035,60.0,6.066666666666666
2026-01-20T23:06:05+00:00,SAT-56487,264.4127341878966,40.0783700612747,2835.377198080256,-4.649352956547584,162840.00728180303,10.5,10500162840.007282,47.655,-122.3035,60.0,6.083333333333333
2026-01-20T23:06:06+00:00,SAT-56487,264.5339705892965,40.144797601129895,2830.7402433982593,-4.6413978056169904,162561.38424595862,10.5,10500162561.384247,47.655,-122.3035,60.0,6.1
2026-01-20T23:06:07+00:00,SAT-56487,264.65589136296387,40.211167254010626,2826.1112226534574,-4.633398095684728,162281.2005653913,10.5,10500162281.200565,47.655,-122.3035,60.0,6.116666666666666
2026-01-20T23:06:08+00:00,SAT-56487,264.7785002641713,40.27747702301125,2821.4901802860277,-4.625353618502661,161999.44894637057,10.5,10500161999.448946,47.655,-122.3035,60.0,6.133333333333334
2026-01-20T23:06:09+00:00,SAT-56487,264.90180105574416,40.3437248849703,2816.8771609438413,-4.617264134401972,161716.12099468062,10.5,10500161716.120995,47.655,-122.3035,60.0,6.15
2026-01-20T23:06:10+00:00,SAT-56487,265.0257975068139,40.40990878978469,2812.2722095137974,-4.609129470089377,161431.2106408576,10.5,10500161431.21064,47.655,-122.3035,60.0,6.166666666666667
2026-01-20T23:06:11+00:00,SAT-56487,265.1504933942546,40.47602666112912,2807.675371055628,-4.600949396771448,161144.7098715879,10.5,10500161144.709871,47.655,-122.3035,60.0,6.183333333333334
2026-01-20T23:06:12+00:00,SAT-56487,265.2758925007314,40.542076395423095,2803.0866908572484,-4.592723736112347,160856.6124407961,10.5,10500160856.61244,47.655,-122.3035,60.0,6.2
2026-01-20T23:06:13+00:00,SAT-56487,265.4019986157026,40.60805586232059,2798.5062143844325,-4.58445222747563,160566.90921989144,10.5,10500160566.90922,47.655,-122.3035,60.0,6.216666666666667
2026-01-20T23:06:14+00:00,SAT-56487,265.52881553264245,40.673962903290665,2793.9339873628965,-4.5761346995622665,160275.59420925725,10.5,10500160275.59421,47.655,-122.3035,60.0,6.233333333333333
2026-01-20T23:06:15+00:00,SAT-56487,265.6563470511285,40.739795332668585,2789.3700556892,-4.5677709300383045,159982.6596218181,10.5,10500159982.659622,47.655,-122.3035,60.0,6.25
2026-01-20T23:06:16+00:00,SAT-56487,265.7845969749402,40.80555093668526,2784.8144654816415,-4.559360715734255,159688.09834171904,10.5,10500159688.098341,47.655,-122.3035,60.0,6.266666666666667
2026-01-20T23:06:17+00:00,SAT-56487,265.91356911211824,40.87122747350833,2780.267263061149,-4.550903825913765,159391.902287597,10.5,10500159391.902288,47.655,-122.3035,60.0,6.283333333333333
2026-01-20T23:06:18+00:00,SAT-56487,266.04326727367845,40.93682267260896,2775.728494978771,-4.542400056698378,159094.06431876606,10.5,10500159094.06432,47.655,-122.3035,60.0,6.3
2026-01-20T23:06:19+00:00,SAT-56487,266.17369527387183,41.002334234914805,2771.1982079888908,-4.533849215636449,158794.57769475548,10.5,10500158794.577694,47.655,-122.3035,60.0,6.316666666666666
2026-01-20T23:06:20+00:00,SAT-56487,266.3048569300445,41.06775983274283,2766.6764490378296,-4.525251070904039,158493.4342961103,10.5,10500158493.434296,47.655,-122.3035,60.0,6.333333333333333
2026-01-20T23:06:21+00:00,SAT-56487,266.4367560609002,41.13309710899402,2762.1632653031143,-4.51660539886666,158190.62629020485,10.5,10500158190.62629,47.655,-122.3035,60.0,6.35
2026-01-20T23:06:22+00:00,SAT-56487,266.56939648620323,41.19834367703972,2757.6587041853113,-4.507912017348364,157886.14729646672,10.5,10500157886.147297,47.655,-122.3035,60.0,6.366666666666666
2026-01-20T23:06:23+00:00,SAT-56487,266.7027820274634,41.26349712108951,2753.162813266676,-4.499170694406288,157579.98919127588,10.5,10500157579.989191,47.655,-122.3035,60.0,6.383333333333334
2026-01-20T23:06:24+00:00,SAT-56487,266.836916505865,41.328554995239585,2748.675640360788,-4.490381220429761,157272.14463317985,10.5,10500157272.144632,47.655,-122.3035,60.0,6.4
2026-01-20T23:06:25+00:00,SAT-56487,266.97180374232073,41.39351482356317,2744.1972334902794,-4.481543386140492,156962.60629236768,10.5,10500156962.606293,47.655,-122.3035,60.0,6.416666666666667
2026-01-20T23:06:26+00:00,SAT-56487,267.1074475569085,41.45837409988851,2739.727640886502,-4.4726569624975525,156651.36614685718,10.5,10500156651.366146,47.655,-122.3035,60.0,6.433333333333334
2026-01-20T23:06:27+00:00,SAT-56487,267.2438517675845,41.52313028728087,2735.2669110092374,-4.463721758866183,156338.4175198127,10.5,10500156338.41752,47.655,-122.3035,60.0,6.45
2026-01-20T23:06:28+00:00,SAT-56487,267.38102019078895,41.587780818375236,2730.815092508395,-4.454737549649659,156023.75250988273,10.5,10500156023.75251,47.655,-122.3035,60.0,6.466666666666667
2026-01-20T23:06:29+00:00,SAT-56487,267.5189566396518,41.65232309463955,2726.372234258878,-4.445704106067263,155707.36310419877,10.5,10500155707.363104,47.655,-122.3035,60.0,6.483333333333333
2026-01-20T23:06:30+00:00,SAT-56487,267.657664923219,41.71675448610692,2721.9383853637605,-4.436621247756373,155389.24298569883,10.5,10500155389.242985,47.655,-122.3035,60.0,6.5
2026-01-20T23:06:31+00:00,SAT-56487,267.79714884731686,41.781072331853856,2717.513595105998,-4.427488734155228,155069.3837288925,10.5,10500155069.383728,47.655,-122.3035,60.0,6.516666666666667
2026-01-20T23:06:32+00:00,SAT-56487,267.9374122118992,41.845273938904555,2713.097913008467,-4.4183063621644685,154747.77822038112,10.5,10500154747.778221,47.655,-122.3035,60.0,6.533333333333333
2026-01-20T23:06:33+00:00,SAT-56487,268.07845881151854,41.90935658255632,2708.6913887966016,-4.409073898841566,154424.41830153193,10.5,10500154424.4183,47.655,-122.3035,60.0,6.55
2026-01-20T23:06:34+00:00,SAT-56487,268.2202924336117,41.97331750572707,2704.294072428157,-4.399791163342105,154099.29763840855,10.5,10500154099.297638,47.655,-122.3035,60.0,6.566666666666666
2026-01-20T23:06:35+00:00,SAT-56487,268.3629168594502,42.037153919498664,2699.9060140412507,-4.390457907775795,153772.4075488445,10.5,10500153772.407549,47.655,-122.3035,60.0,6.583333333333333
2026-01-20T23:06:36+00:00,SAT-56487,268.5063358611351,42.10086300192799,2695.5272640212283,-4.381073947366124,153443.74156118467,10.5,10500153443.741562,47.655,-122.3035,60.0,6.6
2026-01-20T23:06:37+00:00,SAT-56487,268.6505532028991,42.164441898753374,2691.157872937722,-4.371639041778508,153113.29125789527,10.5,10500153113.291258,47.655,-122.3035,60.0,6.616666666666666
2026-01-20T23:06:38+00:00,SAT-56487,268.7955726384102,42.2278877223783,2686.797891600055,-4.362152995153686,152781.04977915657,10.5,10500152781.04978,47.655,-122.3035,60.0,6.633333333333334
2026-01-20T23:06:39+00:00,SAT-56487,268.9413979114431,42.29119755231283,2682.447371012888,-4.352615574758005,152447.00897365154,10.5,10500152447.008974,47.655,-122.3035,60.0,6.65
2026-01-20T23:06:40+00:00,SAT-56487,269.0880327537541,42.35436843443389,2678.1063624129965,-4.343026592213202,152111.1622435766,10.5,10500152111.162243,47.655,-122.3035,60.0,6.666666666666667
2026-01-20T23:06:41+00:00,SAT-56487,269.2354808857343,42.417397381430696,2673.774917225029,-4.3333858038345054,151773.5010540602,10.5,10500151773.501055,47.655,-122.3035,60.0,6.683333333333334
2026-01-20T23:06:42+00:00,SAT-56487,269.3837460135808,42.48028137180221,2669.4530871166717,-4.323693025244863,151434.01894743816,10.5,10500151434.018948,47.655,-122.3035,60.0,6.7
2026-01-20T23:06:43+00:00,SAT-56487,269.53283183046335,42.543017350528366,2665.140923939494,-4.313948013201656,151092.707404325,10.5,10500151092.707405,47.655,-122.3035,60.0,6.716666666666667
2026-01-20T23:06:44+00:00,SAT-56487,269.682742013497,42.60560222802078,2660.8384797876606,-4.304150579590895,150749.55983617305,10.5,10500150749.559835,47.655,-122.3035,60.0,6.733333333333333
2026-01-20T23:06:45+00:00,SAT-56487,269.8334802247369,42.66803288074005,2656.545806942949,-4.294300492897636,150404.56813434974,10.5,10500150404.568134,47.655,-122.3035,60.0,6.75
2026-01-20T23:06:46+00:00,SAT-56487,269.98505010865944,42.730306150381374,2652.2629579180325,-4.2843975542809,150057.7253346028,10.5,10500150057.725334,47.655,-122.3035,60.0,6.766666666666667
2026-01-20T23:06:47+00:00,SAT-56487,270.1374552923194,42.792418844168964,2647.9899854238965,-4.274441539984222,149709.02360003442,10.5,10500149709.0236,47.655,-122.3035,60.0,6.783333333333333
2026-01-20T23:06:48+00:00,SAT-56487,270.2906993834331,42.85436773432209,2643.7269423946855,-4.264432237302387,149358.4554808082,10.5,10500149358.45548,47.655,-122.3035,60.0,6.8
2026-01-20T23:06:49+00:00,SAT-56487,270.4447859697207,42.916149558042285,2639.473881976682,-4.254369448284299,149006.01404383942,10.5,10500149006.014044,47.655,-122.3035,60.0,6.816666666666666
2026-01-20T23:06:50+00:00,SAT-56487,270.59971861841336,42.97776101756388,2635.2308575135935,-4.244252935561854,148651.69097549302,10.5,10500148651.690975,47.655,-122.3035,60.0,6.833333333333333
2026-01-20T23:06:51+00:00,SAT-56487,270.7555008736507,43.03919877941846,2630.9979225858597,-4.234082509123875,148295.47962077384,10.5,10500148295.47962,47.655,-122.3035,60.0,6.85
2026-01-20T23:06:52+00:00,SAT-56487,270.9121362571922,43.100459474968275,2626.775130963427,-4.2238579503494655,147937.37232265327,10.5,10500147937.372322,47.655,-122.3035,60.0,6.866666666666666
2026-01-20T23:06:53+00:00,SAT-56487,271.06962826617166,43.16153969983794,2622.5625366342783,-4.213579051878862,147577.36181851532,10.5,10500147577.361818,47.655,-122.3035,60.0,6.883333333333334
2026-01-20T23:06:54+00:00,SAT-56487,271.2279803723958,43.222436013932295,2618.3601937932044,-4.20324558896966,147215.44023693024,10.5,10500147215.440237,47.655,-122.3035,60.0,6.9
2026-01-20T23:06:55+00:00,SAT-56487,271.3871960204676,43.28314494104412,2614.168156859139,-4.19285737295289,146851.6009699128,10.5,10500146851.60097,47.655,-122.3035,60.0,6.916666666666667
2026-01-20T23:06:56+00:00,SAT-56487,271.5472786280121,43.34366296924328,2609.9864804391805,-4.18241418350563,146485.83630082218,10.5,10500146485.8363,47.655,-122.3035,60.0,6.933333333333334
2026-01-20T23:06:57+00:00,SAT-56487,271.7082315832032,43.40398655028669,2605.8152193601645,-4.171915804606525,146118.13866367683,10.5,10500146118.138664,47.655,-122.3035,60.0,6.95
2026-01-20T23:06:58+00:00,SAT-56487,271.8700582436876,43.46411209956025,2601.65442866437,-4.161362034784553,145748.5010021093,10.5,10500145748.501001,47.655,-122.3035,60.0,6.966666666666667
2026-01-20T23:06:59+00:00,SAT-56487,272.03276193587783,43.52403599617294,2597.5041635950115,-4.150752673168901,145376.916280774,10.5,10500145376.91628,47.655,-122.3035,60.0,6.983333333333333
2026-01-20T23:07:00+00:00,SAT-56487,272.19634595371883,43.58375458285441,2593.364479595638,-4.140087501935559,145003.37687055278,10.5,10500145003.376871,47.655,-122.3035,60.0,7.0
2026-01-20T23:07:01+00:00,SAT-56487,272.36081355666136,43.643264165609274,2589.2354323270406,-4.1293663178708195,144627.87565404197,10.5,10500144627.875654,47.655,-122.3035,60.0,7.016666666666667
2026-01-20T23:07:02+00:00,SAT-56487,272.52616796892795,43.702561013830184,2585.117077652684,-4.11858891149361,144250.40529432835,10.5,10500144250.405294,47.655,-122.3035,60.0,7.033333333333333
2026-01-20T23:07:03+00:00,SAT-56487,272.6924123778759,43.76164136011979,2581.009471644955,-4.107755087886402,143870.95896457552,10.5,10500143870.958965,47.655,-122.3035,60.0,7.05
2026-01-20T23:07:04+00:00,SAT-56487,272.8595499332423,43.82050140042036,2576.912670570636,-4.096864632094596,143489.5291361641,10.5,10500143489.529137,47.655,-122.3035,60.0,7.066666666666666
2026-01-20T23:07:05+00:00,SAT-56487,273.02758374488116,43.87913729365097,2572.8267309108937,-4.085917340279374,143106.10866979655,10.5,10500143106.10867,47.655,-122.3035,60.0,7.083333333333333
2026-01-20T23:07:06+00:00,SAT-56487,273.1965168817898,43.937545161802866,2568.7517093501883,-4.074913012930425,142720.69057777786,10.5,10500142720.690578,47.655,-122.3035,60.0,7.1
2026-01-20T23:07:07+00:00,SAT-56487,273.36635237085557,43.9957210899455,2564.687662771959,-4.063851461557679,142333.26825838836,10.5,10500142333.26826,47.655,-122.3035,60.0,7.116666666666666
2026-01-20T23:07:08+00:00,SAT-56487,273.5370931958454,44.053661126335015,2560.6346482476324,-4.052732457348395,141943.8336976381,10.5,10500141943.833698,47.655,-122.3035,60.0,7.133333333333334
2026-01-20T23:07:09+00:00,SAT-56487,273.70874229415523,44.111361281796555,2556.5927230768366,-4.041555810166891,141552.3802361711,10.5,10500141552.380236,47.655,-122.3035,60.0,7.15
2026-01-20T23:07:10+00:00,SAT-56487,273.8813025569476,44.16881753024968,2552.5619447488302,-4.030321334240541,141158.90136744428,10.5,10500141158.901367,47.655,-122.3035,60.0,7.166666666666667
2026-01-20T23:07:11+00:00,SAT-56487,274.0547768278258,44.226025808748126,2548.5423709381475,-4.01902882067171,140763.38977497877,10.5,10500140763.389774,47.655,-122.3035,60.0,7.183333333333334
2026-01-20T23:07:12+00:00,SAT-56487,274.2291679002232,44.282982017137094,2544.5340595276643,-4.007678068568238,140365.83842268138,10.5,10500140365.838423,47.655,-122.3035,60.0,7.2
2026-01-20T23:07:13+00:00,SAT-56487,274.40447851616466,44.33968201816712,2540.537068600612,-3.9962688781596056,139966.2403137435,10.5,10500139966.240314,47.655,-122.3035,60.0,7.216666666666667
2026-01-20T23:07:14+00:00,SAT-56487,274.5807113646779,44.39612163751905,2536.551456439461,-3.984801067438086,139564.58907348462,10.5,10500139564.589073,47.655,-122.3035,60.0,7.233333333333333
2026-01-20T23:07:15+00:00,SAT-56487,274.757869080977,44.452296664073806,2532.5772815082028,-3.9732744386863668,139160.87777700817,10.5,10500139160.877777,47.655,-122.3035,60.0,7.25
2026-01-20T23:07:16+00:00,SAT-56487,274.9359542440732,44.50820284971917,2528.6146024680197,-3.9616887920658286,138755.0994251203,10.5,10500138755.099424,47.655,-122.3035,60.0,7.266666666666667
2026-01-20T23:07:17+00:00,SAT-56487,275.1149693749959,44.563835909360904,2524.6634781793996,-3.950043938915129,138347.24741010283,10.5,10500138347.24741,47.655,-122.3035,60.0,7.283333333333333
2026-01-20T23:07:18+00:00,SAT-56487,275.29491693557145,44.61919152113159,2520.723967690988,-3.938339681867631,137937.3148193412,10.5,10500137937.31482,47.655,-122.3035,60.0,7.3
2026-01-20T23:07:19+00:00,SAT-56487,275.4757993263037,44.67426532633297,2516.7961302482718,-3.9265758546389056,137525.2958288514,10.5,10500137525.29583,47.655,-122.3035,60.0,7.316666666666666
2026-01-20T23:07:20+00:00,SAT-56487,275.65761888608813,44.72905292994614,2512.880025262579,-3.914752239221986,137111.18280310725,10.5,10500137111.182802,47.655,-122.3035,60.0,7.333333333333333
2026-01-20T23:07:21+00:00,SAT-56487,275.84037788796286,44.78354989999302,2508.9757123626614,-3.902868658665931,136694.9695445383,10.5,10500136694.969545,47.655,-122.3035,60.0,7.35
2026-01-20T23:07:22+00:00,SAT-56487,276.0240785392512,44.83775176821218,2505.083251353752,-3.8909249440796536,136276.65013786423,10.5,10500136276.650137,47.655,-122.3035,60.0,7.366666666666666
2026-01-20T23:07:23+00:00,SAT-56487,276.2087229801916,44.89165403028387,2501.202702209523,-3.878920891499821,135856.21743942646,10.5,10500135856.21744,47.655,-122.3035,60.0,7.383333333333334
2026-01-20T23:07:24+00:00,SAT-56487,276.3943132803238,44.94525214546311,2497.3341251070674,-3.866856321824708,135433.66517632487,10.5,10500135433.665176,47.655,-122.3035,60.0,7.4
2026-01-20T23:07:25+00:00,SAT-56487,276.5808514378878,44.99854153706838,2493.477580402101,-3.8547310571128497,135008.98711629672,10.5,10500135008.987116,47.655,-122.3035,60.0,7.416666666666667
2026-01-20T23:07:26+00:00,SAT-56487,276.76833937795396,45.051517592646896,2489.633128627807,-3.8425449244556855,134582.17720335277,10.5,10500134582.177204,47.655,-122.3035,60.0,7.433333333333334
2026-01-20T23:07:27+00:00,SAT-56487,276.9567789508316,45.10417566421185,2485.8008304898167,-3.83029774245738,134153.22908424365,10.5,10500134153.229084,47.655,-122.3035,60.0,7.45
2026-01-20T23:07:28+00:00,SAT-56487,277.1461719296715,45.15651106830226,2481.980746874672,-3.8179893123953668,133722.1357988644,10.5,10500133722.1358,47.655,-122.3035,60.0,7.466666666666667
2026-01-20T23:07:29+00:00,SAT-56487,277.33652000764505,45.20851908594359,2478.1729388671097,-3.805619501419471,133288.89269423997,10.5,10500133288.892694,47.655,-122.3035,60.0,7.483333333333333
2026-01-20T23:07:30+00:00,SAT-56487,277.5278247993725,45.26019496375827,2474.3774676843614,-3.7931880980604658,132853.49236382355,10.5,10500132853.492363,47.655,-122.3035,60.0,7.5
2026-01-20T23:07:31+00:00,SAT-56487,277.72008783488326,45.31153391311406,2470.594394754562,-3.7806949631362676,132415.9299328698,10.5,10500132415.929934,47.655,-122.3035,60.0,7.516666666666667
2026-01-20T23:07:32+00:00,SAT-56487,277.91331056137335,45.362531111350584,2466.823781644661,-3.768139895506707,131976.19835659917,10.5,10500131976.198357,47.655,-122.3035,60.0,7.533333333333333
2026-01-20T23:07:33+00:00,SAT-56487,278.10749433795115,45.41318170119248,2463.0656901222087,-3.7555227466938534,131534.29243468647,10.5,10500131534.292435,47.655,-122.3035,60.0,7.55
2026-01-20T23:07:34+00:00,SAT-56487,278.30264043635674,45.46348079173474,2459.3201821028397,-3.7428433511517234,131090.2063690111,10.5,10500131090.20637,47.655,-122.3035,60.0,7.566666666666666
2026-01-20T23:07:35+00:00,SAT-56487,278.4987500380598,45.513423458498934,2455.587319667291,-3.730101544853404,130643.93441465676,10.5,10500130643.934414,47.655,-122.3035,60.0,7.583333333333333
2026-01-20T23:07:36+00:00,SAT-56487,278.6958242322485,45.563004743756636,2451.8671650598903,-3.717297154533054,130195.47050312077,10.5,10500130195.470503,47.655,-122.3035,60.0,7.6
2026-01-20T23:07:37+00:00,SAT-56487,278.89386401325135,45.61221965672764,2448.1597806977693,-3.70443003831401,129744.8096652822,10.5,10500129744.809666,47.655,-122.3035,60.0,7.616666666666666
2026-01-20T23:07:38+00:00,SAT-56487,279.09287028017764,45.66106317433727,2444.465229139558,-3.6915000296760336,129291.94606889795,10.5,10500129291.94607,47.655,-122.3035,60.0,7.633333333333334
2026-01-20T23:07:39+00:00,SAT-56487,279.29284383346953,45.70953024124218,2440.783573109961,-3.678506970024061,128836.87415929804,10.5,10500128836.874159,47.655,-122.3035,60.0,7.65
2026-01-20T23:07:40+00:00,SAT-56487,279.49378537318944,45.75761577030892,2437.1148754918568,-3.665450706226903,128379.58857318046,10.5,10500128379.588573,47.655,-122.3035,60.0,7.666666666666667
2026-01-20T23:07:41+00:00,SAT-56487,279.6956954972315,45.80531464307927,2433.4591993208464,-3.6523310903295894,127920.08412853631,10.5,10500127920.08413,47.655,-122.3035,60.0,7.683333333333334
2026-01-20T23:07:42+00:00,SAT-56487,279.89857469944553,45.852621710244385,2429.816607780091,-3.6391479828232507,127458.35593917487,10.5,10500127458.35594,47.655,-122.3035,60.0,7.7
2026-01-20T23:07:43+00:00,SAT-56487,280.10242336804384,45.89953179218351,2426.1871641918888,-3.6259012219029114,126994.39833800145,10.5,10500126994.398338,47.655,-122.3035,60.0,7.716666666666667
2026-01-20T23:07:44+00:00,SAT-56487,280.30724178208493,45.94603967911815,2422.5709320399105,-3.6125906606371525,126528.20617885624,10.5,10500126528.206179,47.655,-122.3035,60.0,7.733333333333333
2026-01-20T23:07:45+00:00,SAT-56487,280.5130301102146,45.99214013177525,2418.9679749543684,-3.5992161786739443,126059.77524650207,10.5,10500126059.775246,47.655,-122.3035,60.0,7.75
2026-01-20T23:07:46+00:00,SAT-56487,280.7197884100541,46.037827882209704,2415.3783566855045,-3.5857776276568205,125589.10034486797,10.5,10500125589.100346,47.655,-122.3035,60.0,7.766666666666667
2026-01-20T23:07:47+00:00,SAT-56487,280.9275166243917,46.08309763394816,2411.8021411315212,-3.572274861960997,125116.17637355796,10.5,10500125116.176374,47.655,-122.3035,60.0,7.783333333333333
2026-01-20T23:07:48+00:00,SAT-56487,281.13621457911995,46.1279440625492,2408.239392335859,-3.558707744713742,124640.99853871003,10.5,10500124640.998539,47.655,-122.3035,60.0,7.8
2026-01-20T23:07:49+00:00,SAT-56487,281.3458819816158,46.172361816262054,2404.690174478464,-3.5450761713061474,124163.56317647774,10.5,10500124163.563177,47.655,-122.3035,60.0,7.816666666666666
2026-01-20T23:07:50+00:00,SAT-56487,281.55651842049974,46.21634551699085,2401.154551843615,-3.531379983219894,123683.864734879,10.5,10500123683.864735,47.655,-122.3035,60.0,7.833333333333333
2026-01-20T23:07:51+00:00,SAT-56487,281.76812336018327,46.259889760205716,2397.6325888736837,-3.5176190634892195,123201.89911727801,10.5,10500123201.899117,47.655,-122.3035,60.0,7.85
2026-01-20T23:07:52+00:00,SAT-56487,281.9806961411923,46.3029891160676,2394.124350127697,-3.503793303598529,122717.66252299967,10.5,10500122717.662523,47.655,-122.3035,60.0,7.866666666666666
2026-01-20T23:07:53+00:00,SAT-56487,282.19423597858054,46.345638130154875,2390.6299002729083,-3.489902565477218,122231.15011622736,10.5,10500122231.150116,47.655,-122.3035,60.0,7.883333333333334
2026-01-20T23:07:54+00:00,SAT-56487,282.4087419578458,46.38783132374688,2387.149304114272,-3.475946734672669,121742.35788834629,10.5,10500121742.35789,47.655,-122.3035,60.0,7.9
2026-01-20T23:07:55+00:00,SAT-56487,282.6242130342716,46.429563194783135,2383.682626570892,-3.461925705351674,121251.28213262983,10.5,10500121251.282133,47.655,-122.3035,60.0,7.916666666666667
2026-01-20T23:07:56+00:00,SAT-56487,282.8406480313018,46.4708282186557,2380.229932667421,-3.4478393515067305,120757.91843576223,10.5,10500120757.918436,47.655,-122.3035,60.0,7.933333333333334
2026-01-20T23:07:57+00:00,SAT-56487,283.05804563707636,46.51162084867731,2376.791287554185,-3.4336875820170856,120262.26360630927,10.5,10500120262.263607,47.655,-122.3035,60.0,7.95
2026-01-20T23:07:58+00:00,SAT-56487,283.27640440455787,46.551935517231136,2373.366756472387,-3.419470279902235,119764.31354711889,10.5,10500119764.313547,47.655,-122.3035,60.0,7.966666666666667
2026-01-20T23:07:59+00:00,SAT-56487,283.4957227476899,46.59176663621678,2369.956404779898,-3.4051873458809405,119264.06478094214,10.5,10500119264.064781,47.655,-122.3035,60.0,7.983333333333333
2026-01-20T23:08:00+00:00,SAT-56487,283.7159989404195,46.631108598037116,2366.560297933606,-3.3908386809184483,118761.51383916306,10.5,10500118761.51384,47.655,-122.3035,60.0,8.0
2026-01-20T23:08:01+00:00,SAT-56487,283.93723111462145,46.669955776399384,2363.17850148917,-3.3764241892986804,118256.65736939966,10.5,10500118256.65737,47.655,-122.3035,60.0,8.016666666666667
2026-01-20T23:08:02+00:00,SAT-56487,284.1594172581846,46.70830252717401,2359.8110810977096,-3.3619437786201667,117749.4921353617,10.5,10500117749.492136,47.655,-122.3035,60.0,8.033333333333333
2026-01-20T23:08:03+00:00,SAT-56487,284.38255521317564,46.74614318927565,2356.4581025024986,-3.3473973570664,117240.01492124662,10.5,10500117240.014921,47.655,-122.3035,60.0,8.05
2026-01-20T23:08:04+00:00,SAT-56487,284.60664267379906,46.78347208553697,2353.1196315383845,-3.33278485019589,116728.22311979858,10.5,10500116728.22312,47.655,-122.3035,60.0,8.066666666666666
2026-01-20T23:08:05+00:00,SAT-56487,284.8316771855525,46.820283523788895,2349.795734114456,-3.318106153651297,116214.1130759821,10.5,10500116214.113075,47.655,-122.3035,60.0,8.083333333333334
2026-01-20T23:08:06+00:00,SAT-56487,285.0576561410733,46.85657179744125,2346.486476243881,-3.3033612194165256,115697.68310807044,10.5,10500115697.683107,47.655,-122.3035,60.0,8.1
2026-01-20T23:08:07+00:00,SAT-56487,285.28457678217194,46.89233118703545,2343.1919239877166,-3.2885499421010262,115178.92952484074,10.5,10500115178.929525,47.655,-122.3035,60.0,8.116666666666667
2026-01-20T23:08:08+00:00,SAT-56487,285.51243619369075,46.927555960573024,2339.9121435121274,-3.273672272486256,114657.8506024514,10.5,10500114657.850603,47.655,-122.3035,60.0,8.133333333333333
2026-01-20T23:08:09+00:00,SAT-56487,285.7412313056299,46.96224037510329,2336.647201032368,-3.2587281265980454,114134.44339977184,10.5,10500114134.4434,47.655,-122.3035,60.0,8.15
2026-01-20T23:08:10+00:00,SAT-56487,285.97095888866016,46.99637867735107,2333.3971628474405,-3.2437174569554545,113608.70625381867,10.5,10500113608.706253,47.655,-122.3035,60.0,8.166666666666666
2026-01-20T23:08:11+00:00,SAT-56487,286.2016155549517,47.02996510512654,2330.162095303704,-3.22864019541841,113080.6367780383,10.5,10500113080.636778,47.655,-122.3035,60.0,8.183333333333334
2026-01-20T23:08:12+00:00,SAT-56487,286.43319775471195,47.06299388815091,2326.9420648154733,-3.213496280547207,112550.23282055238,10.5,10500112550.23282,47.655,-122.3035,60.0,8.2
2026-01-20T23:08:13+00:00,SAT-56487,286.6657017749111,47.09545924919922,2323.737137858341,-3.1982856683091767,112017.4928391506,10.5,10500112017.49284,47.655,-122.3035,60.0,8.216666666666667
2026-01-20T23:08:14+00:00,SAT-56487,286.899123738724,47.127355405367695,2320.547380951814,-3.1830083104940843,111482.41514530657,10.5,10500111482.415146,47.655,-122.3035,60.0,8.233333333333333
2026-01-20T23:08:15+00:00,SAT-56487,287.13345960352643,47.15867656914058,2317.372860663481,-3.1676641498834983,110944.99773498884,10.5,10500110944.997734,47.655,-122.3035,60.0,8.25
2026-01-20T23:08:16+00:00,SAT-56487,287.36870515839394,47.18941694944089,2314.2136436179976,-3.1522531728368004,110405.24013044518,10.5,10500110405.240131,47.655,-122.3035,60.0,8.266666666666667
2026-01-20T23:08:17+00:00,SAT-56487,287.60485602588625,47.219570753209794,2311.069796453621,-3.1367753198826214,109863.14024873676,10.5,10500109863.14025,47.655,-122.3035,60.0,8.283333333333333
2026-01-20T23:08:18+00:00,SAT-56487,287.8419076567568,47.24913218614056,2307.941385867925,-3.121230562164751,109318.697079197,10.5,10500109318.697079,47.655,-122.3035,60.0,8.3
2026-01-20T23:08:19+00:00,SAT-56487,288.07985533079244,47.27809545417866,2304.8284785872597,-3.105618888037333,108771.91021393874,10.5,10500108771.910213,47.655,-122.3035,60.0,8.316666666666666
2026-01-20T23:08:20+00:00,SAT-56487,288.318694156623,47.306454764897204,2301.73114134959,-3.0899402512711736,108222.77803382007,10.5,10500108222.778034,47.655,-122.3035,60.0,8.333333333333334
2026-01-20T23:08:21+00:00,SAT-56487,288.55841906745445,47.334204328424505,2298.6494409389893,-3.0741946591327984,107671.30079334545,10.5,10500107671.300793,47.655,-122.3035,60.0,8.35
2026-01-20T23:08:22+00:00,SAT-56487,288.7990248239386,47.36133835919178,2295.5834441322804,-3.0583820794839136,107117.4773668959,10.5,10500107117.477367,47.655,-122.3035,60.0,8.366666666666667
2026-01-20T23:08:23+00:00,SAT-56487,289.0405060096007,47.387851076862084,2292.533217738342,-3.042502505489472,106561.30751507916,10.5,10500106561.307514,47.655,-122.3035,60.0,8.383333333333333
2026-01-20T23:08:24+00:00,SAT-56487,289.2828570315016,47.41373670786527,2289.498828572867,-3.026555937186573,106002.7912391946,10.5,10500106002.791239,47.655,-122.3035,60.0,8.4
2026-01-20T23:08:25+00:00,SAT-56487,289.5260721195814,47.438989486776556,2286.480343451513,-3.0105423742037085,105441.92852623045,10.5,10500105441.928526,47.655,-122.3035,60.0,8.416666666666666
2026-01-20T23:08:26+00:00,SAT-56487,289.77014532536407,47.463603657656996,2283.477829190307,-2.9944618108945575,104878.7191784286,10.5,10500104878.71918,47.655,-122.3035,60.0,8.433333333333334
2026-01-20T23:08:27+00:00,SAT-56487,290.0150705203634,47.48757347537739,2280.4913526109085,-2.9783142737843793,104313.16412481591,10.5,10500104313.164125,47.655,-122.3035,60.0,8.45
2026-01-20T23:08:28+00:00,SAT-56487,290.26084139767926,47.51089320725942,2277.5209805085206,-2.962099759346891,103745.263241887,10.5,10500103745.263243,47.655,-122.3035,60.0,8.466666666666667
2026-01-20T23:08:29+00:00,SAT-56487,290.5074514684277,47.53355713423788,2274.5667796818657,-2.9458182962210393,103175.01753269896,10.5,10500103175.017532,47.655,-122.3035,60.0,8.483333333333333
2026-01-20T23:08:30+00:00,SAT-56487,290.7548940634875,47.555559552534234,2271.628816901101,-2.9294699055853584,102602.42773901358,10.5,10500102602.427738,47.655,-122.3035,60.0,8.5
2026-01-20T23:08:31+00:00,SAT-56487,291.00316233197077,47.576894775032976,2268.7071589152642,-2.9130546160836226,102027.49486405704,10.5,10500102027.494864,47.655,-122.3035,60.0,8.516666666666667
2026-01-20T23:08:32+00:00,SAT-56487,291.2522492410114,47.597557132794584,2265.801872444823,-2.8965724588684325,101450.21999892518,10.5,10500101450.22,47.655,-122.3035,60.0,8.533333333333333
2026-01-20T23:08:33+00:00,SAT-56487,291.50214757525134,47.617540976543495,2262.913024179178,-2.8800234822788586,100870.60483665674,10.5,10500100870.604837,47.655,-122.3035,60.0,8.55
2026-01-20T23:08:34+00:00,SAT-56487,291.752849937637,47.63684067827525,2260.040680759519,-2.8634077157415865,100288.6504078987,10.5,10500100288.650408,47.655,-122.3035,60.0,8.566666666666666
2026-01-20T23:08:35+00:00,SAT-56487,292.0043487471234,47.65545063263168,2257.184908797686,-2.8467252155134957,99704.35868300498,10.5,10500099704.358683,47.655,-122.3035,60.0,8.583333333333334
2026-01-20T23:08:36+00:00,SAT-56487,292.2566362405117,47.673365258601756,2254.345774849414,-2.8299760404868395,99117.73172463135,10.5,10500099117.731724,47.655,-122.3035,60.0,8.6
2026-01-20T23:08:37+00:00,SAT-56487,292.5097044722773,47.6905790010635,2251.5233454117015,-2.8131602431891793,98528.77137251526,10.5,10500098528.771372,47.655,-122.3035,60.0,8.616666666666667
2026-01-20T23:08:38+00:00,SAT-56487,292.7635453135299,47.707086332295084,2248.7176869291607,-2.7962778884772357,97937.47989821337,10.5,10500097937.479898,47.655,-122.3035,60.0,8.633333333333333
2026-01-20T23:08:39+00:00,SAT-56487,293.0181504528818,47.722881753611446,2245.9288657817197,-2.7793290513406133,97343.85992817883,10.5,10500097343.859928,47.655,-122.3035,60.0,8.65
2026-01-20T23:08:40+00:00,SAT-56487,293.2735113971399,47.737959796992286,2243.1569482745163,-2.762313807375987,96747.91411012704,10.5,10500096747.91411,47.655,-122.3035,60.0,8.666666666666666
2026-01-20T23:08:41+00:00,SAT-56487,293.52961947125226,47.752315026667844,2240.402000637293,-2.7452322288412816,96149.64497483608,10.5,10500096149.644976,47.655,-122.3035,60.0,8.683333333333334
2026-01-20T23:08:42+00:00,SAT-56487,293.7864658178248,47.76594204070713,2237.6640890277286,-2.7280844182395954,95549.0561123981,10.5,10500095549.056112,47.655,-122.3035,60.0,8.7
2026-01-20T23:08:43+00:00,SAT-56487,294.04404140020483,47.77883547276373,2234.943279501271,-2.710870452241217,94946.15020813092,10.5,10500094946.150208,47.655,-122.3035,60.0,8.716666666666667
2026-01-20T23:08:44+00:00,SAT-56487,294.3023369999085,47.79098999357924,2232.2396380369023,-2.693590440057238,94340.93108706891,10.5,10500094340.931087,47.655,-122.3035,60.0,8.733333333333333
2026-01-20T23:08:45+00:00,SAT-56487,294.5613432201212,47.80240031275263,2229.5532305046854,-2.676244474362296,93733.40199506991,10.5,10500093733.401995,47.655,-122.3035,60.0,8.75
2026-01-20T23:08:46+00:00,SAT-56487,294.82105048423387,47.81306118030732,2226.8841226822547,-2.6588326800574986,93123.567306699,10.5,10500093123.567307,47.655,-122.3035,60.0,8.766666666666667
2026-01-20T23:08:47+00:00,SAT-56487,295.08144903954127,47.822967388455844,2224.2323802226774,-2.6413551549024734,92511.43044591192,10.5,10500092511.430447,47.655,-122.3035,60.0,8.783333333333333
2026-01-20T23:08:48+00:00,SAT-56487,295.342528954832,47.832113773153196,2221.5980686815215,-2.623812035259701,91896.99618869953,10.5,10500091896.99619,47.655,-122.3035,60.0,8.8
2026-01-20T23:08:49+00:00,SAT-56487,295.6042801249824,47.840495215879905,2218.9812534783555,-2.6062034416499418,91280.26875620864,10.5,10500091280.268757,47.655,-122.3035,60.0,8.816666666666666
2026-01-20T23:08:50+00:00,SAT-56487,295.8666922698743,47.8481066452507,2216.3819999125503,-2.5885295005960316,90661.25257980416,10.5,10500090661.25258,47.655,-122.3035,60.0,8.833333333333334
2026-01-20T23:08:51+00:00,SAT-56487,296.1297549357594,47.85494303870127,2213.800373157289,-2.570790359710402,90039.95282949787,10.5,10500090039.95283,47.655,-122.3035,60.0,8.85
2026-01-20T23:08:52+00:00,SAT-56487,296.39345749828493,47.86099942420945,2211.236438238538,-2.5529861701564154,89416.37479967013,10.5,10500089416.3748,47.655,-122.3035,60.0,8.866666666666667
2026-01-20T23:08:53+00:00,SAT-56487,296.65778916383454,47.86627088195942,2208.6902600315016,-2.5351170662077696,88790.52319315379,10.5,10500088790.523193,47.655,-122.3035,60.0,8.883333333333333
2026-01-20T23:08:54+00:00,SAT-56487,296.9227389686028,47.870752545991735,2206.1619032774706,-2.5171832113315733,88162.40373525847,10.5,10500088162.403736,47.655,-122.3035,60.0,8.9
2026-01-20T23:08:55+00:00,SAT-56487,297.1882957829357,47.87443960592265,2203.6514325547028,-2.499184777199127,87532.02243863931,10.5,10500087532.022438,47.655,-122.3035,60.0,8.916666666666666
2026-01-20T23:08:56+00:00,SAT-56487,297.45444831334754,47.87732730862286,2201.158912270242,-2.4811219290471627,86899.3850905856,10.5,10500086899.38509,47.655,-122.3035,60.0,8.933333333333334
2026-01-20T23:08:57+00:00,SAT-56487,297.7211851031477,47.87941095987099,2198.6844066663393,-2.4629948345882036,86264.49756509931,10.5,10500086264.497564,47.655,-122.3035,60.0,8.95
2026-01-20T23:08:58+00:00,SAT-56487,297.9884945339868,47.880685926036406,2196.2279798179766,-2.444803681999005,85627.36645292642,10.5,10500085627.366453,47.655,-122.3035,60.0,8.966666666666667
2026-01-20T23:08:59+00:00,SAT-56487,298.2563648296702,47.88114763574707,2193.789695612463,-2.4265486597117016,84987.99835375734,10.5,10500084987.998354,47.655,-122.3035,60.0,8.983333333333333
2026-01-20T23:09:00+00:00,SAT-56487,298.5247840576919,47.88079158154875,2191.3696177491775,-2.408229968204762,84346.40028919607,10.5,10500084346.40029,47.655,-122.3035,60.0,9.0
2026-01-20T23:09:01+00:00,SAT-56487,298.7937401323565,47.87961332154087,2188.9678097275546,-2.3898477988432583,83702.57896165691,10.5,10500083702.578962,47.655,-122.3035,60.0,9.016666666666667
2026-01-20T23:09:02+00:00,SAT-56487,299.0632208152939,47.87760848104469,2186.584334856175,-2.3714023592263254,83056.5416421397,10.5,10500083056.541641,47.655,-122.3035,60.0,9.033333333333333
2026-01-20T23:09:03+00:00,SAT-56487,299.33321371925405,47.87477275422673,2184.219256236573,-2.352893873066461,82408.29616600242,10.5,10500082408.296165,47.655,-122.3035,60.0,9.05
2026-01-20T23:09:04+00:00,SAT-56487,299.6037063119104,47.87110190570118,2181.8726367471686,-2.334322554972168,81757.85004974261,10.5,10500081757.85005,47.655,-122.3035,60.0,9.066666666666666
2026-01-20T23:09:05+00:00,SAT-56487,299.87468591677685,47.86659177216241,2179.5445390523423,-2.3156886264268914,81105.21105064744,10.5,10500081105.21105,47.655,-122.3035,60.0,9.083333333333334
2026-01-20T23:09:06+00:00,SAT-56487,300.14613971601295,47.86123826399834,2177.235025595586,-2.2969923303383366,80450.38767637222,10.5,10500080450.387676,47.655,-122.3035,60.0,9.1
2026-01-20T23:09:07+00:00,SAT-56487,300.41805475534255,47.85503736681996,2174.9441585781287,-2.2782339051375526,79793.38827778083,10.5,10500079793.388277,47.655,-122.3035,60.0,9.116666666666667
2026-01-20T23:09:08+00:00,SAT-56487,300.6904179456093,47.847985143068186,2172.671999963405,-2.2594135937774755,79134.2213641128,10.5,10500079134.221365,47.655,-122.3035,60.0,9.133333333333333
2026-01-20T23:09:09+00:00,SAT-56487,300.96321606574634,47.84007773356852,2170.4186114725444,-2.2405316498516368,78472.89581728633,10.5,10500078472.895817,47.655,-122.3035,60.0,9.15
2026-01-20T23:09:10+00:00,SAT-56487,301.2364357664415,47.83131135905926,2168.184054573759,-2.2215883370569816,77809.42087308381,10.5,10500077809.420874,47.655,-122.3035,60.0,9.166666666666666
2026-01-20T23:09:11+00:00,SAT-56487,301.5100635739816,47.82168232168273,2165.9683904722674,-2.2025839222391244,77143.80587756749,10.5,10500077143.805878,47.655,-122.3035,60.0,9.183333333333334
2026-01-20T23:09:12+00:00,SAT-56487,301.78408589315774,47.81118700650003,2163.7716801071538,-2.183518675295289,76476.06028367976,10.5,10500076476.060284,47.655,-122.3035,60.0,9.2
2026-01-20T23:09:13+00:00,SAT-56487,302.0584890103282,47.799821882984226,2161.5939841483264,-2.1643928747967394,75806.19384816466,10.5,10500075806.193848,47.655,-122.3035,60.0,9.216666666666667
2026-01-20T23:09:14+00:00,SAT-56487,302.3332590972102,47.78758350647085,2159.4353629878624,-2.1452068166244516,75134.21693402555,10.5,10500075134.216934,47.655,-122.3035,60.0,9.233333333333333
2026-01-20T23:09:15+00:00,SAT-56487,302.60838221601585,47.774468519515786,2157.2958767227487,-2.1259607893107964,74460.13964688653,10.5,10500074460.139647,47.655,-122.3035,60.0,9.25
2026-01-20T23:09:16+00:00,SAT-56487,302.88384432127003,47.76047365339205,2155.1755851622097,-2.106655090058628,73783.97239604872,10.5,10500073783.972397,47.655,-122.3035,60.0,9.266666666666667
2026-01-20T23:09:17+00:00,SAT-56487,303.1596312638902,47.74559572946615,2153.074547819058,-2.087290031423868,73105.72612854259,10.5,10500073105.726128,47.655,-122.3035,60.0,9.283333333333333
2026-01-20T23:09:18+00:00,SAT-56487,303.4357287963036,47.729831660485594,2150.9928238943844,-2.0678659227990197,72425.41168060241,10.5,10500072425.41168,47.655,-122.3035,60.0,9.3
2026-01-20T23:09:19+00:00,SAT-56487,303.71212257495506,47.713178451996555,2148.930472280713,-2.0483831000469634,71743.04081556687,10.5,10500071743.040815,47.655,-122.3035,60.0,9.316666666666666
2026-01-20T23:09:20+00:00,SAT-56487,303.9887981673021,47.69563320344434,2146.8875515355994,-2.028841863206928,71058.62404207895,10.5,10500071058.624043,47.655,-122.3035,60.0,9.333333333333334
2026-01-20T23:09:21+00:00,SAT-56487,304.26574104960565,47.67719310987841,2144.864119917361,-2.009242575093195,70372.1740674295,10.5,10500070372.174067,47.655,-122.3035,60.0,9.35
2026-01-20T23:09:22+00:00,SAT-56487,304.54293661936595,47.65785546262833,2142.860235322468,-1.9895855627118963,69683.70234475649,10.5,10500069683.702345,47.655,-122.3035,60.0,9.366666666666667
2026-01-20T23:09:23+00:00,SAT-56487,304.8203701932676,47.63761765094925,2140.8759553212567,-1.9698711794846488,68993.22125237991,10.5,10500068993.221252,47.655,-122.3035,60.0,9.383333333333333
2026-01-20T23:09:24+00:00,SAT-56487,305.0980270144047,47.616477162993164,2138.911337131584,-1.9500997731115324,68300.74296822734,10.5,10500068300.742968,47.655,-122.3035,60.0,9.4
2026-01-20T23:09:25+00:00,SAT-56487,305.3758922546985,47.59443158711127,2136.966437624534,-1.9302717186993936,67606.28063012724,10.5,10500067606.28063,47.655,-122.3035,60.0,9.416666666666666
2026-01-20T23:09:26+00:00,SAT-56487,305.6539510224627,47.571478612708574,2135.0413132970843,-1.9103873775800362,66909.8468934478,10.5,10500066909.846893,47.655,-122.3035,60.0,9.433333333333334
2026-01-20T23:09:27+00:00,SAT-56487,305.93218836372733,47.547616031573796,2133.136020285845,-1.8904471290073799,66211.45504126554,10.5,10500066211.455042,47.655,-122.3035,60.0,9.45
2026-01-20T23:09:28+00:00,SAT-56487,306.2105892684716,47.52284173878094,2131.2506143491814,-1.8704513532741467,65511.118393040226,10.5,10500065511.118393,47.655,-122.3035,60.0,9.466666666666667
2026-01-20T23:09:29+00:00,SAT-56487,306.48913867415774,47.49715373379173,2129.3851508661824,-1.8504004387468904,64808.850551011354,10.5,10500064808.850552,47.655,-122.3035,60.0,9.483333333333333
2026-01-20T23:09:30+00:00,SAT-56487,306.7678214706437,47.47055012139206,2127.539684828606,-1.8302947900366477,64104.665686368935,10.5,10500064104.665686,47.655,-122.3035,60.0,9.5
2026-01-20T23:09:31+00:00,SAT-56487,307.0466225062074,47.44302911249296,2125.714270824676,-1.8101348061897038,63398.57777540184,10.5,10500063398.577776,47.655,-122.3035,60.0,9.516666666666667
2026-01-20T23:09:32+00:00,SAT-56487,307.32552659032893,47.41458902519706,2123.908963044636,-1.789920893774759,62690.60105786574,10.5,10500062690.601057,47.655,-122.3035,60.0,9.533333333333333
2026-01-20T23:09:33+00:00,SAT-56487,307.60451849835687,47.38522828567394,2122.123815273245,-1.7696534803144124,61980.75050741047,10.5,10500061980.750507,47.655,-122.3035,60.0,9.55
2026-01-20T23:09:34+00:00,SAT-56487,307.8835829786799,47.35494542870519,2120.358880868878,-1.749332981724289,61269.04069116053,10.5,10500061269.040691,47.655,-122.3035,60.0,9.566666666666666
2026-01-20T23:09:35+00:00,SAT-56487,308.1627047542967,47.323739098802626,2118.6142127751045,-1.728959829353121,60555.48671677314,10.5,10500060555.486717,47.655,-122.3035,60.0,9.583333333333334
2026-01-20T23:09:36+00:00,SAT-56487,308.44186852906375,47.29160805078597,2116.8898635052965,-1.708534468300798,59840.1041735292,10.5,10500059840.104174,47.655,-122.3035,60.0,9.6
2026-01-20T23:09:37+00:00,SAT-56487,308.72105899366176,47.25855115032839,2115.185885128911,-1.6880573378605455,59122.90844733568,10.5,10500059122.908447,47.655,-122.3035,60.0,9.616666666666667
2026-01-20T23:09:38+00:00,SAT-56487,309.0002608282387,47.22456737485617,2113.502329277285,-1.6675288897973,58403.91536091162,10.5,10500058403.915361,47.655,-122.3035,60.0,9.633333333333333
2026-01-20T23:09:39+00:00,SAT-56487,309.27945870815074,47.189655814047654,2111.839247131194,-1.6469495866223072,57683.14111335724,10.5,10500057683.141113,47.655,-122.3035,60.0,9.65
2026-01-20T23:09:40+00:00,SAT-56487,309.55863730951313,47.15381567029908,2110.1966894101356,-1.6263198884020198,56960.601818145835,10.5,10500056960.601818,47.655,-122.3035,60.0,9.666666666666666
2026-01-20T23:09:41+00:00,SAT-56487,309.8377813122847,47.11704625946712,2108.5747063747694,-1.605640272191154,56236.31418375147,10.5,10500056236.314184,47.655,-122.3035,60.0,9.683333333333334
2026-01-20T23:09:42+00:00,SAT-56487,310.1168754070319,47.07934701108185,2106.9733478099706,-1.5849112117056758,55510.29480171111,10.5,10500055510.294802,47.655,-122.3035,60.0,9.7
2026-01-20T23:09:43+00:00,SAT-56487,310.39590429775853,47.04071746904769,2105.392663028163,-1.5641331959998777,54782.560800774765,10.5,10500054782.5608,47.655,-122.3035,60.0,9.716666666666667
2026-01-20T23:09:44+00:00,SAT-56487,310.67485270840996,47.00115729179047,2103.832700854019,-1.5433067159810216,54053.12937459129,10.5,10500054053.129375,47.655,-122.3035,60.0,9.733333333333333
2026-01-20T23:09:45+00:00,SAT-56487,310.9537053866343,46.96066625273957,2102.2935096226142,-1.522432270079293,53322.01798029414,10.5,10500053322.01798,47.655,-122.3035,60.0,9.75
2026-01-20T23:09:46+00:00,SAT-56487,311.23244710881727,46.91924424058258,2100.775137171922,-1.5015103648574089,52589.24435985242,10.5,10500052589.24436,47.655,-122.3035,60.0,9.766666666666667
2026-01-20T23:09:47+00:00,SAT-56487,311.5110626850004,46.87689125948952,2099.277630834704,-1.4805415084850788,51854.82631151891,10.5,10500051854.826311,47.655,-122.3035,60.0,9.783333333333333
2026-01-20T23:09:48+00:00,SAT-56487,311.7895369626503,46.8336074294625,2097.8010374369082,-1.4595262229233166,51118.7821165762,10.5,10500051118.782116,47.655,-122.3035,60.0,9.8
2026-01-20T23:09:49+00:00,SAT-56487,312.06785483274984,46.78939298627746,2096.3454032839127,-1.4384650325525172,50381.130141043875,10.5,10500050381.13014,47.655,-122.3035,60.0,9.816666666666666
2026-01-20T23:09:50+00:00,SAT-56487,312.34600123374474,46.744248281695725,2094.910774158114,-1.4173584645015276,49641.88884720388,10.5,10500049641.888847,47.655,-122.3035,60.0,9.833333333333334
2026-01-20T23:09:51+00:00,SAT-56487,312.6239611551231,46.69817378371885,2093.497195316184,-1.3962070625693117,48901.07728119622,10.5,10500048901.077282,47.655,-122.3035,60.0,9.85
2026-01-20T23:09:52+00:00,SAT-56487,312.9017196444577,46.65117007618277,2092.1047114724483,-1.3750113644439992,48158.7142751336,10.5,10500048158.714275,47.655,-122.3035,60.0,9.866666666666667
2026-01-20T23:09:53+00:00,SAT-56487,313.17926180895284,46.603237859250235,2090.733366804976,-1.353771929684194,47414.81942712527,10.5,10500047414.819427,47.655,-122.3035,60.0,9.883333333333333
2026-01-20T23:09:54+00:00,SAT-56487,313.4565728235875,46.55437794869585,2089.383204933771,-1.3324893001723637,46669.4117161874,10.5,10500046669.411716,47.655,-122.3035,60.0,9.9
2026-01-20T23:09:55+00:00,SAT-56487,313.73363792994564,46.50459127678999,2088.054268938399,-1.3111640519827306,45922.511318876044,10.5,10500045922.511318,47.655,-122.3035,60.0,9.916666666666666
2026-01-20T23:09:56+00:00,SAT-56487,314.0104424471281,46.45387889096629,2086.7466013238886,-1.289796749712136,45174.138009760834,10.5,10500045174.13801,47.655,-122.3035,60.0,9.933333333333334
2026-01-20T23:09:57+00:00,SAT-56487,314.28697177192015,46.40224195435817,2085.4602440321755,-1.268387964200393,44424.31178206667,10.5,10500044424.311783,47.655,-122.3035,60.0,9.95
2026-01-20T23:09:58+00:00,SAT-56487,314.56321138308556,46.34968174555747,2084.1952384358797,-1.2469382794669779,43673.05309062602,10.5,10500043673.053091,47.655,-122.3035,60.0,9.966666666666667
2026-01-20T23:09:59+00:00,SAT-56487,314.8391468471955,46.29619965801511,2082.951625325158,-1.225448283178606,42920.38251801306,10.5,10500042920.382519,47.655,-122.3035,60.0,9.983333333333333
2026-01-20T23:10:00+00:00,SAT-56487,315.1147638223025,46.2417971997777,2081.729444904068,-1.2039185681286602,42166.32082635959,10.5,10500042166.320826,47.655,-122.3035,60.0,10.0
2026-01-20T23:10:01+00:00,SAT-56487,315.3900480617126,46.1864759931623,2080.5287367854544,-1.1823497300490484,41410.88888071697,10.5,10500041410.88888,47.655,-122.3035,60.0,10.016666666666667
2026-01-20T23:10:02+00:00,SAT-56487,315.6649854172899,46.130237774473706,2079.3495399880185,-1.1607423753803794,40654.10792120056,10.5,10500040654.107922,47.655,-122.3035,60.0,10.033333333333333
2026-01-20T23:10:03+00:00,SAT-56487,315.93956184452054,46.07308439330278,2078.191892925639,-1.1390971156464746,39895.99936596131,10.5,10500039895.999367,47.655,-122.3035,60.0,10.05
2026-01-20T23:10:04+00:00,SAT-56487,316.21376340638096,46.01501781199733,2077.0558334023012,-1.1174145650100873,39136.58472557677,10.5,10500039136.584726,47.655,-122.3035,60.0,10.066666666666666
2026-01-20T23:10:05+00:00,SAT-56487,316.48757627609143,45.95604010532445,2075.941398609464,-1.0956953421772007,38375.88566974759,10.5,10500038375.88567,47.655,-122.3035,60.0,10.083333333333334
2026-01-20T23:10:06+00:00,SAT-56487,316.76098674059443,45.896153459926346,2074.848625121533,-1.0739400782657962,37613.92430289511,10.5,10500037613.924303,47.655,-122.3035,60.0,10.1
2026-01-20T23:10:07+00:00,SAT-56487,317.0339812060124,45.83536017327205,2073.777548883476,-1.0521494051620288,36850.722756345334,10.5,10500036850.722755,47.655,-122.3035,60.0,10.116666666666667
2026-01-20T23:10:08+00:00,SAT-56487,317.306546199983,45.773662653227575,2072.728205210061,-1.0303239568072946,36086.30323340753,10.5,10500036086.303234,47.655,-122.3035,60.0,10.133333333333333
2026-01-20T23:10:09+00:00,SAT-56487,317.5786683738649,45.7110634176309,2071.700628783805,-1.0084643782120155,35320.68832507509,10.5,10500035320.688326,47.655,-122.3035,60.0,10.15
2026-01-20T23:10:10+00:00,SAT-56487,317.85033450800046,45.64756509308653,2070.694853643935,-0.9865713181695484,34553.900754835726,10.5,10500034553.900755,47.655,-122.3035,60.0,10.166666666666666
2026-01-20T23:10:11+00:00,SAT-56487,318.1215315144408,45.5831704142866,2069.7109131826137,-0.9646454297595746,33785.96339630243,10.5,10500033785.963396,47.655,-122.3035,60.0,10.183333333333334
2026-01-20T23:10:12+00:00,SAT-56487,318.3922464398741,45.51788222322791,2068.748840140667,-0.9426873699361895,33016.89925878652,10.5,10500033016.89926,47.655,-122.3035,60.0,10.2
2026-01-20T23:10:13+00:00,SAT-56487,318.6624664681795,45.451703468466135,2067.808666603717,-0.9206978021546358,32246.731579297022,10.5,10500032246.731579,47.655,-122.3035,60.0,10.216666666666667
2026-01-20T23:10:14+00:00,SAT-56487,318.9321789241386,45.38463720401974,2066.890423995702,-0.8986773935392484,31475.483723350062,10.5,10500031475.483723,47.655,-122.3035,60.0,10.233333333333333
2026-01-20T23:10:15+00:00,SAT-56487,319.20137127552715,45.316686588629416,2065.994143075212,-0.8766268203051433,30703.179374859403,10.5,10500030703.179375,47.655,-122.3035,60.0,10.25
2026-01-20T23:10:16+00:00,SAT-56487,319.47003113780556,45.24785488427615,2065.119853926428,-0.8545467555573861,29929.842108811674,10.5,10500029929.84211,47.655,-122.3035,60.0,10.266666666666667
2026-01-20T23:10:17+00:00,SAT-56487,319.7381462737037,45.17814545596259,2064.2675859622186,-0.8324378837442533,29155.495897480716,10.5,10500029155.495897,47.655,-122.3035,60.0,10.283333333333333
2026-01-20T23:10:18+00:00,SAT-56487,320.0057045983744,45.10756177000116,2063.4373679128307,-0.8103008907919244,28380.16476490281,10.5,10500028380.164764,47.655,-122.3035,60.0,10.3
2026-01-20T23:10:19+00:00,SAT-56487,320.2726941806709,45.03610739323877,2062.6292278244146,-0.7881364680327665,27603.87292446179,10.5,10500027603.872925,47.655,-122.3035,60.0,10.316666666666666
2026-01-20T23:10:20+00:00,SAT-56487,320.539103245995,44.96378599181759,2061.84319305363,-0.7659453091964198,26826.644673504117,10.5,10500026826.644674,47.655,-122.3035,60.0,10.333333333333334
2026-01-20T23:10:21+00:00,SAT-56487,320.8049201776009,44.89060133029687,2061.079290265258,-0.7437281144768257,26048.504535783453,10.5,10500026048.504536,47.655,-122.3035,60.0,10.35
2026-01-20T23:10:22+00:00,SAT-56487,321.07013351995715,44.816557270148365,2060.337545425753,-0.7214855880449991,25269.47717434736,10.5,10500025269.477175,47.655,-122.3035,60.0,10.366666666666667
2026-01-20T23:10:23+00:00,SAT-56487,321.33473198051763,44.741657768630205,2059.617983799276,-0.6992184385697002,24489.587409773507,10.5,10500024489.58741,47.655,-122.3035,60.0,10.383333333333333
2026-01-20T23:10:24+00:00,SAT-56487,321.598704432166,44.66590687741081,2058.9206299432094,-0.6769273714772469,23708.859949075475,10.5,10500023708.85995,47.655,-122.3035,60.0,10.4
2026-01-20T23:10:25+00:00,SAT-56487,321.8620399113831,44.58930874238555,2058.245507711389,-0.654613109234566,22927.32009610109,10.5,10500022927.320097,47.655,-122.3035,60.0,10.416666666666666
2026-01-20T23:10:26+00:00,SAT-56487,322.1247276266454,44.511867600454984,2057.5926402371124,-0.6322763666461547,22144.992886327465,10.5,10500022144.992886,47.655,-122.3035,60.0,10.433333333333334
2026-01-20T23:10:27+00:00,SAT-56487,322.3867569543365,44.43358777988869,2056.9620499407774,-0.6099178665016596,21361.9036349054,10.5,10500021361.903635,47.655,-122.3035,60.0,10.45
2026-01-20T23:10:28+00:00,SAT-56487,322.6481174425989,44.35447369831778,2056.3537585219196,-0.5875383356727479,20578.077799955372,10.5,10500020578.0778,47.655,-122.3035,60.0,10.466666666666667
2026-01-20T23:10:29+00:00,SAT-56487,322.9087988129653,44.27452986131208,2055.767786955142,-0.5651385031221577,19793.54091283596,10.5,10500019793.540913,47.655,-122.3035,60.0,10.483333333333333
2026-01-20T23:10:30+00:00,SAT-56487,323.16879096127815,44.193760861124844,2055.2041554880284,-0.5427191004853542,19008.318598515976,10.5,10500019008.318598,47.655,-122.3035,60.0,10.5
2026-01-20T23:10:31+00:00,SAT-56487,323.42808395821476,44.112171375514,2054.6628836384775,-0.5202808648954704,18222.436674515808,10.5,10500018222.436674,47.655,-122.3035,60.0,10.516666666666667
2026-01-20T23:10:32+00:00,SAT-56487,323.68666805225746,44.02976616573992,2054.1439901892218,-0.497824532638945,17435.920928701024,10.5,10500017435.920929,47.655,-122.3035,60.0,10.533333333333333
2026-01-20T23:10:33+00:00,SAT-56487,323.94453366778487,43.946550076065314,2053.64749318867,-0.4753508475914626,16648.797414744695,10.5,10500016648.797415,47.655,-122.3035,60.0,10.55
2026-01-20T23:10:34+00:00,SAT-56487,324.20167140961513,43.86252803112715,2053.173409943339,-0.4528605540200367,15861.092200025878,10.5,10500015861.0922,47.655,-122.3035,60.0,10.566666666666666
2026-01-20T23:10:35+00:00,SAT-56487,324.45807206179757,43.777705035115794,2052.7217570174626,-0.43035439730493674,15072.831390914564,10.5,10500015072.83139,47.655,-122.3035,60.0,10.583333333333334
2026-01-20T23:10:36+00:00,SAT-56487,324.713726587731,43.69208617048119,2052.292550231884,-0.4078331276862831,14284.041263993282,10.5,10500014284.041264,47.655,-122.3035,60.0,10.6
2026-01-20T23:10:37+00:00,SAT-56487,324.96862613165695,43.605676596155696,2051.885804659205,-0.3852974980222909,13494.74818754131,10.5,10500013494.748188,47.655,-122.3035,60.0,10.616666666666667
2026-01-20T23:10:38+00:00,SAT-56487,325.22276202034834,43.51848154562384,2051.501534621177,-0.36274826192181536,12704.978556128524,10.5,10500012704.978556,47.655,-122.3035,60.0,10.633333333333333
2026-01-20T23:10:39+00:00,SAT-56487,325.4761257615406,43.43050632606887,2051.139753687954,-0.34018617584406247,11914.758864156134,10.5,10500011914.758863,47.655,-122.3035,60.0,10.65
2026-01-20T23:10:40+00:00,SAT-56487,325.72870904521614,43.34175631650757,2050.8004746752454,-0.31761199905971005,11124.115704494992,10.5,10500011124.115704,47.655,-122.3035,60.0,10.666666666666666
2026-01-20T23:10:41+00:00,SAT-56487,325.9805037444925,43.25223696599677,2050.4837096415167,-0.29502649138932957,10333.075689275547,10.5,10500010333.07569,47.655,-122.3035,60.0,10.683333333333334
2026-01-20T23:10:42+00:00,SAT-56487,326.23150191430346,43.16195379258818,2050.1894698874376,-0.2724304160331541,9541.665548998293,10.5,10500009541.665548,47.655,-122.3035,60.0,10.7
2026-01-20T23:10:43+00:00,SAT-56487,326.4816957934277,43.07091238104192,2049.917765952514,-0.24982453620615483,8749.912014679921,10.5,10500008749.912014,47.655,-122.3035,60.0,10.716666666666667
2026-01-20T23:10:44+00:00,SAT-56487,326.7310778019043,42.97911838216626,2049.668607615071,-0.22720961840538667,7957.841932289571,10.5,10500007957.841932,47.655,-122.3035,60.0,10.733333333333333
2026-01-20T23:10:45+00:00,SAT-56487,326.9796405435407,42.88657751026972,2049.4420038889816,-0.20458642960944223,7165.482164661873,10.5,10500007165.482164,47.655,-122.3035,60.0,10.75
2026-01-20T23:10:46+00:00,SAT-56487,327.227376805317,42.793295541681964,2049.237963023184,-0.18195573813556534,6372.859621516684,10.5,10500006372.859621,47.655,-122.3035,60.0,10.766666666666667
2026-01-20T23:10:47+00:00,SAT-56487,327.4742795545442,42.69927831411913,2049.0564925003505,-0.1593183138957934,5580.001268430278,10.5,10500005580.001268,47.655,-122.3035,60.0,10.783333333333333
2026-01-20T23:10:48+00:00,SAT-56487,327.72034194178343,42.604531723832245,2048.8975990352915,-0.1366749275965112,4786.934098800336,10.5,10500004786.9341,47.655,-122.3035,60.0,10.8
2026-01-20T23:10:49+00:00,SAT-56487,327.965557299754,42.50906172421009,2048.7612885741687,-0.1140263510362679,3993.6851442767547,10.5,10500003993.685144,47.655,-122.3035,60.0,10.816666666666666
2026-01-20T23:10:50+00:00,SAT-56487,328.2099191405402,42.41287432505579,2048.6475662934017,-0.09137335708417761,3200.281474005143,10.5,10500003200.281473,47.655,-122.3035,60.0,10.833333333333334
2026-01-20T23:10:51+00:00,SAT-56487,328.4534211571408,42.315975590127096,2048.5564365986033,-0.06871671854811391,2406.7501549862077,10.5,10500002406.750154,47.655,-122.3035,60.0,10.85
2026-01-20T23:10:52+00:00,SAT-56487,328.6960572238891,42.218371635057565,2048.487903124638,-0.046057209722493234,1613.1183062856737,10.5,10500001613.118307,47.655,-122.3035,60.0,10.866666666666667
2026-01-20T23:10:53+00:00,SAT-56487,328.9378213927896,42.12006862689625,2048.441968734141,-0.023395604738339352,819.4130412465652,10.5,10500000819.413042,47.655,-122.3035,60.0,10.883333333333333
2026-01-20T23:10:54+00:00,SAT-56487,329.17870789465456,42.02107278170029,2048.418635517682,-0.0007326784425035714,25.66149828321398,10.5,10500000025.661499,47.655,-122.3035,60.0,10.9
2026-01-20T23:10:55+00:00,SAT-56487,329.4187111376101,41.921390363150316,2048.417904793049,0.021930794785216753,-768.1092005482536,10.5,10499999231.890799,47.655,-122.3035,60.0,10.916666666666666
2026-01-20T23:10:56+00:00,SAT-56487,329.65782570703794,41.821027680556064,2048.4397771057147,0.04459403949903332,-1561.8718958561985,10.5,10499998438.128103,47.655,-122.3035,60.0,10.933333333333334
2026-01-20T23:10:57+00:00,SAT-56487,329.8960463633333,41.71999108773846,2048.484252227775,0.06725628138089748,-2355.5994677471954,10.5,10499997644.400532,47.655,-122.3035,60.0,10.95
2026-01-20T23:10:58+00:00,SAT-56487,330.1333680419309,41.6182869809475,2048.5513291590723,0.08991674452762312,-3149.2647408096,10.5,10499996850.73526,47.655,-122.3035,60.0,10.966666666666667
2026-01-20T23:10:59+00:00,SAT-56487,330.3697858507475,41.51592179785305,2048.6410061256147,0.11257465666903316,-3942.840666875109,10.5,10499996057.159332,47.655,-122.3035,60.0,10.983333333333333
2026-01-20T23:11:00+00:00,SAT-56487,330.6052950719162,41.41290201466044,2048.7532805831993,0.13522924208744172,-4736.300077029083,10.5,10499995263.699923,47.655,-122.3035,60.0,11.0
2026-01-20T23:11:01+00:00,SAT-56487,330.8398911570818,41.30923414600077,2048.8881492139744,0.15787972898455377,-5529.615939630524,10.5,10499994470.38406,47.655,-122.3035,60.0,11.016666666666667
2026-01-20T23:11:02+00:00,SAT-56487,331.07356972880837,41.20492474213581,2049.045607930348,0.1805253430743385,-6322.76113590741,10.5,10499993677.238865,47.655,-122.3035,60.0,11.033333333333333
2026-01-20T23:11:03+00:00,SAT-56487,331.30632657740773,41.09998038817522,2049.2256518725076,0.203165314307031,-7115.708695459662,10.5,10499992884.291304,47.655,-122.3035,60.0,11.05
2026-01-20T23:11:04+00:00,SAT-56487,331.5381576612273,40.99440770171139,2049.4282754126434,0.22579887034257393,-7908.4315676714805,10.5,10499992091.568432,47.655,-122.3035,60.0,11.066666666666666
2026-01-20T23:11:05+00:00,SAT-56487,331.7690591035885,40.888213331968316,2049.653472152665,0.24842524225157292,-8700.902821382904,10.5,10499991299.09718,47.655,-122.3035,60.0,11.083333333333334
2026-01-20T23:11:06+00:00,SAT-56487,331.99902719257057,40.78140395764406,2049.9012349276036,0.2710436615688922,-9493.095541694274,10.5,10499990506.904459,47.655,-122.3035,60.0,11.1
2026-01-20T23:11:07+00:00,SAT-56487,332.2280583792624,40.673986285427674,2050.171555806075,0.2936533622215866,-10284.982897490569,10.5,10499989715.017103,47.655,-122.3035,60.0,11.116666666666667
2026-01-20T23:11:08+00:00,SAT-56487,332.45614927625434,40.565967048396246,2050.4644260926643,0.3162535762418135,-11076.537991289433,10.5,10499988923.46201,47.655,-122.3035,60.0,11.133333333333333
2026-01-20T23:11:09+00:00,SAT-56487,332.68329665502716,40.45735300494937,2050.7798363260363,0.3388435398616584,-11867.73407270777,10.5,10499988132.265926,47.655,-122.3035,60.0,11.15
2026-01-20T23:11:10+00:00,SAT-56487,332.90949744515433,40.34815093685275,2051.117776283125,0.36142249208173394,-12658.54448832801,10.5,10499987341.455511,47.655,-122.3035,60.0,11.166666666666666
2026-01-20T23:11:11+00:00,SAT-56487,333.13474873340107,40.23836764732764,2051.4782349818943,0.38398967210390794,-13448.94259178139,10.5,10499986551.057407,47.655,-122.3035,60.0,11.183333333333334
2026-01-20T23:11:12+00:00,SAT-56487,333.35904776105906,40.12800995997693,2051.8612006815392,0.4065443205261278,-14238.90178559576,10.5,10499985761.098215,47.655,-122.3035,60.0,11.2
2026-01-20T23:11:13+00:00,SAT-56487,333.5823919220182,40.01708471736074,2052.266660883877,0.42908568111991935,-15028.395583451113,10.5,10499984971.604416,47.655,-122.3035,60.0,11.216666666666667
