satellites_20260120_184412/SAT-61551.csv

timestamp,satellite,azimuth_deg,elevation_deg,distance_km,relative_velocity_kms,doppler_shift_hz,tx_freq_ghz,rx_freq_hz,ue_lat,ue_lon,ue_alt_m,time_minutes
2026-01-20T23:06:30+00:00,SAT-61551,212.91477731665657,40.205716305494086,1200.4172556246535,-5.877953163341181,205870.78349743676,10.5,10500205870.783497,47.655,-122.3035,60.0,6.5
2026-01-20T23:06:31+00:00,SAT-61551,212.91548335808608,40.416303307069434,1194.5549770030811,-5.865689149161577,205441.24584413847,10.5,10500205441.245844,47.655,-122.3035,60.0,6.516666666666667
2026-01-20T23:06:32+00:00,SAT-61551,212.91652348412399,40.62870243894441,1188.7049296916507,-5.8532363055494345,205005.094585365,10.5,10500205005.094585,47.655,-122.3035,60.0,6.533333333333333
2026-01-20T23:06:33+00:00,SAT-61551,212.9179058801256,40.842936603446,1182.8673020162494,-5.840591303988753,204562.21314240637,10.5,10500204562.213142,47.655,-122.3035,60.0,6.55
2026-01-20T23:06:34+00:00,SAT-61551,212.91963899982687,41.05902899577432,1177.0422856224047,-5.827750773150842,204112.48343707115,10.5,10500204112.483437,47.655,-122.3035,60.0,6.566666666666666
2026-01-20T23:06:35+00:00,SAT-61551,212.9217315764081,41.277003106402596,1171.2300755179822,-5.814711299641921,203655.78591787047,10.5,10500203655.785917,47.655,-122.3035,60.0,6.583333333333333
2026-01-20T23:06:36+00:00,SAT-61551,212.9241926341751,41.49688272346781,1165.4308701151392,-5.8014693505145845,203191.99684604185,10.5,10500203191.996845,47.655,-122.3035,60.0,6.6
2026-01-20T23:06:37+00:00,SAT-61551,212.9270315006656,41.71869193210231,1159.6448713495595,-5.788021398113268,202720.99266816553,10.5,10500202720.992668,47.655,-122.3035,60.0,6.616666666666666
2026-01-20T23:06:38+00:00,SAT-61551,212.9302578195891,41.94245511839865,1153.8722846751743,-5.774363789051125,202242.64542718022,10.5,10500202242.645428,47.655,-122.3035,60.0,6.633333333333334
2026-01-20T23:06:39+00:00,SAT-61551,212.93388156421491,42.16819696824483,1148.1133191895608,-5.760492852792702,201756.82656540803,10.5,10500201756.826565,47.655,-122.3035,60.0,6.65
2026-01-20T23:06:40+00:00,SAT-61551,212.93791305163919,42.39594247020823,1142.368187651042,-5.746404796609487,201263.40324545326,10.5,10500201263.403246,47.655,-122.3035,60.0,6.666666666666667
2026-01-20T23:06:41+00:00,SAT-61551,212.94236295759166,42.62571691415496,1136.637106600557,-5.732095803031179,200762.2417633581,10.5,10500200762.241764,47.655,-122.3035,60.0,6.683333333333334
2026-01-20T23:06:42+00:00,SAT-61551,212.947242332227,42.85754589353991,1130.9202963863338,-5.717561980479377,200253.20581958556,10.5,10500200253.20582,47.655,-122.3035,60.0,6.7
2026-01-20T23:06:43+00:00,SAT-61551,212.95256261663596,43.09145530560937,1125.2179812378024,-5.702799346521235,199736.15593249173,10.5,10500199736.155933,47.655,-122.3035,60.0,6.716666666666667
2026-01-20T23:06:44+00:00,SAT-61551,212.95833566023515,43.32747135068936,1119.5303893562052,-5.687803846996183,199210.95010822426,10.5,10500199210.950108,47.655,-122.3035,60.0,6.733333333333333
2026-01-20T23:06:45+00:00,SAT-61551,212.96457373909018,43.5656205320225,1113.8577529861345,-5.672571370780213,198677.4443578305,10.5,10500198677.444357,47.655,-122.3035,60.0,6.75
2026-01-20T23:06:46+00:00,SAT-61551,212.97128957532394,43.805929656023814,1108.200308472343,-5.65709775091427,198135.49273677802,10.5,10500198135.492737,47.655,-122.3035,60.0,6.766666666666667
2026-01-20T23:06:47+00:00,SAT-61551,212.97849635754315,44.04842583237467,1102.558296315431,-5.641378699329503,197584.94505875724,10.5,10500197584.945059,47.655,-122.3035,60.0,6.783333333333333
2026-01-20T23:06:48+00:00,SAT-61551,212.9862077622928,44.29313647106719,1096.931961292633,-5.625409871148388,197025.64914777834,10.5,10500197025.649147,47.655,-122.3035,60.0,6.8
2026-01-20T23:06:49+00:00,SAT-61551,212.994437976823,44.54008928187168,1091.3215525144747,-5.609186850686824,196457.45034790586,10.5,10500196457.450348,47.655,-122.3035,60.0,6.816666666666666
2026-01-20T23:06:50+00:00,SAT-61551,213.00320172313698,44.789312272941125,1085.7273234953893,-5.592705192414614,195880.1929578677,10.5,10500195880.192957,47.655,-122.3035,60.0,6.833333333333333
2026-01-20T23:06:51+00:00,SAT-61551,213.01251428350182,45.04083375097518,1080.1495321834882,-5.575960254803429,195293.71441170815,10.5,10500195293.71441,47.655,-122.3035,60.0,6.85
2026-01-20T23:06:52+00:00,SAT-61551,213.02239152699963,45.29468231355067,1074.5884411560307,-5.558947431526914,194697.85337639347,10.5,10500194697.853376,47.655,-122.3035,60.0,6.866666666666666
2026-01-20T23:06:53+00:00,SAT-61551,213.0328499382245,45.55088685147292,1069.044317584321,-5.541661985034206,194092.44392285266,10.5,10500194092.443922,47.655,-122.3035,60.0,6.883333333333334
2026-01-20T23:06:54+00:00,SAT-61551,213.04390664723604,45.80947654326664,1063.5174333645805,-5.5240991076194055,193477.31766488857,10.5,10500193477.317665,47.655,-122.3035,60.0,6.9
2026-01-20T23:06:55+00:00,SAT-61551,213.05557946142739,46.070480851996514,1058.0080651879148,-5.506253911044237,192852.30339571947,10.5,10500192852.303396,47.655,-122.3035,60.0,6.916666666666667
2026-01-20T23:06:56+00:00,SAT-61551,213.06788689928848,46.3339295211748,1052.5164946206332,-5.488121425880407,192217.22706494594,10.5,10500192217.227064,47.655,-122.3035,60.0,6.933333333333334
2026-01-20T23:06:57+00:00,SAT-61551,213.08084822619466,46.5998525701684,1047.0430081852219,-5.469696606299457,191571.91194631153,10.5,10500191571.911947,47.655,-122.3035,60.0,6.95
2026-01-20T23:06:58+00:00,SAT-61551,213.09448349241376,46.86828028934768,1041.5878974365392,-5.45097430083068,190916.17761352131,10.5,10500190916.177614,47.655,-122.3035,60.0,6.966666666666667
2026-01-20T23:06:59+00:00,SAT-61551,213.10881357330987,47.139243233243164,1036.1514590671775,-5.431949322299026,190249.84238976342,10.5,10500190249.84239,47.655,-122.3035,60.0,6.983333333333333
2026-01-20T23:07:00+00:00,SAT-61551,213.12386021236733,47.41277221662314,1030.7339949430711,-5.412616354815671,189572.72009012496,10.5,10500189572.72009,47.655,-122.3035,60.0,7.0
2026-01-20T23:07:01+00:00,SAT-61551,213.1396460665108,47.688898305345425,1025.3358122318682,-5.392970022064847,188884.62241328595,10.5,10500188884.622414,47.655,-122.3035,60.0,7.016666666666667
2026-01-20T23:07:02+00:00,SAT-61551,213.15619475460616,47.96765280996064,1019.9572234631956,-5.373004864963632,188185.3581590706,10.5,10500188185.35816,47.655,-122.3035,60.0,7.033333333333333
2026-01-20T23:07:03+00:00,SAT-61551,213.17353090896225,48.249067277552086,1014.5985466112052,-5.352715313789032,187474.73225221975,10.5,10500187474.732252,47.655,-122.3035,60.0,7.05
2026-01-20T23:07:04+00:00,SAT-61551,213.19168023007035,48.533173481361935,1009.2601052049197,-5.332095784098353,186752.54910192805,10.5,10500186752.549103,47.655,-122.3035,60.0,7.066666666666666
2026-01-20T23:07:05+00:00,SAT-61551,213.21066954536613,48.82000341477393,1003.9422283429122,-5.311140521841606,186018.60717702535,10.5,10500186018.607178,47.655,-122.3035,60.0,7.083333333333333
2026-01-20T23:07:06+00:00,SAT-61551,213.23052687114156,49.10958927622614,998.6452508624623,-5.2898437448077145,185272.70396002094,10.5,10500185272.70396,47.655,-122.3035,60.0,7.1
2026-01-20T23:07:07+00:00,SAT-61551,213.25128147931787,49.4019634608246,993.3695133676407,-5.268199561176441,184514.63309444772,10.5,10500184514.633095,47.655,-122.3035,60.0,7.116666666666666
2026-01-20T23:07:08+00:00,SAT-61551,213.2729639682935,49.69715854666937,988.1153623386274,-5.246202046203043,183744.18707068326,10.5,10500183744.18707,47.655,-122.3035,60.0,7.133333333333334
2026-01-20T23:07:09+00:00,SAT-61551,213.29560633911012,49.99520728452845,982.8831501645475,-5.223845130856515,182961.1533255897,10.5,10500182961.153326,47.655,-122.3035,60.0,7.15
2026-01-20T23:07:10+00:00,SAT-61551,213.3192420762302,50.29614258022942,977.6732352873734,-5.201122692672769,182165.31742457667,10.5,10500182165.317425,47.655,-122.3035,60.0,7.166666666666667
2026-01-20T23:07:11+00:00,SAT-61551,213.34390623451438,50.59999748108032,972.4859822552144,-5.178028520062233,181356.46181150244,10.5,10500181356.461811,47.655,-122.3035,60.0,7.183333333333334
2026-01-20T23:07:12+00:00,SAT-61551,213.36963553213647,50.90680515914249,967.3217618112055,-5.154556362270141,180534.36755849436,10.5,10500180534.36756,47.655,-122.3035,60.0,7.2
2026-01-20T23:07:13+00:00,SAT-61551,213.3964684505152,51.21659889633143,962.1809509325682,-5.13069985554999,179698.81178023128,10.5,10500179698.81178,47.655,-122.3035,60.0,7.216666666666667
2026-01-20T23:07:14+00:00,SAT-61551,213.42444534099278,51.529412063900686,957.0639329432996,-5.106452515968031,178849.56738192635,10.5,10500178849.567383,47.655,-122.3035,60.0,7.233333333333333
2026-01-20T23:07:15+00:00,SAT-61551,213.45360853926863,51.84527809996397,951.9710976340409,-5.081807889652608,177986.40832169427,10.5,10500177986.408321,47.655,-122.3035,60.0,7.25
2026-01-20T23:07:16+00:00,SAT-61551,213.48400248943642,52.16423049496838,946.902841232094,-5.056759362630512,177109.10295021624,10.5,10500177109.102951,47.655,-122.3035,60.0,7.266666666666667
2026-01-20T23:07:17+00:00,SAT-61551,213.5156738759788,52.48630276397206,941.8595665610972,-5.031300305326695,176217.41907173095,10.5,10500176217.419071,47.655,-122.3035,60.0,7.283333333333333
2026-01-20T23:07:18+00:00,SAT-61551,213.54867176686835,52.81152842636348,936.8416830565847,-5.005423955468405,175311.11984284228,10.5,10500175311.119843,47.655,-122.3035,60.0,7.3
2026-01-20T23:07:19+00:00,SAT-61551,213.58304776682158,53.13994097647464,931.8496068983309,-4.979123551928541,174389.96846027955,10.5,10500174389.96846,47.655,-122.3035,60.0,7.316666666666666
2026-01-20T23:07:20+00:00,SAT-61551,213.61885618359696,53.47157386113198,926.8837610092074,-4.952392239864914,173453.72483847343,10.5,10500173453.724838,47.655,-122.3035,60.0,7.333333333333333
2026-01-20T23:07:21+00:00,SAT-61551,213.6561542066966,53.80646044929071,921.9445751486488,-4.925223073093378,172502.14569267273,10.5,10500172502.145693,47.655,-122.3035,60.0,7.35
2026-01-20T23:07:22+00:00,SAT-61551,213.69500210033542,54.144633999716646,917.0324860037504,-4.897609115426722,171534.9880882613,10.5,10500171534.988089,47.655,-122.3035,60.0,7.366666666666666
2026-01-20T23:07:23+00:00,SAT-61551,213.73546341313966,54.486127633654505,912.1479371792982,-4.8695433159645285,170552.00507288126,10.5,10500170552.005074,47.655,-122.3035,60.0,7.383333333333334
2026-01-20T23:07:24+00:00,SAT-61551,213.7776052038054,54.83097429678878,907.2913793121761,-4.841018607113524,169552.9491095203,10.5,10500169552.94911,47.655,-122.3035,60.0,7.4
2026-01-20T23:07:25+00:00,SAT-61551,213.8214982866865,55.17920672575816,902.4632700880148,-4.812027831835023,168537.56952840937,10.5,10500168537.569529,47.655,-122.3035,60.0,7.416666666666667
2026-01-20T23:07:26+00:00,SAT-61551,213.86721749727093,55.53085740707157,897.6640743303981,-4.78256385678469,167505.6164896558,10.5,10500167505.61649,47.655,-122.3035,60.0,7.433333333333334
2026-01-20T23:07:27+00:00,SAT-61551,213.91484198184108,55.88595854179511,892.8942639772316,-4.752619455732006,166456.83690009994,10.5,10500166456.8369,47.655,-122.3035,60.0,7.45
2026-01-20T23:07:28+00:00,SAT-61551,213.96445551089843,56.24454199906401,888.1543181733815,-4.722187378668375,165390.97683377322,10.5,10500165390.976833,47.655,-122.3035,60.0,7.466666666666667
2026-01-20T23:07:29+00:00,SAT-61551,214.01614682116005,56.60663927182218,883.4447232943895,-4.691260366183005,164307.78203540246,10.5,10500164307.782036,47.655,-122.3035,60.0,7.483333333333333
2026-01-20T23:07:30+00:00,SAT-61551,214.0700099883299,56.97228143074771,878.7659729558497,-4.659831121232577,163206.99693166418,10.5,10500163206.996931,47.655,-122.3035,60.0,7.5
2026-01-20T23:07:31+00:00,SAT-61551,214.12614483348307,57.34149907293478,874.1185680509404,-4.627892337242998,162088.36561542677,10.5,10500162088.365616,47.655,-122.3035,60.0,7.516666666666667
2026-01-20T23:07:32+00:00,SAT-61551,214.1846573672729,57.71432226939335,869.50301675993,-4.595436686605723,160951.63144284333,10.5,10500160951.631443,47.655,-122.3035,60.0,7.533333333333333
2026-01-20T23:07:33+00:00,SAT-61551,214.2456602756973,58.090780508128574,864.9198345711552,-4.562456841373473,159796.53775820293,10.5,10500159796.537758,47.655,-122.3035,60.0,7.55
2026-01-20T23:07:34+00:00,SAT-61551,214.30927345231098,58.47090263508651,860.3695442813588,-4.528945501251468,158622.82887430215,10.5,10500158622.828875,47.655,-122.3035,60.0,7.566666666666666
2026-01-20T23:07:35+00:00,SAT-61551,214.37562458250397,58.85471679357351,855.8526759681107,-4.494895345965535,157430.24840417472,10.5,10500157430.248404,47.655,-122.3035,60.0,7.583333333333333
2026-01-20T23:07:36+00:00,SAT-61551,214.444849784307,59.24225035541231,851.3697670097345,-4.460299075111495,156218.54065678563,10.5,10500156218.540657,47.655,-122.3035,60.0,7.6
2026-01-20T23:07:37+00:00,SAT-61551,214.51709431390555,59.63352985084673,846.9213620654899,-4.425149454125168,154987.4522470951,10.5,10500154987.452248,47.655,-122.3035,60.0,7.616666666666666
2026-01-20T23:07:38+00:00,SAT-61551,214.59251334366104,60.02858089775573,842.5080130099091,-4.389439236678993,153736.72937806003,10.5,10500153736.729378,47.655,-122.3035,60.0,7.633333333333334
2026-01-20T23:07:39+00:00,SAT-61551,214.6712728189998,60.42742811885032,838.1302789445278,-4.353161252253123,152466.1209077441,10.5,10500152466.120907,47.655,-122.3035,60.0,7.65
2026-01-20T23:07:40+00:00,SAT-61551,214.75355040695752,60.8300950610325,833.7887261222807,-4.3163083762532395,151175.37730271724,10.5,10500151175.377302,47.655,-122.3035,60.0,7.666666666666667
2026-01-20T23:07:41+00:00,SAT-61551,214.83953654557925,61.23660410619722,829.4839279016975,-4.278873557501821,149864.25160091624,10.5,10500149864.2516,47.655,-122.3035,60.0,7.683333333333334
2026-01-20T23:07:42+00:00,SAT-61551,214.92943560795993,61.64697637808772,825.2164646736824,-4.240849830336181,148532.4998353691,10.5,10500148532.499836,47.655,-122.3035,60.0,7.7
2026-01-20T23:07:43+00:00,SAT-61551,215.02346719560393,62.061231643446405,820.9869237762271,-4.20223028839551,147179.88011610636,10.5,10500147179.880116,47.655,-122.3035,60.0,7.716666666666667
2026-01-20T23:07:44+00:00,SAT-61551,215.12186757678688,62.47938820291283,816.7958994352673,-4.163008149086397,145806.15488801643,10.5,10500145806.154888,47.655,-122.3035,60.0,7.733333333333333
2026-01-20T23:07:45+00:00,SAT-61551,215.22489129193457,62.90146278000417,812.6439926412452,-4.123176749397761,144411.09078426677,10.5,10500144411.090784,47.655,-122.3035,60.0,7.75
2026-01-20T23:07:46+00:00,SAT-61551,215.33281294675942,63.327470400779774,808.5318110298457,-4.082729531941836,142994.4581374001,10.5,10500142994.458138,47.655,-122.3035,60.0,7.766666666666667
2026-01-20T23:07:47+00:00,SAT-61551,215.4459292189978,63.75742426214494,804.4599687766557,-4.04166009277079,141556.03265407463,10.5,10500141556.032654,47.655,-122.3035,60.0,7.783333333333333
2026-01-20T23:07:48+00:00,SAT-61551,215.56456111068823,64.19133559411976,800.4290864441324,-3.9999621758024437,140095.59521982924,10.5,10500140095.59522,47.655,-122.3035,60.0,7.8
2026-01-20T23:07:49+00:00,SAT-61551,215.68905647996982,64.62921350954768,796.439790834132,-3.957629698981899,138612.93281537434,10.5,10500138612.932816,47.655,-122.3035,60.0,7.816666666666666
2026-01-20T23:07:50+00:00,SAT-61551,215.81979289430066,65.07106484310515,792.4927148143474,-3.9146567742109935,137107.8392146057,10.5,10500137107.839214,47.655,-122.3035,60.0,7.833333333333333
2026-01-20T23:07:51+00:00,SAT-61551,215.95718085360392,65.5168939776759,788.5884971248677,-3.871037668575585,135580.1136266198,10.5,10500135580.113626,47.655,-122.3035,60.0,7.85
2026-01-20T23:07:52+00:00,SAT-61551,216.10166743731358,65.9667026492536,784.7277822234083,-3.826766920486091,134029.56476344695,10.5,10500134029.564764,47.655,-122.3035,60.0,7.866666666666666
2026-01-20T23:07:53+00:00,SAT-61551,216.25374044836215,66.42048974618832,780.9112200147102,-3.7818392534440197,132456.00781979045,10.5,10500132456.00782,47.655,-122.3035,60.0,7.883333333333334
2026-01-20T23:07:54+00:00,SAT-61551,216.41393312499324,66.87825107685808,777.1394656659421,-3.7362496812194648,130859.26815678726,10.5,10500130859.268156,47.655,-122.3035,60.0,7.9
2026-01-20T23:07:55+00:00,SAT-61551,216.58282952193485,67.33997912520758,773.4131793172058,-3.6899934411743134,129239.17896670465,10.5,10500129239.178967,47.655,-122.3035,60.0,7.916666666666667
2026-01-20T23:07:56+00:00,SAT-61551,216.76107066467293,67.8056627699374,769.7330258585413,-3.6430660767336063,127595.58416143633,10.5,10500127595.584162,47.655,-122.3035,60.0,7.933333333333334
2026-01-20T23:07:57+00:00,SAT-61551,216.94936161677353,68.27528698120827,766.0996746246789,-3.5954634383421458,125928.33840600663,10.5,10500125928.338406,47.655,-122.3035,60.0,7.95
2026-01-20T23:07:58+00:00,SAT-61551,217.14847961612182,68.74883247991464,762.513799088839,-3.547181674969717,124237.30682104762,10.5,10500124237.306822,47.655,-122.3035,60.0,7.966666666666667
2026-01-20T23:07:59+00:00,SAT-61551,217.35928347110064,69.22627535168827,758.9760765650026,-3.4982172985363387,122522.36723924374,10.5,10500122522.367239,47.655,-122.3035,60.0,7.983333333333333
2026-01-20T23:08:00+00:00,SAT-61551,217.5827244530196,69.70758661778879,755.487187845929,-3.4485671550838712,120783.40919563976,10.5,10500120783.409195,47.655,-122.3035,60.0,8.0
2026-01-20T23:08:01+00:00,SAT-61551,217.81985896068088,70.19273174118088,752.0478168699253,-3.398228491181923,119020.33625345636,10.5,10500119020.336254,47.655,-122.3035,60.0,8.016666666666667
2026-01-20T23:08:02+00:00,SAT-61551,218.07186330621767,70.681670069468,748.6586503213866,-3.3471989300236027,117233.0651668623,10.5,10500117233.065166,47.655,-122.3035,60.0,8.033333333333333
2026-01-20T23:08:03+00:00,SAT-61551,218.34005103625017,71.17435418823659,745.3203772551765,-3.295476520389953,115421.52759591606,10.5,10500115421.527596,47.655,-122.3035,60.0,8.05
2026-01-20T23:08:04+00:00,SAT-61551,218.6258933101143,71.67072917780273,742.0336886721741,-3.2430597553349076,113585.67076099201,10.5,10500113585.670761,47.655,-122.3035,60.0,8.066666666666666
2026-01-20T23:08:05+00:00,SAT-61551,218.93104297207995,72.17073174777732,738.7992770761869,-3.1899475676664517,111725.45728451162,10.5,10500111725.457285,47.655,-122.3035,60.0,8.083333333333334
2026-01-20T23:08:06+00:00,SAT-61551,219.25736310860955,72.67428921888902,735.6178360353674,-3.136139377908085,109840.86687075661,10.5,10500109840.86687,47.655,-122.3035,60.0,8.1
2026-01-20T23:08:07+00:00,SAT-61551,219.6069610868385,73.18131832634161,732.4900596958004,-3.081635094284847,107931.89630537969,10.5,10500107931.896305,47.655,-122.3035,60.0,8.116666666666667
2026-01-20T23:08:08+00:00,SAT-61551,219.98222931377967,73.69172379436147,729.4166422951004,-3.0264351641338103,105998.56125601735,10.5,10500105998.561256,47.655,-122.3035,60.0,8.133333333333333
2026-01-20T23:08:09+00:00,SAT-61551,220.38589429441475,74.20539663594647,726.3982776247376,-2.9705405311428525,104040.89477461089,10.5,10500104040.894775,47.655,-122.3035,60.0,8.15
2026-01-20T23:08:10+00:00,SAT-61551,220.82107597163562,74.72221209175964,723.4356585350112,-2.9139527173127804,102058.95016806659,10.5,10500102058.950169,47.655,-122.3035,60.0,8.166666666666666
2026-01-20T23:08:11+00:00,SAT-61551,221.2913599142165,75.24202713875131,720.5294763582779,-2.8566738240660134,100052.8010370866,10.5,10500100052.801037,47.655,-122.3035,60.0,8.183333333333334
2026-01-20T23:08:12+00:00,SAT-61551,221.80088561951456,75.76467743733187,717.680420331076,-2.7987065299764926,98022.54119666069,10.5,10500098022.541197,47.655,-122.3035,60.0,8.2
2026-01-20T23:08:13+00:00,SAT-61551,222.35445516582794,76.2899735616436,714.8891770185128,-2.7400541318170673,95968.28611371938,10.5,10500095968.286114,47.655,-122.3035,60.0,8.216666666666667
2026-01-20T23:08:14+00:00,SAT-61551,222.95766773151962,76.81769631635008,712.156429697714,-2.6807205349535015,93890.17257069144,10.5,10500093890.172571,47.655,-122.3035,60.0,8.233333333333333
2026-01-20T23:08:15+00:00,SAT-61551,223.61708718122256,77.3475908584668,709.4828577508537,-2.6207103166320733,91788.36088210322,10.5,10500091788.360882,47.655,-122.3035,60.0,8.25
2026-01-20T23:08:16+00:00,SAT-61551,224.34045222048837,77.87935927224834,706.8691359950659,-2.5600286836681145,89663.03341265242,10.5,10500089663.033413,47.655,-122.3035,60.0,8.266666666666667
2026-01-20T23:08:17+00:00,SAT-61551,225.13694163566768,78.41265108009502,704.3159340545542,-2.4986815457382865,87514.39714421371,10.5,10500087514.397144,47.655,-122.3035,60.0,8.283333333333333
2026-01-20T23:08:18+00:00,SAT-61551,226.01751129844638,78.9470510331057,701.8239156596046,-2.436675463168375,85342.68184714617,10.5,10500085342.681847,47.655,-122.3035,60.0,8.3
2026-01-20T23:08:19+00:00,SAT-61551,226.99532505753484,79.48206321727488,699.3937379976712,-2.374017723065875,83148.1427467788,10.5,10500083148.142746,47.655,-122.3035,60.0,8.316666666666666
2026-01-20T23:08:20+00:00,SAT-61551,228.08630905236325,80.01709019532711,697.0260509885336,-2.3107163199213763,80931.05984398865,10.5,10500080931.059843,47.655,-122.3035,60.0,8.333333333333334
2026-01-20T23:08:21+00:00,SAT-61551,229.309868518438,80.55140532804248,694.7214965787987,-2.2467799494282237,78691.7376987394,10.5,10500078691.7377,47.655,-122.3035,60.0,8.35
2026-01-20T23:08:22+00:00,SAT-61551,230.68981835965621,81.0841156789271,692.4807080425688,-2.1822180632616237,76430.50734867735,10.5,10500076430.507349,47.655,-122.3035,60.0,8.366666666666667
2026-01-20T23:08:23+00:00,SAT-61551,232.25559326749487,81.6141118206153,690.304309227476,-2.1170408279433333,74147.72486839879,10.5,10500074147.724869,47.655,-122.3035,60.0,8.383333333333333
2026-01-20T23:08:24+00:00,SAT-61551,234.04381784009502,82.13999925064694,688.1929138417405,-2.0512591612098716,71843.77264321857,10.5,10500071843.772644,47.655,-122.3035,60.0,8.4
2026-01-20T23:08:25+00:00,SAT-61551,236.10032607495003,82.66000394991867,686.1471247049604,-1.984884724093689,69519.05909181923,10.5,10500069519.059092,47.655,-122.3035,60.0,8.416666666666666
2026-01-20T23:08:26+00:00,SAT-61551,238.48270615861466,83.17184158621866,684.1675330067977,-1.9179299235642597,67174.01875875318,10.5,10500067174.018759,47.655,-122.3035,60.0,8.433333333333334
2026-01-20T23:08:27+00:00,SAT-61551,241.26337233608126,83.67253615077387,682.2547175630298,-1.8504079203030819,64809.112586756135,10.5,10500064809.112587,47.655,-122.3035,60.0,8.45
2026-01-20T23:08:28+00:00,SAT-61551,244.53294491668694,84.15817012969943,680.4092440638474,-1.7823326129061756,62424.827363451695,10.5,10500062424.827364,47.655,-122.3035,60.0,8.466666666666667
2026-01-20T23:08:29+00:00,SAT-61551,248.4031754490915,84.62354742731189,678.631664337909,-1.713718642569612,60021.675885458484,10.5,10500060021.675886,47.655,-122.3035,60.0,8.483333333333333
2026-01-20T23:08:30+00:00,SAT-61551,253.00746528515126,85.06175985070796,676.9225156117195,-1.6445813928584032,57600.19695029564,10.5,10500057600.19695,47.655,-122.3035,60.0,8.5
2026-01-20T23:08:31+00:00,SAT-61551,258.4947515427003,85.46368587338254,675.2823197692421,-1.574936974008864,55160.95480658513,10.5,10500055160.954807,47.655,-122.3035,60.0,8.516666666666667
2026-01-20T23:08:32+00:00,SAT-61551,265.00908253890094,85.8175502587231,673.7115826271639,-1.504802215838054,52704.538905710455,10.5,10500052704.538906,47.655,-122.3035,60.0,8.533333333333333
2026-01-20T23:08:33+00:00,SAT-61551,272.6446059644266,86.10887322776162,672.2107932172348,-1.4341946414064353,50231.56297937145,10.5,10500050231.562979,47.655,-122.3035,60.0,8.55
2026-01-20T23:08:34+00:00,SAT-61551,281.37159354628864,86.3214029762583,670.7804230948722,-1.3631324882483693,47742.665783166165,10.5,10500047742.665783,47.655,-122.3035,60.0,8.566666666666666
2026-01-20T23:08:35+00:00,SAT-61551,290.95607509870945,86.43965946139392,669.4209256265924,-1.2916346566142547,45238.509283811516,10.5,10500045238.509283,47.655,-122.3035,60.0,8.583333333333334
2026-01-20T23:08:36+00:00,SAT-61551,300.93804540300863,86.45292639574957,668.1327353290625,-1.2197207002190211,42719.7783351165,10.5,10500042719.778336,47.655,-122.3035,60.0,8.6
2026-01-20T23:08:37+00:00,SAT-61551,310.7317013891603,86.35888843886462,666.9162672173774,-1.147410817672274,40187.1803778295,10.5,10500040187.180378,47.655,-122.3035,60.0,8.616666666666667
2026-01-20T23:08:38+00:00,SAT-61551,319.81254134187645,86.16439476973076,665.7719161618854,-1.0747258189389652,37641.444264949234,10.5,10500037641.444265,47.655,-122.3035,60.0,8.633333333333333
2026-01-20T23:08:39+00:00,SAT-61551,327.86064554097703,85.88276240101409,664.7000562784636,-1.0016870974884424,35083.319286266524,10.5,10500035083.319286,47.655,-122.3035,60.0,8.65
2026-01-20T23:08:40+00:00,SAT-61551,334.77947299079864,85.52967175855042,663.7010403465686,-0.928316610604999,32513.574478756535,10.5,10500032513.574478,47.655,-122.3035,60.0,8.666666666666666
2026-01-20T23:08:41+00:00,SAT-61551,340.6276297103014,85.11997563954692,662.7751992469252,-0.8546368498552225,29932.997592220403,10.5,10500029932.997593,47.655,-122.3035,60.0,8.683333333333334
2026-01-20T23:08:42+00:00,SAT-61551,345.5376991770447,84.66618008096994,661.9228414286696,-0.7806707993587045,27342.393627748963,10.5,10500027342.393627,47.655,-122.3035,60.0,8.7
2026-01-20T23:08:43+00:00,SAT-61551,349.6602724278046,84.17816472522841,661.1442524181092,-0.7064419209158799,24742.584316836746,10.5,10500024742.584316,47.655,-122.3035,60.0,8.716666666666667
2026-01-20T23:08:44+00:00,SAT-61551,353.13570337140294,83.66349347515822,660.4396943423158,-0.6319740995230549,22134.406213087845,10.5,10500022134.406214,47.655,-122.3035,60.0,8.733333333333333
2026-01-20T23:08:45+00:00,SAT-61551,356.08384329602734,83.12789000705186,659.809405507058,-0.5572916231851558,19518.70998517293,10.5,10500019518.709986,47.655,-122.3035,60.0,8.75
2026-01-20T23:08:46+00:00,SAT-61551,358.6027821798035,82.57568592498654,659.2535999948681,-0.48241913506277223,16896.358740816315,10.5,10500016896.358742,47.655,-122.3035,60.0,8.766666666666667
2026-01-20T23:08:47+00:00,SAT-61551,0.7712110235362046,82.0101825288148,658.7724673108321,-0.4073815998797195,14268.226850246696,10.5,10500014268.22685,47.655,-122.3035,60.0,8.783333333333333
2026-01-20T23:08:48+00:00,SAT-61551,2.6517684562480506,81.43392384346546,658.3661720618854,-0.33220425765992045,11635.19832586704,10.5,10500011635.198326,47.655,-122.3035,60.0,8.8
2026-01-20T23:08:49+00:00,SAT-61551,4.2942701324815316,80.84889653480523,658.034853682246,-0.25691258903492636,8998.16560717724,10.5,10500008998.165607,47.655,-122.3035,60.0,8.816666666666666
2026-01-20T23:08:50+00:00,SAT-61551,5.738453658359114,80.25667455548586,657.7786261934484,-0.1815322675115352,6358.027888984184,10.5,10500006358.02789,47.655,-122.3035,60.0,8.833333333333334
2026-01-20T23:08:51+00:00,SAT-61551,7.016183719912089,79.65852361740528,657.5975780119836,-0.10608911802469044,3715.689669748962,10.5,10500003715.68967,47.655,-122.3035,60.0,8.85
2026-01-20T23:08:52+00:00,SAT-61551,8.15317643780446,79.05547692329513,657.4917717982737,-0.030609073544152984,1072.0592317689536,10.5,10500001072.059233,47.655,-122.3035,60.0,8.866666666666667
2026-01-20T23:08:53+00:00,SAT-61551,9.17033133666562,78.44839042812868,657.4612443489257,0.044881870424890224,-1571.9529524033169,10.5,10499998428.047047,47.655,-122.3035,60.0,8.883333333333333
2026-01-20T23:08:54+00:00,SAT-61551,10.084755880265549,77.83798351571865,657.5060065343627,0.12035770004220765,-4215.435768044506,10.5,10499995784.564232,47.655,-122.3035,60.0,8.9
2026-01-20T23:08:55+00:00,SAT-61551,10.910553924083302,77.22486919983228,657.6260432805382,0.1957924263168464,-6857.47897075812,10.5,10499993142.521029,47.655,-122.3035,60.0,8.916666666666666
2026-01-20T23:08:56+00:00,SAT-61551,11.65943442293877,76.60957676856884,657.8213135937181,0.2711601334406106,-9497.174879317381,10.5,10499990502.82512,47.655,-122.3035,60.0,8.933333333333334
2026-01-20T23:08:57+00:00,SAT-61551,12.341183672413468,75.99256890717612,658.0917506334696,0.3464350173205224,-12133.619725235,10.5,10499987866.380274,47.655,-122.3035,60.0,8.95
2026-01-20T23:08:58+00:00,SAT-61551,12.964033783601163,75.37425477982758,658.4372618240773,0.42159143499163193,-14765.915383408797,10.5,10499985234.084616,47.655,-122.3035,60.0,8.966666666666667
2026-01-20T23:08:59+00:00,SAT-61551,13.534952032154727,74.7550000889961,658.8577290152422,0.496603946642727,-17393.170844039825,10.5,10499982606.829157,47.655,-122.3035,60.0,8.983333333333333
2026-01-20T23:09:00+00:00,SAT-61551,14.05986954475502,74.13513488504013,659.3530086846939,0.5714473505223908,-20014.503435190167,10.5,10499979985.496565,47.655,-122.3035,60.0,9.0
2026-01-20T23:09:01+00:00,SAT-61551,14.543863231376024,73.51495967941872,659.9229321756148,0.6460967395152973,-22629.04080432411,10.5,10499977370.959196,47.655,-122.3035,60.0,9.016666666666667
2026-01-20T23:09:02+00:00,SAT-61551,14.991301484951768,72.89475024135166,660.5673059904915,0.7205275249214333,-25235.921751157097,10.5,10499974764.078249,47.655,-122.3035,60.0,9.033333333333333
2026-01-20T23:09:03+00:00,SAT-61551,15.40596158521811,72.27476141508936,661.2859121086798,0.7947154888846849,-27834.298063926584,10.5,10499972165.701937,47.655,-122.3035,60.0,9.05
2026-01-20T23:09:04+00:00,SAT-61551,15.791124909233059,71.6552301505476,662.0785083562608,0.8686368123131605,-30423.335497279873,10.5,10499969576.664503,47.655,-122.3035,60.0,9.066666666666666
2026-01-20T23:09:05+00:00,SAT-61551,16.14965459308278,71.03637794011736,662.9448288037412,0.9422681150666697,-33002.2151798096,10.5,10499966997.78482,47.655,-122.3035,60.0,9.083333333333334
2026-01-20T23:09:06+00:00,SAT-61551,16.48405925147113,70.41841277835921,663.8845842038343,1.0155864904508696,-35570.13482218466,10.5,10499964429.865177,47.655,-122.3035,60.0,9.1
2026-01-20T23:09:07+00:00,SAT-61551,16.796545544740816,69.80153074863848,664.8974624636439,1.0885695436075498,-38126.310061740354,10.5,10499961873.689938,47.655,-122.3035,60.0,9.116666666666667
2026-01-20T23:09:08+00:00,SAT-61551,17.089061777197635,69.18591730975022,665.9831291551352,1.1611954038305772,-40669.97489383492,10.5,10499959330.025106,47.655,-122.3035,60.0,9.133333333333333
2026-01-20T23:09:09+00:00,SAT-61551,17.363334234001897,68.5717483565096,667.1412280378889,1.2334427824221421,-43200.38369821996,10.5,10499956799.616302,47.655,-122.3035,60.0,9.15
2026-01-20T23:09:10+00:00,SAT-61551,17.620897624005757,67.95919107462736,668.3713816395579,1.3052909634026282,-45716.810913660796,10.5,10499954283.189087,47.655,-122.3035,60.0,9.166666666666666
2026-01-20T23:09:11+00:00,SAT-61551,17.86312068946336,67.34840466167381,669.6731918270581,1.3767198647371186,-48218.553182347714,10.5,10499951781.446817,47.655,-122.3035,60.0,9.183333333333334
2026-01-20T23:09:12+00:00,SAT-61551,18.09122785883174,66.73954090674943,671.0462404388227,1.4477100410411574,-50704.92944466319,10.5,10499949295.070555,47.655,-122.3035,60.0,9.2
2026-01-20T23:09:13+00:00,SAT-61551,18.30631762174158,66.13274468091531,672.4900899197543,1.5182426980939825,-53175.28144749664,10.5,10499946824.718552,47.655,-122.3035,60.0,9.216666666666667
2026-01-20T23:09:14+00:00,SAT-61551,18.509378188589714,65.52815434850693,674.0042839706534,1.5882997259585714,-55628.97490424859,10.5,10499944371.025095,47.655,-122.3035,60.0,9.233333333333333
2026-01-20T23:09:15+00:00,SAT-61551,18.70130089011059,64.92590210675843,675.5883482306762,1.6578637183468485,-58065.400173082104,10.5,10499941934.599827,47.655,-122.3035,60.0,9.25
2026-01-20T23:09:16+00:00,SAT-61551,18.88289168383652,64.32611427188013,677.2417909791073,1.7269179594280786,-60483.971794896934,10.5,10499939516.028206,47.655,-122.3035,60.0,9.266666666666667
2026-01-20T23:09:17+00:00,SAT-61551,19.054881067387985,63.72891153174317,678.964103823977,1.7954464710360019,-62884.1301467231,10.5,10499937115.869854,47.655,-122.3035,60.0,9.283333333333333
2026-01-20T23:09:18+00:00,SAT-61551,19.217932654076513,63.13440915098047,680.7547624377569,1.8634339911217155,-65265.34068704961,10.5,10499934734.659313,47.655,-122.3035,60.0,9.3
2026-01-20T23:09:19+00:00,SAT-61551,19.37265060968566,62.54271715870086,682.6132272715689,1.930866005017446,-67627.09505081407,10.5,10499932372.90495,47.655,-122.3035,60.0,9.316666666666666
2026-01-20T23:09:20+00:00,SAT-61551,19.51958612617135,61.95394050577672,684.538944300573,1.9977287423896477,-69968.91094268723,10.5,10499930031.089058,47.655,-122.3035,60.0,9.333333333333334
2026-01-20T23:09:21+00:00,SAT-61551,19.659243071660136,61.36817920686945,686.5313457663162,2.064009165952327,-72290.33174176594,10.5,10499927709.668259,47.655,-122.3035,60.0,9.35
2026-01-20T23:09:22+00:00,SAT-61551,19.792082935333116,60.7855284722681,688.5898509078261,2.1296949936331777,-74590.92727792493,10.5,10499925409.072721,47.655,-122.3035,60.0,9.366666666666667
2026-01-20T23:09:23+00:00,SAT-61551,19.91852916948717,60.206078822061144,690.7138667148096,2.194774700594261,-76870.29390258958,10.5,10499923129.706097,47.655,-122.3035,60.0,9.383333333333333
2026-01-20T23:09:24+00:00,SAT-61551,20.038971011026483,59.62991619146395,692.9027886828688,2.259237493756603,-79128.0535964795,10.5,10499920871.946404,47.655,-122.3035,60.0,9.4
2026-01-20T23:09:25+00:00,SAT-61551,20.15376685240744,59.057122035390336,695.1560015433089,2.3230733139391595,-81363.85404452428,10.5,10499918636.145956,47.655,-122.3035,60.0,9.416666666666666
2026-01-20T23:09:26+00:00,SAT-61551,20.263247223917418,58.48777342586217,697.4728799950775,2.3862728590194133,-83577.36944704539,10.5,10499916422.630552,47.655,-122.3035,60.0,9.433333333333334
2026-01-20T23:09:27+00:00,SAT-61551,20.36771743907647,57.92194313891791,699.8527894598062,2.448827540853359,-85768.29901091197,10.5,10499914231.700989,47.655,-122.3035,60.0,9.45
2026-01-20T23:09:28+00:00,SAT-61551,20.467459944128628,57.35969974773153,702.2950867938839,2.5107294846185035,-87936.36692652985,10.5,10499912063.633074,47.655,-122.3035,60.0,9.466666666666667
2026-01-20T23:09:29+00:00,SAT-61551,20.56273641108711,56.80110771162696,704.7991209998768,2.5719715379327264,-90081.3226872226,10.5,10499909918.677313,47.655,-122.3035,60.0,9.483333333333333
2026-01-20T23:09:30+00:00,SAT-61551,20.653789606407578,56.246227460064134,707.3642339470417,2.6325472379544173,-92202.93993693923,10.5,10499907797.060062,47.655,-122.3035,60.0,9.5
2026-01-20T23:09:31+00:00,SAT-61551,20.740845061724897,55.69511548077166,709.9897610590282,2.6924508001243947,-94301.0160759486,10.5,10499905698.983925,47.655,-122.3035,60.0,9.516666666666667
2026-01-20T23:09:32+00:00,SAT-61551,20.824112571037514,55.147824407506334,712.6750319903522,2.751677128184694,-96375.37261173959,10.5,10499903624.627388,47.655,-122.3035,60.0,9.533333333333333
2026-01-20T23:09:33+00:00,SAT-61551,20.903787535768654,54.60440310319431,715.4193713128618,2.810221755878265,-98425.85311709803,10.5,10499901574.146883,47.655,-122.3035,60.0,9.55
2026-01-20T23:09:34+00:00,SAT-61551,20.980052173485774,54.06489675226782,718.2220991440577,2.868080875379292,-100452.32422585684,10.5,10499899547.675774,47.655,-122.3035,60.0,9.566666666666666
2026-01-20T23:09:35+00:00,SAT-61551,21.053076608299598,53.529346944860166,721.0825318037693,2.9252513131561884,-102454.67478751576,10.5,10499897545.325212,47.655,-122.3035,60.0,9.583333333333334
2026-01-20T23:09:36+00:00,SAT-61551,21.123019854900974,52.997791763653616,723.9999824467571,2.981730458518817,-104432.81336466302,10.5,10499895567.186636,47.655,-122.3035,60.0,9.6
2026-01-20T23:09:37+00:00,SAT-61551,21.19003070726774,52.470265880929986,726.9737616240533,3.0375163454239593,-106386.67109814874,10.5,10499893613.328901,47.655,-122.3035,60.0,9.616666666666667
2026-01-20T23:09:38+00:00,SAT-61551,21.25424854557108,51.94680063869626,730.0031779258894,3.09260752859484,-108316.19736826674,10.5,10499891683.802631,47.655,-122.3035,60.0,9.633333333333333
2026-01-20T23:09:39+00:00,SAT-61551,21.31580406607768,51.42742414797716,733.0875385010746,3.147003144908359,-110221.36194479505,10.5,10499889778.638056,47.655,-122.3035,60.0,9.65
2026-01-20T23:09:40+00:00,SAT-61551,21.374819945817475,50.91216137479641,736.2261496375966,3.2007028526649877,-112102.15285997078,10.5,10499887897.84714,47.655,-122.3035,60.0,9.666666666666666
2026-01-20T23:09:41+00:00,SAT-61551,21.431411446533513,50.40103423381048,739.4183172826545,3.2537068143711743,-113958.57580545716,10.5,10499886041.424194,47.655,-122.3035,60.0,9.683333333333334
2026-01-20T23:09:42+00:00,SAT-61551,21.485686965058218,49.894061681743885,742.6633475455207,3.3060157013232288,-115790.65429289053,10.5,10499884209.345707,47.655,-122.3035,60.0,9.7
2026-01-20T23:09:43+00:00,SAT-61551,21.537748535881725,49.39125980726836,745.9605472049736,3.357630649951122,-117598.42812485556,10.5,10499882401.571875,47.655,-122.3035,60.0,9.716666666666667
2026-01-20T23:09:44+00:00,SAT-61551,21.587692289934562,48.892641924810235,749.3092241731916,3.408553243136323,-119381.95274055691,10.5,10499880618.04726,47.655,-122.3035,60.0,9.733333333333333
2026-01-20T23:09:45+00:00,SAT-61551,21.63560887439522,48.398218667905816,752.708687941013,3.458785503015918,-121141.29896378894,10.5,10499878858.701036,47.655,-122.3035,60.0,9.75
2026-01-20T23:09:46+00:00,SAT-61551,21.68158383737399,47.907998080575176,756.1582500160207,3.5083298733384907,-122876.55238496412,10.5,10499877123.447615,47.655,-122.3035,60.0,9.766666666666667
2026-01-20T23:09:47+00:00,SAT-61551,21.72569798078307,47.42198570810135,759.6572243430304,3.5571891707544334,-124587.81165509357,10.5,10499875412.188345,47.655,-122.3035,60.0,9.783333333333333
2026-01-20T23:09:48+00:00,SAT-61551,21.768027684037,46.940184691334174,763.2049276759961,3.6053666095919095,-126275.1893535462,10.5,10499873724.810646,47.655,-122.3035,60.0,9.8
2026-01-20T23:09:49+00:00,SAT-61551,21.808645202134688,46.46259585426607,766.8006799746291,3.652865735008176,-127938.80964672515,10.5,10499872061.190353,47.655,-122.3035,60.0,9.816666666666666
2026-01-20T23:09:50+00:00,SAT-61551,21.847618939500666,45.98921779727173,770.4438047343439,3.699690454402133,-129578.8093882682,10.5,10499870421.19061,47.655,-122.3035,60.0,9.833333333333334
2026-01-20T23:09:51+00:00,SAT-61551,21.88501370289053,45.52004698273241,774.1336293475342,3.745844958665545,-131195.33536093234,10.5,10499868804.664639,47.655,-122.3035,60.0,9.85
2026-01-20T23:09:52+00:00,SAT-61551,21.92089093401716,45.05507782741733,777.86948538631,3.7913337605128477,-132788.5456190659,10.5,10499867211.45438,47.655,-122.3035,60.0,9.866666666666667
2026-01-20T23:09:53+00:00,SAT-61551,21.95530892498663,44.594302786357225,781.6507089234615,3.836161667658834,-134358.60854917756,10.5,10499865641.39145,47.655,-122.3035,60.0,9.883333333333333
2026-01-20T23:09:54+00:00,SAT-61551,21.988323017237942,44.13771243695656,785.4766408266732,3.8803337035240473,-135905.7000927038,10.5,10499864094.299908,47.655,-122.3035,60.0,9.9
2026-01-20T23:09:55+00:00,SAT-61551,22.019985785237296,43.685295568809494,789.3466269736546,3.9238551663839365,-137430.0058176625,10.5,10499862569.994183,47.655,-122.3035,60.0,9.916666666666666
2026-01-20T23:09:56+00:00,SAT-61551,22.05034720715842,43.23703926299777,793.2600185262615,3.9667315929592335,-138931.71964343396,10.5,10499861068.280357,47.655,-122.3035,60.0,9.933333333333334
2026-01-20T23:09:57+00:00,SAT-61551,22.07945482296092,42.79292897233505,797.2161721683062,4.008968712294367,-140411.04222538797,10.5,10499859588.957775,47.655,-122.3035,60.0,9.95
2026-01-20T23:09:58+00:00,SAT-61551,22.10735388089428,42.35294860331791,801.2144502973678,4.050572462642563,-141868.1815462713,10.5,10499858131.818453,47.655,-122.3035,60.0,9.966666666666667
2026-01-20T23:09:59+00:00,SAT-61551,22.13408747378231,41.91708059265668,805.2542212334432,4.091548935539181,-143303.35095741934,10.5,10499856696.649042,47.655,-122.3035,60.0,9.983333333333333
2026-01-20T23:10:00+00:00,SAT-61551,22.15969666548484,41.48530598640289,809.334859371821,4.131904429712262,-144716.77106693175,10.5,10499855283.228933,47.655,-122.3035,60.0,10.0
2026-01-20T23:10:01+00:00,SAT-61551,22.18422060893134,41.05760450998937,813.4557453897207,4.171645371495068,-146108.66695218268,10.5,10499853891.333048,47.655,-122.3035,60.0,10.016666666666667
2026-01-20T23:10:02+00:00,SAT-61551,22.207696655689393,40.63395464335409,817.6162663735585,4.210778324021172,-147479.2684818719,10.5,10499852520.731518,47.655,-122.3035,60.0,10.033333333333333
2026-01-20T23:10:03+00:00,SAT-61551,22.23016045821581,40.21433369161712,821.8158159553823,4.249309967798769,-148828.80963565494,10.5,10499851171.190365,47.655,-122.3035,60.0,10.05
