satellites_20260120_184412/SAT-56465.csv

timestamp,satellite,azimuth_deg,elevation_deg,distance_km,relative_velocity_kms,doppler_shift_hz,tx_freq_ghz,rx_freq_hz,ue_lat,ue_lon,ue_alt_m,time_minutes
2026-01-20T23:05:32+00:00,SAT-56465,264.4912649927387,40.02484625575254,2838.538440545175,-4.645685855427749,162711.5698887641,10.5,10500162711.56989,47.655,-122.3035,60.0,5.533333333333333
2026-01-20T23:05:33+00:00,SAT-56465,264.61233447467015,40.0912347631655,2833.905143185362,-4.637730672694288,162432.94573904865,10.5,10500162432.94574,47.655,-122.3035,60.0,5.55
2026-01-20T23:05:34+00:00,SAT-56465,264.7340861529627,40.15756538762299,2829.279779794462,-4.629731021074145,162152.76410081843,10.5,10500162152.764101,47.655,-122.3035,60.0,5.566666666666666
2026-01-20T23:05:35+00:00,SAT-56465,264.85652376169696,40.22383613912467,2824.6623947227768,-4.621686658460568,161871.01649447088,10.5,10500161871.016495,47.655,-122.3035,60.0,5.583333333333333
2026-01-20T23:05:36+00:00,SAT-56465,264.97965104144293,40.29004500106438,2820.053032562072,-4.613597396933711,161587.696338258,10.5,10500161587.696339,47.655,-122.3035,60.0,5.6
2026-01-20T23:05:37+00:00,SAT-56465,265.1034717403535,40.35618993077458,2815.4517380915304,-4.605463021013472,161302.7960851552,10.5,10500161302.796085,47.655,-122.3035,60.0,5.616666666666666
2026-01-20T23:05:38+00:00,SAT-56465,265.2279896130192,40.422268858897624,2810.8585563052393,-4.597283338194335,161016.308992805,10.5,10500161016.308992,47.655,-122.3035,60.0,5.633333333333334
2026-01-20T23:05:39+00:00,SAT-56465,265.35320842069314,40.48827968948408,2806.2735323892803,-4.58905810484489,160728.22652820483,10.5,10500160728.226528,47.655,-122.3035,60.0,5.65
2026-01-20T23:05:40+00:00,SAT-56465,265.479131929437,40.554220299022326,2801.696711772715,-4.580787162591152,160438.5431444279,10.5,10500160438.543144,47.655,-122.3035,60.0,5.666666666666667
2026-01-20T23:05:41+00:00,SAT-56465,265.60576391209304,40.62008853743393,2797.1281400425573,-4.572470267309248,160147.25029122346,10.5,10500160147.250292,47.655,-122.3035,60.0,5.683333333333334
2026-01-20T23:05:42+00:00,SAT-56465,265.73310814541946,40.68588222660535,2792.567863029294,-4.564107205251091,159854.3404822294,10.5,10500159854.340483,47.655,-122.3035,60.0,5.7
2026-01-20T23:05:43+00:00,SAT-56465,265.86116841045543,40.75159916059027,2788.0159267765907,-4.555697786233219,159559.80705641635,10.5,10500159559.807056,47.655,-122.3035,60.0,5.716666666666667
2026-01-20T23:05:44+00:00,SAT-56465,265.9899484927688,40.81723710571932,2783.472377517787,-4.547241791867502,159263.64236490824,10.5,10500159263.642365,47.655,-122.3035,60.0,5.733333333333333
2026-01-20T23:05:45+00:00,SAT-56465,266.11945218112413,40.882793799957774,2778.9372617040312,-4.5387390196502135,158965.83931516798,10.5,10500158965.839315,47.655,-122.3035,60.0,5.75
2026-01-20T23:05:46+00:00,SAT-56465,266.2496832674734,40.94826695290556,2774.410625988434,-4.530189235387077,158666.38970472137,10.5,10500158666.389706,47.655,-122.3035,60.0,5.766666666666667
2026-01-20T23:05:47+00:00,SAT-56465,266.3806455454642,41.013654245103744,2769.892517257674,-4.521592254924661,158365.28708373624,10.5,10500158365.287085,47.655,-122.3035,60.0,5.783333333333333
2026-01-20T23:05:48+00:00,SAT-56465,266.5123428114329,41.078953328528655,2765.382982582096,-4.512947851515124,158062.5235105441,10.5,10500158062.52351,47.655,-122.3035,60.0,5.8
2026-01-20T23:05:49+00:00,SAT-56465,266.6447788625606,41.14416182574404,2760.8820692581853,-4.504255813613006,157758.09157592803,10.5,10500157758.091576,47.655,-122.3035,60.0,5.816666666666666
2026-01-20T23:05:50+00:00,SAT-56465,266.77795749678774,41.20927732989165,2756.389824793408,-4.495515936885496,157451.98412328874,10.5,10500157451.984123,47.655,-122.3035,60.0,5.833333333333333
2026-01-20T23:05:51+00:00,SAT-56465,266.91188251243824,41.27429740456501,2751.906296899021,-4.486728013254719,157144.19386485885,10.5,10500157144.193865,47.655,-122.3035,60.0,5.85
2026-01-20T23:05:52+00:00,SAT-56465,267.04655770754687,41.33921958352863,2747.431533493802,-4.477891803584468,156834.7124250768,10.5,10500156834.712425,47.655,-122.3035,60.0,5.866666666666666
2026-01-20T23:05:53+00:00,SAT-56465,267.181986878249,41.40404137003704,2742.9655827350266,-4.469007133630581,156523.53370117504,10.5,10500156523.5337,47.655,-122.3035,60.0,5.883333333333334
2026-01-20T23:05:54+00:00,SAT-56465,267.3181738202116,41.46876023755304,2738.5084929537525,-4.460073760267833,156210.64917787974,10.5,10500156210.649178,47.655,-122.3035,60.0,5.9
2026-01-20T23:05:55+00:00,SAT-56465,267.4551223258165,41.53337362852016,2734.060312723512,-4.451091486026418,155896.05193896304,10.5,10500155896.051939,47.655,-122.3035,60.0,5.916666666666667
2026-01-20T23:05:56+00:00,SAT-56465,267.5928361849571,41.597878954803505,2729.621090814782,-4.442060101687504,155579.73465669638,10.5,10500155579.734657,47.655,-122.3035,60.0,5.933333333333334
2026-01-20T23:05:57+00:00,SAT-56465,267.7313191839833,41.66227359729557,2725.1908762066987,-4.432979368087443,155261.68895455718,10.5,10500155261.688955,47.655,-122.3035,60.0,5.95
2026-01-20T23:05:58+00:00,SAT-56465,267.87057510405765,41.726554905260784,2720.769718116926,-4.423849109488411,154941.90867746354,10.5,10500154941.908678,47.655,-122.3035,60.0,5.966666666666667
2026-01-20T23:05:59+00:00,SAT-56465,268.01060772248377,41.79072019703735,2716.3576659383966,-4.414669079163942,154620.38518401084,10.5,10500154620.385183,47.655,-122.3035,60.0,5.983333333333333
2026-01-20T23:06:00+00:00,SAT-56465,268.15142080969304,41.85476675878892,2711.9547693101104,-4.405439093789,154297.11205338093,10.5,10500154297.112053,47.655,-122.3035,60.0,6.0
2026-01-20T23:06:01+00:00,SAT-56465,268.2930181305633,41.9186918452107,2707.5610780539046,-4.396158917726475,153972.08103256547,10.5,10500153972.081032,47.655,-122.3035,60.0,6.016666666666667
2026-01-20T23:06:02+00:00,SAT-56465,268.4354034419475,41.98249267855487,2703.1766422266255,-4.386828341394665,153645.28478112674,10.5,10500153645.28478,47.655,-122.3035,60.0,6.033333333333333
2026-01-20T23:06:03+00:00,SAT-56465,268.57858049273483,42.04616644879805,2698.8015120941413,-4.3774471592278195,153316.7160992826,10.5,10500153316.716099,47.655,-122.3035,60.0,6.05
2026-01-20T23:06:04+00:00,SAT-56465,268.7225530232199,42.10971031349272,2694.435738127338,-4.368015153991976,152986.3673785808,10.5,10500152986.367378,47.655,-122.3035,60.0,6.066666666666666
2026-01-20T23:06:05+00:00,SAT-56465,268.86732476386135,42.1731213973889,2690.079371013757,-4.358532112793364,152654.2311625809,10.5,10500152654.231163,47.655,-122.3035,60.0,6.083333333333333
2026-01-20T23:06:06+00:00,SAT-56465,269.0128994346286,42.23639679229529,2685.732461653264,-4.348997825984722,152320.300108549,10.5,10500152320.300108,47.655,-122.3035,60.0,6.1
2026-01-20T23:06:07+00:00,SAT-56465,269.15928074422715,42.29953355692389,2681.3950611548153,-4.339412069748095,151984.56637743366,10.5,10500151984.566378,47.655,-122.3035,60.0,6.116666666666666
2026-01-20T23:06:08+00:00,SAT-56465,269.3064723887611,42.362528716487766,2677.0672208505866,-4.3297746457095565,151647.0230213408,10.5,10500151647.023022,47.655,-122.3035,60.0,6.133333333333334
2026-01-20T23:06:09+00:00,SAT-56465,269.4544780517017,42.42537926287515,2672.748992270599,-4.320085326520547,151307.66207756216,10.5,10500151307.662077,47.655,-122.3035,60.0,6.15
2026-01-20T23:06:10+00:00,SAT-56465,269.6033014019767,42.48808215403584,2668.4404271716157,-4.310343910619077,150966.47648654424,10.5,10500150966.476486,47.655,-122.3035,60.0,6.166666666666667
2026-01-20T23:06:11+00:00,SAT-56465,269.75294609393757,42.55063431416958,2664.141577511425,-4.30055018191772,150623.45867999145,10.5,10500150623.45868,47.655,-122.3035,60.0,6.183333333333334
2026-01-20T23:06:12+00:00,SAT-56465,269.9034157658959,42.61303263332921,2659.852495463326,-4.290703928162052,150278.60122385583,10.5,10500150278.601223,47.655,-122.3035,60.0,6.2
2026-01-20T23:06:13+00:00,SAT-56465,270.05471403927913,42.675273967295176,2655.5732334123054,-4.280804937437132,149931.8966959799,10.5,10500149931.896696,47.655,-122.3035,60.0,6.216666666666667
2026-01-20T23:06:14+00:00,SAT-56465,270.20684451765993,42.737355137404535,2651.3038439547013,-4.270853001578176,149583.3378055523,10.5,10500149583.337805,47.655,-122.3035,60.0,6.233333333333333
2026-01-20T23:06:15+00:00,SAT-56465,270.3598107858611,42.79927293043176,2647.044379894461,-4.260847898336107,149232.91676847026,10.5,10500149232.916769,47.655,-122.3035,60.0,6.25
2026-01-20T23:06:16+00:00,SAT-56465,270.51361640841327,42.86102409821524,2642.794894257187,-4.250789427454547,148880.6265709084,10.5,10500148880.626572,47.655,-122.3035,60.0,6.266666666666667
2026-01-20T23:06:17+00:00,SAT-56465,270.6682649292992,42.9226053578145,2638.5554402682055,-4.240677370901625,148526.45957646827,10.5,10500148526.459576,47.655,-122.3035,60.0,6.283333333333333
2026-01-20T23:06:18+00:00,SAT-56465,270.8237598702234,42.984013391090436,2634.326071370293,-4.230511528934267,148170.40878930248,10.5,10500148170.408789,47.655,-122.3035,60.0,6.3
2026-01-20T23:06:19+00:00,SAT-56465,270.980104730186,43.045244844818185,2630.106841205436,-4.22029168441202,147812.46660423395,10.5,10500147812.466604,47.655,-122.3035,60.0,6.316666666666666
2026-01-20T23:06:20+00:00,SAT-56465,271.13730298372275,43.10629633028349,2625.8978036321823,-4.210017616806128,147452.62529741274,10.5,10500147452.625298,47.655,-122.3035,60.0,6.333333333333333
2026-01-20T23:06:21+00:00,SAT-56465,271.29535807958615,43.16716442308919,2621.6990127290214,-4.19968913849151,147090.87829741483,10.5,10500147090.878298,47.655,-122.3035,60.0,6.35
2026-01-20T23:06:22+00:00,SAT-56465,271.45427344089273,43.22784566349646,2617.5105227615654,-4.1893060227564085,146727.2176638356,10.5,10500146727.217665,47.655,-122.3035,60.0,6.366666666666666
2026-01-20T23:06:23+00:00,SAT-56465,271.6140524623752,43.288336555721436,2613.3323882215363,-4.178868079259306,146361.63673010984,10.5,10500146361.63673,47.655,-122.3035,60.0,6.383333333333334
2026-01-20T23:06:24+00:00,SAT-56465,271.7746985106395,43.34863356833832,2609.1646637904887,-4.168375078784449,145994.12746813236,10.5,10500145994.127468,47.655,-122.3035,60.0,6.4
2026-01-20T23:06:25+00:00,SAT-56465,271.9362149213382,43.40873313359107,2605.0074043785808,-4.157826828517322,145624.6831247232,10.5,10500145624.683125,47.655,-122.3035,60.0,6.416666666666667
2026-01-20T23:06:26+00:00,SAT-56465,272.0986049994102,43.46863164781053,2600.860665088273,-4.147223114602097,145253.2962097466,10.5,10500145253.29621,47.655,-122.3035,60.0,6.433333333333334
2026-01-20T23:06:27+00:00,SAT-56465,272.26187201691215,43.52832547099749,2596.7245012353096,-4.136563745258485,144879.9600062457,10.5,10500144879.960007,47.655,-122.3035,60.0,6.45
2026-01-20T23:06:28+00:00,SAT-56465,272.4260192126595,43.58781092704381,2592.5989683267053,-4.125848486926469,144504.66633396072,10.5,10500144504.666334,47.655,-122.3035,60.0,6.466666666666667
2026-01-20T23:06:29+00:00,SAT-56465,272.5910497891353,43.647084303030155,2588.4841221024103,-4.115077173553881,144127.40937704226,10.5,10500144127.409376,47.655,-122.3035,60.0,6.483333333333333
2026-01-20T23:06:30+00:00,SAT-56465,272.75696691397513,43.70614185011844,2584.3800184679862,-4.104249562656362,143748.18064266245,10.5,10500143748.180643,47.655,-122.3035,60.0,6.5
2026-01-20T23:06:31+00:00,SAT-56465,272.9237737153779,43.76497978236479,2580.28671357083,-4.093365482316377,143366.974109542,10.5,10500143366.97411,47.655,-122.3035,60.0,6.516666666666667
2026-01-20T23:06:32+00:00,SAT-56465,273.0914732836921,43.823594277667745,2576.2042637298,-4.082424702301735,142983.78171397565,10.5,10500142983.781713,47.655,-122.3035,60.0,6.533333333333333
2026-01-20T23:06:33+00:00,SAT-56465,273.26006866750333,43.88198147686154,2572.132725493371,-4.071427045199518,142598.5972422126,10.5,10500142598.597242,47.655,-122.3035,60.0,6.55
2026-01-20T23:06:34+00:00,SAT-56465,273.4295628744754,43.940137484423865,2568.072155586959,-4.060372296253841,142211.41317259334,10.5,10500142211.413172,47.655,-122.3035,60.0,6.566666666666666
2026-01-20T23:06:35+00:00,SAT-56465,273.59995886825,43.99805836788753,2564.022610950162,-4.049260252203225,141822.22238604104,10.5,10500141822.222385,47.655,-122.3035,60.0,6.583333333333333
2026-01-20T23:06:36+00:00,SAT-56465,273.77125956747625,44.055740157970654,2559.984148725298,-4.038090741194172,141431.01886351925,10.5,10500141431.018864,47.655,-122.3035,60.0,6.6
2026-01-20T23:06:37+00:00,SAT-56465,273.94346784566096,44.11317884899302,2555.95682622608,-4.026863517336235,141037.79399290445,10.5,10500141037.793993,47.655,-122.3035,60.0,6.616666666666666
2026-01-20T23:06:38+00:00,SAT-56465,274.11658652636805,44.17037039779905,2551.9407010114564,-4.01557843112742,140642.54253800443,10.5,10500140642.542538,47.655,-122.3035,60.0,6.633333333333334
2026-01-20T23:06:39+00:00,SAT-56465,274.2906183859352,44.22731072512308,2547.935830789479,-4.004235262570572,140245.2567935882,10.5,10500140245.256794,47.655,-122.3035,60.0,6.65
2026-01-20T23:06:40+00:00,SAT-56465,274.4655661487644,44.28399571458119,2543.9422734876084,-3.9928338030460493,139845.92945291343,10.5,10500139845.929453,47.655,-122.3035,60.0,6.666666666666667
2026-01-20T23:06:41+00:00,SAT-56465,274.64143248617756,44.34042121284435,2539.9600872413707,-3.9813739022900383,139444.5552531058,10.5,10500139444.555254,47.655,-122.3035,60.0,6.683333333333334
2026-01-20T23:06:42+00:00,SAT-56465,274.818220017493,44.396583030484535,2535.9893303361537,-3.9698553236215424,139041.12590459562,10.5,10500139041.125904,47.655,-122.3035,60.0,6.7
2026-01-20T23:06:43+00:00,SAT-56465,274.9959313043937,44.45247694077905,2532.0300612933947,-3.9582778920757433,138635.63527937487,10.5,10500138635.635279,47.655,-122.3035,60.0,6.716666666666667
2026-01-20T23:06:44+00:00,SAT-56465,275.1745688520984,44.50809868062603,2528.082338809031,-3.946641423614065,138228.07693163407,10.5,10500138228.076931,47.655,-122.3035,60.0,6.733333333333333
2026-01-20T23:06:45+00:00,SAT-56465,275.35413510723845,44.563443950466166,2524.1462217625467,-3.934945715627581,137818.4437651517,10.5,10500137818.443766,47.655,-122.3035,60.0,6.75
2026-01-20T23:06:46+00:00,SAT-56465,275.5346324552968,44.6185084140848,2520.221769235494,-3.9231905931372433,137406.72965142122,10.5,10500137406.72965,47.655,-122.3035,60.0,6.766666666666667
2026-01-20T23:06:47+00:00,SAT-56465,275.71606322014003,44.67328769907469,2516.3090404839386,-3.9113758561931307,136992.92758735068,10.5,10500136992.927588,47.655,-122.3035,60.0,6.783333333333333
2026-01-20T23:06:48+00:00,SAT-56465,275.8984296610906,44.727777396572556,2512.408094963362,-3.8995013259008675,136577.0313073023,10.5,10500136577.031307,47.655,-122.3035,60.0,6.8
2026-01-20T23:06:49+00:00,SAT-56465,276.08173397213494,44.781973061653545,2508.518992307663,-3.887566831222142,136159.0348207909,10.5,10500136159.03482,47.655,-122.3035,60.0,6.816666666666666
2026-01-20T23:06:50+00:00,SAT-56465,276.26597828053497,44.835870213551026,2504.641792321325,-3.875572159983332,135738.93069659872,10.5,10500135738.930696,47.655,-122.3035,60.0,6.833333333333333
2026-01-20T23:06:51+00:00,SAT-56465,276.4511646429453,44.889464335207116,2500.776555020435,-3.8635171506762593,135316.71327802626,10.5,10500135316.713278,47.655,-122.3035,60.0,6.85
2026-01-20T23:06:52+00:00,SAT-56465,276.63729504609375,44.942750874118325,2496.92334058216,-3.851401629989853,134892.3764949866,10.5,10500134892.376495,47.655,-122.3035,60.0,6.866666666666666
2026-01-20T23:06:53+00:00,SAT-56465,276.82437140432296,44.9957252423188,2493.082209356517,-3.839225403514296,134465.91353842567,10.5,10500134465.913538,47.655,-122.3035,60.0,6.883333333333334
2026-01-20T23:06:54+00:00,SAT-56465,277.0123955566549,45.048382816253266,2489.253221887412,-3.826988297966468,134037.3183392356,10.5,10500134037.318338,47.655,-122.3035,60.0,6.9
2026-01-20T23:06:55+00:00,SAT-56465,277.20136926593227,45.100718937249724,2485.4364388915733,-3.8146901384283063,133606.5847710459,10.5,10500133606.58477,47.655,-122.3035,60.0,6.916666666666667
2026-01-20T23:06:56+00:00,SAT-56465,277.39129421681787,45.15272891168917,2481.6319212601807,-3.8023307739997043,133173.70754869658,10.5,10500133173.707548,47.655,-122.3035,60.0,6.933333333333334
2026-01-20T23:06:57+00:00,SAT-56465,277.5821720151087,45.20440801154044,2477.839730034912,-3.789909994703567,132738.6793179015,10.5,10500132738.679317,47.655,-122.3035,60.0,6.95
2026-01-20T23:06:58+00:00,SAT-56465,277.77400418269866,45.25575147377485,2474.059926466861,-3.777427653140406,132301.49491610716,10.5,10500132301.494917,47.655,-122.3035,60.0,6.966666666666667
2026-01-20T23:06:59+00:00,SAT-56465,277.96679215884194,45.306754501460475,2470.292571954129,-3.7648835876246776,131862.14868040182,10.5,10500131862.14868,47.655,-122.3035,60.0,6.983333333333333
2026-01-20T23:07:00+00:00,SAT-56465,278.1605372974592,45.35741226381719,2466.5377280560715,-3.7522776129920974,131420.63412554903,10.5,10500131420.634125,47.655,-122.3035,60.0,7.0
2026-01-20T23:07:01+00:00,SAT-56465,278.3552408638457,45.407719896168906,2462.795456516714,-3.739609580783033,130976.94605186446,10.5,10500130976.946053,47.655,-122.3035,60.0,7.016666666666667
2026-01-20T23:07:02+00:00,SAT-56465,278.5509040346206,45.45767250072403,2459.065819228146,-3.726879316077387,130531.07833290643,10.5,10500130531.078333,47.655,-122.3035,60.0,7.033333333333333
2026-01-20T23:07:03+00:00,SAT-56465,278.7475278942416,45.50726514651997,2455.348878256912,-3.714086667971497,130083.02568339034,10.5,10500130083.025682,47.655,-122.3035,60.0,7.05
2026-01-20T23:07:04+00:00,SAT-56465,278.9451134342742,45.55649287006381,2451.644695820055,-3.7012314750334196,129632.78244928665,10.5,10500129632.78245,47.655,-122.3035,60.0,7.066666666666666
2026-01-20T23:07:05+00:00,SAT-56465,279.14366155074265,45.605350675525756,2447.9533342956215,-3.6883135810404637,129180.34315901592,10.5,10500129180.343159,47.655,-122.3035,60.0,7.083333333333333
2026-01-20T23:07:06+00:00,SAT-56465,279.34317304232644,45.653833535159684,2444.274856217464,-3.675332831885656,128725.70241510008,10.5,10500128725.702415,47.655,-122.3035,60.0,7.1
2026-01-20T23:07:07+00:00,SAT-56465,279.54364860840303,45.70193638970144,2440.60932427313,-3.6622890787281994,128268.85500450479,10.5,10500128268.855005,47.655,-122.3035,60.0,7.116666666666666
2026-01-20T23:07:08+00:00,SAT-56465,279.74508884722104,45.74965414882442,2436.9568012986115,-3.6491821595898126,127809.7952540655,10.5,10500127809.795254,47.655,-122.3035,60.0,7.133333333333334
2026-01-20T23:07:09+00:00,SAT-56465,279.9474942530452,45.79698169137295,2433.3173502914474,-3.63601194848434,127348.51875121411,10.5,10500127348.518751,47.655,-122.3035,60.0,7.15
2026-01-20T23:07:10+00:00,SAT-56465,280.15086521609385,45.8439138662559,2429.6910343748254,-3.622778272539812,126885.019441243,10.5,10500126885.019442,47.655,-122.3035,60.0,7.166666666666667
2026-01-20T23:07:11+00:00,SAT-56465,280.3552020176925,45.890445492277586,2426.077916844346,-3.6094810234332493,126419.29353022322,10.5,10500126419.29353,47.655,-122.3035,60.0,7.183333333333334
2026-01-20T23:07:12+00:00,SAT-56465,280.56050483190495,45.93657135943506,2422.478061103642,-3.5961200294006,125951.33500225114,10.5,10500125951.335003,47.655,-122.3035,60.0,7.2
2026-01-20T23:07:13+00:00,SAT-56465,280.76677371966036,45.982286228578246,2418.891530727653,-3.58269516517789,125481.13947005248,10.5,10500125481.13947,47.655,-122.3035,60.0,7.216666666666667
2026-01-20T23:07:14+00:00,SAT-56465,280.9740086293331,46.027584832508964,2415.318389416249,-3.569206301373384,125008.70240178134,10.5,10500125008.702402,47.655,-122.3035,60.0,7.233333333333333
2026-01-20T23:07:15+00:00,SAT-56465,281.1822093943603,46.07246187644249,2411.758700998346,-3.5556532961734337,124534.01883052393,10.5,10500124534.018831,47.655,-122.3035,60.0,7.25
2026-01-20T23:07:16+00:00,SAT-56465,281.3913757303251,46.11691203838965,2408.2125294442953,-3.5420360254575614,124057.08440905606,10.5,10500124057.08441,47.655,-122.3035,60.0,7.266666666666667
2026-01-20T23:07:17+00:00,SAT-56465,281.6015072338872,46.160929969938444,2404.679938848239,-3.52835434982769,123577.89425506743,10.5,10500123577.894255,47.655,-122.3035,60.0,7.283333333333333
2026-01-20T23:07:18+00:00,SAT-56465,281.81260337963744,46.20451029664047,2401.160993443344,-3.51460816235438,123096.44462343676,10.5,10500123096.444624,47.655,-122.3035,60.0,7.3
2026-01-20T23:07:19+00:00,SAT-56465,282.02466351999396,46.247647619015325,2397.655757569423,-3.5007973262502814,122612.73072329242,10.5,10500122612.730722,47.655,-122.3035,60.0,7.316666666666666
2026-01-20T23:07:20+00:00,SAT-56465,282.2376868811455,46.290336512797225,2394.1642957027093,-3.486921739960888,122126.74899776604,10.5,10500122126.748999,47.655,-122.3035,60.0,7.333333333333333
2026-01-20T23:07:21+00:00,SAT-56465,282.45167256314494,46.33257153001004,2390.6866724207216,-3.472981255054007,121638.49424813442,10.5,10500121638.494247,47.655,-122.3035,60.0,7.35
2026-01-20T23:07:22+00:00,SAT-56465,282.6666195347147,46.37434719905574,2387.2229524490144,-3.4589757961286325,121147.96383353526,10.5,10500121147.963833,47.655,-122.3035,60.0,7.366666666666666
2026-01-20T23:07:23+00:00,SAT-56465,282.88252663584547,46.41565802628523,2383.773200588342,-3.44490522662306,120655.15297100013,10.5,10500120655.152971,47.655,-122.3035,60.0,7.383333333333334
2026-01-20T23:07:24+00:00,SAT-56465,283.09939257164586,46.456498495958535,2380.3374817756567,-3.430769456549868,120160.0585087888,10.5,10500120160.058508,47.655,-122.3035,60.0,7.4
2026-01-20T23:07:25+00:00,SAT-56465,283.3172159133052,46.49686307153181,2376.9158610376576,-3.416568361568004,119662.67609195171,10.5,10500119662.676092,47.655,-122.3035,60.0,7.416666666666667
2026-01-20T23:07:26+00:00,SAT-56465,283.5359950936305,46.53674619599441,2373.508403525054,-3.4023018606779125,119163.00288354178,10.5,10500119163.002884,47.655,-122.3035,60.0,7.433333333333334
2026-01-20T23:07:27+00:00,SAT-56465,283.75572840788317,46.57614229314977,2370.115174469338,-3.3879698445432234,118661.03505413682,10.5,10500118661.035053,47.655,-122.3035,60.0,7.45
2026-01-20T23:07:28+00:00,SAT-56465,283.9764140097251,46.61504576807033,2366.7362392110467,-3.373572218592879,118156.76929145837,10.5,10500118156.76929,47.655,-122.3035,60.0,7.466666666666667
2026-01-20T23:07:29+00:00,SAT-56465,284.19804991016895,46.653451008084964,2363.3716631850366,-3.359108899962662,117650.20269325105,10.5,10500117650.202694,47.655,-122.3035,60.0,7.483333333333333
2026-01-20T23:07:30+00:00,SAT-56465,284.4206339762695,46.69135238374523,2360.0215119088075,-3.3445797922453155,117141.33188292487,10.5,10500117141.331882,47.655,-122.3035,60.0,7.5
2026-01-20T23:07:31+00:00,SAT-56465,284.6441639281809,46.728744249526954,2356.6858509960075,-3.3299848109503194,116630.15390126444,10.5,10500116630.153902,47.655,-122.3035,60.0,7.516666666666667
2026-01-20T23:07:32+00:00,SAT-56465,284.8686373378919,46.76562094484566,2353.3647461445535,-3.3153238833976726,116116.66620270869,10.5,10500116116.666203,47.655,-122.3035,60.0,7.533333333333333
2026-01-20T23:07:33+00:00,SAT-56465,285.09405162810634,46.801976795087306,2350.058263124845,-3.3005969209472403,115600.86568270515,10.5,10500115600.865683,47.655,-122.3035,60.0,7.55
2026-01-20T23:07:34+00:00,SAT-56465,285.3204040690538,46.83780611235506,2346.766467795687,-3.2858038607088598,115082.7501385743,10.5,10500115082.75014,47.655,-122.3035,60.0,7.566666666666666
2026-01-20T23:07:35+00:00,SAT-56465,285.547691778415,46.873103196697336,2343.4894260786064,-3.270944624147838,114562.31681969899,10.5,10500114562.31682,47.655,-122.3035,60.0,7.583333333333333
2026-01-20T23:07:36+00:00,SAT-56465,285.775911718217,46.90786233690393,2340.227203973456,-3.25601914471178,114039.56339513282,10.5,10500114039.563395,47.655,-122.3035,60.0,7.6
2026-01-20T23:07:37+00:00,SAT-56465,286.00506069379554,46.942077811628366,2336.979867546464,-3.2410273650211496,113514.48785520173,10.5,10500113514.487856,47.655,-122.3035,60.0,7.616666666666666
2026-01-20T23:07:38+00:00,SAT-56465,286.2351353525792,46.975743890494996,2333.7474829210823,-3.225969226011661,112987.08813122458,10.5,10500112987.08813,47.655,-122.3035,60.0,7.633333333333334
2026-01-20T23:07:39+00:00,SAT-56465,286.46613218214156,47.00885483511406,2330.5301162796736,-3.210844667107076,112457.36210156526,10.5,10500112457.362103,47.655,-122.3035,60.0,7.65
2026-01-20T23:07:40+00:00,SAT-56465,286.69804750821726,47.04140490012469,2327.3278338650125,-3.1956536345092825,111925.30788198637,10.5,10500111925.307882,47.655,-122.3035,60.0,7.666666666666667
2026-01-20T23:07:41+00:00,SAT-56465,286.93087749345284,47.07338833434535,2324.1407019735284,-3.1803960995836547,111390.92446958214,10.5,10500111390.924469,47.655,-122.3035,60.0,7.683333333333334
2026-01-20T23:07:42+00:00,SAT-56465,287.16461813754387,47.104799382124014,2320.9687869302106,-3.165071989884988,110854.20932701508,10.5,10500110854.209328,47.655,-122.3035,60.0,7.7
2026-01-20T23:07:43+00:00,SAT-56465,287.3992652722155,47.135632284027174,2317.8121551322984,-3.1496812928384017,110315.16201385965,10.5,10500110315.162014,47.655,-122.3035,60.0,7.716666666666667
2026-01-20T23:07:44+00:00,SAT-56465,287.63481456409136,47.1658812785737,2314.670872989574,-3.134223962826597,109773.78093240515,10.5,10500109773.780931,47.655,-122.3035,60.0,7.733333333333333
2026-01-20T23:07:45+00:00,SAT-56465,287.8712615105884,47.19554060307518,2311.545006957315,-3.118699966496636,109230.06491449055,10.5,10500109230.064915,47.655,-122.3035,60.0,7.75
2026-01-20T23:07:46+00:00,SAT-56465,288.10860143922326,47.22460449494495,2308.4346235240623,-3.1031092774200744,108684.01303447993,10.5,10500108684.013035,47.655,-122.3035,60.0,7.766666666666667
2026-01-20T23:07:47+00:00,SAT-56465,288.3468295066403,47.253067192972495,2305.339789204715,-3.0874518786325345,108135.62469820908,10.5,10500108135.624699,47.655,-122.3035,60.0,7.783333333333333
2026-01-20T23:07:48+00:00,SAT-56465,288.58594069785,47.2809229386397,2302.2605705310925,-3.071727747132499,107584.89910006756,10.5,10500107584.8991,47.655,-122.3035,60.0,7.8
2026-01-20T23:07:49+00:00,SAT-56465,288.8259298243629,47.308165977313955,2299.1970340579524,-3.0559368823487296,107031.83622004815,10.5,10500107031.83622,47.655,-122.3035,60.0,7.816666666666666
2026-01-20T23:07:50+00:00,SAT-56465,289.06679152455666,47.334790559719515,2296.1492463406234,-3.04007925246616,106476.43494385266,10.5,10500106476.434944,47.655,-122.3035,60.0,7.833333333333333
2026-01-20T23:07:51+00:00,SAT-56465,289.3085202598254,47.36079094295461,2293.117273966164,-3.024154870975992,105918.69574400006,10.5,10500105918.695744,47.655,-122.3035,60.0,7.85
2026-01-20T23:07:52+00:00,SAT-56465,289.5511103169882,47.38616139219819,2290.101183508177,-3.008163733099435,105358.61845311688,10.5,10500105358.618454,47.655,-122.3035,60.0,7.866666666666666
2026-01-20T23:07:53+00:00,SAT-56465,289.7945558055891,47.41089618187827,2287.1010415450323,-2.99210584375504,104796.2032434716,10.5,10500104796.203243,47.655,-122.3035,60.0,7.883333333333334
2026-01-20T23:07:54+00:00,SAT-56465,290.0388506575095,47.43498959710575,2284.1169146501943,-2.975981212567473,104231.45045216069,10.5,10500104231.450453,47.655,-122.3035,60.0,7.9
2026-01-20T23:07:55+00:00,SAT-56465,290.28398862629473,47.45843593507954,2281.148869387527,-2.959789854010071,103664.36058610168,10.5,10500103664.360586,47.655,-122.3035,60.0,7.916666666666667
2026-01-20T23:07:56+00:00,SAT-56465,290.52996328648885,47.481229506513635,2278.1969723064612,-2.943531789730709,103094.93440349471,10.5,10500103094.934404,47.655,-122.3035,60.0,7.933333333333334
2026-01-20T23:07:57+00:00,SAT-56465,290.77676803330706,47.50336463709467,2275.2612899348364,-2.927207036519697,102523.17249240747,10.5,10500102523.172493,47.655,-122.3035,60.0,7.95
2026-01-20T23:07:58+00:00,SAT-56465,291.0243960812702,47.52483566887162,2272.3418887837474,-2.910815633222052,101949.07621335673,10.5,10500101949.076214,47.655,-122.3035,60.0,7.966666666666667
2026-01-20T23:07:59+00:00,SAT-56465,291.2728404653118,47.54563696185649,2269.438835325547,-2.8943575994047417,101372.64625166051,10.5,10500101372.646252,47.655,-122.3035,60.0,7.983333333333333
2026-01-20T23:08:00+00:00,SAT-56465,291.5220940382589,47.56576289534466,2266.552196013074,-2.877833000520883,100793.8848997638,10.5,10500100793.8849,47.655,-122.3035,60.0,8.0
2026-01-20T23:08:01+00:00,SAT-56465,291.7721494743045,47.58520786970179,2263.6820372338875,-2.8612418473198313,100212.79253415452,10.5,10500100212.792534,47.655,-122.3035,60.0,8.016666666666667
2026-01-20T23:08:02+00:00,SAT-56465,292.0229992633447,47.60396630748469,2260.8284253648276,-2.844584217726925,99629.37188410762,10.5,10500099629.371883,47.655,-122.3035,60.0,8.033333333333333
2026-01-20T23:08:03+00:00,SAT-56465,292.27463571659655,47.62203265538897,2257.9914267050144,-2.827860144942382,99043.62411243517,10.5,10500099043.624113,47.655,-122.3035,60.0,8.05
2026-01-20T23:08:04+00:00,SAT-56465,292.5270509619844,47.639401385477356,2255.171107520459,-2.811069705289376,98455.5518922976,10.5,10500098455.551893,47.655,-122.3035,60.0,8.066666666666666
2026-01-20T23:08:05+00:00,SAT-56465,292.78023694772423,47.656066996980236,2252.36753400105,-2.7942129568388774,97865.15725758589,10.5,10500097865.157257,47.655,-122.3035,60.0,8.083333333333334
2026-01-20T23:08:06+00:00,SAT-56465,293.0341854402799,47.6720240177275,2249.580772278763,-2.777289960819424,97272.44235278245,10.5,10500097272.442352,47.655,-122.3035,60.0,8.1
2026-01-20T23:08:07+00:00,SAT-56465,293.2888880244323,47.68726700573039,2246.8108884245053,-2.7603008161948743,96677.4106440202,10.5,10500096677.410645,47.655,-122.3035,60.0,8.116666666666667
2026-01-20T23:08:08+00:00,SAT-56465,293.5443361066786,47.70179055095368,2244.0579484104874,-2.743245581345702,96080.06417603033,10.5,10500096080.064177,47.655,-122.3035,60.0,8.133333333333333
2026-01-20T23:08:09+00:00,SAT-56465,293.80052091126913,47.7155892766803,2241.3220181506917,-2.726124354627934,95480.40639365687,10.5,10500095480.406393,47.655,-122.3035,60.0,8.15
2026-01-20T23:08:10+00:00,SAT-56465,294.0574334840381,47.728657841311765,2238.6031634610094,-2.708937226129877,94878.44045217345,10.5,10500094878.440453,47.655,-122.3035,60.0,8.166666666666666
2026-01-20T23:08:11+00:00,SAT-56465,294.31506469174406,47.74099093992087,2235.9014500674825,-2.691684291815874,94274.16971265728,10.5,10500094274.169712,47.655,-122.3035,60.0,8.183333333333334
2026-01-20T23:08:12+00:00,SAT-56465,294.57340522270715,47.75258330589721,2233.216943600445,-2.6743656641285325,93667.59811332409,10.5,10500093667.598114,47.655,-122.3035,60.0,8.2
2026-01-20T23:08:13+00:00,SAT-56465,294.8324455888379,47.7634297126249,2230.5497095780875,-2.6569814372135316,93058.72895155381,10.5,10500093058.728952,47.655,-122.3035,60.0,8.216666666666667
2026-01-20T23:08:14+00:00,SAT-56465,295.0921761239902,47.773524975045675,2227.8998134247063,-2.6395317415128443,92447.56679597612,10.5,10500092447.566795,47.655,-122.3035,60.0,8.233333333333333
2026-01-20T23:08:15+00:00,SAT-56465,295.3525869882002,47.78286395142184,2225.267320434504,-2.622016689416477,91834.11558296444,10.5,10500091834.115583,47.655,-122.3035,60.0,8.25
2026-01-20T23:08:16+00:00,SAT-56465,295.61366816624417,47.79144154491366,2222.6522957895927,-2.6044364055483022,91218.37967737393,10.5,10500091218.379677,47.655,-122.3035,60.0,8.266666666666667
2026-01-20T23:08:17+00:00,SAT-56465,295.87540946959086,47.79925270526306,2220.0548045477926,-2.5867910356540618,90600.36418383698,10.5,10500090600.364183,47.655,-122.3035,60.0,8.283333333333333
2026-01-20T23:08:18+00:00,SAT-56465,296.1378005392422,47.80629243050176,2217.4749116215667,-2.569080703370156,89980.0734326233,10.5,10500089980.073433,47.655,-122.3035,60.0,8.3
2026-01-20T23:08:19+00:00,SAT-56465,296.40083084422304,47.81255576854132,2214.9126818000727,-2.5513055661916053,89357.51293987475,10.5,10500089357.51294,47.655,-122.3035,60.0,8.316666666666666
2026-01-20T23:08:20+00:00,SAT-56465,296.6644896860374,47.81803781890958,2212.368179715391,-2.533465760127929,88732.68746921996,10.5,10500088732.68747,47.655,-122.3035,60.0,8.333333333333334
2026-01-20T23:08:21+00:00,SAT-56465,296.9287661973028,47.822733734364135,2209.8414698639567,-2.5155614546114666,88105.60295489621,10.5,10500088105.602955,47.655,-122.3035,60.0,8.35
2026-01-20T23:08:22+00:00,SAT-56465,297.1936493464497,47.82663872260646,2207.3326165732237,-2.4975928123421705,87476.26509534402,10.5,10500087476.265095,47.655,-122.3035,60.0,8.366666666666667
2026-01-20T23:08:23+00:00,SAT-56465,297.45912793818314,47.82974804791478,2204.8416840083814,-2.479559990246615,86844.67938679585,10.5,10500086844.679386,47.655,-122.3035,60.0,8.383333333333333
2026-01-20T23:08:24+00:00,SAT-56465,297.7251906139575,47.83205703280934,2202.368736178109,-2.46146317785088,86210.85246725667,10.5,10500086210.852467,47.655,-122.3035,60.0,8.4
2026-01-20T23:08:25+00:00,SAT-56465,297.99182585705086,47.83356105972043,2199.9138369020657,-2.4433025465846074,85574.79034091771,10.5,10500085574.79034,47.655,-122.3035,60.0,8.416666666666666
2026-01-20T23:08:26+00:00,SAT-56465,298.2590219918639,47.83425557263105,2197.4770498289386,-2.425078292215831,84936.49986440361,10.5,10500084936.499865,47.655,-122.3035,60.0,8.433333333333334
2026-01-20T23:08:27+00:00,SAT-56465,298.52676718827036,47.83413607872034,2195.0584384121685,-2.4067906029441755,84295.98762926132,10.5,10500084295.987629,47.655,-122.3035,60.0,8.45
2026-01-20T23:08:28+00:00,SAT-56465,298.7950494622539,47.83319815001002,2192.658065917499,-2.3884396791817872,83653.26065477193,10.5,10500083653.260654,47.655,-122.3035,60.0,8.466666666666667
2026-01-20T23:08:29+00:00,SAT-56465,299.06385667908853,47.8314374249874,2190.275995410795,-2.370025729808769,83008.32625680021,10.5,10500083008.326258,47.655,-122.3035,60.0,8.483333333333333
2026-01-20T23:08:30+00:00,SAT-56465,299.33317655603815,47.82884961022719,2187.912289749599,-2.351548975745459,82361.19217291089,10.5,10500082361.192173,47.655,-122.3035,60.0,8.5
2026-01-20T23:08:31+00:00,SAT-56465,299.6029966657139,47.82543048198224,2185.5670115711223,-2.333009621358207,81711.86556087804,10.5,10500081711.86556,47.655,-122.3035,60.0,8.516666666666667
2026-01-20T23:08:32+00:00,SAT-56465,299.8733044359431,47.821175887830925,2183.240223308754,-2.314407900447928,81060.35460939862,10.5,10500081060.354609,47.655,-122.3035,60.0,8.533333333333333
2026-01-20T23:08:33+00:00,SAT-56465,300.14408715543595,47.81608174821345,2180.931987162707,-2.295744047777086,80406.66754084722,10.5,10500080406.667542,47.655,-122.3035,60.0,8.55
2026-01-20T23:08:34+00:00,SAT-56465,300.41533197593924,47.81014405801893,2178.642365099058,-2.277018300555734,79750.81266332326,10.5,10500079750.812664,47.655,-122.3035,60.0,8.566666666666666
2026-01-20T23:08:35+00:00,SAT-56465,300.6870259148262,47.803358888142085,2176.3714188473036,-2.2582309065021313,79092.79865296805,10.5,10500079092.798653,47.655,-122.3035,60.0,8.583333333333334
2026-01-20T23:08:36+00:00,SAT-56465,300.95915585860786,47.79572238701807,2174.1192098898855,-2.239382112509186,78432.63415701556,10.5,10500078432.634157,47.655,-122.3035,60.0,8.6
2026-01-20T23:08:37+00:00,SAT-56465,301.23170856521125,47.78723078217457,2171.8857994630093,-2.2204721814093586,77770.32838097036,10.5,10500077770.32838,47.655,-122.3035,60.0,8.616666666666667
2026-01-20T23:08:38+00:00,SAT-56465,301.5046706684055,47.77788038170185,2169.6712485407506,-2.2015013877366147,77105.8909401732,10.5,10500077105.89094,47.655,-122.3035,60.0,8.633333333333333
2026-01-20T23:08:39+00:00,SAT-56465,301.77802868192083,47.76766757569679,2167.4756178233815,-2.1824699806848296,76439.33056244766,10.5,10500076439.330563,47.655,-122.3035,60.0,8.65
2026-01-20T23:08:40+00:00,SAT-56465,302.05176899857594,47.75658883791378,2165.2989677626447,-2.1633782641922936,75770.65789299837,10.5,10500075770.657892,47.655,-122.3035,60.0,8.666666666666666
2026-01-20T23:08:41+00:00,SAT-56465,302.3258779002761,47.74464072693176,2163.1413585071573,-2.144226508322419,75099.88239058835,10.5,10500075099.882391,47.655,-122.3035,60.0,8.683333333333334
2026-01-20T23:08:42+00:00,SAT-56465,302.60034155610686,47.73181988782425,2161.0028499361906,-2.125015012319323,74427.01453601243,10.5,10500074427.014536,47.655,-122.3035,60.0,8.7
2026-01-20T23:08:43+00:00,SAT-56465,302.87514602919714,47.71812305340104,2158.8835016305707,-2.1057440756565895,73752.06481810223,10.5,10500073752.064817,47.655,-122.3035,60.0,8.716666666666667
2026-01-20T23:08:44+00:00,SAT-56465,303.1502772794696,47.7035470456395,2156.783372872449,-2.086413997455854,73075.04371336276,10.5,10500073075.043713,47.655,-122.3035,60.0,8.733333333333333
2026-01-20T23:08:45+00:00,SAT-56465,303.42572116658744,47.6880887770825,2154.702522645653,-2.0670251041248227,72395.96265397256,10.5,10500072395.962654,47.655,-122.3035,60.0,8.75
2026-01-20T23:08:46+00:00,SAT-56465,303.70146345671606,47.67174525199312,2152.641009608473,-2.0475776968055595,71714.83218720058,10.5,10500071714.832188,47.655,-122.3035,60.0,8.766666666666667
2026-01-20T23:08:47+00:00,SAT-56465,303.9774898219999,47.654513567925086,2150.5988921188587,-2.0280721187044657,71031.66433358671,10.5,10500071031.664333,47.655,-122.3035,60.0,8.783333333333333
2026-01-20T23:08:48+00:00,SAT-56465,304.2537858496213,47.636390916675005,2148.5762281924704,-2.008508693009674,70346.47041254645,10.5,10500070346.470413,47.655,-122.3035,60.0,8.8
2026-01-20T23:08:49+00:00,SAT-56465,304.5303370421376,47.61737458576122,2146.5730755226423,-1.9888877680677162,69659.26262464888,10.5,10500069659.262625,47.655,-122.3035,60.0,8.816666666666666
2026-01-20T23:08:50+00:00,SAT-56465,304.8071288242717,47.59746195945387,2144.5894914552896,-1.9692096810323512,68970.05277844478,10.5,10500068970.052778,47.655,-122.3035,60.0,8.833333333333334
2026-01-20T23:08:51+00:00,SAT-56465,305.08414654454657,47.57665052013767,2142.6255330000736,-1.949474793755799,68278.8535475295,10.5,10500068278.853548,47.655,-122.3035,60.0,8.85
2026-01-20T23:08:52+00:00,SAT-56465,305.36137548222183,47.55493784925902,2140.681256805767,-1.9296834574222403,67585.67723185859,10.5,10500067585.677233,47.655,-122.3035,60.0,8.866666666666667
2026-01-20T23:08:53+00:00,SAT-56465,305.638800849023,47.532321628644524,2138.756719170898,-1.9098360566780594,66890.53730337547,10.5,10500066890.537304,47.655,-122.3035,60.0,8.883333333333333
2026-01-20T23:08:54+00:00,SAT-56465,305.9164077976227,47.50879964123243,2136.8519760103713,-1.8899329440125456,66193.44610774609,10.5,10500066193.446108,47.655,-122.3035,60.0,8.9
2026-01-20T23:08:55+00:00,SAT-56465,306.19418142012313,47.48436977262467,2134.967082887543,-1.8699745191839996,65494.41764619708,10.5,10500065494.417646,47.655,-122.3035,60.0,8.916666666666666
2026-01-20T23:08:56+00:00,SAT-56465,306.4721067587676,47.45903001155138,2133.1020949670765,-1.8499611579965451,64793.46508097853,10.5,10500064793.46508,47.655,-122.3035,60.0,8.933333333333334
2026-01-20T23:08:57+00:00,SAT-56465,306.75016880570917,47.43277845126599,2131.257067038835,-1.8298932599515774,64090.6024043192,10.5,10500064090.602404,47.655,-122.3035,60.0,8.95
2026-01-20T23:08:58+00:00,SAT-56465,307.02835251020997,47.4056132902387,2129.432053494243,-1.8097712309931946,63385.84383409853,10.5,10500063385.843834,47.655,-122.3035,60.0,8.966666666666667
2026-01-20T23:08:59+00:00,SAT-56465,307.3066427832879,47.37753283303167,2127.627108319866,-1.7895954682430528,62679.20327919675,10.5,10500062679.20328,47.655,-122.3035,60.0,8.983333333333333
2026-01-20T23:09:00+00:00,SAT-56465,307.58502449966704,47.34853549144315,2125.842285106205,-1.76936640254878,61970.69582972028,10.5,10500061970.69583,47.655,-122.3035,60.0,9.0
2026-01-20T23:09:01+00:00,SAT-56465,307.8634825070964,47.318619784819504,2124.077637014063,-1.7490844421384144,61260.3357835418,10.5,10500061260.335783,47.655,-122.3035,60.0,9.016666666666667
2026-01-20T23:09:02+00:00,SAT-56465,308.1420016258951,47.28778434139665,2122.3332167971034,-1.7287500229501676,60548.1384090615,10.5,10500060548.138409,47.655,-122.3035,60.0,9.033333333333333
2026-01-20T23:09:03+00:00,SAT-56465,308.42056665735544,47.25602789862662,2120.6090767742144,-1.7083635793658274,59834.11892016706,10.5,10500059834.11892,47.655,-122.3035,60.0,9.05
2026-01-20T23:09:04+00:00,SAT-56465,308.6991623869821,47.22334930403659,2118.9052688310603,-1.6879255538351723,59118.29281332123,10.5,10500059118.292814,47.655,-122.3035,60.0,9.066666666666666
2026-01-20T23:09:05+00:00,SAT-56465,308.97777358950736,47.189747515849625,2117.2218444120354,-1.66743639582065,58400.675830600194,10.5,10500058400.67583,47.655,-122.3035,60.0,9.083333333333334
2026-01-20T23:09:06+00:00,SAT-56465,309.25638503360074,47.155221603603366,2115.5588545132705,-1.6468965609727926,57681.28393081296,10.5,10500057681.283932,47.655,-122.3035,60.0,9.1
2026-01-20T23:09:07+00:00,SAT-56465,309.53498148668393,47.11977074870239,2113.91634967646,-1.626306509819771,56960.133243604134,10.5,10500056960.133244,47.655,-122.3035,60.0,9.116666666666667
2026-01-20T23:09:08+00:00,SAT-56465,309.81354771913226,47.08339424502826,2112.294379984,-1.6056667217383573,56237.24055877601,10.5,10500056237.240559,47.655,-122.3035,60.0,9.133333333333333
2026-01-20T23:09:09+00:00,SAT-56465,310.092068511504,47.04609149907636,2110.6929950401864,-1.5849776563935116,55512.621975739865,10.5,10500055512.621975,47.655,-122.3035,60.0,9.15
2026-01-20T23:09:10+00:00,SAT-56465,310.37052865416626,47.00786203109517,2109.1122439908763,-1.5642398090133798,54786.29483948021,10.5,10500054786.29484,47.655,-122.3035,60.0,9.166666666666666
2026-01-20T23:09:11+00:00,SAT-56465,310.6489129576304,46.96870547471375,2107.55217548802,-1.5434536664348921,54058.276201085646,10.5,10500054058.276201,47.655,-122.3035,60.0,9.183333333333334
2026-01-20T23:09:12+00:00,SAT-56465,310.92720625434174,46.92862157768934,2106.012837698029,-1.5226197219359017,53328.58333723314,10.5,10500053328.583338,47.655,-122.3035,60.0,9.2
2026-01-20T23:09:13+00:00,SAT-56465,311.2053934034084,46.88761020221656,2104.4942782953517,-1.501738479166772,52597.23388788889,10.5,10500052597.233889,47.655,-122.3035,60.0,9.216666666666667
2026-01-20T23:09:14+00:00,SAT-56465,311.48345929599657,46.84567132508281,2102.9965444521295,-1.4808104458870799,51864.245636941065,10.5,10500051864.245638,47.655,-122.3035,60.0,9.233333333333333
2026-01-20T23:09:15+00:00,SAT-56465,311.7613888595142,46.80280503795896,2101.519682834098,-1.4598361409752314,51129.63675770633,10.5,10500051129.636757,47.655,-122.3035,60.0,9.25
2026-01-20T23:09:16+00:00,SAT-56465,312.0391670631988,46.759011547415945,2100.0637395894987,-1.4388160826669911,50393.42540099327,10.5,10500050393.425402,47.655,-122.3035,60.0,9.266666666666667
2026-01-20T23:09:17+00:00,SAT-56465,312.31677892127317,46.71429117527563,2098.628760349719,-1.4177507980340314,49655.63002708136,10.5,10500049655.630028,47.655,-122.3035,60.0,9.283333333333333
2026-01-20T23:09:18+00:00,SAT-56465,312.5942094980083,46.66864435862095,2097.2147902204797,-1.3966408283611518,48916.26959405394,10.5,10500048916.269594,47.655,-122.3035,60.0,9.3
2026-01-20T23:09:19+00:00,SAT-56465,312.8714439138972,46.62207164954905,2095.8218737676607,-1.3754867085544875,48175.3628365865,10.5,10500048175.362837,47.655,-122.3035,60.0,9.316666666666666
2026-01-20T23:09:20+00:00,SAT-56465,313.14846734754235,46.574573715590724,2094.4500550236626,-1.3542889839684087,47432.928855295926,10.5,10500047432.928856,47.655,-122.3035,60.0,9.333333333333334
2026-01-20T23:09:21+00:00,SAT-56465,313.42526504075545,46.526151339562865,2093.0993774769845,-1.3330482129722858,46688.987206639475,10.5,10500046688.987207,47.655,-122.3035,60.0,9.35
2026-01-20T23:09:22+00:00,SAT-56465,313.70182230468146,46.47680541915267,2091.769884059247,-1.3117649519343744,45943.55737698688,10.5,10500045943.557377,47.655,-122.3035,60.0,9.366666666666667
2026-01-20T23:09:23+00:00,SAT-56465,313.97812452217767,46.42653696712039,2090.4616171471844,-1.290439771182455,45196.65934162953,10.5,10500045196.659342,47.655,-122.3035,60.0,9.383333333333333
2026-01-20T23:09:24+00:00,SAT-56465,314.25415715403733,46.37534711074921,2089.174618548725,-1.2690732343317435,44448.312840756334,10.5,10500044448.312841,47.655,-122.3035,60.0,9.4
2026-01-20T23:09:25+00:00,SAT-56465,314.52990574008413,46.32323709219985,2087.908929509685,-1.2476659230377312,43698.53824640303,10.5,10500043698.538246,47.655,-122.3035,60.0,9.416666666666666
2026-01-20T23:09:26+00:00,SAT-56465,314.8053559062124,46.27020826769818,2086.664590695775,-1.2262184234168094,42947.35608684491,10.5,10500042947.356087,47.655,-122.3035,60.0,9.433333333333334
2026-01-20T23:09:27+00:00,SAT-56465,315.08049336825053,46.216262107237604,2085.441642188154,-1.2047313171663985,42194.7867355862,10.5,10500042194.786736,47.655,-122.3035,60.0,9.45
2026-01-20T23:09:28+00:00,SAT-56465,315.3553039333759,46.16140019474016,2084.2401234878334,-1.183205208102405,41440.85134081409,10.5,10500041440.851341,47.655,-122.3035,60.0,9.466666666666667
2026-01-20T23:09:29+00:00,SAT-56465,315.6297735080965,46.10562422684619,2083.0600734936193,-1.161640692896182,40685.57080048328,10.5,10500040685.5708,47.655,-122.3035,60.0,9.483333333333333
2026-01-20T23:09:30+00:00,SAT-56465,315.90388809909683,46.048936013062196,2081.9015305092375,-1.1400383767701345,39928.966312042496,10.5,10500039928.966312,47.655,-122.3035,60.0,9.5
2026-01-20T23:09:31+00:00,SAT-56465,316.17763381747415,45.99133747520242,2080.7645322348058,-1.1183988741497657,39171.05939527185,10.5,10500039171.059395,47.655,-122.3035,60.0,9.516666666666667
2026-01-20T23:09:32+00:00,SAT-56465,316.45099688371954,45.93283064657858,2079.6491157576534,-1.0967228019782986,38411.87165813269,10.5,10500038411.871658,47.655,-122.3035,60.0,9.533333333333333
2026-01-20T23:09:33+00:00,SAT-56465,316.72396363039195,45.87341767163626,2078.555317549814,-1.075010783305471,37651.42492246234,10.5,10500037651.424923,47.655,-122.3035,60.0,9.55
2026-01-20T23:09:34+00:00,SAT-56465,316.9965205059566,45.81310080527847,2077.4831734619306,-1.0532634474987015,36889.74123137002,10.5,10500036889.741232,47.655,-122.3035,60.0,9.566666666666666
2026-01-20T23:09:35+00:00,SAT-56465,317.2686540784952,45.75188241215715,2076.4327187169583,-1.031481425963877,36126.842699360735,10.5,10500036126.8427,47.655,-122.3035,60.0,9.583333333333334
2026-01-20T23:09:36+00:00,SAT-56465,317.54035103819933,45.68976496618541,2075.4039879081306,-1.0096653610084532,35362.75182275853,10.5,10500035362.751823,47.655,-122.3035,60.0,9.6
2026-01-20T23:09:37+00:00,SAT-56465,317.811598202312,45.626751049426545,2074.3970149880847,-0.9878158929695179,34597.491028876844,10.5,10500034597.49103,47.655,-122.3035,60.0,9.616666666666667
2026-01-20T23:09:38+00:00,SAT-56465,318.0823825162794,45.56284335180254,2073.41183327083,-0.9659336755432232,33831.083212920064,10.5,10500033831.083214,47.655,-122.3035,60.0,9.633333333333333
2026-01-20T23:09:39+00:00,SAT-56465,318.3526910594563,45.498044669669554,2072.4484754184214,-0.9440193601189122,33063.551189298356,10.5,10500033063.55119,47.655,-122.3035,60.0,9.65
2026-01-20T23:09:40+00:00,SAT-56465,318.6225110458155,45.43235790552873,2071.5069734432627,-0.9220736067444676,32294.918075680576,10.5,10500032294.918076,47.655,-122.3035,60.0,9.666666666666666
2026-01-20T23:09:41+00:00,SAT-56465,318.8918298280732,45.36578606685624,2070.5873586994694,-0.9000970805540364,31525.207167878056,10.5,10500031525.207169,47.655,-122.3035,60.0,9.683333333333334
2026-01-20T23:09:42+00:00,SAT-56465,319.16063490079586,45.29833226511093,2069.689661877797,-0.8780904459966844,30754.441737707708,10.5,10500030754.441738,47.655,-122.3035,60.0,9.7
2026-01-20T23:09:43+00:00,SAT-56465,319.42891390105524,45.2299997153173,2068.813913006323,-0.85605438270124,29982.645588645926,10.5,10500029982.645588,47.655,-122.3035,60.0,9.716666666666667
2026-01-20T23:09:44+00:00,SAT-56465,319.69665461507844,45.16079173405074,2067.960141435309,-0.8339895632287196,29209.842276624437,10.5,10500029209.842278,47.655,-122.3035,60.0,9.733333333333333
2026-01-20T23:09:45+00:00,SAT-56465,319.9638449763683,45.090711739558124,2067.1283758442487,-0.8118966745288572,28436.055861528712,10.5,10500028436.055862,47.655,-122.3035,60.0,9.75
2026-01-20T23:09:46+00:00,SAT-56465,320.2304730721645,45.019763249653,2066.3186442275187,-0.789776399548902,27661.310263060288,10.5,10500027661.310263,47.655,-122.3035,60.0,9.766666666666667
2026-01-20T23:09:47+00:00,SAT-56465,320.4965271422968,44.9479498815587,2065.5309738983688,-0.7676294310424582,26885.62974438073,10.5,10500026885.629744,47.655,-122.3035,60.0,9.783333333333333
2026-01-20T23:09:48+00:00,SAT-56465,320.76199558381035,44.87527535016019,2064.765391479142,-0.7454564649595777,26109.03868060472,10.5,10500026109.038681,47.655,-122.3035,60.0,9.8
2026-01-20T23:09:49+00:00,SAT-56465,321.02686695264435,44.80174346697808,2064.021922898089,-0.7232582011224392,25331.5615824652,10.5,10500025331.561583,47.655,-122.3035,60.0,9.816666666666666
2026-01-20T23:09:50+00:00,SAT-56465,321.2911299659611,44.727358138900435,2063.3005933855034,-0.701035338957064,24553.222946820002,10.5,10500024553.222946,47.655,-122.3035,60.0,9.833333333333334
2026-01-20T23:09:51+00:00,SAT-56465,321.5547735015567,44.65212336771865,2062.6014274741165,-0.6787885899825626,23774.047694078105,10.5,10500023774.047693,47.655,-122.3035,60.0,9.85
2026-01-20T23:09:52+00:00,SAT-56465,321.81778660413363,44.57604324761952,2061.9244489870407,-0.6565186635926706,22994.060670208863,10.5,10500022994.06067,47.655,-122.3035,60.0,9.866666666666667
2026-01-20T23:09:53+00:00,SAT-56465,322.0801584838053,44.499121964857814,2061.2696810398843,-0.6342262729472863,22213.286853088564,10.5,10500022213.286854,47.655,-122.3035,60.0,9.883333333333333
2026-01-20T23:09:54+00:00,SAT-56465,322.34187851804325,44.421363796395454,2060.6371460369983,-0.6119121385566901,21431.751478035003,10.5,10500021431.751478,47.655,-122.3035,60.0,9.9
2026-01-20T23:09:55+00:00,SAT-56465,322.6029362550246,44.34277310805149,2060.026865664144,-0.5895769806341085,20649.479769961858,10.5,10500020649.47977,47.655,-122.3035,60.0,9.916666666666666
2026-01-20T23:09:56+00:00,SAT-56465,322.86332141330746,44.26335435369693,2059.438860888792,-0.5672215268445399,19866.497214775394,10.5,10500019866.497215,47.655,-122.3035,60.0,9.933333333333334
2026-01-20T23:09:57+00:00,SAT-56465,323.1230238854174,44.183112073205855,2058.8731519526855,-0.5448464998368538,19082.829122695824,10.5,10500019082.829123,47.655,-122.3035,60.0,9.95
2026-01-20T23:09:58+00:00,SAT-56465,323.3820337341913,44.102050892604794,2058.3297583768485,-0.5224526358598807,18298.50128027152,10.5,10500018298.50128,47.655,-122.3035,60.0,9.966666666666667
2026-01-20T23:09:59+00:00,SAT-56465,323.6403412002116,44.02017552071461,2057.8086989480175,-0.5000406678951059,17513.539359614617,10.5,10500017513.53936,47.655,-122.3035,60.0,9.983333333333333
2026-01-20T23:10:00+00:00,SAT-56465,323.8979366992906,43.937490748833355,2057.3099917219033,-0.477611332764124,16727.969167334097,10.5,10500016727.969168,47.655,-122.3035,60.0,10.0
2026-01-20T23:10:01+00:00,SAT-56465,324.15481082363874,43.85400144923842,2056.83365401936,-0.4551653706542142,15941.816627919468,10.5,10500015941.816628,47.655,-122.3035,60.0,10.016666666666667
2026-01-20T23:10:02+00:00,SAT-56465,324.4109543434341,43.76971257349839,2056.3797024230275,-0.4327035245028875,15155.107762184993,10.5,10500015155.107761,47.655,-122.3035,60.0,10.033333333333333
2026-01-20T23:10:03+00:00,SAT-56465,324.6663582073362,43.68462915107602,2055.94815277459,-0.4102265390457361,14367.868653921338,10.5,10500014367.868654,47.655,-122.3035,60.0,10.05
2026-01-20T23:10:04+00:00,SAT-56465,324.92101354297336,43.598756287893956,2055.539020172982,-0.3877351631237519,13580.125530707628,10.5,10500013580.12553,47.655,-122.3035,60.0,10.066666666666666
2026-01-20T23:10:05+00:00,SAT-56465,325.1749116585906,43.512099164462136,2055.152318970293,-0.36523014494849604,12791.904598077675,10.5,10500012791.904598,47.655,-122.3035,60.0,10.083333333333334
2026-01-20T23:10:06+00:00,SAT-56465,325.42804404092595,43.42466303524646,2054.7880627723976,-0.34271223879433804,12003.232273910471,10.5,10500012003.232273,47.655,-122.3035,60.0,10.1
2026-01-20T23:10:07+00:00,SAT-56465,325.6804023595365,43.33645322577338,2054.4462644329064,-0.32018219741861087,11214.134922951978,10.5,10500011214.134922,47.655,-122.3035,60.0,10.116666666666667
2026-01-20T23:10:08+00:00,SAT-56465,325.9319784633868,43.247475132362055,2054.126936054681,-0.29764077781999604,10424.639058498124,10.5,10500010424.63906,47.655,-122.3035,60.0,10.133333333333333
2026-01-20T23:10:09+00:00,SAT-56465,326.18276438301933,43.157734219891346,2053.8300889856023,-0.2750887376215225,9634.771215712126,10.5,10500009634.771215,47.655,-122.3035,60.0,10.15
2026-01-20T23:10:10+00:00,SAT-56465,326.43275233005187,43.067236020438884,2053.5557338179474,-0.25252683685492733,8844.558014120346,10.5,10500008844.558014,47.655,-122.3035,60.0,10.166666666666666
2026-01-20T23:10:11+00:00,SAT-56465,326.6819346976211,42.97598613155423,2053.303880385991,-0.22995583718180815,8054.026130333757,10.5,10500008054.02613,47.655,-122.3035,60.0,10.183333333333334
2026-01-20T23:10:12+00:00,SAT-56465,326.9303040612131,42.88399021433821,2053.074537764375,-0.20737650092927626,7263.2022642724405,10.5,10500007263.202265,47.655,-122.3035,60.0,10.2
2026-01-20T23:10:13+00:00,SAT-56465,327.17785317485294,42.79125399321457,2052.8677142674483,-0.1847895924685031,6472.113187448106,10.5,10500006472.113188,47.655,-122.3035,60.0,10.216666666666667
2026-01-20T23:10:14+00:00,SAT-56465,327.42457497545223,42.6977832526238,2052.683417447226,-0.1621958776010445,5680.7857214705755,10.5,10500005680.78572,47.655,-122.3035,60.0,10.233333333333333
2026-01-20T23:10:15+00:00,SAT-56465,327.6704625807325,42.60358383606899,2052.5216540919655,-0.13959612226694626,4889.246692800176,10.5,10500004889.246693,47.655,-122.3035,60.0,10.25
2026-01-20T23:10:16+00:00,SAT-56465,327.91550928762683,42.50866164496738,2052.3824302260246,-0.11699109422212339,4097.522991496656,10.5,10500004097.522991,47.655,-122.3035,60.0,10.266666666666667
2026-01-20T23:10:17+00:00,SAT-56465,328.159708573296,42.41302263647456,2052.265751108054,-0.0943815617185133,3305.6415249925653,10.5,10500003305.641525,47.655,-122.3035,60.0,10.283333333333333
2026-01-20T23:10:18+00:00,SAT-56465,328.40305409419113,42.31667282201478,2052.1716212305,-0.07176829411419387,2513.629239462174,10.5,10500002513.62924,47.655,-122.3035,60.0,10.3
2026-01-20T23:10:19+00:00,SAT-56465,328.6455396848141,42.219618265910476,2052.100044318503,-0.04915206012231203,1721.5130584915391,10.5,10500001721.513058,47.655,-122.3035,60.0,10.316666666666666
2026-01-20T23:10:20+00:00,SAT-56465,328.8871593597888,42.121865082648,2052.0510233305413,-0.026533631032943022,929.3199959216511,10.5,10500000929.319996,47.655,-122.3035,60.0,10.333333333333334
2026-01-20T23:10:21+00:00,SAT-56465,329.1279073084871,42.02341943711638,2052.0245604558577,-0.0039137766671528745,137.0770141425812,10.5,10500000137.077015,47.655,-122.3035,60.0,10.35
2026-01-20T23:10:22+00:00,SAT-56465,329.3677778976186,41.9242875416093,2052.0206571159283,0.018706732671945933,-655.1889075722921,10.5,10499999344.811092,47.655,-122.3035,60.0,10.366666666666667
2026-01-20T23:10:23+00:00,SAT-56465,329.6067656702998,41.82447565420179,2052.0393139639796,0.04132712606349979,-1447.450768313684,10.5,10499998552.549232,47.655,-122.3035,60.0,10.383333333333333
2026-01-20T23:10:24+00:00,SAT-56465,329.84486534369796,41.7239900777123,2052.0805308843737,0.06394663228985477,-2239.681556777106,10.5,10499997760.318443,47.655,-122.3035,60.0,10.4
2026-01-20T23:10:25+00:00,SAT-56465,330.0820718082218,41.62283715800385,2052.1443069923107,0.08656448179244036,-3031.854319766189,10.5,10499996968.14568,47.655,-122.3035,60.0,10.416666666666666
2026-01-20T23:10:26+00:00,SAT-56465,330.3183801277123,41.521023281824235,2052.230640635485,0.10917990337291494,-3823.9420466528445,10.5,10499996176.057953,47.655,-122.3035,60.0,10.433333333333334
2026-01-20T23:10:27+00:00,SAT-56465,330.55378553667333,41.418554875897556,2052.339529392449,0.13179212837403573,-4615.917815809013,10.5,10499995384.082184,47.655,-122.3035,60.0,10.45
2026-01-20T23:10:28+00:00,SAT-56465,330.7882834407453,41.31543840459216,2052.4709700751473,0.1544003863862183,-5407.754644232218,10.5,10499994592.245356,47.655,-122.3035,60.0,10.466666666666667
2026-01-20T23:10:29+00:00,SAT-56465,331.0218694138269,41.211680369030944,2052.62495872717,0.17700390987055745,-6199.425649463313,10.5,10499993800.57435,47.655,-122.3035,60.0,10.483333333333333
2026-01-20T23:10:30+00:00,SAT-56465,331.25453919824594,41.10728730485019,2052.8014906266144,0.19960193095043596,-6990.90393721505,10.5,10499993009.096064,47.655,-122.3035,60.0,10.5
2026-01-20T23:10:31+00:00,SAT-56465,331.4862887027849,41.002265780877664,2053.000560285749,0.22219368211591722,-7782.162626042884,10.5,10499992217.837374,47.655,-122.3035,60.0,10.516666666666667
2026-01-20T23:10:32+00:00,SAT-56465,331.71711400073633,40.896622397805714,2053.222161451379,0.24477839762998932,-8573.174896597591,10.5,10499991426.825104,47.655,-122.3035,60.0,10.533333333333333
2026-01-20T23:10:33+00:00,SAT-56465,331.9470113292587,40.79036378625524,2053.4662871066157,0.26735531502044396,-9363.914043877186,10.5,10499990636.085957,47.655,-122.3035,60.0,10.55
2026-01-20T23:10:34+00:00,SAT-56465,332.17597708870517,40.68349660481431,2053.732929474129,0.2899236688966211,-10154.353260663152,10.5,10499989845.64674,47.655,-122.3035,60.0,10.566666666666666
2026-01-20T23:10:35+00:00,SAT-56465,332.40400783911406,40.576027539409736,2054.022080013242,0.312482698066518,-10944.46588679172,10.5,10499989055.534113,47.655,-122.3035,60.0,10.583333333333334
2026-01-20T23:10:36+00:00,SAT-56465,332.6311002996807,40.467963301265215,2054.3337294241137,0.33503164116101763,-11734.225255895815,10.5,10499988265.774744,47.655,-122.3035,60.0,10.6
2026-01-20T23:10:37+00:00,SAT-56465,332.85725134693496,40.35931062547729,2054.667867647565,0.3575697420804794,-12523.60488616773,10.5,10499987476.395113,47.655,-122.3035,60.0,10.616666666666667
2026-01-20T23:10:38+00:00,SAT-56465,333.0824580143146,40.250076268890446,2055.0244838703334,0.38009624214935106,-13312.578205580428,10.5,10499986687.421795,47.655,-122.3035,60.0,10.633333333333333
2026-01-20T23:10:39+00:00,SAT-56465,333.30671748871634,40.140267009429394,2055.4035665225033,0.40261038765916596,-14101.118816075228,10.5,10499985898.881184,47.655,-122.3035,60.0,10.65
2026-01-20T23:10:40+00:00,SAT-56465,333.5300271099982,40.02988964400823,2055.8051032824624,0.42511142411702046,-14889.20029211914,10.5,10499985110.799707,47.655,-122.3035,60.0,10.666666666666666
