satellites_20260120_184412/SAT-45187.csv

timestamp,satellite,azimuth_deg,elevation_deg,distance_km,relative_velocity_kms,doppler_shift_hz,tx_freq_ghz,rx_freq_hz,ue_lat,ue_lon,ue_alt_m,time_minutes
2026-01-20T23:04:39+00:00,SAT-45187,202.31151999919297,40.09815455408268,1137.693848872422,-4.713850467588598,165098.98294266054,10.5,10500165098.982943,47.655,-122.3035,60.0,4.65
2026-01-20T23:04:40+00:00,SAT-45187,202.36128239481417,40.37612478701632,1132.9925686727472,-4.690997895523073,164298.58920264186,10.5,10500164298.589203,47.655,-122.3035,60.0,4.666666666666667
2026-01-20T23:04:41+00:00,SAT-45187,202.4122187734114,40.656147398456035,1128.3140801049456,-4.667854801563921,163488.020157002,10.5,10500163488.020157,47.655,-122.3035,60.0,4.683333333333334
2026-01-20T23:04:42+00:00,SAT-45187,202.46435872495996,40.938236242585035,1123.6586729161857,-4.644417813772465,162667.15770618513,10.5,10500162667.157705,47.655,-122.3035,60.0,4.7
2026-01-20T23:04:43+00:00,SAT-45187,202.51773283663366,41.222405006491584,1119.0266402165832,-4.620683550914175,161835.88342505548,10.5,10500161835.883425,47.655,-122.3035,60.0,4.716666666666667
2026-01-20T23:04:44+00:00,SAT-45187,202.57237273479868,41.50866719639173,1114.4182784884715,-4.596648621474768,160994.0785284367,10.5,10500160994.07853,47.655,-122.3035,60.0,4.733333333333333
2026-01-20T23:04:45+00:00,SAT-45187,202.62831112909168,41.79703612312586,1109.833887596654,-4.572309642673327,160141.62453703198,10.5,10500160141.624537,47.655,-122.3035,60.0,4.75
2026-01-20T23:04:46+00:00,SAT-45187,202.68558185899965,42.08752488823494,1105.2737707796944,-4.547663229316168,159278.40288703912,10.5,10500159278.402887,47.655,-122.3035,60.0,4.766666666666667
2026-01-20T23:04:47+00:00,SAT-45187,202.74421994262846,42.380146368650145,1100.7382346523232,-4.522705972482982,158404.29418364924,10.5,10500158404.294184,47.655,-122.3035,60.0,4.783333333333333
2026-01-20T23:04:48+00:00,SAT-45187,202.8042616277391,42.67491319936865,1096.2275892291002,-4.49743448099097,157519.17965329599,10.5,10500157519.179653,47.655,-122.3035,60.0,4.8
2026-01-20T23:04:49+00:00,SAT-45187,202.8657444459157,42.97183775794982,1091.742147906725,-4.471845355983721,156622.94025365065,10.5,10500156622.940254,47.655,-122.3035,60.0,4.816666666666666
2026-01-20T23:04:50+00:00,SAT-45187,202.92870726925682,43.270932146717854,1087.2822274716907,-4.445935223364017,155715.45780955628,10.5,10500155715.45781,47.655,-122.3035,60.0,4.833333333333333
2026-01-20T23:04:51+00:00,SAT-45187,202.99319037048093,43.57220817626512,1082.848148075589,-4.419700672072073,154796.61285127047,10.5,10500154796.612852,47.655,-122.3035,60.0,4.85
2026-01-20T23:04:52+00:00,SAT-45187,203.05923548531808,43.87567734407832,1078.4402332719758,-4.3931383500832935,153866.2879767128,10.5,10500153866.287977,47.655,-122.3035,60.0,4.866666666666666
2026-01-20T23:04:53+00:00,SAT-45187,203.12688587966795,44.18135081872095,1074.0588099574927,-4.366244893913872,152924.36538245287,10.5,10500152924.365383,47.655,-122.3035,60.0,4.883333333333334
2026-01-20T23:04:54+00:00,SAT-45187,203.19618641928852,44.48923941846703,1069.704208383296,-4.339016937697465,151970.72718161374,10.5,10500151970.727182,47.655,-122.3035,60.0,4.9
2026-01-20T23:04:55+00:00,SAT-45187,203.26718364342224,44.79935358958924,1065.3767621574323,-4.311451144196133,151005.25649000617,10.5,10500151005.25649,47.655,-122.3035,60.0,4.916666666666667
2026-01-20T23:04:56+00:00,SAT-45187,203.33992584292494,45.11170338583195,1061.0768082162872,-4.283544228543471,150027.83825771377,10.5,10500150027.838257,47.655,-122.3035,60.0,4.933333333333334
2026-01-20T23:04:57+00:00,SAT-45187,203.4144631431302,45.42629844873989,1056.8046867723533,-4.25529286811146,149038.35611224858,10.5,10500149038.356112,47.655,-122.3035,60.0,4.95
2026-01-20T23:04:58+00:00,SAT-45187,203.49084758979907,45.74314798050273,1052.56074135189,-4.22669382081462,148036.69650206316,10.5,10500148036.696503,47.655,-122.3035,60.0,4.966666666666667
2026-01-20T23:04:59+00:00,SAT-45187,203.56913324194085,46.062260724306306,1048.3453187145976,-4.197743810053379,147022.7446667804,10.5,10500147022.744667,47.655,-122.3035,60.0,4.983333333333333
2026-01-20T23:05:00+00:00,SAT-45187,203.64937626781685,46.38364493517839,1044.1587688880377,-4.168439663965525,145996.38951436867,10.5,10500145996.389515,47.655,-122.3035,60.0,5.0
2026-01-20T23:05:01+00:00,SAT-45187,203.73163504903374,46.70730836009413,1040.001445063176,-4.138778190012812,144957.51922863425,10.5,10500144957.519228,47.655,-122.3035,60.0,5.016666666666667
2026-01-20T23:05:02+00:00,SAT-45187,203.81597028826152,47.03325820757975,1035.8737036150035,-4.108756255355668,143906.0240842834,10.5,10500143906.024084,47.655,-122.3035,60.0,5.033333333333333
2026-01-20T23:05:03+00:00,SAT-45187,203.90244512475138,47.36150112215435,1031.7759040429953,-4.078370765479878,142841.7956983385,10.5,10500142841.795698,47.655,-122.3035,60.0,5.05
2026-01-20T23:05:04+00:00,SAT-45187,203.99112525623957,47.69204315594096,1027.70840893289,-4.0476186700495065,141764.7272351322,10.5,10500141764.727236,47.655,-122.3035,60.0,5.066666666666666
2026-01-20T23:05:05+00:00,SAT-45187,204.08207906817952,48.02488973948115,1023.6715839126274,-4.016496968501749,140674.7136022627,10.5,10500140674.713602,47.655,-122.3035,60.0,5.083333333333333
2026-01-20T23:05:06+00:00,SAT-45187,204.1753777708212,48.36004565163683,1019.6657976027084,-3.985002712039675,139571.6515203881,10.5,10500139571.65152,47.655,-122.3035,60.0,5.1
2026-01-20T23:05:07+00:00,SAT-45187,204.27109554460696,48.69751498831782,1015.6914215645673,-3.9531330093538846,138455.43972362304,10.5,10500138455.439724,47.655,-122.3035,60.0,5.116666666666666
2026-01-20T23:05:08+00:00,SAT-45187,204.3693096945488,49.03730113022055,1011.7488302432384,-3.9208850254950245,137325.97892004927,10.5,10500137325.97892,47.655,-122.3035,60.0,5.133333333333334
2026-01-20T23:05:09+00:00,SAT-45187,204.4701008140729,49.37940670900793,1007.8384009111448,-3.8882560116301867,136183.17283391085,10.5,10500136183.172834,47.655,-122.3035,60.0,5.15
2026-01-20T23:05:10+00:00,SAT-45187,204.5735529597717,49.7238335744842,1003.9605135822122,-3.8552432365222997,135026.9258057324,10.5,10500135026.925806,47.655,-122.3035,60.0,5.166666666666667
2026-01-20T23:05:11+00:00,SAT-45187,204.67975383530785,50.07058275420967,1000.1155509943206,-3.821844107650464,133857.14703446568,10.5,10500133857.147034,47.655,-122.3035,60.0,5.183333333333334
2026-01-20T23:05:12+00:00,SAT-45187,204.7887949901741,50.419654421979615,996.3038984709573,-3.788056075704913,132673.74723249904,10.5,10500132673.747232,47.655,-122.3035,60.0,5.2
2026-01-20T23:05:13+00:00,SAT-45187,204.90077202857776,50.771047856282685,992.5259438781209,-3.7538766622590685,131476.63959485004,10.5,10500131476.639595,47.655,-122.3035,60.0,5.216666666666667
2026-01-20T23:05:14+00:00,SAT-45187,205.01578483246433,51.124761399170495,988.7820775536279,-3.7193035015299616,130265.74126179183,10.5,10500130265.741262,47.655,-122.3035,60.0,5.233333333333333
2026-01-20T23:05:15+00:00,SAT-45187,205.13393780034704,51.48079241711392,985.0726921947687,-3.684334323866044,129040.97274052659,10.5,10500129040.97274,47.655,-122.3035,60.0,5.25
2026-01-20T23:05:16+00:00,SAT-45187,205.25534010135783,51.83913725840102,981.398182762433,-3.6489669112265,127802.25634588262,10.5,10500127802.256346,47.655,-122.3035,60.0,5.266666666666667
2026-01-20T23:05:17+00:00,SAT-45187,205.380105944652,52.1997912040939,977.7589464296364,-3.6131992155810835,126549.52034717756,10.5,10500126549.520348,47.655,-122.3035,60.0,5.283333333333333
2026-01-20T23:05:18+00:00,SAT-45187,205.5083548708244,52.56274842814109,974.1553824119635,-3.577029234826348,125282.69462227984,10.5,10500125282.694622,47.655,-122.3035,60.0,5.3
2026-01-20T23:05:19+00:00,SAT-45187,205.6402120588343,52.9280019431886,970.5878919217633,-3.540455115319883,124001.71424879132,10.5,10500124001.714249,47.655,-122.3035,60.0,5.316666666666666
2026-01-20T23:05:20+00:00,SAT-45187,205.77580865744568,53.29554355387336,967.0568780200844,-3.5034751222526195,122706.51846636015,10.5,10500122706.518467,47.655,-122.3035,60.0,5.333333333333333
2026-01-20T23:05:21+00:00,SAT-45187,205.9152821386262,53.665363804793806,963.5627454981577,-3.466087599441024,121397.0492684334,10.5,10500121397.049269,47.655,-122.3035,60.0,5.35
2026-01-20T23:05:22+00:00,SAT-45187,206.05877667385036,54.03745192136537,960.1059007989819,-3.4282910910134654,120073.25566422819,10.5,10500120073.255665,47.655,-122.3035,60.0,5.366666666666666
2026-01-20T23:05:23+00:00,SAT-45187,206.2064435419129,54.41179576056246,956.6867518175444,-3.3900842148191472,118735.08924497709,10.5,10500118735.089245,47.655,-122.3035,60.0,5.383333333333334
2026-01-20T23:05:24+00:00,SAT-45187,206.3584415605161,54.788381745274336,953.3057078272981,-3.351465748833852,117382.5072102229,10.5,10500117382.50721,47.655,-122.3035,60.0,5.4
2026-01-20T23:05:25+00:00,SAT-45187,206.51493755249237,55.16719480445676,949.9631793204611,-3.312434610255468,116015.47163565541,10.5,10500116015.471636,47.655,-122.3035,60.0,5.416666666666667
2026-01-20T23:05:26+00:00,SAT-45187,206.67610684500949,55.548218307571524,946.6595778691664,-3.272989898319725,114633.95097269965,10.5,10500114633.950974,47.655,-122.3035,60.0,5.433333333333334
2026-01-20T23:05:27+00:00,SAT-45187,206.8421338074885,55.93143400020654,943.3953159439088,-3.2331308130817202,113237.91720390132,10.5,10500113237.917204,47.655,-122.3035,60.0,5.45
2026-01-20T23:05:28+00:00,SAT-45187,207.01321242536696,56.31682192642251,940.1708068129954,-3.1928567620490633,111827.34957767073,10.5,10500111827.349577,47.655,-122.3035,60.0,5.466666666666667
2026-01-20T23:05:29+00:00,SAT-45187,207.18954692220072,56.70436035900937,936.9864643356451,-3.152167288918669,110402.23211234361,10.5,10500110402.232113,47.655,-122.3035,60.0,5.483333333333333
2026-01-20T23:05:30+00:00,SAT-45187,207.3713524251115,57.09402571691473,933.8427028261635,-3.111062145698603,108962.55612219346,10.5,10500108962.556122,47.655,-122.3035,60.0,5.5
2026-01-20T23:05:31+00:00,SAT-45187,207.55885568512397,57.485792486367345,930.7399368461868,-3.069541210740617,107508.31734658407,10.5,10500107508.317347,47.655,-122.3035,60.0,5.516666666666667
2026-01-20T23:05:32+00:00,SAT-45187,207.75229584830376,57.879633126636364,927.6785810786747,-3.0276046060318147,106039.52005801979,10.5,10500106039.520058,47.655,-122.3035,60.0,5.533333333333333
2026-01-20T23:05:33+00:00,SAT-45187,207.95192529414254,58.27551798456112,924.6590500849258,-2.9852525913158234,104556.17335382114,10.5,10500104556.173353,47.655,-122.3035,60.0,5.55
2026-01-20T23:05:34+00:00,SAT-45187,208.1580105334178,58.6734151896386,921.6817581671868,-2.942485652939649,103058.29426791755,10.5,10500103058.294268,47.655,-122.3035,60.0,5.566666666666666
2026-01-20T23:05:35+00:00,SAT-45187,208.37083318321706,59.07329055358196,918.7471191426549,-2.899304467283959,101545.90649002108,10.5,10500101545.90649,47.655,-122.3035,60.0,5.583333333333333
2026-01-20T23:05:36+00:00,SAT-45187,208.59069101793222,59.47510745791402,915.8555461539504,-2.855709904880937,100019.04050985111,10.5,10500100019.04051,47.655,-122.3035,60.0,5.6
2026-01-20T23:05:37+00:00,SAT-45187,208.81789910578706,59.87882673400839,913.0074514754824,-2.811703073648026,98477.73513136302,10.5,10500098477.735132,47.655,-122.3035,60.0,5.616666666666666
2026-01-20T23:05:38+00:00,SAT-45187,209.0527910418552,60.28440654034238,910.2032462766975,-2.767285267741456,96922.03568138223,10.5,10500096922.03568,47.655,-122.3035,60.0,5.633333333333334
2026-01-20T23:05:39+00:00,SAT-45187,209.29572027905158,60.69180222315676,907.4433404363367,-2.722458030134737,95351.99620136787,10.5,10500095351.9962,47.655,-122.3035,60.0,5.65
2026-01-20T23:05:40+00:00,SAT-45187,209.54706157555515,61.10096617547715,904.7281422942823,-2.6772230898800804,93767.67725004224,10.5,10500093767.67725,47.655,-122.3035,60.0,5.666666666666667
2026-01-20T23:05:41+00:00,SAT-45187,209.8072125586536,61.511847675570365,902.0580584659753,-2.631582457019831,92169.14922759074,10.5,10500092169.149227,47.655,-122.3035,60.0,5.683333333333334
2026-01-20T23:05:42+00:00,SAT-45187,210.07659543046452,61.92439272679332,899.4334935621741,-2.585538330210539,90556.48914026603,10.5,10500090556.48914,47.655,-122.3035,60.0,5.7
2026-01-20T23:05:43+00:00,SAT-45187,210.35565881119223,62.338543869831206,896.8548500008442,-2.539093178218414,88929.78345470366,10.5,10500088929.783455,47.655,-122.3035,60.0,5.716666666666667
2026-01-20T23:05:44+00:00,SAT-45187,210.6448797499993,62.75423999189077,894.3225277377677,-2.492249691175456,87289.12639070557,10.5,10500087289.12639,47.655,-122.3035,60.0,5.733333333333333
2026-01-20T23:05:45+00:00,SAT-45187,210.94476590624927,63.17141611153077,891.8369240457687,-2.445010822793975,85634.62139977097,10.5,10500085634.621399,47.655,-122.3035,60.0,5.75
2026-01-20T23:05:46+00:00,SAT-45187,211.25585792712508,63.590003151386554,889.3984332518355,-2.397379765217453,83966.38028426739,10.5,10500083966.380283,47.655,-122.3035,60.0,5.766666666666667
2026-01-20T23:05:47+00:00,SAT-45187,211.5787320328888,64.00992768617562,887.0074464993253,-2.349359979426961,82284.52426239186,10.5,10500082284.524261,47.655,-122.3035,60.0,5.783333333333333
2026-01-20T23:05:48+00:00,SAT-45187,211.9140028363911,64.43111167275097,884.6643514798435,-2.3009551563594184,80589.18260636793,10.5,10500080589.182606,47.655,-122.3035,60.0,5.8
2026-01-20T23:05:49+00:00,SAT-45187,212.26232640983426,64.85347214779489,882.369532203901,-2.252169271794948,78880.4945648331,10.5,10500078880.494564,47.655,-122.3035,60.0,5.816666666666666
2026-01-20T23:05:50+00:00,SAT-45187,212.62440363564212,65.27692090661496,880.1233687168309,-2.203006560640705,77158.60846214952,10.5,10500077158.608461,47.655,-122.3035,60.0,5.833333333333333
2026-01-20T23:05:51+00:00,SAT-45187,213.00098385701625,65.701364145918,877.9262368403519,-2.153471501619989,75423.68116215213,10.5,10500075423.681162,47.655,-122.3035,60.0,5.85
2026-01-20T23:05:52+00:00,SAT-45187,213.39286885675656,66.1267020680517,875.7785079294028,-2.1035688698771855,73675.87991059618,10.5,10500073675.879911,47.655,-122.3035,60.0,5.866666666666666
2026-01-20T23:05:53+00:00,SAT-45187,213.80091720709325,66.55282845581833,873.680548576512,-2.0533036911382507,71915.38072966342,10.5,10500071915.38073,47.655,-122.3035,60.0,5.883333333333334
2026-01-20T23:05:54+00:00,SAT-45187,214.22604900707373,66.97963019446311,871.6327203618835,-2.0026812546361326,70142.36887066516,10.5,10500070142.36887,47.655,-122.3035,60.0,5.9
2026-01-20T23:05:55+00:00,SAT-45187,214.66925105218755,67.40698674656923,869.6353795905931,-1.951707128847673,68357.03936521501,10.5,10500068357.039366,47.655,-122.3035,60.0,5.916666666666667
2026-01-20T23:05:56+00:00,SAT-45187,215.13158247517535,67.83476957490811,867.6888770140889,-1.9003871534413748,66559.59674320571,10.5,10500066559.596743,47.655,-122.3035,60.0,5.933333333333334
2026-01-20T23:05:57+00:00,SAT-45187,215.61418089300912,68.26284150195805,865.7935575597234,-1.8487274331890498,64750.25481956929,10.5,10500064750.25482,47.655,-122.3035,60.0,5.95
2026-01-20T23:05:58+00:00,SAT-45187,216.11826910037684,68.69105599872104,863.9497600663561,-1.7967343464223493,62929.23699046047,10.5,10500062929.23699,47.655,-122.3035,60.0,5.966666666666667
2026-01-20T23:05:59+00:00,SAT-45187,216.64516235466178,69.119256397789,862.1578170115243,-1.7444145283748393,61096.77564982576,10.5,10500061096.77565,47.655,-122.3035,60.0,5.983333333333333
2026-01-20T23:06:00+00:00,SAT-45187,217.19627628612696,69.54727501538514,860.4180542552251,-1.6917749013754662,59253.11324690628,10.5,10500059253.113247,47.655,-122.3035,60.0,6.0
2026-01-20T23:06:01+00:00,SAT-45187,217.77313548596862,69.97493218312977,858.7307907535867,-1.6388226334121274,57398.500834958766,10.5,10500057398.500835,47.655,-122.3035,60.0,6.016666666666667
2026-01-20T23:06:02+00:00,SAT-45187,218.37738278519262,70.40203516071617,857.0963383138636,-1.5855651759730833,55533.19939662183,10.5,10500055533.199396,47.655,-122.3035,60.0,6.033333333333333
2026-01-20T23:06:03+00:00,SAT-45187,219.01078927627358,70.82837693577714,855.5150013116931,-1.5320102157795417,53657.47815338698,10.5,10500053657.478153,47.655,-122.3035,60.0,6.05
2026-01-20T23:06:04+00:00,SAT-45187,219.67526506353875,71.25373487490313,853.987076456489,-1.4781657214659012,51771.616200538185,10.5,10500051771.616201,47.655,-122.3035,60.0,6.066666666666666
2026-01-20T23:06:05+00:00,SAT-45187,220.37287077610438,71.67786923467632,852.5128525102804,-1.4240399006330213,49875.90100297561,10.5,10500049875.901003,47.655,-122.3035,60.0,6.083333333333333
2026-01-20T23:06:06+00:00,SAT-45187,221.10582978324322,72.10052149194752,851.0926100493823,-1.3696412091638885,47970.62872148982,10.5,10500047970.628721,47.655,-122.3035,60.0,6.1
2026-01-20T23:06:07+00:00,SAT-45187,221.87654107197628,72.52141248854991,849.7266212167762,-1.314978361927107,46056.104587643174,10.5,10500046056.104588,47.655,-122.3035,60.0,6.116666666666666
2026-01-20T23:06:08+00:00,SAT-45187,222.68759268446414,72.94024037188551,848.4151494638144,-1.260060302588518,44132.64184644511,10.5,10500044132.641846,47.655,-122.3035,60.0,6.133333333333334
2026-01-20T23:06:09+00:00,SAT-45187,223.5417755242352,73.35667829892331,847.1584493220327,-1.204896207501366,42200.56189260219,10.5,10500042200.561893,47.655,-122.3035,60.0,6.15
2026-01-20T23:06:10+00:00,SAT-45187,224.4420972927989,73.77037189236934,845.9567661710846,-1.1494954827930586,40260.19416848409,10.5,10500040260.194168,47.655,-122.3035,60.0,6.166666666666667
2026-01-20T23:06:11+00:00,SAT-45187,225.39179618966986,74.18093642732337,844.810336009579,-1.0938677642256576,38311.87615923748,10.5,10500038311.87616,47.655,-122.3035,60.0,6.183333333333334
2026-01-20T23:06:12+00:00,SAT-45187,226.39435387005025,74.58795373144707,843.719385226058,-1.0380228908091103,36355.95246860966,10.5,10500036355.952469,47.655,-122.3035,60.0,6.2
2026-01-20T23:06:13+00:00,SAT-45187,227.45350694100938,74.99096877469496,842.684130396291,-0.981970917745861,34392.7752723237,10.5,10500034392.775272,47.655,-122.3035,60.0,6.216666666666667
2026-01-20T23:06:14+00:00,SAT-45187,228.57325609351423,75.3894859540611,841.7047780676592,-0.9257220920376994,32422.70346372704,10.5,10500032422.703465,47.655,-122.3035,60.0,6.233333333333333
2026-01-20T23:06:15+00:00,SAT-45187,229.75787160488412,75.78296506146678,840.7815245678669,-0.8692868580019767,30446.102846992755,10.5,10500030446.102846,47.655,-122.3035,60.0,6.25
2026-01-20T23:06:16+00:00,SAT-45187,231.0118936389578,76.17081696199226,839.9145558081528,-0.8126758401087729,28463.345536004497,10.5,10500028463.345535,47.655,-122.3035,60.0,6.266666666666667
2026-01-20T23:06:17+00:00,SAT-45187,232.34012527340957,76.55239901067438,839.1040471036179,-0.7558998310576768,26474.809536754947,10.5,10500026474.809536,47.655,-122.3035,60.0,6.283333333333333
2026-01-20T23:06:18+00:00,SAT-45187,233.7476156807464,76.92701027510066,838.3501630054429,-0.6989697964556966,24480.878911186,10.5,10500024480.878912,47.655,-122.3035,60.0,6.3
2026-01-20T23:06:19+00:00,SAT-45187,235.23963031835194,77.29388667678532,837.6530571284444,-0.641896847920745,22481.942835159058,10.5,10500022481.942835,47.655,-122.3035,60.0,6.316666666666666
2026-01-20T23:06:20+00:00,SAT-45187,236.8216042490157,77.65219619334731,837.0128720054515,-0.5846922442746841,20478.395640240502,10.5,10500020478.39564,47.655,-122.3035,60.0,6.333333333333333
2026-01-20T23:06:21+00:00,SAT-45187,238.4990741539117,78.0010343576001,836.4297389404949,-0.5273673738350445,18470.636193482784,10.5,10500018470.636194,47.655,-122.3035,60.0,6.35
2026-01-20T23:06:22+00:00,SAT-45187,240.2775839341178,78.33942034967909,835.9037778796567,-0.46993375348955485,16459.067865010555,10.5,10500016459.067865,47.655,-122.3035,60.0,6.366666666666666
2026-01-20T23:06:23+00:00,SAT-45187,242.16255850808847,78.66629409676709,835.4350972828431,-0.4124030032849017,14444.09763801152,10.5,10500014444.097637,47.655,-122.3035,60.0,6.383333333333334
2026-01-20T23:06:24+00:00,SAT-45187,244.15914032031725,78.9805148838091,835.0237940209003,-0.35478684705488744,12426.136130737214,10.5,10500012426.136131,47.655,-122.3035,60.0,6.4
2026-01-20T23:06:25+00:00,SAT-45187,246.27198393607864,79.28086213139328,834.6699532721043,-0.2970970938550362,10405.596946264339,10.5,10500010405.596947,47.655,-122.3035,60.0,6.416666666666667
2026-01-20T23:06:26+00:00,SAT-45187,248.50500565347036,79.56603908635434,834.3736484371661,-0.23934563232529188,8382.896475052634,10.5,10500008382.896475,47.655,-122.3035,60.0,6.433333333333334
2026-01-20T23:06:27+00:00,SAT-45187,250.861088282896,79.83468028714546,834.1349410598604,-0.1815444102207061,6358.453178022958,10.5,10500006358.453178,47.655,-122.3035,60.0,6.45
2026-01-20T23:06:28+00:00,SAT-45187,253.34174587654093,80.08536368357164,833.9538807680669,-0.12370542986985823,4332.68742749196,10.5,10500004332.687428,47.655,-122.3035,60.0,6.466666666666667
2026-01-20T23:06:29+00:00,SAT-45187,255.9467600924213,80.31662826732676,833.8305052193433,-0.06584073126803587,2306.0209150237415,10.5,10500002306.020914,47.655,-122.3035,60.0,6.483333333333333
2026-01-20T23:06:30+00:00,SAT-45187,258.67380807478906,80.52699785647748,833.7648400633587,-0.007962381924782505,278.8762958480307,10.5,10500000278.876295,47.655,-122.3035,60.0,6.5
2026-01-20T23:06:31+00:00,SAT-45187,261.5181113128919,80.71501133423553,833.7568989144524,0.049917536991570886,-1748.3232964169308,10.5,10499998251.676704,47.655,-122.3035,60.0,6.516666666666667
2026-01-20T23:06:32+00:00,SAT-45187,264.4721437069843,80.87925906308885,833.8066833380119,0.10778694236341643,-3775.1546598809787,10.5,10499996224.84534,47.655,-122.3035,60.0,6.533333333333333
2026-01-20T23:06:33+00:00,SAT-45187,267.52544338138836,81.01842445109187,833.9141828485291,0.1656337618274577,-5801.194969315426,10.5,10499994198.80503,47.655,-122.3035,60.0,6.55
2026-01-20T23:06:34+00:00,SAT-45187,270.6645734178917,81.1313287580016,834.079374920325,0.22344594725193573,-7826.022248182525,10.5,10499992173.977753,47.655,-122.3035,60.0,6.566666666666666
2026-01-20T23:06:35+00:00,SAT-45187,273.87326950788656,81.21697635470163,834.3022250117176,0.2812114848026837,-9849.215721191287,10.5,10499990150.784279,47.655,-122.3035,60.0,6.583333333333333
2026-01-20T23:06:36+00:00,SAT-45187,277.13279591865245,81.2745969519271,834.5826865992275,0.33891841041104975,-11870.356356049566,10.5,10499988129.643644,47.655,-122.3035,60.0,6.6
2026-01-20T23:06:37+00:00,SAT-45187,280.4225065186436,81.30368101146932,834.9207012272108,0.39655481937785314,-13889.02719983522,10.5,10499986110.9728,47.655,-122.3035,60.0,6.616666666666666
2026-01-20T23:06:38+00:00,SAT-45187,283.7205781138807,81.30400478576784,835.3161985670703,0.4541088811088352,-15904.81389509395,10.5,10499984095.186106,47.655,-122.3035,60.0,6.633333333333334
2026-01-20T23:06:39+00:00,SAT-45187,287.0048558185865,81.2756422754816,835.7690964911629,0.5115688480373465,-17917.304992349535,10.5,10499982082.695007,47.655,-122.3035,60.0,6.65
2026-01-20T23:06:40+00:00,SAT-45187,290.2537307453805,81.21896273773334,836.2793011556055,0.5689230673743882,-19926.092361639985,10.5,10499980073.907639,47.655,-122.3035,60.0,6.666666666666667
2026-01-20T23:06:41+00:00,SAT-45187,293.44696464000987,81.13461399454833,836.8467070948002,0.6261600002500745,-21930.771862932528,10.5,10499978069.228138,47.655,-122.3035,60.0,6.683333333333334
2026-01-20T23:06:42+00:00,SAT-45187,296.5663854806414,81.0234933573913,837.4711973350496,0.6832682194833093,-23930.943268008254,10.5,10499976069.056732,47.655,-122.3035,60.0,6.7
2026-01-20T23:06:43+00:00,SAT-45187,299.59639986029595,80.88670920745838,838.1526435059476,0.7402364332916374,-25926.21109088139,10.5,10499974073.78891,47.655,-122.3035,60.0,6.716666666666667
2026-01-20T23:06:44+00:00,SAT-45187,302.524296979201,80.72553693226835,838.8909059754171,0.7970534824314904,-27916.18448763861,10.5,10499972083.815512,47.655,-122.3035,60.0,6.733333333333333
2026-01-20T23:06:45+00:00,SAT-45187,305.34034747563663,80.54137299408919,839.6858339818955,0.8537083752488349,-29900.478484061023,10.5,10499970099.521517,47.655,-122.3035,60.0,6.75
2026-01-20T23:06:46+00:00,SAT-45187,308.037723623294,80.33569044853748,840.537265801477,0.9101902601890559,-31878.71301280397,10.5,10499968121.286987,47.655,-122.3035,60.0,6.766666666666667
2026-01-20T23:06:47+00:00,SAT-45187,310.6122812511584,80.1099984785221,841.4450288876388,0.9664884748095455,-33850.51463002524,10.5,10499966149.48537,47.655,-122.3035,60.0,6.783333333333333
2026-01-20T23:06:48+00:00,SAT-45187,313.0622493516797,79.86580757135505,842.408940059849,1.0225925185231117,-35815.51556074394,10.5,10499964184.48444,47.655,-122.3035,60.0,6.8
2026-01-20T23:06:49+00:00,SAT-45187,315.38787048139204,79.60460114041184,843.4288056649892,1.0784921002429508,-37773.355367568925,10.5,10499962226.644632,47.655,-122.3035,60.0,6.816666666666666
2026-01-20T23:06:50+00:00,SAT-45187,317.5910284320395,79.3278136457282,844.5044217862983,1.1341771092746096,-39723.67993121228,10.5,10499960276.320068,47.655,-122.3035,60.0,6.833333333333333
2026-01-20T23:06:51+00:00,SAT-45187,319.6748900167638,79.03681479728635,845.6355744232815,1.1896376446998587,-41666.14247963675,10.5,10499958333.857521,47.655,-122.3035,60.0,6.85
2026-01-20T23:06:52+00:00,SAT-45187,321.6435789028807,78.73289908076754,846.8220397009288,1.2448640212792808,-43600.40379478942,10.5,10499956399.596205,47.655,-122.3035,60.0,6.866666666666666
2026-01-20T23:06:53+00:00,SAT-45187,323.50189117594033,78.41727972494186,848.063584084818,1.2998467740859665,-45526.13237489333,10.5,10499954473.867624,47.655,-122.3035,60.0,6.883333333333334
2026-01-20T23:06:54+00:00,SAT-45187,325.2550561646633,78.09108620649504,849.3599646008398,1.3545766616127697,-47443.00454327667,10.5,10499952556.995457,47.655,-122.3035,60.0,6.9
2026-01-20T23:06:55+00:00,SAT-45187,326.90854170393,77.75536445074266,850.7109290580215,1.4090446685625597,-49350.70454609928,10.5,10499950649.295454,47.655,-122.3035,60.0,6.916666666666667
2026-01-20T23:06:56+00:00,SAT-45187,328.4679003039387,77.41107899281461,852.1162162741346,1.4632420356911422,-51248.92559757789,10.5,10499948751.074402,47.655,-122.3035,60.0,6.933333333333334
2026-01-20T23:06:57+00:00,SAT-45187,329.93865129348194,77.05911648082936,853.5755563310638,1.5171602309815415,-53137.36887038761,10.5,10499946862.63113,47.655,-122.3035,60.0,6.95
2026-01-20T23:06:58+00:00,SAT-45187,331.3261934021056,76.70029004652997,855.0886708014294,1.5707909776563098,-55015.744476771506,10.5,10499944984.255524,47.655,-122.3035,60.0,6.966666666666667
2026-01-20T23:06:59+00:00,SAT-45187,332.63574247234465,76.335344152025,856.6552730031453,1.6241262489955954,-56883.77128704736,10.5,10499943116.228712,47.655,-122.3035,60.0,6.983333333333333
2026-01-20T23:07:00+00:00,SAT-45187,333.8722893262353,75.96495963957979,858.2750682488104,1.677158280329728,-58741.17734963881,10.5,10499941258.82265,47.655,-122.3035,60.0,7.0
2026-01-20T23:07:01+00:00,SAT-45187,335.04057347644766,75.58975877804053,859.9477541070593,1.7298795596596432,-60587.69956256289,10.5,10499939412.300438,47.655,-122.3035,60.0,7.016666666666667
2026-01-20T23:07:02+00:00,SAT-45187,336.1450690015434,75.21031017112199,861.6730206545598,1.7822828371156154,-62423.08400471489,10.5,10499937576.915995,47.655,-122.3035,60.0,7.033333333333333
2026-01-20T23:07:03+00:00,SAT-45187,337.1899795802465,74.82713343174291,863.450550737443,1.8343611352272338,-64247.08629556636,10.5,10499935752.913704,47.655,-122.3035,60.0,7.05
2026-01-20T23:07:04+00:00,SAT-45187,338.17924024462917,74.44070356734183,865.2800202429763,1.8861077358704148,-66059.47113799426,10.5,10499933940.528862,47.655,-122.3035,60.0,7.066666666666666
2026-01-20T23:07:05+00:00,SAT-45187,339.1165239079059,74.05145505258987,867.1610983582177,1.9375161988043368,-67860.01296752281,10.5,10499932139.987032,47.655,-122.3035,60.0,7.083333333333333
2026-01-20T23:07:06+00:00,SAT-45187,340.0052511812628,73.65978557297052,869.0934478471587,1.9885803366557184,-69648.49507616714,10.5,10499930351.504925,47.655,-122.3035,60.0,7.1
2026-01-20T23:07:07+00:00,SAT-45187,340.8486023035239,73.26605945152237,871.0767253029167,2.0392942465891695,-71424.71072166292,10.5,10499928575.289278,47.655,-122.3035,60.0,7.116666666666666
2026-01-20T23:07:08+00:00,SAT-45187,341.64953034037745,72.87061075890668,873.1105814315148,2.089652298267973,-73188.46270580203,10.5,10499926811.537294,47.655,-122.3035,60.0,7.133333333333334
2026-01-20T23:07:09+00:00,SAT-45187,342.41077498407793,72.47374613305072,875.1946613236541,2.139649107702494,-74939.56245849316,10.5,10499925060.437542,47.655,-122.3035,60.0,7.15
2026-01-20T23:07:10+00:00,SAT-45187,343.13487648083094,72.07574733075856,877.3286047004027,2.189279588759139,-76677.83184182359,10.5,10499923322.168158,47.655,-122.3035,60.0,7.166666666666667
2026-01-20T23:07:11+00:00,SAT-45187,343.82418937898706,71.67687351796773,879.5120462102585,2.2385389052157993,-78403.10147083785,10.5,10499921596.89853,47.655,-122.3035,60.0,7.183333333333334
2026-01-20T23:07:12+00:00,SAT-45187,344.4808958297218,71.27736333934091,881.7446156783938,2.2874225009828777,-80115.21177200602,10.5,10499919884.788227,47.655,-122.3035,60.0,7.2
2026-01-20T23:07:13+00:00,SAT-45187,345.10701831615944,70.87743677345964,884.0259383860406,2.335926067522722,-81814.0118421144,10.5,10499918185.988157,47.655,-122.3035,60.0,7.216666666666667
2026-01-20T23:07:14+00:00,SAT-45187,345.7044316968631,70.47729680518819,886.3556353173833,2.38404556809806,-83499.36029754834,10.5,10499916500.639702,47.655,-122.3035,60.0,7.233333333333333
2026-01-20T23:07:15+00:00,SAT-45187,346.27487453052504,70.07713092372404,888.733323430633,2.4317772373231104,-85171.12525857025,10.5,10499914828.87474,47.655,-122.3035,60.0,7.25
2026-01-20T23:07:16+00:00,SAT-45187,346.8199596541499,69.6771124683307,891.1586159286567,2.4791175490184347,-86829.18322346042,10.5,10499913170.816776,47.655,-122.3035,60.0,7.266666666666667
2026-01-20T23:07:17+00:00,SAT-45187,347.3411840116277,69.27740184269682,893.6311224975444,2.526063243842967,-88473.42003630775,10.5,10499911526.579964,47.655,-122.3035,60.0,7.283333333333333
2026-01-20T23:07:18+00:00,SAT-45187,347.83993776582156,68.87814760223303,896.1504495727371,2.572611303220566,-90103.72997380723,10.5,10499909896.270025,47.655,-122.3035,60.0,7.3
2026-01-20T23:07:19+00:00,SAT-45187,348.3175127107212,68.47948743622851,898.716200579149,2.6187589669815905,-91720.01636314248,10.5,10499908279.983637,47.655,-122.3035,60.0,7.316666666666666
2026-01-20T23:07:20+00:00,SAT-45187,348.77511002862934,68.0815490494318,901.3279761888854,2.6645037241814027,-93322.19126041098,10.5,10499906677.808739,47.655,-122.3035,60.0,7.333333333333333
2026-01-20T23:07:21+00:00,SAT-45187,349.2138474257794,67.68445095790176,903.9853745698023,2.7098432734532523,-94910.17406201443,10.5,10499905089.825937,47.655,-122.3035,60.0,7.35
2026-01-20T23:07:22+00:00,SAT-45187,349.6347656831452,67.28830321274948,906.6879915945264,2.7547755840266706,-96483.8936417808,10.5,10499903516.106358,47.655,-122.3035,60.0,7.366666666666666
2026-01-20T23:07:23+00:00,SAT-45187,350.0388346803679,66.89320804504236,909.435421110329,2.7992988445874714,-98043.2865598255,10.5,10499901956.71344,47.655,-122.3035,60.0,7.383333333333334
2026-01-20T23:07:24+00:00,SAT-45187,350.42695891377986,66.4992604562166,912.2272551579975,2.843411468965623,-99588.29726176448,10.5,10499900411.702738,47.655,-122.3035,60.0,7.4
2026-01-20T23:07:25+00:00,SAT-45187,350.79998255766566,66.10654875185611,915.0630841963792,2.88711206941775,-101118.87714295457,10.5,10499898881.122856,47.655,-122.3035,60.0,7.416666666666667
2026-01-20T23:07:26+00:00,SAT-45187,351.15869410099856,65.71515502926154,917.9424973002785,2.9303995278362205,-102634.98704253699,10.5,10499897365.012957,47.655,-122.3035,60.0,7.433333333333334
2026-01-20T23:07:27+00:00,SAT-45187,351.5038306069057,65.325155610672,920.8650824293738,2.973272892817239,-104136.59363832632,10.5,10499895863.406363,47.655,-122.3035,60.0,7.45
2026-01-20T23:07:28+00:00,SAT-45187,351.83608160466684,64.9366214506411,923.8304265944769,3.0157314404337634,-105623.67157533535,10.5,10499894376.328424,47.655,-122.3035,60.0,7.466666666666667
2026-01-20T23:07:29+00:00,SAT-45187,352.1560926659162,64.54961849914679,926.8381160844029,3.05777463441763,-107096.20207118458,10.5,10499892903.79793,47.655,-122.3035,60.0,7.483333333333333
2026-01-20T23:07:30+00:00,SAT-45187,352.4644686800805,64.16420803775394,929.8877366531287,3.099402150967795,-108554.17378499177,10.5,10499891445.826216,47.655,-122.3035,60.0,7.5
2026-01-20T23:07:31+00:00,SAT-45187,352.7617768622295,63.78044698355474,932.978873731694,3.140613846014245,-109997.58167081566,10.5,10499890002.41833,47.655,-122.3035,60.0,7.516666666666667
2026-01-20T23:07:32+00:00,SAT-45187,353.04854951058746,63.39838817118305,936.1111126074522,3.181409766686359,-111426.42737932643,10.5,10499888573.57262,47.655,-122.3035,60.0,7.533333333333333
2026-01-20T23:07:33+00:00,SAT-45187,353.325286540074,63.018080609775616,939.2840386147608,3.221790127968087,-112840.71844017143,10.5,10499887159.281559,47.655,-122.3035,60.0,7.55
2026-01-20T23:07:34+00:00,SAT-45187,353.5924578080898,62.63956972148343,942.4972373023875,3.261755336126247,-114240.46908253306,10.5,10499885759.530918,47.655,-122.3035,60.0,7.566666666666666
2026-01-20T23:07:35+00:00,SAT-45187,353.85050525480335,62.26289755792976,945.7502946242842,3.301305960393532,-115625.69924334816,10.5,10499884374.300756,47.655,-122.3035,60.0,7.583333333333333
2026-01-20T23:07:36+00:00,SAT-45187,354.09984486958234,61.88810300265634,949.0427971021167,3.3404427127843146,-116996.43386037185,10.5,10499883003.56614,47.655,-122.3035,60.0,7.6
2026-01-20T23:07:37+00:00,SAT-45187,354.3408684997737,61.51522195994552,952.3743319676669,3.379166494061721,-118352.704482139,10.5,10499881647.295517,47.655,-122.3035,60.0,7.616666666666666
2026-01-20T23:07:38+00:00,SAT-45187,354.5739455201795,61.14428752407144,955.7444873510777,3.417478349042375,-119694.5477025474,10.5,10499880305.452297,47.655,-122.3035,60.0,7.633333333333334
2026-01-20T23:07:39+00:00,SAT-45187,354.7994243685441,60.775330140639426,959.1528524245226,3.455379450306298,-121022.00459030936,10.5,10499878977.995409,47.655,-122.3035,60.0,7.65
2026-01-20T23:07:40+00:00,SAT-45187,355.0176339609292,60.40837775765776,962.5990175296281,3.4928711142187967,-122335.12125010618,10.5,10499877664.87875,47.655,-122.3035,60.0,7.666666666666667
2026-01-20T23:07:41+00:00,SAT-45187,355.2288849993318,60.0434559639057,966.0825743208757,3.5299548249738306,-123633.94966468842,10.5,10499876366.050335,47.655,-122.3035,60.0,7.683333333333334
2026-01-20T23:07:42+00:00,SAT-45187,355.4334711808455,59.68058811496293,969.6031159329829,3.5666321583729848,-124918.54502529325,10.5,10499875081.454975,47.655,-122.3035,60.0,7.7
2026-01-20T23:07:43+00:00,SAT-45187,355.63167031083236,59.31979545812933,973.1602370722669,3.6029048409432516,-126188.96780219914,10.5,10499873811.032198,47.655,-122.3035,60.0,7.716666666666667
2026-01-20T23:07:44+00:00,SAT-45187,355.82374533612773,58.96109724279079,976.7535341669676,3.6387746724224606,-127445.28102983777,10.5,10499872554.71897,47.655,-122.3035,60.0,7.733333333333333
2026-01-20T23:07:45+00:00,SAT-45187,356.00994529730457,58.60451083091969,980.3826054402637,3.6742436502186133,-128687.55466588635,10.5,10499871312.445333,47.655,-122.3035,60.0,7.75
2026-01-20T23:07:46+00:00,SAT-45187,356.1905062173051,58.25005178819314,984.047051107415,3.7093137929481035,-129915.85941082975,10.5,10499870084.140589,47.655,-122.3035,60.0,7.766666666666667
2026-01-20T23:07:47+00:00,SAT-45187,356.36565191624067,57.89773398600784,987.7464733969152,3.7439872820279056,-131130.2716671178,10.5,10499868869.728333,47.655,-122.3035,60.0,7.783333333333333
2026-01-20T23:07:48+00:00,SAT-45187,356.5355947744115,57.54756968356877,991.4804767128577,3.7782663536439296,-132330.86975544013,10.5,10499867669.130245,47.655,-122.3035,60.0,7.8
2026-01-20T23:07:49+00:00,SAT-45187,356.7005364355208,57.19956961483091,995.2486676895586,3.812153374902041,-133517.736581857,10.5,10499866482.263418,47.655,-122.3035,60.0,7.816666666666666
2026-01-20T23:07:50+00:00,SAT-45187,356.8606684634943,56.85374306306981,999.0506553221275,3.8456507934901625,-134690.95787475316,10.5,10499865309.042126,47.655,-122.3035,60.0,7.833333333333333
2026-01-20T23:07:51+00:00,SAT-45187,357.0161729508706,56.51009793546145,1002.8860510468351,3.878761117006304,-135850.62146081805,10.5,10499864149.37854,47.655,-122.3035,60.0,7.85
2026-01-20T23:07:52+00:00,SAT-45187,357.1672230840405,56.16864083495957,1006.7544688008627,3.9114869523738065,-136996.81864553434,10.5,10499863003.181355,47.655,-122.3035,60.0,7.866666666666666
2026-01-20T23:07:53+00:00,SAT-45187,357.31398367116145,55.82937712446871,1010.6555251213634,3.943830984669026,-138129.64347163387,10.5,10499861870.35653,47.655,-122.3035,60.0,7.883333333333334
2026-01-20T23:07:54+00:00,SAT-45187,357.4566116330676,55.49231098912312,1014.5888392234067,3.9757959699239347,-139249.19246701433,10.5,10499860750.807533,47.655,-122.3035,60.0,7.9
2026-01-20T23:07:55+00:00,SAT-45187,357.59525646071495,55.15744549559689,1018.5540330707443,4.00738468824233,-140355.56300267053,10.5,10499859644.436996,47.655,-122.3035,60.0,7.916666666666667
2026-01-20T23:07:56+00:00,SAT-45187,357.7300606403257,54.82478265191659,1022.5507313998179,4.038600054304225,-141448.85716302562,10.5,10499858551.142838,47.655,-122.3035,60.0,7.933333333333334
2026-01-20T23:07:57+00:00,SAT-45187,357.8611600541174,54.494323454862894,1026.5785618539774,4.0694449957405965,-142529.1774861003,10.5,10499857470.822514,47.655,-122.3035,60.0,7.95
2026-01-20T23:07:58+00:00,SAT-45187,357.98868435045836,54.16606794466258,1030.637154996396,4.099922490021121,-143596.62825547723,10.5,10499856403.371744,47.655,-122.3035,60.0,7.966666666666667
2026-01-20T23:07:59+00:00,SAT-45187,358.11275729122576,53.8400152536868,1034.726144359777,4.13003556765278,-144651.31561233004,10.5,10499855348.684387,47.655,-122.3035,60.0,7.983333333333333
2026-01-20T23:08:00+00:00,SAT-45187,358.2334970768018,53.51616365226931,1038.8451664992494,4.159787334023784,-145693.34832048957,10.5,10499854306.65168,47.655,-122.3035,60.0,8.0
2026-01-20T23:08:01+00:00,SAT-45187,358.351016650902,53.194510590422915,1042.993861067049,4.189180897222771,-146722.83523836712,10.5,10499853277.164762,47.655,-122.3035,60.0,8.016666666666667
2026-01-20T23:08:02+00:00,SAT-45187,358.4654239839263,52.875052742882275,1047.1718708152125,4.2182194404471565,-147739.88785500114,10.5,10499852260.112144,47.655,-122.3035,60.0,8.033333333333333
2026-01-20T23:08:03+00:00,SAT-45187,358.5768223406157,52.557786046310326,1051.3788416704851,4.246906138853943,-148744.61737782074,10.5,10499851255.382622,47.655,-122.3035,60.0,8.05
2026-01-20T23:08:04+00:00,SAT-45187,358.68531052872396,52.24270574078681,1055.614422726302,4.275244246553344,-149737.1377795305,10.5,10499850262.86222,47.655,-122.3035,60.0,8.066666666666666
2026-01-20T23:08:05+00:00,SAT-45187,358.79098313469007,51.929806402760704,1059.8782663215316,4.303237024709534,-150717.56327989447,10.5,10499849282.43672,47.655,-122.3035,60.0,8.083333333333334
2026-01-20T23:08:06+00:00,SAT-45187,358.8939307429831,51.619081981587364,1064.1700280475084,4.330887738600095,-151686.0082427457,10.5,10499848313.991756,47.655,-122.3035,60.0,8.1
2026-01-20T23:08:07+00:00,SAT-45187,358.9942401421537,51.310525834389324,1068.4893667521387,4.3581997197172875,-152642.5893510354,10.5,10499847357.410648,47.655,-122.3035,60.0,8.116666666666667
2026-01-20T23:08:08+00:00,SAT-45187,359.09199451997495,51.00413075480014,1072.835944605937,4.385176294294444,-153587.42310352472,10.5,10499846412.576897,47.655,-122.3035,60.0,8.133333333333333
2026-01-20T23:08:09+00:00,SAT-45187,359.18727364527496,50.69988900529362,1077.20942709678,4.41182080116265,-154520.62644020157,10.5,10499845479.37356,47.655,-122.3035,60.0,8.15
2026-01-20T23:08:10+00:00,SAT-45187,359.28015403945915,50.397792346654505,1081.6094830424727,4.438136605696286,-155442.31723071236,10.5,10499844557.68277,47.655,-122.3035,60.0,8.166666666666666
2026-01-20T23:08:11+00:00,SAT-45187,359.3707091383306,50.09783206506968,1086.0357846172205,4.464127072144418,-156352.61330529,10.5,10499843647.386694,47.655,-122.3035,60.0,8.183333333333334
2026-01-20T23:08:12+00:00,SAT-45187,359.4590094439017,49.79999899974427,1090.488007350506,4.489795606664539,-157251.633961978,10.5,10499842748.366037,47.655,-122.3035,60.0,8.2
2026-01-20T23:08:13+00:00,SAT-45187,359.5451226683737,49.50428356635733,1094.9658301688862,4.515145578396053,-158139.49720228973,10.5,10499841860.502798,47.655,-122.3035,60.0,8.216666666666667
2026-01-20T23:08:14+00:00,SAT-45187,359.6291138683148,49.21067578452258,1099.4689353590732,4.540180373908654,-159016.321638221,10.5,10499840983.678362,47.655,-122.3035,60.0,8.233333333333333
2026-01-20T23:08:15+00:00,SAT-45187,359.71104557236276,48.919165300396855,1103.997008585318,4.5649034162507744,-159882.2271594075,10.5,10499840117.77284,47.655,-122.3035,60.0,8.25
2026-01-20T23:08:16+00:00,SAT-45187,359.7909779020875,48.6297414070208,1108.549738925792,4.589318067464659,-160737.33151879,10.5,10499839262.668482,47.655,-122.3035,60.0,8.266666666666667
2026-01-20T23:08:17+00:00,SAT-45187,359.86896868435855,48.34239306980877,1113.1268188117435,4.613427769755832,-161581.75527696643,10.5,10499838418.244722,47.655,-122.3035,60.0,8.283333333333333
2026-01-20T23:08:18+00:00,SAT-45187,359.945073560031,48.057108942060026,1117.7279441074465,4.637235855379648,-162415.61514361482,10.5,10499837584.384857,47.655,-122.3035,60.0,8.3
2026-01-20T23:08:19+00:00,SAT-45187,0.019346083422699303,47.77387739138272,1122.3528140005453,4.6607457625887,-163239.0315408847,10.5,10499836760.968458,47.655,-122.3035,60.0,8.316666666666666
2026-01-20T23:08:20+00:00,SAT-45187,0.09183782001996195,47.49268651178321,1127.0011311077672,4.683960854859172,-164052.12227193953,10.5,10499835947.877728,47.655,-122.3035,60.0,8.333333333333334
2026-01-20T23:08:21+00:00,SAT-45187,0.16259843595354512,47.21352414602952,1131.6726014003466,4.706884486640502,-164855.004823788,10.5,10499835144.995176,47.655,-122.3035,60.0,8.35
2026-01-20T23:08:22+00:00,SAT-45187,0.23167578378623196,46.93637790302449,1136.3669341950228,4.72952003109275,-165647.79733876383,10.5,10499834352.202662,47.655,-122.3035,60.0,8.366666666666667
2026-01-20T23:08:23+00:00,SAT-45187,0.2991159841824957,46.661235172759206,1141.0838421726992,4.751870848812017,-166430.6175191578,10.5,10499833569.38248,47.655,-122.3035,60.0,8.383333333333333
2026-01-20T23:08:24+00:00,SAT-45187,0.3649635028024351,46.38808314237686,1145.8230413659146,4.773940251216269,-167203.5813448343,10.5,10499832796.418655,47.655,-122.3035,60.0,8.4
2026-01-20T23:08:25+00:00,SAT-45187,0.42926122267965533,46.11690881354566,1150.584251109794,4.795731571605503,-167966.80556205916,10.5,10499832033.194437,47.655,-122.3035,60.0,8.416666666666666
2026-01-20T23:08:26+00:00,SAT-45187,0.49205051386919135,45.8476990150085,1155.3671940638753,4.817248120019649,-168720.40610243208,10.5,10499831279.593897,47.655,-122.3035,60.0,8.433333333333334
2026-01-20T23:08:27+00:00,SAT-45187,0.5533712988993689,45.58044041706785,1160.171596188908,4.838493184678213,-169464.4981333094,10.5,10499830535.501867,47.655,-122.3035,60.0,8.45
2026-01-20T23:08:28+00:00,SAT-45187,0.6132621149000458,45.31511954529883,1164.997186725094,4.859470036811172,-170199.19622700216,10.5,10499829800.803774,47.655,-122.3035,60.0,8.466666666666667
2026-01-20T23:08:29+00:00,SAT-45187,0.671760172688062,45.05172279335072,1169.8436981751404,4.880181898091486,-170924.61322012512,10.5,10499829075.38678,47.655,-122.3035,60.0,8.483333333333333
2026-01-20T23:08:30+00:00,SAT-45187,0.7289014124718798,44.79023643686636,1174.7108662548371,4.900632050589205,-171640.8640646545,10.5,10499828359.135935,47.655,-122.3035,60.0,8.5
2026-01-20T23:08:31+00:00,SAT-45187,0.7847205581593087,44.53064664094158,1179.5984299532913,4.920823666384694,-172348.05986026267,10.5,10499827651.94014,47.655,-122.3035,60.0,8.516666666666667
2026-01-20T23:08:32+00:00,SAT-45187,0.8392511668946142,44.27293947615244,1184.506131423232,4.940759964474119,-173046.31334981168,10.5,10499826953.68665,47.655,-122.3035,60.0,8.533333333333333
2026-01-20T23:08:33+00:00,SAT-45187,0.8925256780542059,44.01710092568521,1189.4337160278012,4.960444062693009,-173735.73373309008,10.5,10499826264.266268,47.655,-122.3035,60.0,8.55
2026-01-20T23:08:34+00:00,SAT-45187,0.9445754581684781,43.76311689968908,1194.3809322396603,4.979879164124152,-174416.43319560628,10.5,10499825583.566805,47.655,-122.3035,60.0,8.566666666666666
2026-01-20T23:08:35+00:00,SAT-45187,0.995430845742299,43.51097323953516,1199.3475317260134,4.999068339186426,-175088.51927641712,10.5,10499824911.480724,47.655,-122.3035,60.0,8.583333333333334
2026-01-20T23:08:36+00:00,SAT-45187,1.0451211915464635,43.2606557327617,1204.3332692162953,5.018014702805293,-175752.1010733885,10.5,10499824247.898926,47.655,-122.3035,60.0,8.6
2026-01-20T23:08:37+00:00,SAT-45187,1.093674898925031,43.012150118521795,1209.3379025465597,5.03672131388998,-176407.28572246066,10.5,10499823592.714277,47.655,-122.3035,60.0,8.616666666666667
2026-01-20T23:08:38+00:00,SAT-45187,1.1411194611071287,42.76544209769682,1214.3611926036128,5.055191231929589,-177054.18037988362,10.5,10499822945.81962,47.655,-122.3035,60.0,8.633333333333333
2026-01-20T23:08:39+00:00,SAT-45187,1.1874814973763197,42.520517339779694,1219.4029033255906,5.073427445634729,-177692.88972294508,10.5,10499822307.110277,47.655,-122.3035,60.0,8.65
2026-01-20T23:08:40+00:00,SAT-45187,1.23278678684387,42.277361492825186,1224.4628016313704,5.091432956639019,-178323.51888155137,10.5,10499821676.48112,47.655,-122.3035,60.0,8.666666666666666
2026-01-20T23:08:41+00:00,SAT-45187,1.2770603014773,42.0359601889541,1229.5406574334581,5.109210729318741,-178946.17168069916,10.5,10499821053.82832,47.655,-122.3035,60.0,8.683333333333334
2026-01-20T23:08:42+00:00,SAT-45187,1.320326237138154,41.79629905193287,1234.6362436008321,5.126763702155366,-179560.95103843923,10.5,10499820439.048962,47.655,-122.3035,60.0,8.7
2026-01-20T23:08:43+00:00,SAT-45187,1.3626080433004855,41.55836370386597,1239.7493359331152,5.1440947567913184,-180167.95788207868,10.5,10499819832.042118,47.655,-122.3035,60.0,8.716666666666667
2026-01-20T23:08:44+00:00,SAT-45187,1.4039284511721692,41.32213977293815,1244.8797131038884,5.161206787564858,-180767.29358358643,10.5,10499819232.706417,47.655,-122.3035,60.0,8.733333333333333
2026-01-20T23:08:45+00:00,SAT-45187,1.444309501160943,41.087612897642785,1250.027156673353,5.178102641599362,-181359.05786126645,10.5,10499818640.942139,47.655,-122.3035,60.0,8.75
2026-01-20T23:08:46+00:00,SAT-45187,1.483772568575411,40.854768733469804,1255.1914510412414,5.194785119535917,-181943.34880541635,10.5,10499818056.651196,47.655,-122.3035,60.0,8.766666666666667
2026-01-20T23:08:47+00:00,SAT-45187,1.5223383882410906,40.623592959220964,1260.3723834004586,5.211257041573432,-182520.26519133124,10.5,10499817479.734808,47.655,-122.3035,60.0,8.783333333333333
2026-01-20T23:08:48+00:00,SAT-45187,1.5600270785213277,40.39407128010479,1265.5697437565877,5.227521136230001,-183089.90258325648,10.5,10499816910.097416,47.655,-122.3035,60.0,8.8
2026-01-20T23:08:49+00:00,SAT-45187,1.5968581634501253,40.16618943549805,1270.7833248364545,5.2435801465486405,-183652.35705416152,10.5,10499816347.642946,47.655,-122.3035,60.0,8.816666666666666
