satellites_20260120_184412/SAT-64045.csv

timestamp,satellite,azimuth_deg,elevation_deg,distance_km,relative_velocity_kms,doppler_shift_hz,tx_freq_ghz,rx_freq_hz,ue_lat,ue_lon,ue_alt_m,time_minutes
2026-01-20T23:00:00+00:00,SAT-64045,267.9520842607624,40.38118574120696,2832.1111468833747,-3.471541374301028,121588.06353347554,10.5,10500121588.063534,47.655,-122.3035,60.0,0.0
2026-01-20T23:00:01+00:00,SAT-64045,268.10409628491504,40.439559223264375,2828.6488629527385,-3.460309672847529,121194.68183852395,10.5,10500121194.681839,47.655,-122.3035,60.0,0.016666666666666666
2026-01-20T23:00:02+00:00,SAT-64045,268.2567892916831,40.49772582179188,2825.1977807723515,-3.449032750983465,120799.71633351225,10.5,10500120799.716333,47.655,-122.3035,60.0,0.03333333333333333
2026-01-20T23:00:03+00:00,SAT-64045,268.41016470618575,40.55568263683836,2821.7579454420375,-3.4377105389587195,120403.16457549628,10.5,10500120403.164576,47.655,-122.3035,60.0,0.05
2026-01-20T23:00:04+00:00,SAT-64045,268.5642239191187,40.61342674871735,2818.3294021311826,-3.426342989472264,120005.02490779395,10.5,10500120005.024908,47.655,-122.3035,60.0,0.06666666666666667
2026-01-20T23:00:05+00:00,SAT-64045,268.7189682869586,40.670955218445116,2814.9121960563493,-3.4149300091869956,119605.2940613451,10.5,10500119605.294062,47.655,-122.3035,60.0,0.08333333333333333
2026-01-20T23:00:06+00:00,SAT-64045,268.8743991289763,40.72826508703264,2811.5063725271866,-3.4034715476168724,119203.97026791502,10.5,10500119203.970268,47.655,-122.3035,60.0,0.1
2026-01-20T23:00:07+00:00,SAT-64045,269.0305177283582,40.78535337627774,2808.1119769036964,-3.391967537904567,118801.05118587724,10.5,10500118801.051186,47.655,-122.3035,60.0,0.11666666666666667
2026-01-20T23:00:08+00:00,SAT-64045,269.1873253305629,40.84221708856727,2804.7290546125596,-3.3804179206950917,118396.53473636905,10.5,10500118396.534737,47.655,-122.3035,60.0,0.13333333333333333
2026-01-20T23:00:09+00:00,SAT-64045,269.3448231428119,40.898853207085175,2801.357651139653,-3.3688226264045205,117990.41848226705,10.5,10500117990.418482,47.655,-122.3035,60.0,0.15
2026-01-20T23:00:10+00:00,SAT-64045,269.503012332687,40.95525869573025,2797.9978120402525,-3.357181610178903,117582.70085259611,10.5,10500117582.700853,47.655,-122.3035,60.0,0.16666666666666666
2026-01-20T23:00:11+00:00,SAT-64045,269.66189402844225,41.01143049962497,2794.6495829143673,-3.3454947969557027,117173.37921834871,10.5,10500117173.37922,47.655,-122.3035,60.0,0.18333333333333332
2026-01-20T23:00:12+00:00,SAT-64045,269.8214693166209,41.06736554470956,2791.3130094368703,-3.3337621420771404,116762.45201542052,10.5,10500116762.452015,47.655,-122.3035,60.0,0.2
2026-01-20T23:00:13+00:00,SAT-64045,269.98173924262267,41.1230607383586,2787.988137327172,-3.321983588000541,116349.91722842368,10.5,10500116349.917229,47.655,-122.3035,60.0,0.21666666666666667
2026-01-20T23:00:14+00:00,SAT-64045,270.14270480915457,41.178512969276575,2784.6750123620727,-3.3101590874304647,115935.77320087179,10.5,10500115935.773201,47.655,-122.3035,60.0,0.23333333333333334
2026-01-20T23:00:15+00:00,SAT-64045,270.30436697581825,41.23371910778929,2781.3736803655424,-3.2982885719879755,115520.01753784527,10.5,10500115520.017538,47.655,-122.3035,60.0,0.25
2026-01-20T23:00:16+00:00,SAT-64045,270.46672665709536,41.28867600561662,2778.084187229746,-3.2863720146373048,115102.64929243717,10.5,10500115102.649292,47.655,-122.3035,60.0,0.26666666666666666
2026-01-20T23:00:17+00:00,SAT-64045,270.6297847235086,41.343380496694756,2774.8065788738145,-3.2744093475514435,114683.66608905872,10.5,10500114683.66609,47.655,-122.3035,60.0,0.2833333333333333
2026-01-20T23:00:18+00:00,SAT-64045,270.7935419985824,41.39782939663339,2771.5409012845234,-3.2624005357384434,114263.06670214384,10.5,10500114263.066702,47.655,-122.3035,60.0,0.3
2026-01-20T23:00:19+00:00,SAT-64045,270.95799925957766,41.452019503408664,2768.2872004835467,-3.2503455317000856,113840.84946810403,10.5,10500113840.849468,47.655,-122.3035,60.0,0.31666666666666665
2026-01-20T23:00:20+00:00,SAT-64045,271.1231572358695,41.505947597306545,2765.0455225399314,-3.2382442982402733,113417.01308417461,10.5,10500113417.013084,47.655,-122.3035,60.0,0.3333333333333333
2026-01-20T23:00:21+00:00,SAT-64045,271.28901660853387,41.559610441251785,2761.8159135598194,-3.226096777511907,112991.5555243055,10.5,10500112991.555525,47.655,-122.3035,60.0,0.35
2026-01-20T23:00:22+00:00,SAT-64045,271.4555780082625,41.61300478063143,2758.598419707048,-3.213902952493183,112564.47619232109,10.5,10500112564.476192,47.655,-122.3035,60.0,0.36666666666666664
2026-01-20T23:00:23+00:00,SAT-64045,271.62284201654893,41.66612734414462,2755.393087162428,-3.2016627664042634,112135.77309955131,10.5,10500112135.7731,47.655,-122.3035,60.0,0.38333333333333336
2026-01-20T23:00:24+00:00,SAT-64045,271.7908091625832,41.71897484332235,2752.199962163401,-3.189376191903942,111705.44528839143,10.5,10500111705.445288,47.655,-122.3035,60.0,0.4
2026-01-20T23:00:25+00:00,SAT-64045,271.95947992383213,41.771543973203094,2749.0190909746752,-3.177043203266641,111273.49185782297,10.5,10500111273.491858,47.655,-122.3035,60.0,0.4166666666666667
2026-01-20T23:00:26+00:00,SAT-64045,272.12885472512914,41.8238314125519,2745.850519886617,-3.1646637578369687,110839.91131387358,10.5,10500110839.911314,47.655,-122.3035,60.0,0.43333333333333335
2026-01-20T23:00:27+00:00,SAT-64045,272.29893393676684,41.8758338237831,2742.694295232134,-3.152237822930294,110404.70251178929,10.5,10500110404.702513,47.655,-122.3035,60.0,0.45
2026-01-20T23:00:28+00:00,SAT-64045,272.4697178739974,41.92754785333371,2739.5504633767323,-3.1397653759974147,109967.86466180164,10.5,10500109967.864662,47.655,-122.3035,60.0,0.4666666666666667
2026-01-20T23:00:29+00:00,SAT-64045,272.6412067966051,41.978970132047024,2736.419070708404,-3.1272463988994588,109529.39712861061,10.5,10500109529.39713,47.655,-122.3035,60.0,0.48333333333333334
2026-01-20T23:00:30+00:00,SAT-64045,272.8134009081354,42.03009727546854,2733.3001636332347,-3.114680854256354,109089.29860300795,10.5,10500109089.298603,47.655,-122.3035,60.0,0.5
2026-01-20T23:00:31+00:00,SAT-64045,272.9863003537939,42.08092588376184,2730.19378859459,-3.1020687225783803,108647.5684023812,10.5,10500108647.568403,47.655,-122.3035,60.0,0.5166666666666667
2026-01-20T23:00:32+00:00,SAT-64045,273.15990522042,42.13145254224193,2727.0999920552717,-3.0894099918014177,108204.20610419387,10.5,10500108204.206104,47.655,-122.3035,60.0,0.5333333333333333
2026-01-20T23:00:33+00:00,SAT-64045,273.3342155358954,42.18167382174375,2724.0188204901146,-3.076704633351825,107759.21070767619,10.5,10500107759.210709,47.655,-122.3035,60.0,0.55
2026-01-20T23:00:34+00:00,SAT-64045,273.5092312671711,42.231586278607715,2720.9503204024522,-3.0639526442824367,107312.58210960592,10.5,10500107312.58211,47.655,-122.3035,60.0,0.5666666666666667
2026-01-20T23:00:35+00:00,SAT-64045,273.68495232070717,42.28118645536059,2717.894538298555,-3.051153997877664,106864.31937429016,10.5,10500106864.319374,47.655,-122.3035,60.0,0.5833333333333334
2026-01-20T23:00:36+00:00,SAT-64045,273.861378540071,42.33047088060077,2714.851520711338,-3.038308687455433,106414.42226769442,10.5,10500106414.422268,47.655,-122.3035,60.0,0.6
2026-01-20T23:00:37+00:00,SAT-64045,274.03850970605237,42.37943606960253,2711.8213141803826,-3.0254167009597546,105962.89036756696,10.5,10500105962.890368,47.655,-122.3035,60.0,0.6166666666666667
2026-01-20T23:00:38+00:00,SAT-64045,274.2163455353242,42.42807852451762,2708.8039652572916,-3.0124780386010315,105509.72368127697,10.5,10500105509.72368,47.655,-122.3035,60.0,0.6333333333333333
2026-01-20T23:00:39+00:00,SAT-64045,274.39488568014013,42.47639473486813,2705.7995204934605,-2.9994926849547943,105054.92166859428,10.5,10500105054.921669,47.655,-122.3035,60.0,0.65
2026-01-20T23:00:40+00:00,SAT-64045,274.5741297263553,42.52438117759959,2702.8080264556656,-2.986460649623347,104598.48466583219,10.5,10500104598.484665,47.655,-122.3035,60.0,0.6666666666666666
2026-01-20T23:00:41+00:00,SAT-64045,274.75407719390194,42.572034317795136,2699.8295297011077,-2.973381919268461,104140.41220582955,10.5,10500104140.412207,47.655,-122.3035,60.0,0.6833333333333333
2026-01-20T23:00:42+00:00,SAT-64045,274.93472753436674,42.61935060863017,2696.8640768002906,-2.960256497792758,103680.70442527262,10.5,10500103680.704426,47.655,-122.3035,60.0,0.7
2026-01-20T23:00:43+00:00,SAT-64045,275.1160801309782,42.66632649197654,2693.911714319825,-2.9470843965142905,103219.36172056753,10.5,10500103219.361721,47.655,-122.3035,60.0,0.7166666666666667
2026-01-20T23:00:44+00:00,SAT-64045,275.2981342980777,42.71295839885991,2690.9724888150354,-2.933865613900776,102756.38403804722,10.5,10500102756.384039,47.655,-122.3035,60.0,0.7333333333333333
2026-01-20T23:00:45+00:00,SAT-64045,275.48088927925255,42.759242749600844,2688.0464468427713,-2.9206001609079086,102291.7717614265,10.5,10500102291.77176,47.655,-122.3035,60.0,0.75
2026-01-20T23:00:46+00:00,SAT-64045,275.66434424710644,42.805175954369304,2685.1336349489593,-2.907288048192548,101825.52526395362,10.5,10500101825.525265,47.655,-122.3035,60.0,0.7666666666666667
2026-01-20T23:00:47+00:00,SAT-64045,275.84849830220566,42.850754413543456,2682.2340996688954,-2.8939292913102856,101357.6450904512,10.5,10500101357.64509,47.655,-122.3035,60.0,0.7833333333333333
2026-01-20T23:00:48+00:00,SAT-64045,276.0333504723824,42.895974518159036,2679.347887522362,-2.8805239008508967,100888.13161181798,10.5,10500100888.13161,47.655,-122.3035,60.0,0.8
2026-01-20T23:00:49+00:00,SAT-64045,276.21889971137205,42.940832650213515,2676.4750450185797,-2.8670718947331935,100416.98545564656,10.5,10500100416.985456,47.655,-122.3035,60.0,0.8166666666666667
2026-01-20T23:00:50+00:00,SAT-64045,276.405144898287,42.98532518317054,2673.6156186488993,-2.8535733005418202,99944.20758806785,10.5,10500099944.207588,47.655,-122.3035,60.0,0.8333333333333334
2026-01-20T23:00:51+00:00,SAT-64045,276.5920848372352,43.029448482510055,2670.7696548771587,-2.840028138618781,99469.7987215449,10.5,10500099469.798721,47.655,-122.3035,60.0,0.85
2026-01-20T23:00:52+00:00,SAT-64045,276.77971825585706,43.07319890602159,2667.9372001469096,-2.82643641983439,98993.75923680207,10.5,10500098993.759237,47.655,-122.3035,60.0,0.8666666666666667
2026-01-20T23:00:53+00:00,SAT-64045,276.9680438036309,43.11657280407596,2665.1183008908615,-2.8127981936282653,98516.09086542392,10.5,10500098516.090866,47.655,-122.3035,60.0,0.8833333333333333
2026-01-20T23:00:54+00:00,SAT-64045,277.1570600535435,43.159566520645825,2662.3130034924166,-2.7991134806041438,98036.79432904048,10.5,10500098036.794329,47.655,-122.3035,60.0,0.9
2026-01-20T23:00:55+00:00,SAT-64045,277.346765499114,43.20217639329424,2659.521354314427,-2.7853823089885523,97555.87061626413,10.5,10500097555.870617,47.655,-122.3035,60.0,0.9166666666666666
2026-01-20T23:00:56+00:00,SAT-64045,277.5371585539292,43.24439875373527,2656.7433996915956,-2.7716047258817738,97073.321376746,10.5,10500097073.321377,47.655,-122.3035,60.0,0.9333333333333333
2026-01-20T23:00:57+00:00,SAT-64045,277.72823755199227,43.28622992857365,2653.97918591165,-2.7577807553459825,96589.1474532452,10.5,10500096589.147453,47.655,-122.3035,60.0,0.95
2026-01-20T23:00:58+00:00,SAT-64045,277.9200007451426,43.327666239414704,2651.228759238318,-2.743910444948007,96103.35051175326,10.5,10500096103.350512,47.655,-122.3035,60.0,0.9666666666666667
2026-01-20T23:00:59+00:00,SAT-64045,278.112446303732,43.368704003689544,2648.4921658878898,-2.7299938472870675,95615.93239451744,10.5,10500095615.932394,47.655,-122.3035,60.0,0.9833333333333333
2026-01-20T23:01:00+00:00,SAT-64045,278.30557231610237,43.40933953520808,2645.7694520241957,-2.7160309873523314,95126.89397676403,10.5,10500095126.893976,47.655,-122.3035,60.0,1.0
2026-01-20T23:01:01+00:00,SAT-64045,278.49937678558433,43.44956914422991,2643.060663786143,-2.70202193232537,94636.23761147582,10.5,10500094636.237612,47.655,-122.3035,60.0,1.0166666666666666
2026-01-20T23:01:02+00:00,SAT-64045,278.69385763269713,43.48938913859375,2640.365847245637,-2.6879667264675504,94143.96484887315,10.5,10500094143.96485,47.655,-122.3035,60.0,1.0333333333333334
2026-01-20T23:01:03+00:00,SAT-64045,278.8890126925219,43.52879582387458,2637.68504843044,-2.673865419318611,93650.0774240472,10.5,10500093650.077423,47.655,-122.3035,60.0,1.05
2026-01-20T23:01:04+00:00,SAT-64045,279.0848397141947,43.56778550397911,2635.018313318906,-2.6597180744299105,93154.57756283534,10.5,10500093154.577562,47.655,-122.3035,60.0,1.0666666666666667
2026-01-20T23:01:05+00:00,SAT-64045,279.28133636105974,43.606354481870575,2632.365687826008,-2.645524746803023,92657.46719162542,10.5,10500092657.467192,47.655,-122.3035,60.0,1.0833333333333333
2026-01-20T23:01:06+00:00,SAT-64045,279.4785002091582,43.64449905997303,2629.7272178118633,-2.6312855120132785,92158.74895738513,10.5,10500092158.748957,47.655,-122.3035,60.0,1.1
2026-01-20T23:01:07+00:00,SAT-64045,279.6763287479306,43.6822155410069,2627.1029490612154,-2.617000406375521,91658.42413201391,10.5,10500091658.424131,47.655,-122.3035,60.0,1.1166666666666667
2026-01-20T23:01:08+00:00,SAT-64045,279.87481937634374,43.71950022796952,2624.4929273225903,-2.6026695309040186,91156.49625345877,10.5,10500091156.496254,47.655,-122.3035,60.0,1.1333333333333333
2026-01-20T23:01:09+00:00,SAT-64045,280.07396940706343,43.75634942562035,2621.8971982437683,-2.5882929321166364,90652.96695097206,10.5,10500090652.966951,47.655,-122.3035,60.0,1.15
2026-01-20T23:01:10+00:00,SAT-64045,280.2737760613991,43.79275944026094,2619.315807426138,-2.5738706967390437,90147.8392620536,10.5,10500090147.839262,47.655,-122.3035,60.0,1.1666666666666667
2026-01-20T23:01:11+00:00,SAT-64045,280.47423647164237,43.82872658088029,2616.74880038459,-2.559402892556069,89641.11556081483,10.5,10500089641.11556,47.655,-122.3035,60.0,1.1833333333333333
2026-01-20T23:01:12+00:00,SAT-64045,280.6753476787977,43.86424715946516,2614.1962225664142,-2.544889609689816,89132.799003713,10.5,10500089132.799004,47.655,-122.3035,60.0,1.2
2026-01-20T23:01:13+00:00,SAT-64045,280.8771066335974,43.899317491898834,2611.6581193290167,-2.5303309132869436,88622.89187245967,10.5,10500088622.891872,47.655,-122.3035,60.0,1.2166666666666666
2026-01-20T23:01:14+00:00,SAT-64045,281.0795101937224,43.93393389821004,2609.1345359648317,-2.5157269119972145,88111.39797242916,10.5,10500088111.397972,47.655,-122.3035,60.0,1.2333333333333334
2026-01-20T23:01:15+00:00,SAT-64045,281.2825551266408,43.968092703774325,2606.6255176579334,-2.501077674799266,87598.31971954509,10.5,10500087598.31972,47.655,-122.3035,60.0,1.25
2026-01-20T23:01:16+00:00,SAT-64045,281.4862381056304,44.00179023937838,2604.1311095236,-2.4863832970783246,87083.6604546016,10.5,10500087083.660454,47.655,-122.3035,60.0,1.2666666666666666
2026-01-20T23:01:17+00:00,SAT-64045,281.690555711241,44.03502284220095,2601.651356581981,-2.471643879245911,86567.42369443485,10.5,10500086567.423695,47.655,-122.3035,60.0,1.2833333333333334
2026-01-20T23:01:18+00:00,SAT-64045,281.8955044310996,44.06778685650249,2599.1863037530793,-2.4568595141349734,86049.6126904474,10.5,10500086049.61269,47.655,-122.3035,60.0,1.3
2026-01-20T23:01:19+00:00,SAT-64045,282.10108065858304,44.10007863415425,2596.7359958643156,-2.4420302936784015,85530.23066251792,10.5,10500085530.230663,47.655,-122.3035,60.0,1.3166666666666667
2026-01-20T23:01:20+00:00,SAT-64045,282.3072806921138,44.131894535269375,2594.30047765142,-2.427156339527237,85009.28187138046,10.5,10500085009.281872,47.655,-122.3035,60.0,1.3333333333333333
2026-01-20T23:01:21+00:00,SAT-64045,282.5141007371353,44.1632309292366,2591.879793728798,-2.41223774951226,84486.76974348277,10.5,10500084486.769743,47.655,-122.3035,60.0,1.35
2026-01-20T23:01:22+00:00,SAT-64045,282.7215369034702,44.19408419505918,2589.4739886132847,-2.397274616773892,83962.69754099639,10.5,10500083962.69754,47.655,-122.3035,60.0,1.3666666666666667
2026-01-20T23:01:23+00:00,SAT-64045,282.9295852042824,44.22445072195902,2587.0831067288223,-2.3822670779434594,83437.07004932834,10.5,10500083437.07005,47.655,-122.3035,60.0,1.3833333333333333
2026-01-20T23:01:24+00:00,SAT-64045,283.1382415594602,44.254326910599744,2584.7071923630865,-2.367215240248218,82909.89102403066,10.5,10500082909.891024,47.655,-122.3035,60.0,1.4
2026-01-20T23:01:25+00:00,SAT-64045,283.347501792461,44.28370917337757,2582.3462896968126,-2.352119214300676,82381.1643392213,10.5,10500082381.16434,47.655,-122.3035,60.0,1.4166666666666667
2026-01-20T23:01:26+00:00,SAT-64045,283.5573616301258,44.312593935147945,2580.0004428004167,-2.336979131693671,81850.89460383805,10.5,10500081850.894604,47.655,-122.3035,60.0,1.4333333333333333
2026-01-20T23:01:27+00:00,SAT-64045,283.76781670412606,44.34097763416887,2577.669695613074,-2.321795111275919,81319.0859804657,10.5,10500081319.085981,47.655,-122.3035,60.0,1.45
2026-01-20T23:01:28+00:00,SAT-64045,283.97886254937293,44.36885672263234,2575.3540919554284,-2.306567277189756,80785.74281709392,10.5,10500080785.742817,47.655,-122.3035,60.0,1.4666666666666666
2026-01-20T23:01:29+00:00,SAT-64045,284.1904946040647,44.3962276674261,2573.053675524311,-2.291295781771006,80250.87044916776,10.5,10500080250.87045,47.655,-122.3035,60.0,1.4833333333333334
2026-01-20T23:01:30+00:00,SAT-64045,284.40270821203745,44.42308695116792,2570.7684898646244,-2.275980728447476,79714.4724991664,10.5,10500079714.4725,47.655,-122.3035,60.0,1.5
2026-01-20T23:01:31+00:00,SAT-64045,284.6154986176915,44.44943107233048,2568.49857841812,-2.2606222758980827,79176.55452469677,10.5,10500079176.554525,47.655,-122.3035,60.0,1.5166666666666666
2026-01-20T23:01:32+00:00,SAT-64045,284.82886097099725,44.47525654660501,2566.2439844682904,-2.2452205646181476,78637.12144649932,10.5,10500078637.121447,47.655,-122.3035,60.0,1.5333333333333334
2026-01-20T23:01:33+00:00,SAT-64045,285.0427903254585,44.50055990739634,2564.0047511585117,-2.229775723468318,78096.17777781902,10.5,10500078096.177778,47.655,-122.3035,60.0,1.55
2026-01-20T23:01:34+00:00,SAT-64045,285.2572816366865,44.52533770641367,2561.780921503639,-2.2142879145910292,77553.72919756977,10.5,10500077553.729198,47.655,-122.3035,60.0,1.5666666666666667
2026-01-20T23:01:35+00:00,SAT-64045,285.4723297654426,44.549586514769345,2559.5725383568206,-2.198757279016758,77009.78064523544,10.5,10500077009.780645,47.655,-122.3035,60.0,1.5833333333333333
2026-01-20T23:01:36+00:00,SAT-64045,285.6879294753618,44.57330292346808,2557.3796444305476,-2.1831839813512817,76464.33788600664,10.5,10500076464.337887,47.655,-122.3035,60.0,1.6
2026-01-20T23:01:37+00:00,SAT-64045,285.9040754351378,44.59648354439423,2555.202282273147,-2.167568160173932,75917.40577351778,10.5,10500075917.405773,47.655,-122.3035,60.0,1.6166666666666667
2026-01-20T23:01:38+00:00,SAT-64045,286.12076221572465,44.619125010767654,2553.0404942947334,-2.1519099938454547,75368.9905547166,10.5,10500075368.990555,47.655,-122.3035,60.0,1.6333333333333333
2026-01-20T23:01:39+00:00,SAT-64045,286.3379842943137,44.64122397830251,2550.894322727538,-2.1362096366476493,74819.09763320435,10.5,10500074819.097633,47.655,-122.3035,60.0,1.65
2026-01-20T23:01:40+00:00,SAT-64045,286.55573605178677,44.66277712569083,2548.7638096499213,-2.120467260577331,74267.73303303705,10.5,10500074267.733032,47.655,-122.3035,60.0,1.6666666666666667
2026-01-20T23:01:41+00:00,SAT-64045,286.77401177450105,44.68378115552757,2546.648996968706,-2.104683025004088,73714.90233601182,10.5,10500073714.902336,47.655,-122.3035,60.0,1.6833333333333333
2026-01-20T23:01:42+00:00,SAT-64045,286.9928056529408,44.704232794929446,2544.549926431768,-2.088857117293303,73160.61210445687,10.5,10500073160.612104,47.655,-122.3035,60.0,1.7
2026-01-20T23:01:43+00:00,SAT-64045,287.2121117847263,44.724128796556066,2542.4666396001207,-2.072989699993478,72604.86803150838,10.5,10500072604.868032,47.655,-122.3035,60.0,1.7166666666666666
2026-01-20T23:01:44+00:00,SAT-64045,287.4319241720026,44.743465939116774,2540.399177872661,-2.0570809668893184,72047.6769043264,10.5,10500072047.676905,47.655,-122.3035,60.0,1.7333333333333334
2026-01-20T23:01:45+00:00,SAT-64045,287.6522367249177,44.76224102841521,2538.347582455017,-2.0411310890730103,71489.04471528303,10.5,10500071489.044716,47.655,-122.3035,60.0,1.75
2026-01-20T23:01:46+00:00,SAT-64045,287.8730432592722,44.78045089788767,2536.311894382181,-2.0251402616404657,70928.97829746234,10.5,10500070928.978298,47.655,-122.3035,60.0,1.7666666666666666
2026-01-20T23:01:47+00:00,SAT-64045,288.0943374992985,44.79809240957359,2534.2921544945716,-2.0091086726528204,70367.48423756081,10.5,10500070367.484238,47.655,-122.3035,60.0,1.7833333333333334
2026-01-20T23:01:48+00:00,SAT-64045,288.3161130771197,44.81516245479958,2532.288403445046,-1.9930365053273655,69804.56895262301,10.5,10500069804.568953,47.655,-122.3035,60.0,1.8
2026-01-20T23:01:49+00:00,SAT-64045,288.5383635323481,44.831657954894595,2530.3006817037326,-1.9769239728328178,69240.23990871907,10.5,10500069240.239908,47.655,-122.3035,60.0,1.8166666666666667
2026-01-20T23:01:50+00:00,SAT-64045,288.76108231584743,44.84757586219019,2528.329029528161,-1.9607712617783282,68674.50364169083,10.5,10500068674.503641,47.655,-122.3035,60.0,1.8333333333333333
2026-01-20T23:01:51+00:00,SAT-64045,288.9842627868968,44.86291316054946,2526.373486989747,-1.9445785819366883,68107.36749866878,10.5,10500068107.367498,47.655,-122.3035,60.0,1.85
2026-01-20T23:01:52+00:00,SAT-64045,289.2078982162883,44.877666866305134,2524.434093950696,-1.9283461414249092,67538.838768791,10.5,10500067538.838768,47.655,-122.3035,60.0,1.8666666666666667
2026-01-20T23:01:53+00:00,SAT-64045,289.431981786447,44.89183402898938,2522.5108900656483,-1.912074140527828,66968.92446687967,10.5,10500066968.924467,47.655,-122.3035,60.0,1.8833333333333333
2026-01-20T23:01:54+00:00,SAT-64045,289.6565065909101,44.90541173202625,2520.603914789495,-1.8957628036966399,66397.63245416507,10.5,10500066397.632454,47.655,-122.3035,60.0,1.9
2026-01-20T23:01:55+00:00,SAT-64045,289.881465637666,44.91839709364945,2518.713207353275,-1.8794123411376482,65824.97009296113,10.5,10500065824.970093,47.655,-122.3035,60.0,1.9166666666666667
2026-01-20T23:01:56+00:00,SAT-64045,290.1068518479176,44.93078726754207,2516.8388067783803,-1.8630229759471328,65250.945197043264,10.5,10500065250.945196,47.655,-122.3035,60.0,1.9333333333333333
2026-01-20T23:01:57+00:00,SAT-64045,290.3326580581419,44.942579443664535,2514.980751863702,-1.8465949267775015,64675.56542454369,10.5,10500064675.565424,47.655,-122.3035,60.0,1.95
2026-01-20T23:01:58+00:00,SAT-64045,290.5588770200912,44.95377084896195,2513.139081190063,-1.8301284264472797,64098.83892975199,10.5,10500064098.83893,47.655,-122.3035,60.0,1.9666666666666666
2026-01-20T23:01:59+00:00,SAT-64045,290.7855014031427,44.96435874818561,2511.3138331060863,-1.8136237018466097,63520.77365932069,10.5,10500063520.773659,47.655,-122.3035,60.0,1.9833333333333334
2026-01-20T23:02:00+00:00,SAT-64045,291.01252379416997,44.974340444583106,2509.5050457341113,-1.7970809818791986,62941.377630425864,10.5,10500062941.37763,47.655,-122.3035,60.0,2.0
2026-01-20T23:02:01+00:00,SAT-64045,291.2399366983959,44.98371328064129,2507.7127569681834,-1.7805005136592866,62360.65949805351,10.5,10500062360.659498,47.655,-122.3035,60.0,2.0166666666666666
2026-01-20T23:02:02+00:00,SAT-64045,291.4677325425157,44.992474638898955,2505.9370044558937,-1.7638825297406149,61778.627407219356,10.5,10500061778.627407,47.655,-122.3035,60.0,2.033333333333333
2026-01-20T23:02:03+00:00,SAT-64045,291.6959036734336,45.00062194258805,2504.1778256128996,-1.7472272706666505,61195.28978277309,10.5,10500061195.289783,47.655,-122.3035,60.0,2.05
2026-01-20T23:02:04+00:00,SAT-64045,291.9244423600766,45.008152656389,2502.4352576149545,-1.7305349918320565,60610.655569716146,10.5,10500060610.65557,47.655,-122.3035,60.0,2.066666666666667
2026-01-20T23:02:05+00:00,SAT-64045,292.1533407961884,45.01506428719849,2500.709337383101,-1.713805936054583,60024.73327255325,10.5,10500060024.733273,47.655,-122.3035,60.0,2.0833333333333335
2026-01-20T23:02:06+00:00,SAT-64045,292.38259109942436,45.02135438477491,2499.000101596209,-1.697040363769416,59437.53201282625,10.5,10500059437.532013,47.655,-122.3035,60.0,2.1
2026-01-20T23:02:07+00:00,SAT-64045,292.6121853146274,45.02702054249929,2497.30758667341,-1.6802385245531202,58849.06053176215,10.5,10500058849.060532,47.655,-122.3035,60.0,2.1166666666666667
2026-01-20T23:02:08+00:00,SAT-64045,292.84211541319166,45.03206039802333,2495.6318287849217,-1.6634006812361226,58259.32803479428,10.5,10500058259.328035,47.655,-122.3035,60.0,2.1333333333333333
2026-01-20T23:02:09+00:00,SAT-64045,293.0723732958079,45.03647163399579,2493.9728638388356,-1.6465270943735504,57668.343647665344,10.5,10500057668.343647,47.655,-122.3035,60.0,2.15
2026-01-20T23:02:10+00:00,SAT-64045,293.30295079310565,45.040251978726694,2492.3307274833805,-1.6296180399821014,57076.11703764764,10.5,10500057076.117037,47.655,-122.3035,60.0,2.1666666666666665
2026-01-20T23:02:11+00:00,SAT-64045,293.53383966887225,45.04339920688483,2490.705455091505,-1.6126737770607331,56482.65727598023,10.5,10500056482.657276,47.655,-122.3035,60.0,2.183333333333333
2026-01-20T23:02:12+00:00,SAT-64045,293.76503161855874,45.045911140120324,2489.09708177785,-1.5956945802234566,55887.9739808074,10.5,10500055887.97398,47.655,-122.3035,60.0,2.2
2026-01-20T23:02:13+00:00,SAT-64045,293.9965182725624,45.04778564774935,2487.5056423831734,-1.5786807336510118,55292.07710534074,10.5,10500055292.077105,47.655,-122.3035,60.0,2.216666666666667
2026-01-20T23:02:14+00:00,SAT-64045,294.2282911988216,45.04902064739532,2485.9311714648125,-1.5616325091616923,54694.97616980668,10.5,10500054694.97617,47.655,-122.3035,60.0,2.2333333333333334
2026-01-20T23:02:15+00:00,SAT-64045,294.46034190195394,45.0496141056115,2484.3737033090083,-1.5445501909616484,54096.6811283068,10.5,10500054096.681128,47.655,-122.3035,60.0,2.25
2026-01-20T23:02:16+00:00,SAT-64045,294.6926618262965,45.04956403851361,2482.8332719185555,-1.5274340702064286,53497.20217834,10.5,10500053497.202179,47.655,-122.3035,60.0,2.2666666666666666
2026-01-20T23:02:17+00:00,SAT-64045,294.9252423581524,45.04886851238547,2481.30991100587,-1.5102844286174968,52896.549186983604,10.5,10500052896.549187,47.655,-122.3035,60.0,2.283333333333333
2026-01-20T23:02:18+00:00,SAT-64045,295.1580748254627,45.04752564428797,2479.8036540023954,-1.4931015638535805,52294.73257950537,10.5,10500052294.73258,47.655,-122.3035,60.0,2.3
2026-01-20T23:02:19+00:00,SAT-64045,295.3911505015022,45.04553360264191,2478.3145340427122,-1.475885771450574,51691.76270682242,10.5,10500051691.762707,47.655,-122.3035,60.0,2.316666666666667
2026-01-20T23:02:20+00:00,SAT-64045,295.62446060585495,45.04289060780299,2476.8425839666525,-1.4586373467573461,51087.64991330147,10.5,10500051087.649914,47.655,-122.3035,60.0,2.3333333333333335
2026-01-20T23:02:21+00:00,SAT-64045,295.8579963055329,45.03959493264051,2475.3878363194863,-1.4413565977459288,50482.4049854258,10.5,10500050482.404985,47.655,-122.3035,60.0,2.35
2026-01-20T23:02:22+00:00,SAT-64045,296.09174871842356,45.035644903062355,2473.9503233393343,-1.4240438225461696,49876.038364963744,10.5,10500049876.038364,47.655,-122.3035,60.0,2.3666666666666667
2026-01-20T23:02:23+00:00,SAT-64045,296.325708912854,45.03103889859397,2472.5300769669816,-1.4066993318404362,49268.560933326014,10.5,10500049268.560934,47.655,-122.3035,60.0,2.3833333333333333
2026-01-20T23:02:24+00:00,SAT-64045,296.5598679110902,45.025775352875925,2471.127128833359,-1.3893234428046202,48659.98379935399,10.5,10500048659.983799,47.655,-122.3035,60.0,2.4
2026-01-20T23:02:25+00:00,SAT-64045,296.7942166917967,45.01985275415536,2469.741510253069,-1.3719164652179827,48050.31781282776,10.5,10500048050.317812,47.655,-122.3035,60.0,2.4166666666666665
2026-01-20T23:02:26+00:00,SAT-64045,297.0287461901298,45.01326964582605,2468.373252231758,-1.3544787123563367,47439.57394599145,10.5,10500047439.573946,47.655,-122.3035,60.0,2.433333333333333
2026-01-20T23:02:27+00:00,SAT-64045,297.263447299625,45.00602462692573,2467.0223854626347,-1.3370105125703107,46827.76369907299,10.5,10500046827.763699,47.655,-122.3035,60.0,2.45
2026-01-20T23:02:28+00:00,SAT-64045,297.49831087642355,44.998116352529735,2465.6889403114315,-1.3195121851804839,46214.89825602977,10.5,10500046214.898256,47.655,-122.3035,60.0,2.466666666666667
2026-01-20T23:02:29+00:00,SAT-64045,297.73332773895265,44.98954353427971,2464.372946825411,-1.3019840588708753,45600.989128766516,10.5,10500045600.989128,47.655,-122.3035,60.0,2.4833333333333334
2026-01-20T23:02:30+00:00,SAT-64045,297.96848867118825,44.98030494077597,2463.0744347240307,-1.2844264613400678,44986.047794673716,10.5,10500044986.047794,47.655,-122.3035,60.0,2.5
2026-01-20T23:02:31+00:00,SAT-64045,298.2037844237822,44.970399398040094,2461.793433399921,-1.2668397252194243,44370.085903908745,10.5,10500044370.085903,47.655,-122.3035,60.0,2.5166666666666666
2026-01-20T23:02:32+00:00,SAT-64045,298.4392057165466,44.959825789903675,2460.529971913969,-1.2492241901659378,43753.11535269625,10.5,10500043753.115353,47.655,-122.3035,60.0,2.533333333333333
2026-01-20T23:02:33+00:00,SAT-64045,298.6747432412859,44.94858305836085,2459.28407898831,-1.231580187579555,43135.147748064184,10.5,10500043135.147749,47.655,-122.3035,60.0,2.55
2026-01-20T23:02:34+00:00,SAT-64045,298.91038766161824,44.936670204053954,2458.055783014564,-1.2139080659475872,42516.19529551229,10.5,10500042516.195295,47.655,-122.3035,60.0,2.566666666666667
2026-01-20T23:02:35+00:00,SAT-64045,299.14612961789396,44.92408628649277,2456.845112036792,-1.1962081644620066,41896.26987497821,10.5,10500041896.269875,47.655,-122.3035,60.0,2.5833333333333335
2026-01-20T23:02:36+00:00,SAT-64045,299.3819597268641,44.91083042451883,2455.652093760769,-1.1784808361744468,41275.38385182356,10.5,10500041275.383852,47.655,-122.3035,60.0,2.6
2026-01-20T23:02:37+00:00,SAT-64045,299.61786858597645,44.89690179651376,2454.4767555401572,-1.1607264241505304,40653.54924165761,10.5,10500040653.549242,47.655,-122.3035,60.0,2.6166666666666667
2026-01-20T23:02:38+00:00,SAT-64045,299.85384677288215,44.88229964085707,2453.3191243864712,-1.1429452815008447,40030.77841190678,10.5,10500040030.778412,47.655,-122.3035,60.0,2.6333333333333333
2026-01-20T23:02:39+00:00,SAT-64045,300.0898848489329,44.86702325614934,2452.179226959054,-1.125137770835112,39407.08406269739,10.5,10500039407.084063,47.655,-122.3035,60.0,2.65
2026-01-20T23:02:40+00:00,SAT-64045,300.3259733630156,44.85107200136106,2451.057089555608,-1.107304244181411,38782.478523541824,10.5,10500038782.478523,47.655,-122.3035,60.0,2.6666666666666665
2026-01-20T23:02:41+00:00,SAT-64045,300.56210285054897,44.834445296305255,2449.9527381227444,-1.0894450649773542,38156.974523562625,10.5,10500038156.974524,47.655,-122.3035,60.0,2.683333333333333
2026-01-20T23:02:42+00:00,SAT-64045,300.79826383774224,44.81714262172818,2448.866198244607,-1.0715605960715275,37530.58477125211,10.5,10500037530.584772,47.655,-122.3035,60.0,2.7
2026-01-20T23:02:43+00:00,SAT-64045,301.0344468428809,44.799163519597876,2447.7974951434585,-1.0536512005381664,36903.321983005815,10.5,10500036903.321983,47.655,-122.3035,60.0,2.716666666666667
2026-01-20T23:02:44+00:00,SAT-64045,301.27064237786857,44.780507593359445,2446.746653679455,-1.0357172554722731,36275.199366285815,10.5,10500036275.199366,47.655,-122.3035,60.0,2.7333333333333334
2026-01-20T23:02:45+00:00,SAT-64045,301.5068409532999,44.76117450788244,2445.713698336664,-1.0177591241762736,35646.22964547985,10.5,10500035646.229645,47.655,-122.3035,60.0,2.75
2026-01-20T23:02:46+00:00,SAT-64045,301.7430330764639,44.74116398996784,2444.698653236819,-0.9997771840099531,35016.42603732382,10.5,10500035016.426037,47.655,-122.3035,60.0,2.7666666666666666
2026-01-20T23:02:47+00:00,SAT-64045,301.97920925641694,44.72047582826123,2443.7015421252995,-0.9817718146724316,34385.80184048703,10.5,10500034385.80184,47.655,-122.3035,60.0,2.783333333333333
2026-01-20T23:02:48+00:00,SAT-64045,302.2153600061226,44.69910987337443,2442.7223883688,-0.9637433888895462,33754.37010940494,10.5,10500033754.37011,47.655,-122.3035,60.0,2.8
2026-01-20T23:02:49+00:00,SAT-64045,302.45147584216204,44.67706603822087,2441.761214962281,-0.9456922908180133,33122.14429887072,10.5,10500033122.144299,47.655,-122.3035,60.0,2.816666666666667
2026-01-20T23:02:50+00:00,SAT-64045,302.6875472891279,44.65434429791479,2440.8180445175717,-0.9276189079408473,32489.137980178595,10.5,10500032489.13798,47.655,-122.3035,60.0,2.8333333333333335
2026-01-20T23:02:51+00:00,SAT-64045,302.92356488221066,44.63094468978954,2439.8928992600518,-0.9095236236412534,31855.36458103012,10.5,10500031855.36458,47.655,-122.3035,60.0,2.85
2026-01-20T23:02:52+00:00,SAT-64045,303.1595191674702,44.606867313639015,2438.9858010327403,-0.8914068231559146,31220.83759404349,10.5,10500031220.837595,47.655,-122.3035,60.0,2.8666666666666667
2026-01-20T23:02:53+00:00,SAT-64045,303.3954007038041,44.58211233178583,2438.096771294446,-0.8732689038954106,30585.570938218236,10.5,10500030585.570938,47.655,-122.3035,60.0,2.8833333333333333
2026-01-20T23:02:54+00:00,SAT-64045,303.6312000679139,44.556679968800694,2437.2258311076275,-0.8551102568982611,29949.578309377423,10.5,10500029949.57831,47.655,-122.3035,60.0,2.9
2026-01-20T23:02:55+00:00,SAT-64045,303.8669078540019,44.53057051175324,2436.373001144748,-0.8369312752018145,29312.87347335153,10.5,10500029312.873474,47.655,-122.3035,60.0,2.9166666666666665
2026-01-20T23:02:56+00:00,SAT-64045,304.10251467565126,44.5037843102313,2435.5383016862797,-0.818732359157718,28675.470452148733,10.5,10500028675.470451,47.655,-122.3035,60.0,2.933333333333333
2026-01-20T23:02:57+00:00,SAT-64045,304.33801116958455,44.47632177611578,2434.721752613413,-0.8005139081209998,28037.38323287138,10.5,10500028037.383232,47.655,-122.3035,60.0,2.95
2026-01-20T23:02:58+00:00,SAT-64045,304.573387996714,44.448183383643794,2433.923373409047,-0.7822763234384013,27398.625872380064,10.5,10500027398.625872,47.655,-122.3035,60.0,2.966666666666667
2026-01-20T23:02:59+00:00,SAT-64045,304.8086358442157,44.41936966933629,2433.1431831558048,-0.7640200119042716,26759.212618333622,10.5,10500026759.212618,47.655,-122.3035,60.0,2.9833333333333334
2026-01-20T23:03:00+00:00,SAT-64045,305.04374542866304,44.38988123177196,2432.381200530599,-0.7457453764077996,26119.157581615666,10.5,10500026119.157581,47.655,-122.3035,60.0,3.0
2026-01-20T23:03:01+00:00,SAT-64045,305.2787074961415,44.359718731717244,2431.637443808528,-0.7274528255470059,25478.475073057245,10.5,10500025478.475073,47.655,-122.3035,60.0,3.0166666666666666
2026-01-20T23:03:02+00:00,SAT-64045,305.51351282534574,44.328882891869945,2430.9119308571826,-0.7091427736978625,24837.17960585772,10.5,10500024837.179605,47.655,-122.3035,60.0,3.033333333333333
2026-01-20T23:03:03+00:00,SAT-64045,305.74815223123625,44.29737449648569,2430.2046791308812,-0.6908156265981297,24195.28539066971,10.5,10500024195.28539,47.655,-122.3035,60.0,3.05
2026-01-20T23:03:04+00:00,SAT-64045,305.9826165629122,44.26519439176479,2429.5157056792873,-0.6724718025269069,23552.8070773966,10.5,10500023552.807077,47.655,-122.3035,60.0,3.066666666666667
2026-01-20T23:03:05+00:00,SAT-64045,306.21689670969045,44.23234348511806,2428.8450271349006,-0.6541117168527191,22909.75921400114,10.5,10500022909.759214,47.655,-122.3035,60.0,3.0833333333333335
2026-01-20T23:03:06+00:00,SAT-64045,306.45098360118806,44.198822745213526,2428.1926597159595,-0.6357357860703059,22266.156387890896,10.5,10500022266.156387,47.655,-122.3035,60.0,3.1
2026-01-20T23:03:07+00:00,SAT-64045,306.684868209076,44.16463320178407,2427.5586192253186,-0.6173444302207651,21622.013310681865,10.5,10500021622.013311,47.655,-122.3035,60.0,3.1166666666666667
2026-01-20T23:03:08+00:00,SAT-64045,306.9185415495636,44.12977594531052,2426.9429210469116,-0.5989380703967008,20977.344730818273,10.5,10500020977.34473,47.655,-122.3035,60.0,3.1333333333333333
2026-01-20T23:03:09+00:00,SAT-64045,307.1519946850931,44.094252126792085,2426.345580144703,-0.5805171294715191,20332.165459115553,10.5,10500020332.165459,47.655,-122.3035,60.0,3.15
2026-01-20T23:03:10+00:00,SAT-64045,307.38521872616843,44.058062957477915,2425.76661106091,-0.5620820321863338,19686.490371804168,10.5,10500019686.490372,47.655,-122.3035,60.0,3.1666666666666665
2026-01-20T23:03:11+00:00,SAT-64045,307.61820483341415,44.021209708541654,2425.206027914143,-0.543633203439807,19040.33435063258,10.5,10500019040.33435,47.655,-122.3035,60.0,3.183333333333333
2026-01-20T23:03:12+00:00,SAT-64045,307.8509442185305,43.983693710910245,2424.6638443992456,-0.5251710722980029,18393.712423309295,10.5,10500018393.712423,47.655,-122.3035,60.0,3.2
2026-01-20T23:03:13+00:00,SAT-64045,308.08342814751256,43.94551635470983,2424.14007378314,-0.506696066343492,17746.639565584617,10.5,10500017746.639566,47.655,-122.3035,60.0,3.216666666666667
2026-01-20T23:03:14+00:00,SAT-64045,308.31564794075274,43.906679089192664,2423.634728906307,-0.4882086173679207,17099.130900628483,10.5,10500017099.130901,47.655,-122.3035,60.0,3.2333333333333334
2026-01-20T23:03:15+00:00,SAT-64045,308.54759497638565,43.867183422110195,2423.1478221785856,-0.4697091567157026,16451.20153594684,10.5,10500016451.201536,47.655,-122.3035,60.0,3.25
2026-01-20T23:03:16+00:00,SAT-64045,308.7792606907348,43.82703091955011,2422.679365579621,-0.45119811718933367,15802.866630113836,10.5,10500015802.86663,47.655,-122.3035,60.0,3.2666666666666666
2026-01-20T23:03:17+00:00,SAT-64045,309.0106365801979,43.786223205511384,2422.229370657411,-0.43267593372837376,15154.141416552664,10.5,10500015154.141417,47.655,-122.3035,60.0,3.283333333333333
2026-01-20T23:03:18+00:00,SAT-64045,309.2417142032395,43.74476196143489,2421.7978485261724,-0.4141430420397945,14505.041155564502,10.5,10500014505.041155,47.655,-122.3035,60.0,3.3
2026-01-20T23:03:19+00:00,SAT-64045,309.47248518180584,43.70264892581632,2421.384809865578,-0.39559987925561607,13855.581157361767,10.5,10500013855.581158,47.655,-122.3035,60.0,3.316666666666667
2026-01-20T23:03:20+00:00,SAT-64045,309.70294120284484,43.65988589377754,2420.9902649193336,-0.37704688312483736,13205.776753766073,10.5,10500013205.776754,47.655,-122.3035,60.0,3.3333333333333335
2026-01-20T23:03:21+00:00,SAT-64045,309.93307401966666,43.616474716648334,2420.6142234945637,-0.3584844942348644,12555.643376012067,10.5,10500012555.643375,47.655,-122.3035,60.0,3.35
2026-01-20T23:03:22+00:00,SAT-64045,310.1628754545831,43.572417301283465,2420.25669495898,-0.3399131509272804,11905.196376676175,10.5,10500011905.196377,47.655,-122.3035,60.0,3.3666666666666667
2026-01-20T23:03:23+00:00,SAT-64045,310.3923373978032,43.52771561007382,2419.9176882431225,-0.32133329547627304,11254.451246071265,10.5,10500011254.451246,47.655,-122.3035,60.0,3.3833333333333333
2026-01-20T23:03:24+00:00,SAT-64045,310.6214518110188,43.48237166004445,2419.597211836434,-0.30274537112469685,10603.423508437016,10.5,10500010603.423508,47.655,-122.3035,60.0,3.4
2026-01-20T23:03:25+00:00,SAT-64045,310.8502107293919,43.43638752221558,2419.295273786299,-0.284149819683243,9952.128637852695,10.5,10500009952.128637,47.655,-122.3035,60.0,3.4166666666666665
2026-01-20T23:03:26+00:00,SAT-64045,311.0786062601013,43.38976532164513,2419.011881699468,-0.26554708557942625,9300.582200049794,10.5,10500009300.5822,47.655,-122.3035,60.0,3.433333333333333
2026-01-20T23:03:27+00:00,SAT-64045,311.3066305856579,43.3425072364992,2418.74704273945,-0.24693761400309122,8648.799787459824,10.5,10500008648.799788,47.655,-122.3035,60.0,3.45
2026-01-20T23:03:28+00:00,SAT-64045,311.53427596494976,43.29461549754863,2418.5007636257515,-0.22832185069855004,7996.797011934087,10.5,10500007996.797012,47.655,-122.3035,60.0,3.466666666666667
2026-01-20T23:03:29+00:00,SAT-64045,311.7615347346955,43.24609238756215,2418.273050633321,-0.20970024201743753,7344.589506594906,10.5,10500007344.589506,47.655,-122.3035,60.0,3.4833333333333334
2026-01-20T23:03:30+00:00,SAT-64045,311.98839931021274,43.19694024082249,2418.063909591949,-0.1910732341894159,6692.192900292598,10.5,10500006692.1929,47.655,-122.3035,60.0,3.5
2026-01-20T23:03:31+00:00,SAT-64045,312.2148621850311,43.14716144288966,2417.873345886384,-0.17244127588970068,6039.622907531107,10.5,10500006039.622908,47.655,-122.3035,60.0,3.5166666666666666
2026-01-20T23:03:32+00:00,SAT-64045,312.44091593532926,43.096758429285074,2417.701364453897,-0.15380481479180635,5386.895207730566,10.5,10500005386.895208,47.655,-122.3035,60.0,3.533333333333333
2026-01-20T23:03:33+00:00,SAT-64045,312.66655321926817,43.04573368525354,2417.547969785278,-0.13516429968021593,4734.025519221925,10.5,10500004734.025518,47.655,-122.3035,60.0,3.55
2026-01-20T23:03:34+00:00,SAT-64045,312.891766776621,42.99408974548426,2417.41316592373,-0.11652017959962065,4081.0295694497318,10.5,10500004081.02957,47.655,-122.3035,60.0,3.566666666666667
2026-01-20T23:03:35+00:00,SAT-64045,313.1165494317851,42.941829193025946,2417.296956464609,-0.09787290447799796,3427.9231167949483,10.5,10500003427.923117,47.655,-122.3035,60.0,3.5833333333333335
2026-01-20T23:03:36+00:00,SAT-64045,313.3408940948809,42.888954658615184,2417.199344554543,-0.07922292366547933,2774.721899399927,10.5,10500002774.721899,47.655,-122.3035,60.0,3.6
2026-01-20T23:03:37+00:00,SAT-64045,313.5647937617513,42.835468820237196,2417.120332892008,-0.060570688089202185,2121.441710640442,10.5,10500002121.441711,47.655,-122.3035,60.0,3.6166666666666667
2026-01-20T23:03:38+00:00,SAT-64045,313.7882415134273,42.78137440282479,2417.059923725753,-0.04191664746165869,1468.0983013502503,10.5,10500001468.0983,47.655,-122.3035,60.0,3.6333333333333333
2026-01-20T23:03:39+00:00,SAT-64045,314.01123052072614,42.72667417668544,2417.0181188560177,-0.023261253046427784,814.707476688729,10.5,10500000814.707478,47.655,-122.3035,60.0,3.65
2026-01-20T23:03:40+00:00,SAT-64045,314.23375404131065,42.67137095773533,2416.99491963298,-0.004604955096747472,161.28500642884234,10.5,10500000161.285006,47.655,-122.3035,60.0,3.6666666666666665
2026-01-20T23:03:41+00:00,SAT-64045,314.4558054232083,42.615467606144506,2416.990326957763,0.014051794880874288,-492.1532957616299,10.5,10499999507.846704,47.655,-122.3035,60.0,3.683333333333333
2026-01-20T23:03:42+00:00,SAT-64045,314.67737810318783,42.558967026231535,2417.004341281191,0.03270854614581672,-1145.5916430395175,10.5,10499998854.408358,47.655,-122.3035,60.0,3.7
2026-01-20T23:03:43+00:00,SAT-64045,314.8984656090125,42.50187216537688,2417.036962604547,0.05136484829085122,-1799.014260238454,10.5,10499998200.98574,47.655,-122.3035,60.0,3.716666666666667
2026-01-20T23:03:44+00:00,SAT-64045,315.1190615606391,42.444186013168306,2417.0881904799094,0.07002025014896064,-2452.4053455810645,10.5,10499997547.594654,47.655,-122.3035,60.0,3.7333333333333334
2026-01-20T23:03:45+00:00,SAT-64045,315.3391596691149,42.385911601130864,2417.1580240093913,0.08867430014807666,-3105.7490831033674,10.5,10499996894.250917,47.655,-122.3035,60.0,3.75
2026-01-20T23:03:46+00:00,SAT-64045,315.5587537369488,42.327052002069905,2417.246461844739,0.10732654907782822,-3759.0297395580124,10.5,10499996240.97026,47.655,-122.3035,60.0,3.7666666666666666
2026-01-20T23:03:47+00:00,SAT-64045,315.77783766132995,42.267610328635634,2417.353502189686,0.1259765464039318,-4412.23153532863,10.5,10499995587.768465,47.655,-122.3035,60.0,3.783333333333333
2026-01-20T23:03:48+00:00,SAT-64045,315.9964054324877,42.20758973314692,2417.479142798633,0.14462384030834066,-5065.338645836037,10.5,10499994934.661354,47.655,-122.3035,60.0,3.8
2026-01-20T23:03:49+00:00,SAT-64045,316.21445113304117,42.14699340717806,2417.623380975367,0.16326798328881048,-5718.335397658703,10.5,10499994281.664602,47.655,-122.3035,60.0,3.816666666666667
2026-01-20T23:03:50+00:00,SAT-64045,316.43196894199923,42.085824579822,2417.786213577367,0.18190852422457207,-6371.205990639052,10.5,10499993628.79401,47.655,-122.3035,60.0,3.8333333333333335
2026-01-20T23:03:51+00:00,SAT-64045,316.6489531313685,42.024086517990405,2417.9676370121933,0.2005450161063541,-7023.934768621559,10.5,10499992976.065231,47.655,-122.3035,60.0,3.85
2026-01-20T23:03:52+00:00,SAT-64045,316.8653980698687,41.961782524717115,2418.1676472415907,0.2191770082804416,-7676.505947806855,10.5,10499992323.494053,47.655,-122.3035,60.0,3.8666666666666667
2026-01-20T23:03:53+00:00,SAT-64045,317.0812982198673,41.89891593936135,2418.3862397778485,0.2378040536476082,-8328.90386888881,10.5,10499991671.09613,47.655,-122.3035,60.0,3.8833333333333333
2026-01-20T23:03:54+00:00,SAT-64045,317.2966481400722,41.835490136156594,2418.623409687353,0.2564257059715851,-8981.112902785711,10.5,10499991018.887096,47.655,-122.3035,60.0,3.9
2026-01-20T23:03:55+00:00,SAT-64045,317.51144248559217,41.771508523490496,2418.879151591442,0.27504151718651204,-9633.117356335817,10.5,10499990366.882643,47.655,-122.3035,60.0,3.9166666666666665
2026-01-20T23:03:56+00:00,SAT-64045,317.7256760067944,41.70697454353241,2419.153459664583,0.2936510398760339,-10284.9015591258,10.5,10499989715.09844,47.655,-122.3035,60.0,3.933333333333333
2026-01-20T23:03:57+00:00,SAT-64045,317.93934354950244,41.64189167146976,2419.446327635019,0.31225383285863534,-10936.4500591128,10.5,10499989063.54994,47.655,-122.3035,60.0,3.95
2026-01-20T23:03:58+00:00,SAT-64045,318.15244005806136,41.57626341383419,2419.7577487909903,0.33084944850044323,-11587.747178265086,10.5,10499988412.252821,47.655,-122.3035,60.0,3.966666666666667
2026-01-20T23:03:59+00:00,SAT-64045,318.3649605715431,41.51009330891527,2420.0877159742945,0.3494374425401305,-12238.777356671762,10.5,10499987761.222643,47.655,-122.3035,60.0,3.9833333333333334
2026-01-20T23:04:00+00:00,SAT-64045,318.57690022528146,41.44338492554003,2420.4362215836545,0.3680173750580918,-12889.525186487392,10.5,10499987110.474813,47.655,-122.3035,60.0,4.0
2026-01-20T23:04:01+00:00,SAT-64045,318.78825425237346,41.37614186182849,2420.8032575790457,0.38658880120651434,-13539.97508725987,10.5,10499986460.024912,47.655,-122.3035,60.0,4.016666666666667
2026-01-20T23:04:02+00:00,SAT-64045,318.99901798107936,41.308367745234015,2421.1888154767826,0.40515128233176845,-14190.111695483576,10.5,10499985809.888304,47.655,-122.3035,60.0,4.033333333333333
2026-01-20T23:04:03+00:00,SAT-64045,319.2091868369972,41.24006623106132,2421.5928863556946,0.4237043770947906,-14839.919553597645,10.5,10499985160.080446,47.655,-122.3035,60.0,4.05
2026-01-20T23:04:04+00:00,SAT-64045,319.4187563414949,41.17124100216435,2422.015460854451,0.4422476464384243,-15489.38328396325,10.5,10499984510.616716,47.655,-122.3035,60.0,4.066666666666666
2026-01-20T23:04:05+00:00,SAT-64045,319.62772211200615,41.10189576804392,2422.4565291738318,0.4607806558479813,-16138.487668038013,10.5,10499983861.512331,47.655,-122.3035,60.0,4.083333333333333
2026-01-20T23:04:06+00:00,SAT-64045,319.836079863298,41.032034263598206,2422.916081081264,0.4793029652107327,-16787.217291212488,10.5,10499983212.78271,47.655,-122.3035,60.0,4.1
2026-01-20T23:04:07+00:00,SAT-64045,320.0438254046187,40.96166024923702,2423.3941059052345,0.4978141400272369,-17435.5569354783,10.5,10499982564.443064,47.655,-122.3035,60.0,4.116666666666666
2026-01-20T23:04:08+00:00,SAT-64045,320.25095464128435,40.890777509515495,2423.8905925408885,0.5163137480814837,-18083.491462802507,10.5,10499981916.508537,47.655,-122.3035,60.0,4.133333333333334
2026-01-20T23:04:09+00:00,SAT-64045,320.4574635746433,40.81938985228273,2424.4055294523087,0.5348013544384869,-18731.00563992211,10.5,10499981268.99436,47.655,-122.3035,60.0,4.15
2026-01-20T23:04:10+00:00,SAT-64045,320.6633483005459,40.7475011083474,2424.9389046698016,0.5532765307858726,-19378.08446552602,10.5,10499980621.915535,47.655,-122.3035,60.0,4.166666666666667
2026-01-20T23:04:11+00:00,SAT-64045,320.86860501068577,40.6751151301392,2425.490705796505,0.5717388443109803,-20024.712780684073,10.5,10499979975.28722,47.655,-122.3035,60.0,4.183333333333334
2026-01-20T23:04:12+00:00,SAT-64045,321.07322999047653,40.60223579156799,2426.0609200038984,0.5901878666745004,-20670.87558314177,10.5,10499979329.124416,47.655,-122.3035,60.0,4.2
2026-01-20T23:04:13+00:00,SAT-64045,321.27721961963675,40.52886698693949,2426.6495340362617,0.6086231738661392,-21316.55802226506,10.5,10499978683.441978,47.655,-122.3035,60.0,4.216666666666667
2026-01-20T23:04:14+00:00,SAT-64045,321.4805703726734,40.45501262987473,2427.256534214998,0.6270443396333368,-21961.745168886257,10.5,10499978038.254831,47.655,-122.3035,60.0,4.233333333333333
2026-01-20T23:04:15+00:00,SAT-64045,321.6832788172745,40.38067665298202,2427.8819064363915,0.6454509360972308,-22606.422036877673,10.5,10499977393.577963,47.655,-122.3035,60.0,4.25
2026-01-20T23:04:16+00:00,SAT-64045,321.8853416131684,40.3058630073672,2428.525636169993,0.6638425488132398,-23250.574110636957,10.5,10499976749.42589,47.655,-122.3035,60.0,4.266666666666667
2026-01-20T23:04:17+00:00,SAT-64045,322.08675551469776,40.23057566076321,2429.1877084720095,0.6822187516380716,-23894.186464823448,10.5,10499976105.813536,47.655,-122.3035,60.0,4.283333333333333
2026-01-20T23:04:18+00:00,SAT-64045,322.28751736698166,40.154818598024015,2429.8681079736425,0.7005791249102687,-24537.24440111773,10.5,10499975462.755598,47.655,-122.3035,60.0,4.3
2026-01-20T23:04:19+00:00,SAT-64045,322.48762410652205,40.07859581996993,2430.5668188875534,0.7189232569240465,-25179.733499841706,10.5,10499974820.2665,47.655,-122.3035,60.0,4.316666666666666
2026-01-20T23:04:20+00:00,SAT-64045,322.68707276239746,40.00191134199955,2431.283825015792,0.7372507301224855,-25821.639136385806,10.5,10499974178.360863,47.655,-122.3035,60.0,4.333333333333333
