satellites_20260120_184412/SAT-66339.csv

timestamp,satellite,azimuth_deg,elevation_deg,distance_km,relative_velocity_kms,doppler_shift_hz,tx_freq_ghz,rx_freq_hz,ue_lat,ue_lon,ue_alt_m,time_minutes
2026-01-20T23:00:00+00:00,SAT-66339,190.77825503955168,42.61947769369881,472156.15510281036,-107.7357832560827,3773362.8515393413,10.5,10503773362.85154,47.655,-122.3035,60.0,0.0
2026-01-20T23:00:01+00:00,SAT-66339,188.12329783732372,42.66365189699918,472048.70661497634,-105.26922785780799,3686973.6479727714,10.5,10503686973.647972,47.655,-122.3035,60.0,0.016666666666666666
2026-01-20T23:00:02+00:00,SAT-66339,185.46680533230358,42.646052212146564,471943.71810505947,-102.6805902189275,3596308.6079328214,10.5,10503596308.607933,47.655,-122.3035,60.0,0.03333333333333333
2026-01-20T23:00:03+00:00,SAT-66339,182.81406860669082,42.56672390298776,471841.3113297478,-99.9728100051396,3501470.6909470214,10.5,10503501470.690947,47.655,-122.3035,60.0,0.05
2026-01-20T23:00:04+00:00,SAT-66339,180.17031551275753,42.425966754231744,471741.6051139027,-97.14896205994908,3402567.5910414844,10.5,10503402567.591042,47.655,-122.3035,60.0,0.06666666666666667
2026-01-20T23:00:05+00:00,SAT-66339,177.54062591235484,42.224329221742906,471644.71521574154,-94.21225364053717,3299711.6399293817,10.5,10503299711.639929,47.655,-122.3035,60.0,0.08333333333333333
2026-01-20T23:00:06+00:00,SAT-66339,174.929852585098,41.96259797293196,471550.75419477734,-91.16602022736335,3193019.6602454726,10.5,10503193019.660246,47.655,-122.3035,60.0,0.1
2026-01-20T23:00:07+00:00,SAT-66339,172.34255065910787,41.6417832860257,471459.83128393727,-88.01372282886065,3082612.8711451334,10.5,10503082612.871145,47.655,-122.3035,60.0,0.11666666666666667
2026-01-20T23:00:08+00:00,SAT-66339,169.78291775545677,41.2631009331175,471372.0522643693,-84.75894377575014,2968616.7410034593,10.5,10502968616.741003,47.655,-122.3035,60.0,0.13333333333333333
2026-01-20T23:00:09+00:00,SAT-66339,167.25474641691792,40.82795129347674,471287.51934444363,-81.40538296876922,2851160.8559948388,10.5,10502851160.855995,47.655,-122.3035,60.0,0.15
2026-01-20T23:00:10+00:00,SAT-66339,164.76138959001068,40.337896502428485,471206.3310424961,-77.95685356018576,2730378.7688413113,10.5,10502730378.76884,47.655,-122.3035,60.0,0.16666666666666666
2026-01-20T23:02:57+00:00,SAT-66339,210.08101460960478,40.38889927404999,473235.88890301925,-121.95141551290655,4271254.425238138,10.5,10504271254.425238,47.655,-122.3035,60.0,2.95
2026-01-20T23:02:58+00:00,SAT-66339,207.5898033030968,40.872008642740894,473114.2626912811,-120.52550838609342,4221313.1260759765,10.5,10504221313.126076,47.655,-122.3035,60.0,2.966666666666667
2026-01-20T23:02:59+00:00,SAT-66339,205.06354986912257,41.30041711924122,472994.0585842506,-118.96016068450345,4166488.0281520835,10.5,10504166488.028152,47.655,-122.3035,60.0,2.9833333333333334
2026-01-20T23:03:00+00:00,SAT-66339,202.5055976846868,41.672541239357145,472875.4156506613,-117.25715557816748,4106841.58562374,10.5,10504106841.585623,47.655,-122.3035,60.0,3.0
2026-01-20T23:03:01+00:00,SAT-66339,199.9197300582857,41.986957193125896,472758.4711808314,-115.41843103373468,4042441.6742805927,10.5,10504042441.67428,47.655,-122.3035,60.0,3.0166666666666666
2026-01-20T23:03:02+00:00,SAT-66339,197.31013604620833,42.242423871101174,472643.3605322804,-113.44607755358564,3973361.5123588243,10.5,10503973361.51236,47.655,-122.3035,60.0,3.033333333333333
2026-01-20T23:03:03+00:00,SAT-66339,194.6813632110375,42.43790399417529,472530.2169776003,-111.34233696287033,3899679.6180580985,10.5,10503899679.618057,47.655,-122.3035,60.0,3.05
2026-01-20T23:03:04+00:00,SAT-66339,192.03825806053842,42.57258251945094,472419.1715535359,-109.10959917810865,3821479.6963642784,10.5,10503821479.696363,47.655,-122.3035,60.0,3.066666666666667
2026-01-20T23:03:05+00:00,SAT-66339,189.38589572390012,42.64588156853778,472310.352913289,-106.7503999222343,3738850.559020601,10.5,10503738850.559021,47.655,-122.3035,60.0,3.0833333333333335
2026-01-20T23:03:06+00:00,SAT-66339,186.72950105981985,42.65747124468258,472203.8871810999,-104.26741783738612,3651886.0234054127,10.5,10503651886.023405,47.655,-122.3035,60.0,3.1
2026-01-20T23:03:07+00:00,SAT-66339,184.07436401370416,42.60727586185575,472099.89780971006,-101.66347229388725,3560684.835793355,10.5,10503560684.835793,47.655,-122.3035,60.0,3.1166666666666667
2026-01-20T23:03:08+00:00,SAT-66339,181.42575241777402,42.49547530651035,471998.50544000894,-98.94151962203547,3465350.539376719,10.5,10503465350.539377,47.655,-122.3035,60.0,3.1333333333333333
2026-01-20T23:03:09+00:00,SAT-66339,178.78882566888257,42.322501472806,471899.8277644392,-96.1046504207013,3365991.3800011734,10.5,10503365991.380001,47.655,-122.3035,60.0,3.15
2026-01-20T23:03:10+00:00,SAT-66339,176.168552590145,42.08902993649358,471803.97939308634,-93.15608580538152,3262720.1747567174,10.5,10503262720.174757,47.655,-122.3035,60.0,3.1666666666666665
2026-01-20T23:03:11+00:00,SAT-66339,173.56963653608713,41.79596724469897,471711.0717235098,-90.09917489172236,3155654.22384003,10.5,10503155654.22384,47.655,-122.3035,60.0,3.183333333333333
2026-01-20T23:03:12+00:00,SAT-66339,170.99645023298456,41.44443437521218,471621.2128130844,-86.93739029983199,3044915.153096466,10.5,10503044915.153097,47.655,-122.3035,60.0,3.2
2026-01-20T23:03:13+00:00,SAT-66339,168.45298227985467,41.035747065175315,471534.5072558254,-83.67432496737653,2930628.802401205,10.5,10502930628.8024,47.655,-122.3035,60.0,3.216666666666667
2026-01-20T23:03:14+00:00,SAT-66339,165.94279641010914,40.57139378872674,471451.05606239126,-80.31368764621628,2812925.067932399,10.5,10502812925.067932,47.655,-122.3035,60.0,3.2333333333333334
2026-01-20T23:03:15+00:00,SAT-66339,163.46900394294335,40.053012206852266,471370.9565445788,-76.8593002929696,2691937.810777684,10.5,10502691937.810778,47.655,-122.3035,60.0,3.25
2026-01-20T23:06:01+00:00,SAT-66339,211.182931605011,40.15257097836121,473502.1815654411,-122.38631680789626,4286486.508219332,10.5,10504286486.508219,47.655,-122.3035,60.0,6.016666666666667
2026-01-20T23:06:02+00:00,SAT-66339,208.70825249074235,40.659450647094715,473380.12161214463,-121.07262181923224,4240475.352792026,10.5,10504240475.352793,47.655,-122.3035,60.0,6.033333333333333
2026-01-20T23:06:03+00:00,SAT-66339,206.19719765338456,41.11237425116206,473259.3718506503,-119.6188473139622,4189558.0201574094,10.5,10504189558.020157,47.655,-122.3035,60.0,6.05
2026-01-20T23:06:04+00:00,SAT-66339,203.65290718021748,41.50969524309877,473140.07198692916,-118.02665014336996,4133792.5402559144,10.5,10504133792.540257,47.655,-122.3035,60.0,6.066666666666666
2026-01-20T23:06:05+00:00,SAT-66339,201.07897198106517,41.84991607966904,473022.3600745195,-116.29784286498139,4073242.3965192097,10.5,10504073242.396519,47.655,-122.3035,60.0,6.083333333333333
2026-01-20T23:06:06+00:00,SAT-66339,198.47940545970823,42.13171185340145,472906.37235923554,-114.43439152194512,4007976.448094714,10.5,10504007976.448095,47.655,-122.3035,60.0,6.1
2026-01-20T23:06:07+00:00,SAT-66339,195.85860202781603,42.35395237235469,472792.24312609097,-112.43841454625353,3938068.8914317586,10.5,10503938068.891432,47.655,-122.3035,60.0,6.116666666666666
2026-01-20T23:06:08+00:00,SAT-66339,193.22128286995618,42.51572187148578,472680.1045473168,-110.31217950847795,3863599.146443566,10.5,10503863599.146444,47.655,-122.3035,60.0,6.133333333333334
2026-01-20T23:06:09+00:00,SAT-66339,190.57243018795089,42.616335568414364,472570.0865336204,-108.05810099973665,3784651.782324807,10.5,10503784651.782326,47.655,-122.3035,60.0,6.15
2026-01-20T23:06:10+00:00,SAT-66339,187.91721181247848,42.655352374598074,472462.3165875566,-105.67873818053027,3701316.4317014534,10.5,10503701316.431702,47.655,-122.3035,60.0,6.166666666666667
2026-01-20T23:06:11+00:00,SAT-66339,185.26089874918162,42.63258320835216,472356.91965934454,-103.17679223909026,3613687.701611385,10.5,10503613687.70161,47.655,-122.3035,60.0,6.183333333333334
2026-01-20T23:06:12+00:00,SAT-66339,182.60877871557798,42.54809453898513,472254.0180052181,-100.55510313948784,3521865.059609412,10.5,10503521865.059608,47.655,-122.3035,60.0,6.2
2026-01-20T23:06:13+00:00,SAT-66339,179.96606902929852,42.402207003755954,472153.73104902037,-97.81664697798044,3425952.741175346,10.5,10503425952.741175,47.655,-122.3035,60.0,6.216666666666667
2026-01-20T23:06:14+00:00,SAT-66339,177.3378322230377,42.19548916355792,472056.1752464343,-94.96453216594793,3326059.616024274,10.5,10503326059.616024,47.655,-122.3035,60.0,6.233333333333333
2026-01-20T23:06:15+00:00,SAT-66339,174.72889760896697,41.928746683942364,471961.4639530208,-92.00199735310329,3222299.115368621,10.5,10503222299.115368,47.655,-122.3035,60.0,6.25
2026-01-20T23:06:16+00:00,SAT-66339,172.14379151848377,41.60300741868839,471869.7072943273,-88.93240674055173,3114789.0677616484,10.5,10503114789.067762,47.655,-122.3035,60.0,6.266666666666667
2026-01-20T23:06:17+00:00,SAT-66339,169.58667846243154,41.219503040856786,471781.0120406714,-85.7592470308215,3003651.592274632,10.5,10503003651.592274,47.655,-122.3035,60.0,6.283333333333333
2026-01-20T23:06:18+00:00,SAT-66339,167.0613146364645,40.77964796866762,471695.481484966,-82.48612391374786,2889012.9754176554,10.5,10502889012.975418,47.655,-122.3035,60.0,6.3
2026-01-20T23:06:19+00:00,SAT-66339,164.5710145012102,40.285016394286416,471613.21532404935,-79.11675792453883,2771003.526071552,10.5,10502771003.526072,47.655,-122.3035,60.0,6.316666666666666
2026-01-20T23:09:06+00:00,SAT-66339,209.74934790918158,40.450477792739804,473642.78176277387,-121.47557588719667,4254588.508746157,10.5,10504254588.508747,47.655,-122.3035,60.0,9.1
2026-01-20T23:09:07+00:00,SAT-66339,207.25308473443124,40.92606255389247,473521.6301217557,-120.1298307065401,4207454.820023094,10.5,10504207454.820023,47.655,-122.3035,60.0,9.116666666666667
2026-01-20T23:09:08+00:00,SAT-66339,204.72222862405698,41.34670940953801,473401.8206372644,-118.64506616300011,4155452.085160532,10.5,10504155452.085161,47.655,-122.3035,60.0,9.133333333333333
2026-01-20T23:09:09+00:00,SAT-66339,202.1601853069707,41.710856054933586,473283.4919579445,-117.02297379794987,4098639.5490925717,10.5,10504098639.549093,47.655,-122.3035,60.0,9.15
2026-01-20T23:09:10+00:00,SAT-66339,199.57079630050677,42.01710312272223,473166.78104541,-115.26539853404152,4037081.828814506,10.5,10504037081.828814,47.655,-122.3035,60.0,9.166666666666666
2026-01-20T23:09:11+00:00,SAT-66339,196.9583029077259,42.264237001574806,473051.8230212721,-113.37433910715235,3970848.928511403,10.5,10503970848.92851,47.655,-122.3035,60.0,9.183333333333334
2026-01-20T23:09:12+00:00,SAT-66339,194.32729716795973,42.451250630247245,472938.7510137359,-111.35194391625417,3900016.094202973,10.5,10503900016.094202,47.655,-122.3035,60.0,9.2
2026-01-20T23:09:13+00:00,SAT-66339,191.68266072883864,42.57736145105373,472827.69600833673,-109.20050977545303,3824663.7700347244,10.5,10503824663.770035,47.655,-122.3035,60.0,9.216666666666667
2026-01-20T23:09:14+00:00,SAT-66339,189.0294931897702,42.64202579474228,472718.78669992066,-106.92247898495215,3744877.4956906936,10.5,10503744877.495691,47.655,-122.3035,60.0,9.233333333333333
2026-01-20T23:09:15+00:00,SAT-66339,186.373032259926,42.64494907694027,472612.14934754634,-104.52043749313404,3660747.842021788,10.5,10503660747.842022,47.655,-122.3035,60.0,9.25
2026-01-20T23:09:16+00:00,SAT-66339,183.7185685751539,42.58609135666547,472507.9076312199,-101.99711134673082,3572370.2867157306,10.5,10503572370.286716,47.655,-122.3035,60.0,9.266666666666667
2026-01-20T23:09:17+00:00,SAT-66339,181.07135846545705,42.46566800705147,472406.18251217005,-99.35536391225251,3479845.116979732,10.5,10503479845.11698,47.655,-122.3035,60.0,9.283333333333333
2026-01-20T23:09:18+00:00,SAT-66339,178.43653805484092,42.284145472046966,472307.09209589486,-96.59819377200607,3383277.355850172,10.5,10503383277.35585,47.655,-122.3035,60.0,9.3
2026-01-20T23:09:19+00:00,SAT-66339,175.81904197760474,42.042232302225386,472210.7514973063,-93.72873012536506,3282776.6011256133,10.5,10503282776.601126,47.655,-122.3035,60.0,9.316666666666666
2026-01-20T23:09:20+00:00,SAT-66339,173.22352974695607,41.74086587691946,472117.2727104613,-90.7502308278383,3178456.9566866895,10.5,10503178456.956686,47.655,-122.3035,60.0,9.333333333333334
2026-01-20T23:09:21+00:00,SAT-66339,170.65432214721636,41.38119538674096,472026.76448024897,-87.66607763283172,3070436.865842479,10.5,10503070436.865843,47.655,-122.3035,60.0,9.35
2026-01-20T23:09:22+00:00,SAT-66339,168.11534949554766,40.96456179356687,471939.3321788232,-84.47977387514207,2958839.030196656,10.5,10502958839.030197,47.655,-122.3035,60.0,9.366666666666667
2026-01-20T23:09:23+00:00,SAT-66339,165.6101127365194,40.49247555061372,471855.077684345,-81.19494002158635,2843790.2538117105,10.5,10502843790.25381,47.655,-122.3035,60.0,9.383333333333333
2026-01-20T23:12:10+00:00,SAT-66339,210.7142259108761,40.24710379161253,473902.1071092745,-121.74426445618181,4263999.118983537,10.5,10504263999.118984,47.655,-122.3035,60.0,12.166666666666666
2026-01-20T23:12:11+00:00,SAT-66339,208.23220637524943,40.74354584680843,473780.68749619025,-120.50283970236643,4220519.17288342,10.5,10504220519.172884,47.655,-122.3035,60.0,12.183333333333334
2026-01-20T23:12:12+00:00,SAT-66339,205.71440136281174,41.18569081168451,473660.50599739375,-119.12195672187862,4172154.809777521,10.5,10504172154.809778,47.655,-122.3035,60.0,12.2
2026-01-20T23:12:13+00:00,SAT-66339,203.1640404750001,41.57191981471548,473541.7016992231,-117.60318944619829,4118961.1554039894,10.5,10504118961.155403,47.655,-122.3035,60.0,12.216666666666667
2026-01-20T23:12:14+00:00,SAT-66339,200.58479944298037,41.900767693977244,473424.41211828205,-115.94826615384835,4060998.741387309,10.5,10504060998.741386,47.655,-122.3035,60.0,12.233333333333333
2026-01-20T23:12:15+00:00,SAT-66339,197.98076922891985,42.17094637939513,473308.77304750466,-114.15906939148643,3998333.5024745935,10.5,10503998333.502474,47.655,-122.3035,60.0,12.25
2026-01-20T23:12:16+00:00,SAT-66339,195.35641195960073,42.38136656713497,473194.91840229824,-112.23763202432986,3931036.638204766,10.5,10503931036.638205,47.655,-122.3035,60.0,12.266666666666667
2026-01-20T23:12:17+00:00,SAT-66339,192.7165043564077,42.53115686038755,473082.98007062596,-110.18613599196853,3859184.5693318592,10.5,10503859184.569332,47.655,-122.3035,60.0,12.283333333333333
2026-01-20T23:12:18+00:00,SAT-66339,190.06606993001665,42.61967961641187,472973.08776433,-108.00691071940169,3782858.8821728057,10.5,10503782858.882174,47.655,-122.3035,60.0,12.3
2026-01-20T23:12:19+00:00,SAT-66339,187.41030199247402,42.64654282804034,472865.36887203914,-105.70242921072257,3702146.1917917468,10.5,10503702146.191792,47.655,-122.3035,60.0,12.316666666666666
2026-01-20T23:12:20+00:00,SAT-66339,184.75448021243582,42.61160751851212,472759.948315973,-103.27530650861873,3617138.088045219,10.5,10503617138.088045,47.655,-122.3035,60.0,12.333333333333334
2026-01-20T23:12:21+00:00,SAT-66339,182.10388378480573,42.514990322079484,472656.94841028174,-100.72829623522516,3527931.0144282025,10.5,10503527931.01443,47.655,-122.3035,60.0,12.35
2026-01-20T23:12:22+00:00,SAT-66339,179.4637046310244,42.35706113456164,472556.4887228365,-98.0642884502829,3434626.1930577666,10.5,10503434626.193058,47.655,-122.3035,60.0,12.366666666666667
2026-01-20T23:12:23+00:00,SAT-66339,176.83896396548562,42.138435943251245,472458.6859391554,-95.28630608927458,3337329.499921519,10.5,10503337329.499922,47.655,-122.3035,60.0,12.383333333333333
2026-01-20T23:12:24+00:00,SAT-66339,174.2344353882574,41.85996516257983,472363.6537298824,-92.39750181223425,3236151.354509591,10.5,10503236151.35451,47.655,-122.3035,60.0,12.4
2026-01-20T23:12:25+00:00,SAT-66339,171.6545771601182,41.52271799120617,472271.50262140826,-89.40115455787108,3131206.5991254738,10.5,10503131206.599125,47.655,-122.3035,60.0,12.416666666666666
2026-01-20T23:12:26+00:00,SAT-66339,169.10347570957754,41.127963456237026,472182.33986992924,-86.3006665658729,3022614.3945944947,10.5,10503022614.394594,47.655,-122.3035,60.0,12.433333333333334
2026-01-20T23:12:27+00:00,SAT-66339,166.58480167961855,40.677148907706744,472096.2693384742,-83.09955933424179,2910498.078672609,10.5,10502910498.078672,47.655,-122.3035,60.0,12.45
2026-01-20T23:12:28+00:00,SAT-66339,164.10177911604583,40.17187678021496,472013.3913779649,-79.80146992472326,2794985.0366469002,10.5,10502794985.036648,47.655,-122.3035,60.0,12.466666666666667
