satellites_20260120_184412/SAT-53493.csv

timestamp,satellite,azimuth_deg,elevation_deg,distance_km,relative_velocity_kms,doppler_shift_hz,tx_freq_ghz,rx_freq_hz,ue_lat,ue_lon,ue_alt_m,time_minutes
2026-01-20T23:00:00+00:00,SAT-53493,305.3303341125272,43.040851505240134,1906.2197045607809,-7.402150367307632,259254.61692812212,10.5,10500259254.616928,47.655,-122.3035,60.0,0.0
2026-01-20T23:00:01+00:00,SAT-53493,305.35320881255274,43.111927398050284,1898.8372932611194,-7.401857521366553,259244.36022452844,10.5,10500259244.360224,47.655,-122.3035,60.0,0.016666666666666666
2026-01-20T23:00:02+00:00,SAT-53493,305.3762426433546,43.18330500655946,1891.4551740264765,-7.401550915509924,259233.62159048778,10.5,10500259233.62159,47.655,-122.3035,60.0,0.03333333333333333
2026-01-20T23:00:03+00:00,SAT-53493,305.3994378061972,43.25498783543836,1884.0733605800747,-7.4012303676642,259222.39464901452,10.5,10500259222.39465,47.655,-122.3035,60.0,0.05
2026-01-20T23:00:04+00:00,SAT-53493,305.4227965442032,43.32697944293051,1876.6918668267242,-7.400895761388357,259210.67532185133,10.5,10500259210.675322,47.655,-122.3035,60.0,0.06666666666666667
2026-01-20T23:00:05+00:00,SAT-53493,305.4463211437754,43.399283442516385,1869.3107067873661,-7.400546861167761,259198.45536027962,10.5,10500259198.45536,47.655,-122.3035,60.0,0.08333333333333333
2026-01-20T23:00:06+00:00,SAT-53493,305.4700139350003,43.47190350285714,1861.9298947178281,-7.4001834913387965,259185.7286118164,10.5,10500259185.728611,47.655,-122.3035,60.0,0.1
2026-01-20T23:00:07+00:00,SAT-53493,305.49387729307205,43.54484334944876,1854.5494450491328,-7.399805443738703,259172.48778572137,10.5,10500259172.487785,47.655,-122.3035,60.0,0.11666666666666667
2026-01-20T23:00:08+00:00,SAT-53493,305.5179136392047,43.618106765432174,1847.169372419911,-7.399412564312102,259158.72748632342,10.5,10500259158.727486,47.655,-122.3035,60.0,0.13333333333333333
2026-01-20T23:00:09+00:00,SAT-53493,305.5421254420909,43.691697593256436,1839.789691622437,-7.399004608259433,259144.4391397066,10.5,10500259144.43914,47.655,-122.3035,60.0,0.15
2026-01-20T23:00:10+00:00,SAT-53493,305.5665152185825,43.765619734970336,1832.410417693133,-7.398581413621735,259129.61707338286,10.5,10500259129.617073,47.655,-122.3035,60.0,0.16666666666666666
2026-01-20T23:00:11+00:00,SAT-53493,305.5910855353678,43.83987715422181,1825.0315658299476,-7.398142762407028,259114.25365235104,10.5,10500259114.253653,47.655,-122.3035,60.0,0.18333333333333332
2026-01-20T23:00:12+00:00,SAT-53493,305.61583900990246,43.914473876937734,1817.6531514482404,-7.397688420650755,259098.3406821826,10.5,10500259098.340683,47.655,-122.3035,60.0,0.2
2026-01-20T23:00:13+00:00,SAT-53493,305.640778311642,43.98941399241171,1810.2751901967113,-7.397218196727121,259081.87145133177,10.5,10500259081.87145,47.655,-122.3035,60.0,0.21666666666666667
2026-01-20T23:00:14+00:00,SAT-53493,305.6659061635635,44.06470165500537,1802.8976979151755,-7.396731865479277,259064.8380738531,10.5,10500259064.838074,47.655,-122.3035,60.0,0.23333333333333334
2026-01-20T23:00:15+00:00,SAT-53493,305.6912253433895,44.14034108512331,1795.5206906680041,-7.396229203274254,259047.2327171742,10.5,10500259047.232718,47.655,-122.3035,60.0,0.25
2026-01-20T23:00:16+00:00,SAT-53493,305.7167386849642,44.21633657057195,1788.1441847426054,-7.395709987429467,259029.0475820089,10.5,10500259029.047583,47.655,-122.3035,60.0,0.26666666666666666
2026-01-20T23:00:17+00:00,SAT-53493,305.74244907976606,44.29269246793482,1780.7681966484754,-7.3951739735161075,259010.27410742643,10.5,10500259010.274107,47.655,-122.3035,60.0,0.2833333333333333
2026-01-20T23:00:18+00:00,SAT-53493,305.768359478226,44.36941320376354,1773.3927431388888,-7.394620929409116,258990.90416342535,10.5,10500258990.904163,47.655,-122.3035,60.0,0.3
2026-01-20T23:00:19+00:00,SAT-53493,305.7944728913926,44.44650327613091,1766.0178411986249,-7.394050612485903,258970.92925233624,10.5,10500258970.929253,47.655,-122.3035,60.0,0.31666666666666665
2026-01-20T23:00:20+00:00,SAT-53493,305.82079239241887,44.5239672560001,1758.6435080544388,-7.393462792263719,258950.34130167827,10.5,10500258950.341301,47.655,-122.3035,60.0,0.3333333333333333
2026-01-20T23:00:21+00:00,SAT-53493,305.84732111831744,44.60180978884963,1751.2697611629544,-7.3928571638508505,258929.12963285393,10.5,10500258929.129633,47.655,-122.3035,60.0,0.35
2026-01-20T23:00:22+00:00,SAT-53493,305.87406227118083,44.68003559545387,1743.896618284874,-7.39223352675511,258907.28722377884,10.5,10500258907.287224,47.655,-122.3035,60.0,0.36666666666666664
2026-01-20T23:00:23+00:00,SAT-53493,305.9010191205734,44.75864947452656,1736.5240973808568,-7.391591594298872,258884.80403378978,10.5,10500258884.804033,47.655,-122.3035,60.0,0.38333333333333336
2026-01-20T23:00:24+00:00,SAT-53493,305.92819500480056,44.8376563034545,1729.1522166974762,-7.390931085598729,258861.67022516177,10.5,10500258861.670225,47.655,-122.3035,60.0,0.4
2026-01-20T23:00:25+00:00,SAT-53493,305.9555933328277,44.9170610400021,1721.780994761439,-7.390251754852156,258837.87718885057,10.5,10500258837.87719,47.655,-122.3035,60.0,0.4166666666666667
2026-01-20T23:00:26+00:00,SAT-53493,305.98321758636183,44.99686872437644,1714.4104503446,-7.389553280597445,258813.4136659074,10.5,10500258813.413666,47.655,-122.3035,60.0,0.43333333333333335
2026-01-20T23:00:27+00:00,SAT-53493,306.0110713214457,45.077084480158604,1707.040602539417,-7.3888354225531145,258788.27124065845,10.5,10500258788.27124,47.655,-122.3035,60.0,0.45
2026-01-20T23:00:28+00:00,SAT-53493,306.0391581709137,45.157713516942835,1699.671470677991,-7.388097835645568,258762.43782716664,10.5,10500258762.437828,47.655,-122.3035,60.0,0.4666666666666667
2026-01-20T23:00:29+00:00,SAT-53493,306.06748184593994,45.238761131035176,1692.3030744365738,-7.387340290205971,258735.90538145794,10.5,10500258735.905382,47.655,-122.3035,60.0,0.48333333333333334
2026-01-20T23:00:30+00:00,SAT-53493,306.0960461388551,45.32023270855475,1684.935433720475,-7.386562410951128,258708.66075952732,10.5,10500258708.660759,47.655,-122.3035,60.0,0.5
2026-01-20T23:00:31+00:00,SAT-53493,306.1248549245753,45.40213372577252,1677.5685688092865,-7.38576392632371,258680.69445028852,10.5,10500258680.69445,47.655,-122.3035,60.0,0.5166666666666667
2026-01-20T23:00:32+00:00,SAT-53493,306.1539121634857,45.48446975218857,1670.2025002534328,-7.384944499718081,258651.99466438827,10.5,10500258651.994665,47.655,-122.3035,60.0,0.5333333333333333
2026-01-20T23:00:33+00:00,SAT-53493,306.1832219034967,45.56724645182459,1662.8372489390474,-7.3841037992829905,258622.54977899214,10.5,10500258622.54978,47.655,-122.3035,60.0,0.55
2026-01-20T23:00:34+00:00,SAT-53493,306.2127882825448,45.65046958532589,1655.4728360832291,-7.383241520852469,258592.34914092108,10.5,10500258592.34914,47.655,-122.3035,60.0,0.5666666666666667
2026-01-20T23:00:35+00:00,SAT-53493,306.2426155312849,45.734145012373844,1648.1092832064323,-7.382357311968735,258561.38040561287,10.5,10500258561.380405,47.655,-122.3035,60.0,0.5833333333333334
2026-01-20T23:00:36+00:00,SAT-53493,306.27270797552984,45.81827869330013,1640.7466121806287,-7.38145080739584,258529.63078095956,10.5,10500258529.630781,47.655,-122.3035,60.0,0.6
2026-01-20T23:00:37+00:00,SAT-53493,306.30307003881404,45.90287669116021,1633.3848452420525,-7.380521656887528,258497.08799985572,10.5,10500258497.088,47.655,-122.3035,60.0,0.6166666666666667
2026-01-20T23:00:38+00:00,SAT-53493,306.33370624538304,45.987945174151655,1626.0240049762501,-7.37956951982957,258463.74013255024,10.5,10500258463.740133,47.655,-122.3035,60.0,0.6333333333333333
2026-01-20T23:00:39+00:00,SAT-53493,306.36462122314714,46.073490418051605,1618.6641143084735,-7.378593983673045,258429.57272983488,10.5,10500258429.57273,47.655,-122.3035,60.0,0.65
2026-01-20T23:00:40+00:00,SAT-53493,306.3958197062953,46.15951880777492,1611.3051965754235,-7.37759471446776,258394.57409536128,10.5,10500258394.574095,47.655,-122.3035,60.0,0.6666666666666666
2026-01-20T23:00:41+00:00,SAT-53493,306.4273065388715,46.24603684070974,1603.947275446861,-7.376571276673186,258358.72897465772,10.5,10500258358.728975,47.655,-122.3035,60.0,0.6833333333333333
2026-01-20T23:00:42+00:00,SAT-53493,306.4590866774678,46.33305112804603,1596.5903750269258,-7.375523319024589,258322.0250649474,10.5,10500258322.025064,47.655,-122.3035,60.0,0.7
2026-01-20T23:00:43+00:00,SAT-53493,306.49116519500984,46.420568398317045,1589.2345197700852,-7.37445039977684,258284.44689444726,10.5,10500258284.446894,47.655,-122.3035,60.0,0.7166666666666667
2026-01-20T23:00:44+00:00,SAT-53493,306.52354728373365,46.50859549897509,1581.8797345713745,-7.373352114474923,258245.98029743193,10.5,10500258245.980297,47.655,-122.3035,60.0,0.7333333333333333
2026-01-20T23:00:45+00:00,SAT-53493,306.5562382589761,46.59713939951922,1574.5260447292046,-7.37222804287801,258206.61055528992,10.5,10500258206.610556,47.655,-122.3035,60.0,0.75
2026-01-20T23:00:46+00:00,SAT-53493,306.5892435628483,46.686207194069574,1567.1734759611077,-7.371077737986489,258166.32201220398,10.5,10500258166.322012,47.655,-122.3035,60.0,0.7666666666666667
2026-01-20T23:00:47+00:00,SAT-53493,306.6225687678766,46.7758061038919,1559.8220544304227,-7.369900748239217,258125.0988525928,10.5,10500258125.098852,47.655,-122.3035,60.0,0.7833333333333333
2026-01-20T23:00:48+00:00,SAT-53493,306.65621958100235,46.86594348024245,1552.4718067508452,-7.368696652130915,258082.9263135586,10.5,10500258082.926313,47.655,-122.3035,60.0,0.8
2026-01-20T23:00:49+00:00,SAT-53493,306.6902018479248,46.95662680771098,1545.1227599564534,-7.367464954047444,258039.7870365977,10.5,10500258039.787037,47.655,-122.3035,60.0,0.8166666666666667
2026-01-20T23:00:50+00:00,SAT-53493,306.7245215569009,47.04786370639532,1537.7749415756168,-7.366205176253836,257995.66428941078,10.5,10500257995.66429,47.655,-122.3035,60.0,0.8333333333333334
2026-01-20T23:00:51+00:00,SAT-53493,306.7591848433002,47.13966193524965,1530.4283796131663,-7.3649168296340495,257950.54094108503,10.5,10500257950.540941,47.655,-122.3035,60.0,0.85
2026-01-20T23:00:52+00:00,SAT-53493,306.7941979941916,47.232029395159785,1523.0831025617447,-7.363599430961293,257904.40006697425,10.5,10500257904.400066,47.655,-122.3035,60.0,0.8666666666666667
2026-01-20T23:00:53+00:00,SAT-53493,306.82956745313,47.32497413232793,1515.7391393959324,-7.362252456042706,257857.22330762705,10.5,10500257857.223309,47.655,-122.3035,60.0,0.8833333333333333
2026-01-20T23:00:54+00:00,SAT-53493,306.865299824894,47.41850434115387,1508.3965196131057,-7.360875368603265,257808.99188042377,10.5,10500257808.99188,47.655,-122.3035,60.0,0.9
2026-01-20T23:00:55+00:00,SAT-53493,306.90140188051174,47.51262836756527,1501.0552732454855,-7.359467648407106,257759.68756450375,10.5,10500257759.687565,47.655,-122.3035,60.0,0.9166666666666666
2026-01-20T23:00:56+00:00,SAT-53493,306.93788056277435,47.60735471278181,1493.7154308441409,-7.358028745254745,257709.2910895538,10.5,10500257709.29109,47.655,-122.3035,60.0,0.9333333333333333
2026-01-20T23:00:57+00:00,SAT-53493,306.9747429915306,47.70269203661625,1486.3770235088734,-7.356558083594412,257657.78229731627,10.5,10500257657.782297,47.655,-122.3035,60.0,0.95
2026-01-20T23:00:58+00:00,SAT-53493,307.0119964693569,47.79864916090111,1479.040082913502,-7.355055092006413,257605.14117425642,10.5,10500257605.141174,47.655,-122.3035,60.0,0.9666666666666667
2026-01-20T23:00:59+00:00,SAT-53493,307.0496484874772,47.89523507341576,1471.7046413017408,-7.353519184417811,257551.34719362092,10.5,10500257551.347193,47.655,-122.3035,60.0,0.9833333333333333
2026-01-20T23:01:00+00:00,SAT-53493,307.0877067320043,47.9924589316497,1464.3707315018148,-7.351949731920872,257496.37832840063,10.5,10500257496.378328,47.655,-122.3035,60.0,1.0
2026-01-20T23:01:01+00:00,SAT-53493,307.12617908996515,48.090330066333586,1457.038386969179,-7.350346164997409,257440.2146316596,10.5,10500257440.214632,47.655,-122.3035,60.0,1.0166666666666666
2026-01-20T23:01:02+00:00,SAT-53493,307.16507365661977,48.1888579863746,1449.7076417272885,-7.348707772500582,257382.8311960273,10.5,10500257382.831196,47.655,-122.3035,60.0,1.0333333333333334
2026-01-20T23:01:03+00:00,SAT-53493,307.2043987412492,48.28805238131392,1442.378530508848,-7.3470339711353825,257324.20759204528,10.5,10500257324.207592,47.655,-122.3035,60.0,1.05
2026-01-20T23:01:04+00:00,SAT-53493,307.2441628754954,48.38792312739445,1435.051088628302,-7.345324046221573,257264.31878858845,10.5,10500257264.318789,47.655,-122.3035,60.0,1.0666666666666667
2026-01-20T23:01:05+00:00,SAT-53493,307.28437481986936,48.48848029036405,1427.7253521128705,-7.343577346823141,257203.14198712425,10.5,10500257203.141987,47.655,-122.3035,60.0,1.0833333333333333
2026-01-20T23:01:06+00:00,SAT-53493,307.3250435721503,48.58973413096204,1420.401357638972,-7.3417931300709345,257140.6511692326,10.5,10500257140.651169,47.655,-122.3035,60.0,1.1
2026-01-20T23:01:07+00:00,SAT-53493,307.3661783747982,48.6916951084657,1413.0791426239148,-7.339970709627366,257076.822296468,10.5,10500257076.822296,47.655,-122.3035,60.0,1.1166666666666667
2026-01-20T23:01:08+00:00,SAT-53493,307.40778872403496,48.79437388634012,1405.758745169513,-7.338109352597097,257011.62969973552,10.5,10500257011.6297,47.655,-122.3035,60.0,1.1333333333333333
2026-01-20T23:01:09+00:00,SAT-53493,307.44988437823474,48.89778133666865,1398.440204108523,-7.336208254947991,256945.04521842877,10.5,10500256945.045218,47.655,-122.3035,60.0,1.15
2026-01-20T23:01:10+00:00,SAT-53493,307.4924753666754,49.001928544330234,1391.1235590755882,-7.3342666855245975,256877.04324439098,10.5,10500256877.043245,47.655,-122.3035,60.0,1.1666666666666667
2026-01-20T23:01:11+00:00,SAT-53493,307.5355719997154,49.106826813324965,1383.8088504345583,-7.332283818062962,256807.59483836347,10.5,10500256807.59484,47.655,-122.3035,60.0,1.1833333333333333
2026-01-20T23:01:12+00:00,SAT-53493,307.57918487809644,49.21248767091378,1376.4961193733434,-7.330258869077768,256736.67255937628,10.5,10500256736.67256,47.655,-122.3035,60.0,1.2
2026-01-20T23:01:13+00:00,SAT-53493,307.6233249037209,49.3189228738338,1369.18540786125,-7.3281909415293605,256664.24498930617,10.5,10500256664.24499,47.655,-122.3035,60.0,1.2166666666666666
2026-01-20T23:01:14+00:00,SAT-53493,307.66800328964916,49.42614441244927,1361.8767587622312,-7.326079243108711,256590.2843781396,10.5,10500256590.284378,47.655,-122.3035,60.0,1.2333333333333334
2026-01-20T23:01:15+00:00,SAT-53493,307.7132315723251,49.53416451817462,1354.5702157304374,-7.323922832168193,256514.7577453934,10.5,10500256514.757746,47.655,-122.3035,60.0,1.25
2026-01-20T23:01:16+00:00,SAT-53493,307.75902162221314,49.64299566741925,1347.265823359155,-7.321720830134822,256437.63431972536,10.5,10500256437.63432,47.655,-122.3035,60.0,1.2666666666666666
2026-01-20T23:01:17+00:00,SAT-53493,307.80538565666825,49.75265058875434,1339.9636271179006,-7.319472299532948,256358.88126677275,10.5,10500256358.881268,47.655,-122.3035,60.0,1.2833333333333334
2026-01-20T23:01:18+00:00,SAT-53493,307.8523362524379,49.863142268481596,1332.6636734111664,-7.317176295542632,256278.46549494466,10.5,10500256278.465494,47.655,-122.3035,60.0,1.3
2026-01-20T23:01:19+00:00,SAT-53493,307.8998863590273,49.97448395714478,1325.3660095857451,-7.314831801556881,256196.35139836388,10.5,10500256196.351398,47.655,-122.3035,60.0,1.3166666666666667
2026-01-20T23:01:20+00:00,SAT-53493,307.9480493122036,50.08668917524877,1318.0706840023258,-7.312437854969591,256112.50526249298,10.5,10500256112.505262,47.655,-122.3035,60.0,1.3333333333333333
2026-01-20T23:01:21+00:00,SAT-53493,307.9968388492113,50.199771721048734,1310.7777459816361,-7.309993374025582,256026.88919968964,10.5,10500256026.8892,47.655,-122.3035,60.0,1.35
2026-01-20T23:01:22+00:00,SAT-53493,308.04626912307947,50.31374567593877,1303.4872459232747,-7.307497346323125,255939.46775136288,10.5,10500255939.46775,47.655,-122.3035,60.0,1.3666666666666667
2026-01-20T23:01:23+00:00,SAT-53493,308.09635471937,50.42862541287792,1296.1992352365419,-7.304948627097191,255850.20082299903,10.5,10500255850.200823,47.655,-122.3035,60.0,1.3833333333333333
2026-01-20T23:01:24+00:00,SAT-53493,308.14711067179877,50.544425601951126,1288.9137664724503,-7.302346121886342,255759.050081929,10.5,10500255759.050081,47.655,-122.3035,60.0,1.4
2026-01-20T23:01:25+00:00,SAT-53493,308.1985524802912,50.66116121893288,1281.6308932735553,-7.299688670757735,255665.97490239804,10.5,10500255665.974903,47.655,-122.3035,60.0,1.4166666666666667
2026-01-20T23:01:26+00:00,SAT-53493,308.2506961288485,50.77884755228526,1274.350670439253,-7.296975081800316,255570.9335386393,10.5,10500255570.933538,47.655,-122.3035,60.0,1.4333333333333333
2026-01-20T23:01:27+00:00,SAT-53493,308.30355810450476,50.89750021089324,1267.073153957671,-7.294204164427201,255473.88429126397,10.5,10500255473.88429,47.655,-122.3035,60.0,1.45
2026-01-20T23:01:28+00:00,SAT-53493,308.35715541758157,51.01713513255951,1259.798401004349,-7.291374619468573,255374.7816578495,10.5,10500255374.781658,47.655,-122.3035,60.0,1.4666666666666666
2026-01-20T23:01:29+00:00,SAT-53493,308.4115056217586,51.137768590975774,1252.5264700505322,-7.288485186777506,255273.58150272016,10.5,10500255273.581503,47.655,-122.3035,60.0,1.4833333333333334
2026-01-20T23:01:30+00:00,SAT-53493,308.46662683671195,51.2594172052839,1245.2574208242527,-7.285534541339176,255170.237418252,10.5,10500255170.23742,47.655,-122.3035,60.0,1.5
2026-01-20T23:01:31+00:00,SAT-53493,308.5225377706704,51.3820979482414,1237.9913143750239,-7.282521303120411,255064.70106984585,10.5,10500255064.70107,47.655,-122.3035,60.0,1.5166666666666666
2026-01-20T23:01:32+00:00,SAT-53493,308.5792577442973,51.50582815476449,1230.7282131287118,-7.2794440932892135,254956.92416497265,10.5,10500254956.924166,47.655,-122.3035,60.0,1.5333333333333334
2026-01-20T23:01:33+00:00,SAT-53493,308.6368067162822,51.63062553167207,1223.468180886338,-7.276301447008575,254846.8553988441,10.5,10500254846.855398,47.655,-122.3035,60.0,1.55
2026-01-20T23:01:34+00:00,SAT-53493,308.69520530932215,51.756508166244814,1216.2112829098548,-7.273091903627185,254734.44361327274,10.5,10500254734.443613,47.655,-122.3035,60.0,1.5666666666666667
2026-01-20T23:01:35+00:00,SAT-53493,308.75447483834836,51.883494536566324,1208.9575859179706,-7.269813936418296,254619.63533582992,10.5,10500254619.635336,47.655,-122.3035,60.0,1.5833333333333333
2026-01-20T23:01:36+00:00,SAT-53493,308.814637339511,52.01160352096239,1201.7071581520495,-7.266465923143394,254502.37374886076,10.5,10500254502.373749,47.655,-122.3035,60.0,1.6
2026-01-20T23:01:37+00:00,SAT-53493,308.87571560016596,52.14085440720459,1194.460069471368,-7.263046320783481,254382.60480931294,10.5,10500254382.604809,47.655,-122.3035,60.0,1.6166666666666667
2026-01-20T23:01:38+00:00,SAT-53493,308.93773319258514,52.2712669050235,1187.2163912741064,-7.259553419136344,254260.26861867087,10.5,10500254260.26862,47.655,-122.3035,60.0,1.6333333333333333
2026-01-20T23:01:39+00:00,SAT-53493,309.0007145064249,52.40286115467609,1179.9761966640876,-7.255985515551918,254135.3055429271,10.5,10500254135.305542,47.655,-122.3035,60.0,1.65
2026-01-20T23:01:40+00:00,SAT-53493,309.0646847850879,52.53565773882355,1172.739560443244,-7.252340856723842,254007.65417387633,10.5,10500254007.654175,47.655,-122.3035,60.0,1.6666666666666667
2026-01-20T23:01:41+00:00,SAT-53493,309.12967016317344,52.66967769374987,1165.506559162138,-7.248617590838533,253877.2496531737,10.5,10500253877.249653,47.655,-122.3035,60.0,1.6833333333333333
2026-01-20T23:01:42+00:00,SAT-53493,309.19569770549873,52.80494252000349,1158.2772712182084,-7.244813891298492,253744.02800564835,10.5,10500253744.028006,47.655,-122.3035,60.0,1.7
2026-01-20T23:01:43+00:00,SAT-53493,309.2627954496344,52.94147419562435,1151.0517768306202,-7.240927789599318,253607.9202859494,10.5,10500253607.920286,47.655,-122.3035,60.0,1.7166666666666666
2026-01-20T23:01:44+00:00,SAT-53493,309.33099244876496,53.07929518666077,1143.830158181793,-7.236957315681841,253468.85749427136,10.5,10500253468.857494,47.655,-122.3035,60.0,1.7333333333333334
2026-01-20T23:01:45+00:00,SAT-53493,309.4003188185884,53.21842846059277,1136.612499418953,-7.232900438639388,253326.7684996718,10.5,10500253326.7685,47.655,-122.3035,60.0,1.75
2026-01-20T23:01:46+00:00,SAT-53493,309.4708057861935,53.35889749902354,1129.3988867148166,-7.2287550197811505,253181.57839615192,10.5,10500253181.578396,47.655,-122.3035,60.0,1.7666666666666666
2026-01-20T23:01:47+00:00,SAT-53493,309.54248574082294,53.50072630985019,1122.189408375088,-7.224518894832659,253033.211381665,10.5,10500253033.211382,47.655,-122.3035,60.0,1.7833333333333334
2026-01-20T23:01:48+00:00,SAT-53493,309.61539228886045,53.643939441309506,1114.984154863975,-7.220189832280195,252881.58929916125,10.5,10500252881.589298,47.655,-122.3035,60.0,1.8
2026-01-20T23:01:49+00:00,SAT-53493,309.6895603111856,53.7885619956437,1107.7832188712478,-7.215765479811917,252726.62976072976,10.5,10500252726.62976,47.655,-122.3035,60.0,1.8166666666666667
2026-01-20T23:01:50+00:00,SAT-53493,309.7650260231887,53.93461964206214,1100.5866954327153,-7.2112435148121525,252568.251418545,10.5,10500252568.25142,47.655,-122.3035,60.0,1.8333333333333333
2026-01-20T23:01:51+00:00,SAT-53493,309.8418270402908,54.082138633047414,1093.3946819006094,-7.2066214147812495,252406.36592399908,10.5,10500252406.365925,47.655,-122.3035,60.0,1.85
2026-01-20T23:01:52+00:00,SAT-53493,309.92000244420086,54.23114581649,1086.2072781429342,-7.201896693183861,252240.886188106,10.5,10500252240.886189,47.655,-122.3035,60.0,1.8666666666666667
2026-01-20T23:01:53+00:00,SAT-53493,309.99959285620696,54.381668652922215,1079.0245865075985,-7.197066697638928,252071.71931326154,10.5,10500252071.719313,47.655,-122.3035,60.0,1.8833333333333333
2026-01-20T23:01:54+00:00,SAT-53493,310.08064051216365,54.53373522906638,1071.8467119878203,-7.192128737661364,251898.77106729726,10.5,10500251898.771067,47.655,-122.3035,60.0,1.9
2026-01-20T23:01:55+00:00,SAT-53493,310.1631893436723,54.687374274358675,1064.6737622601258,-7.187080024508779,251721.9437766582,10.5,10500251721.943777,47.655,-122.3035,60.0,1.9166666666666667
2026-01-20T23:01:56+00:00,SAT-53493,310.2472850634561,54.84261517663011,1057.5058477823493,-7.181917674131052,251541.13642970982,10.5,10500251541.136429,47.655,-122.3035,60.0,1.9333333333333333
2026-01-20T23:01:57+00:00,SAT-53493,310.3329752558412,54.99948799824047,1050.3430818886825,-7.176638731390198,251356.24552501945,10.5,10500251356.245525,47.655,-122.3035,60.0,1.95
2026-01-20T23:01:58+00:00,SAT-53493,310.4203094734107,55.15802349308928,1043.1855808605758,-7.171240121997115,251167.16338797857,10.5,10500251167.163387,47.655,-122.3035,60.0,1.9666666666666666
2026-01-20T23:01:59+00:00,SAT-53493,310.5093393387275,55.31825312301603,1036.0334640455708,-7.165718648562982,250973.77803250577,10.5,10500250973.778032,47.655,-122.3035,60.0,1.9833333333333334
2026-01-20T23:02:00+00:00,SAT-53493,310.6001186525551,55.480209074429425,1028.8868539800708,-7.160071082423009,250775.97637710284,10.5,10500250775.976377,47.655,-122.3035,60.0,2.0
2026-01-20T23:02:01+00:00,SAT-53493,310.6927035104453,55.64392427733726,1021.745876420534,-7.1542939966112735,250573.6383949271,10.5,10500250573.638395,47.655,-122.3035,60.0,2.0166666666666666
2026-01-20T23:02:02+00:00,SAT-53493,310.7871524240458,55.809432421048626,1014.6106605412471,-7.148383947248811,250366.64346676966,10.5,10500250366.643467,47.655,-122.3035,60.0,2.033333333333333
2026-01-20T23:02:03+00:00,SAT-53493,310.8835264533365,55.97676797425125,1007.4813389511911,-7.142337266821151,250154.86314076016,10.5,10500250154.86314,47.655,-122.3035,60.0,2.05
2026-01-20T23:02:04+00:00,SAT-53493,310.98188934403464,56.14596620074808,1000.3580479170814,-7.13615026746344,249938.16825227175,10.5,10500249938.168253,47.655,-122.3035,60.0,2.066666666666667
2026-01-20T23:02:05+00:00,SAT-53493,311.0823076776609,56.317063180112775,993.2409273836645,-7.1298190734787585,249716.42305800423,10.5,10500249716.423058,47.655,-122.3035,60.0,2.0833333333333335
2026-01-20T23:02:06+00:00,SAT-53493,311.18485102868533,56.49009582480204,986.1301211610484,-7.12333967828328,249489.48723044407,10.5,10500249489.48723,47.655,-122.3035,60.0,2.1
2026-01-20T23:02:07+00:00,SAT-53493,311.28959213328443,56.665101898791136,979.0257770552405,-7.11670800039123,249257.21781869483,10.5,10500249257.21782,47.655,-122.3035,60.0,2.1166666666666667
2026-01-20T23:02:08+00:00,SAT-53493,311.3966070708756,56.84212003777288,971.9280469428503,-7.109919721968857,249019.46359395405,10.5,10500249019.463594,47.655,-122.3035,60.0,2.1333333333333333
2026-01-20T23:02:09+00:00,SAT-53493,311.5059754548804,57.02118976567667,964.8370870068068,-7.102970456014332,248776.07090486074,10.5,10500248776.070906,47.655,-122.3035,60.0,2.15
2026-01-20T23:02:10+00:00,SAT-53493,311.61778064034024,57.20235151529859,957.7530578053418,-7.095855623627629,248526.87937896725,10.5,10500248526.87938,47.655,-122.3035,60.0,2.1666666666666665
2026-01-20T23:02:11+00:00,SAT-53493,311.7321099435451,57.385646646062895,950.6761244633772,-7.088570514412324,248271.72403826585,10.5,10500248271.72404,47.655,-122.3035,60.0,2.183333333333333
2026-01-20T23:02:12+00:00,SAT-53493,311.8490548788062,57.571117463245244,943.60645680367,-7.081110235877865,248010.43352704216,10.5,10500248010.433527,47.655,-122.3035,60.0,2.2
2026-01-20T23:02:13+00:00,SAT-53493,311.9687114110783,57.75880723589655,936.544229528421,-7.073469684421115,247742.82909552616,10.5,10500247742.829096,47.655,-122.3035,60.0,2.216666666666667
2026-01-20T23:02:14+00:00,SAT-53493,312.0911802265675,57.94876021380036,929.489622429825,-7.065643655186437,247468.72844765693,10.5,10500247468.728447,47.655,-122.3035,60.0,2.2333333333333334
2026-01-20T23:02:15+00:00,SAT-53493,312.2165670256279,58.14102164705693,922.4428204910524,-7.0576266956663884,247187.94061355965,10.5,10500247187.940613,47.655,-122.3035,60.0,2.25
2026-01-20T23:02:16+00:00,SAT-53493,312.34498283438955,58.335637801501505,915.4040141332412,-7.0494132259202145,246900.27016010607,10.5,10500246900.27016,47.655,-122.3035,60.0,2.2666666666666666
2026-01-20T23:02:17+00:00,SAT-53493,312.4765443426319,58.53265597682737,908.37339934259,-7.040997358823629,246605.51089530115,10.5,10500246605.510895,47.655,-122.3035,60.0,2.283333333333333
2026-01-20T23:02:18+00:00,SAT-53493,312.61137426330885,58.732124519224584,901.3511779767233,-7.032373091400731,246303.4525695362,10.5,10500246303.45257,47.655,-122.3035,60.0,2.3
2026-01-20T23:02:19+00:00,SAT-53493,312.7496017243174,58.93409283842367,894.3375578802329,-7.02353416263211,245993.87589542748,10.5,10500245993.875895,47.655,-122.3035,60.0,2.316666666666667
2026-01-20T23:02:20+00:00,SAT-53493,312.8913626877871,59.1386114198779,887.3327531420346,-7.014474105966665,245676.5543870019,10.5,10500245676.554386,47.655,-122.3035,60.0,2.3333333333333335
2026-01-20T23:02:21+00:00,SAT-53493,313.0368004035661,59.345731837249524,880.3369843003504,-7.005186145848301,245351.25073562443,10.5,10500245351.250736,47.655,-122.3035,60.0,2.35
2026-01-20T23:02:22+00:00,SAT-53493,313.1860658965319,59.55550676047574,873.3504786508911,-6.995663385980864,245017.72340383247,10.5,10500245017.723404,47.655,-122.3035,60.0,2.3666666666666667
2026-01-20T23:02:23+00:00,SAT-53493,313.3393184984268,59.76798996758721,866.3734703672728,-6.985898562392039,244675.71797658902,10.5,10500244675.717978,47.655,-122.3035,60.0,2.3833333333333333
2026-01-20T23:02:24+00:00,SAT-53493,313.4967264167384,59.983236347387454,859.4062008677139,-6.975884176110086,244324.97180818307,10.5,10500244324.971807,47.655,-122.3035,60.0,2.4
2026-01-20T23:02:25+00:00,SAT-53493,313.65846735430677,60.20130190361692,852.4489190494068,-6.965612475578042,243965.2134063007,10.5,10500243965.213406,47.655,-122.3035,60.0,2.4166666666666665
2026-01-20T23:02:26+00:00,SAT-53493,313.8247291809314,60.42224375588041,845.5018815404302,-6.9550753743448555,243596.1595492205,10.5,10500243596.15955,47.655,-122.3035,60.0,2.433333333333333
2026-01-20T23:02:27+00:00,SAT-53493,313.99571065950386,60.64612013491724,838.5653530337503,-6.944264531173791,243217.5180915485,10.5,10500243217.518091,47.655,-122.3035,60.0,2.45
2026-01-20T23:02:28+00:00,SAT-53493,314.1716222375024,60.87299037659921,831.6396065413263,-6.933171223137527,242828.9835194721,10.5,10500242828.983519,47.655,-122.3035,60.0,2.466666666666667
2026-01-20T23:02:29+00:00,SAT-53493,314.3526869034232,61.102914907725804,824.7249237747839,-6.921786478556134,242430.2416068099,10.5,10500242430.241608,47.655,-122.3035,60.0,2.4833333333333334
2026-01-20T23:02:30+00:00,SAT-53493,314.53914112371626,61.3359552310466,817.8215953935038,-6.910100906119989,242020.96343017367,10.5,10500242020.96343,47.655,-122.3035,60.0,2.5
2026-01-20T23:02:31+00:00,SAT-53493,314.73123585758276,61.57217389923316,810.9299214231335,-6.898104798913337,241600.8090123136,10.5,10500241600.809011,47.655,-122.3035,60.0,2.5166666666666666
2026-01-20T23:02:32+00:00,SAT-53493,314.9292376680197,61.811634485583866,804.0502115703506,-6.8857880707207695,241169.42509130127,10.5,10500241169.42509,47.655,-122.3035,60.0,2.533333333333333
2026-01-20T23:02:33+00:00,SAT-53493,315.13342993261915,62.05440154526265,797.1827856011517,-6.87314022897912,240726.44417319118,10.5,10500240726.444174,47.655,-122.3035,60.0,2.55
2026-01-20T23:02:34+00:00,SAT-53493,315.34411416650084,62.300540567003885,790.3279737461165,-6.860150380125603,240271.48471933484,10.5,10500240271.48472,47.655,-122.3035,60.0,2.566666666666667
2026-01-20T23:02:35+00:00,SAT-53493,315.5616114702713,62.55011791520827,783.486117100338,-6.8468072489475,239804.15182408874,10.5,10500239804.151825,47.655,-122.3035,60.0,2.5833333333333335
2026-01-20T23:02:36+00:00,SAT-53493,315.7862641179078,62.80320076150142,776.6575680040543,-6.833099027098386,239324.03190921183,10.5,10500239324.03191,47.655,-122.3035,60.0,2.6
2026-01-20T23:02:37+00:00,SAT-53493,316.0184372921258,63.05985699816615,769.8426905743614,-6.819013546221396,238830.69878737463,10.5,10500238830.698788,47.655,-122.3035,60.0,2.6166666666666667
2026-01-20T23:02:38+00:00,SAT-53493,316.25852099838175,63.32015514296295,763.0418610642633,-6.804538076852135,238323.7066188884,10.5,10500238323.70662,47.655,-122.3035,60.0,2.6333333333333333
2026-01-20T23:02:39+00:00,SAT-53493,316.50693216060415,63.58416422005436,756.2554684222829,-6.789659429942695,237802.59346750577,10.5,10500237802.593468,47.655,-122.3035,60.0,2.65
2026-01-20T23:02:40+00:00,SAT-53493,316.76411693393163,63.85195362530038,749.4839147508201,-6.774363882766121,237266.87870528174,10.5,10500237266.878706,47.655,-122.3035,60.0,2.6666666666666665
2026-01-20T23:02:41+00:00,SAT-53493,317.03055325051093,64.12359296702739,742.7276158384079,-6.7586371606703235,236716.0623735184,10.5,10500236716.062374,47.655,-122.3035,60.0,2.683333333333333
2026-01-20T23:02:42+00:00,SAT-53493,317.30675362976206,64.39915188085564,735.987001710166,-6.742464446501348,236149.62551280778,10.5,10500236149.625513,47.655,-122.3035,60.0,2.7
2026-01-20T23:02:43+00:00,SAT-53493,317.5932682844525,64.6786998163424,729.2625171688554,-6.725830281497478,235567.02669192402,10.5,10500235567.026691,47.655,-122.3035,60.0,2.716666666666667
2026-01-20T23:02:44+00:00,SAT-53493,317.890688553852,64.96230578675986,722.5546224347752,-6.708718629660982,234967.70426239446,10.5,10500234967.704262,47.655,-122.3035,60.0,2.7333333333333334
2026-01-20T23:02:45+00:00,SAT-53493,318.1996507120255,65.25003808373337,715.8637937214601,-6.691112772667419,234351.07267777866,10.5,10500234351.072678,47.655,-122.3035,60.0,2.75
2026-01-20T23:02:46+00:00,SAT-53493,318.5208401878557,65.54196394451424,709.1905239161864,-6.67299537128488,233716.52464483026,10.5,10500233716.524645,47.655,-122.3035,60.0,2.7666666666666666
2026-01-20T23:02:47+00:00,SAT-53493,318.85499625829664,65.83814917218488,702.5353231992249,-6.654348337262207,233063.42663648052,10.5,10500233063.426636,47.655,-122.3035,60.0,2.783333333333333
2026-01-20T23:02:48+00:00,SAT-53493,319.2029172627802,66.13865769360477,695.8987197908621,-6.635152856004997,232391.11968604784,10.5,10500232391.119686,47.655,-122.3035,60.0,2.8
2026-01-20T23:02:49+00:00,SAT-53493,319.5654664144655,66.44355105271018,689.2812606758064,-6.615389387378207,231698.91941534824,10.5,10500231698.919415,47.655,-122.3035,60.0,2.816666666666667
2026-01-20T23:02:50+00:00,SAT-53493,319.9435782833174,66.75288782862584,682.6835123267946,-6.595037544669804,230986.11179549067,10.5,10500230986.111795,47.655,-122.3035,60.0,2.8333333333333335
2026-01-20T23:02:51+00:00,SAT-53493,320.33826603084424,67.06672296142064,676.1060615489106,-6.57407614022801,230251.95474528617,10.5,10500230251.954744,47.655,-122.3035,60.0,2.85
2026-01-20T23:02:52+00:00,SAT-53493,320.75062950488154,67.38510697963187,669.5495162783899,-6.552483155580907,229495.67708471013,10.5,10500229495.677084,47.655,-122.3035,60.0,2.8666666666666667
2026-01-20T23:02:53+00:00,SAT-53493,321.18186430352256,67.70808511058803,663.0145064112238,-6.530235618913156,228716.4742436187,10.5,10500228716.474243,47.655,-122.3035,60.0,2.8833333333333333
2026-01-20T23:02:54+00:00,SAT-53493,321.63327192824454,68.03569625088397,656.5016847539611,-6.507309645857246,227913.50969043086,10.5,10500227913.509691,47.655,-122.3035,60.0,2.9
2026-01-20T23:02:55+00:00,SAT-53493,322.10627118395735,68.36797178313755,650.011727933826,-6.483680401909116,227085.91361576453,10.5,10500227085.913616,47.655,-122.3035,60.0,2.9166666666666665
2026-01-20T23:02:56+00:00,SAT-53493,322.6024109852705,68.7049342105898,643.5453373463221,-6.459322022659631,226232.78013860548,10.5,10500226232.780138,47.655,-122.3035,60.0,2.933333333333333
2026-01-20T23:02:57+00:00,SAT-53493,323.1233847525142,69.04659557788422,637.1032401823895,-6.4342076101545835,225353.16717881916,10.5,10500225353.16718,47.655,-122.3035,60.0,2.95
2026-01-20T23:02:58+00:00,SAT-53493,323.6710466137811,69.39295564734537,630.6861904591954,-6.408309141681064,224446.0932624635,10.5,10500224446.093262,47.655,-122.3035,60.0,2.966666666666667
2026-01-20T23:02:59+00:00,SAT-53493,324.2474296421311,69.74399978554514,624.2949701418921,-6.381597509336564,223510.5389076663,10.5,10500223510.538908,47.655,-122.3035,60.0,2.9833333333333334
2026-01-20T23:03:00+00:00,SAT-53493,324.8547664035862,70.09969651915374,617.9303902259137,-6.354042406775882,222545.44265802298,10.5,10500222545.442657,47.655,-122.3035,60.0,3.0
2026-01-20T23:03:01+00:00,SAT-53493,325.4955120940093,70.45999469553239,611.5932919322227,-6.3256123222076015,221549.7008373033,10.5,10500221549.700838,47.655,-122.3035,60.0,3.0166666666666666
2026-01-20T23:03:02+00:00,SAT-53493,326.1723705927875,70.8248201870844,605.284547909541,-6.2962744695857085,220522.16513949106,10.5,10500220522.16514,47.655,-122.3035,60.0,3.033333333333333
2026-01-20T23:03:03+00:00,SAT-53493,326.88832377068593,71.19407205715076,599.0050635052074,-6.265994775205422,219461.64215931317,10.5,10500219461.642159,47.655,-122.3035,60.0,3.05
2026-01-20T23:03:04+00:00,SAT-53493,327.6466644163268,71.56761809779046,592.7557780494025,-6.234737813740562,218366.8911519979,10.5,10500218366.891151,47.655,-122.3035,60.0,3.066666666666667
2026-01-20T23:03:05+00:00,SAT-53493,328.45103313914274,71.9452896270053,586.5376662031653,-6.202466779365865,217236.62302185595,10.5,10500217236.623022,47.655,-122.3035,60.0,3.0833333333333335
2026-01-20T23:03:06+00:00,SAT-53493,329.3054595973473,72.32687541858324,580.3517393352112,-6.169143388834266,216069.49692763717,10.5,10500216069.496927,47.655,-122.3035,60.0,3.1
2026-01-20T23:03:07+00:00,SAT-53493,330.2144083333618,72.71211460915123,574.1990469954137,-6.134727965306667,214864.1232186035,10.5,10500214864.123219,47.655,-122.3035,60.0,3.1166666666666667
2026-01-20T23:03:08+00:00,SAT-53493,331.1828294296394,73.10068841674476,568.0806783046812,-6.099179241225941,213619.05653034267,10.5,10500213619.05653,47.655,-122.3035,60.0,3.1333333333333333
2026-01-20T23:03:09+00:00,SAT-53493,332.2162139416755,73.49221044909308,561.9977635414318,-6.06245439203052,212332.79696556093,10.5,10500212332.796965,47.655,-122.3035,60.0,3.15
2026-01-20T23:03:10+00:00,SAT-53493,333.32065383456245,73.8862153799128,555.9514756944467,-6.024509073184489,211003.79139103333,10.5,10500211003.791391,47.655,-122.3035,60.0,3.1666666666666665
2026-01-20T23:03:11+00:00,SAT-53493,334.50290564365895,74.28214572693156,549.9430319787907,-5.985297204371339,209630.42587915625,10.5,10500209630.425879,47.655,-122.3035,60.0,3.183333333333333
2026-01-20T23:03:12+00:00,SAT-53493,335.77045629211284,74.67933641987692,543.9736955669645,-5.944771135960845,208211.03153832132,10.5,10500208211.031538,47.655,-122.3035,60.0,3.2
2026-01-20T23:03:13+00:00,SAT-53493,337.1315885480684,75.07699686309556,538.0447771540329,-5.902881450925962,206743.8775752077,10.5,10500206743.877575,47.655,-122.3035,60.0,3.216666666666667
2026-01-20T23:03:14+00:00,SAT-53493,338.59544188645555,75.47419014299837,532.1576367203093,-5.859577067499469,205227.17489025168,10.5,10500205227.17489,47.655,-122.3035,60.0,3.2333333333333334
2026-01-20T23:03:15+00:00,SAT-53493,340.17206244675407,75.86980909029602,526.3136851916564,-5.81480515088947,203659.07298554998,10.5,10500203659.072985,47.655,-122.3035,60.0,3.25
2026-01-20T23:03:16+00:00,SAT-53493,341.87243259529333,76.2625489404584,520.5143861878361,-5.768511119808669,202037.66019354304,10.5,10500202037.660194,47.655,-122.3035,60.0,3.2666666666666666
2026-01-20T23:03:17+00:00,SAT-53493,343.70846653027957,76.65087649086176,514.7612577643469,-5.720638616095546,200360.96261301954,10.5,10500200360.962612,47.655,-122.3035,60.0,3.283333333333333
2026-01-20T23:03:18+00:00,SAT-53493,345.69295295248895,77.03299589582154,509.0558741845609,-5.671129607681522,198626.94771546248,10.5,10500198626.947716,47.655,-122.3035,60.0,3.3
2026-01-20T23:03:19+00:00,SAT-53493,347.8394192334653,77.40681166717293,503.39986758916655,-5.619924251145902,196833.5195311417,10.5,10500196833.519531,47.655,-122.3035,60.0,3.316666666666667
2026-01-20T23:03:20+00:00,SAT-53493,350.16188374437024,77.76989007365223,497.7949298026904,-5.566961060888269,194978.5245742467,10.5,10500194978.524574,47.655,-122.3035,60.0,3.3333333333333335
2026-01-20T23:03:21+00:00,SAT-53493,352.67445553163503,78.11942112005548,492.24281397129783,-5.512176834332309,193059.74922320843,10.5,10500193059.749224,47.655,-122.3035,60.0,3.35
2026-01-20T23:03:22+00:00,SAT-53493,355.39073462078744,78.452184575091,486.7453362751904,-5.455506802648877,191074.9249996583,10.5,10500191074.925,47.655,-122.3035,60.0,3.3666666666666667
2026-01-20T23:03:23+00:00,SAT-53493,358.32296635378134,78.76452524660007,481.3043774906819,-5.396884641305423,189021.72893791393,10.5,10500189021.728937,47.655,-122.3035,60.0,3.3833333333333333
2026-01-20T23:03:24+00:00,SAT-53493,1.480914240917644,79.05234466349914,475.9218845417533,-5.336242569374555,186897.78706318498,10.5,10500186897.787064,47.655,-122.3035,60.0,3.4
2026-01-20T23:03:25+00:00,SAT-53493,4.870445919328494,79.31111828830645,470.5998719525638,-5.273511478283636,184700.6789009288,10.5,10500184700.678902,47.655,-122.3035,60.0,3.4166666666666665
2026-01-20T23:03:26+00:00,SAT-53493,8.491883066184359,79.5359486806749,465.3404231715555,-5.208621073672898,182427.9424453214,10.5,10500182427.942446,47.655,-122.3035,60.0,3.433333333333333
2026-01-20T23:03:27+00:00,SAT-53493,12.338251845148848,79.72166469849131,460.14569175407905,-5.141499978491889,180077.07777013135,10.5,10500180077.07777,47.655,-122.3035,60.0,3.45
2026-01-20T23:03:28+00:00,SAT-53493,16.393677372102452,79.86297364431418,455.0179024421965,-5.07207600707655,177645.55662805826,10.5,10500177645.556627,47.655,-122.3035,60.0,3.466666666666667
2026-01-20T23:03:29+00:00,SAT-53493,20.632266682015054,79.95466623542347,449.95935197113886,-5.000276306808484,175130.8274122396,10.5,10500175130.827412,47.655,-122.3035,60.0,3.4833333333333334
2026-01-20T23:03:30+00:00,SAT-53493,25.017870999483044,79.9918633607904,444.97240973448186,-4.926027658360654,172530.32567212507,10.5,10500172530.325672,47.655,-122.3035,60.0,3.5
2026-01-20T23:03:31+00:00,SAT-53493,29.505054840861334,79.97028066766461,440.0595181498768,-4.849256751147224,169841.4837608952,10.5,10500169841.48376,47.655,-122.3035,60.0,3.5166666666666666
2026-01-20T23:03:32+00:00,SAT-53493,34.04139444438985,79.8864760533279,435.223192750066,-4.769890471118309,167061.7409152509,10.5,10500167061.740915,47.655,-122.3035,60.0,3.533333333333333
2026-01-20T23:03:33+00:00,SAT-53493,38.57091223928205,79.7380411702817,430.46602198687066,-4.6878563661267805,164188.55955452754,10.5,10500164188.559555,47.655,-122.3035,60.0,3.55
2026-01-20T23:03:34+00:00,SAT-53493,43.0381313996647,79.5237046189873,425.7906665710536,-4.603082922526055,161219.43496831926,10.5,10500161219.434969,47.655,-122.3035,60.0,3.566666666666667
2026-01-20T23:03:35+00:00,SAT-53493,47.392041240447256,79.2433310884113,421.1998585363209,-4.515500146201553,158151.91566665866,10.5,10500158151.915667,47.655,-122.3035,60.0,3.5833333333333335
2026-01-20T23:03:36+00:00,SAT-53493,51.58929304612594,78.89782205298742,416.69639972384255,-4.425039931647577,154983.61630665022,10.5,10500154983.616306,47.655,-122.3035,60.0,3.6
2026-01-20T23:03:37+00:00,SAT-53493,55.596181301830995,78.48894229904049,412.28315989867934,-4.331636763135067,151712.24225033107,10.5,10500151712.24225,47.655,-122.3035,60.0,3.6166666666666667
2026-01-20T23:03:38+00:00,SAT-53493,59.389299401752794,78.01910656671674,407.96307416691263,-4.235228170752643,148335.60553715716,10.5,10500148335.605537,47.655,-122.3035,60.0,3.6333333333333333
2026-01-20T23:03:39+00:00,SAT-53493,62.955054324284205,77.49116051676322,403.73913993794866,-4.135755448154196,144851.65002256012,10.5,10500144851.650023,47.655,-122.3035,60.0,3.65
2026-01-20T23:03:40+00:00,SAT-53493,66.2883958330301,76.90818246718149,399.61441317098956,-4.033164335198917,141258.47528688872,10.5,10500141258.475286,47.655,-122.3035,60.0,3.6666666666666665
2026-01-20T23:03:41+00:00,SAT-53493,69.39114786952521,76.27332146197234,395.5920039406845,-3.9274057098518615,137554.36086869318,10.5,10500137554.360868,47.655,-122.3035,60.0,3.683333333333333
2026-01-20T23:03:42+00:00,SAT-53493,72.27026494404164,75.58967703794045,391.6750713127256,-3.8184364160336073,133737.7952595221,10.5,10500133737.79526,47.655,-122.3035,60.0,3.7
2026-01-20T23:03:43+00:00,SAT-53493,74.93623039643154,74.86021866431652,387.8668173938014,-3.7062200267273546,129807.50263116101,10.5,10500129807.50263,47.655,-122.3035,60.0,3.716666666666667
2026-01-20T23:03:44+00:00,SAT-53493,77.40170975244862,74.08773874753157,384.1704806204787,-3.5907277342543065,125762.47401684207,10.5,10500125762.474016,47.655,-122.3035,60.0,3.7333333333333334
2026-01-20T23:03:45+00:00,SAT-53493,79.68049375131945,73.2748315905835,380.58932816018233,-3.4719391537452355,121601.99545221707,10.5,10500121601.995453,47.655,-122.3035,60.0,3.75
2026-01-20T23:03:46+00:00,SAT-53493,81.78671611854439,72.42389097618916,377.12664751084714,-3.349843247831612,117325.68036195204,10.5,10500117325.680363,47.655,-122.3035,60.0,3.7666666666666666
2026-01-20T23:03:47+00:00,SAT-53493,83.73430656769561,71.53712009759025,373.7857371783431,-3.224439163152921,112933.49885775201,10.5,10500112933.498857,47.655,-122.3035,60.0,3.783333333333333
2026-01-20T23:03:48+00:00,SAT-53493,85.53663152014612,70.61654897692027,370.5698965196252,-3.0957371402585916,108425.80960697556,10.5,10500108425.809607,47.655,-122.3035,60.0,3.8
2026-01-20T23:03:49+00:00,SAT-53493,87.20627700634182,69.66405577761104,367.4824146784073,-2.963759333142302,103803.3885361925,10.5,10500103803.388536,47.655,-122.3035,60.0,3.816666666666667
2026-01-20T23:03:50+00:00,SAT-53493,88.75493456501927,68.68138955034574,364.52655870348667,-2.82854059387752,99067.45631243984,10.5,10500099067.456312,47.655,-122.3035,60.0,3.8333333333333335
2026-01-20T23:03:51+00:00,SAT-53493,90.19335880086922,67.67019278206755,361.7055608845262,-2.69012925117315,94219.70561153367,10.5,10500094219.705612,47.655,-122.3035,60.0,3.85
2026-01-20T23:03:52+00:00,SAT-53493,91.53137273069306,66.63202271391017,359.0226053113562,-2.5485877672746517,89262.32412552502,10.5,10500089262.324125,47.655,-122.3035,60.0,3.8666666666666667
2026-01-20T23:03:53+00:00,SAT-53493,92.77790335246645,65.56837085205422,356.4808137781276,-2.403993298284082,84198.01418747786,10.5,10500084198.014187,47.655,-122.3035,60.0,3.8833333333333333
2026-01-20T23:03:54+00:00,SAT-53493,93.9410349659931,64.4806803710987,354.08323112863894,-2.2564381666515057,79030.00932011708,10.5,10500079030.00932,47.655,-122.3035,60.0,3.9
2026-01-20T23:03:55+00:00,SAT-53493,95.02807164320772,63.37036127946079,351.8328101304318,-2.1060302010233314,73762.08613875463,10.5,10500073762.08614,47.655,-122.3035,60.0,3.9166666666666665
2026-01-20T23:03:56+00:00,SAT-53493,96.04560308066718,62.23880333682481,349.7323960099446,-1.9528928830311136,68398.56949245432,10.5,10500068398.569492,47.655,-122.3035,60.0,3.933333333333333
2026-01-20T23:03:57+00:00,SAT-53493,96.99957008856342,61.08738680499424,347.7847108412682,-1.7971653955582612,62944.33415453614,10.5,10500062944.334154,47.655,-122.3035,60.0,3.95
2026-01-20T23:03:58+00:00,SAT-53493,97.89532745277414,59.91749109344204,345.9923378867648,-1.639002429912374,57404.79806893584,10.5,10500057404.798069,47.655,-122.3035,60.0,3.966666666666667
2026-01-20T23:03:59+00:00,SAT-53493,98.73770283242487,58.730501445987535,344.35770612999886,-1.4785738297896605,51785.90988033273,10.5,10500051785.90988,47.655,-122.3035,60.0,3.9833333333333334
2026-01-20T23:04:00+00:00,SAT-53493,99.5310510543461,57.52781378017154,342.8830751637553,-1.3160640439369844,46094.129764059435,10.5,10500046094.129765,47.655,-122.3035,60.0,4.0
2026-01-20T23:04:01+00:00,SAT-53493,100.27930358948144,56.31083779950922,341.57052062393547,-1.1516713480088296,40336.40217224114,10.5,10500040336.402172,47.655,-122.3035,60.0,4.016666666666667
2026-01-20T23:04:02+00:00,SAT-53493,100.98601325229309,55.08099853221137,340.4219203995213,-0.9856068896193668,34520.12238747965,10.5,10500034520.122387,47.655,-122.3035,60.0,4.033333333333333
2026-01-20T23:04:03+00:00,SAT-53493,101.6543943515354,53.83973641252719,339.4389417949409,-0.818093531984299,28653.09602229933,10.5,10500028653.096022,47.655,-122.3035,60.0,4.05
2026-01-20T23:04:04+00:00,SAT-53493,102.28735860056598,52.58850604239311,338.6230298457086,-0.6493645013776767,22743.491647363608,10.5,10500022743.491648,47.655,-122.3035,60.0,4.066666666666666
2026-01-20T23:04:05+00:00,SAT-53493,102.8875471310597,51.328773788914276,337.97539698300125,-0.47966188283041516,16799.788104473795,10.5,10500016799.788105,47.655,-122.3035,60.0,4.083333333333333
2026-01-20T23:04:06+00:00,SAT-53493,103.45735898568765,50.062014338880786,337.49701419852505,-0.30923494726972256,10830.715915915693,10.5,10500010830.715916,47.655,-122.3035,60.0,4.1
2026-01-20T23:04:07+00:00,SAT-53493,103.99897642668014,48.78970640321622,337.18860387778136,-0.1383383872145429,4845.195491051013,10.5,10500004845.195492,47.655,-122.3035,60.0,4.116666666666666
2026-01-20T23:04:08+00:00,SAT-53493,104.51438742845761,47.51332764771511,337.05063439293275,0.03276957634828946,-1147.7291788876134,10.5,10499998852.27082,47.655,-122.3035,60.0,4.133333333333334
2026-01-20T23:04:09+00:00,SAT-53493,105.0054056332218,46.23434908811325,337.0833165837441,0.2038291240893449,-7138.958121948889,10.5,10499992861.041878,47.655,-122.3035,60.0,4.15
2026-01-20T23:04:10+00:00,SAT-53493,105.47368807311463,44.95422906206119,337.28660216350255,0.3745808083852243,-13119.404384899017,10.5,10499986880.595615,47.655,-122.3035,60.0,4.166666666666667
2026-01-20T23:04:11+00:00,SAT-53493,105.92075091910908,43.674406914482155,337.66018408973207,0.5447675099621897,-19080.06256315825,10.5,10499980919.937437,47.655,-122.3035,60.0,4.183333333333334
2026-01-20T23:04:12+00:00,SAT-53493,106.34798346940075,42.39629660410481,338.2034988863344,0.7141363609666063,-25012.07615486233,10.5,10499974987.923845,47.655,-122.3035,60.0,4.2
2026-01-20T23:04:13+00:00,SAT-53493,106.75666060073257,41.12128031161721,338.9157308836717,0.8824405833726418,-30906.801949676592,10.5,10499969093.19805,47.655,-122.3035,60.0,4.216666666666667
