satellites_20260120_184412/SAT-54180.csv

timestamp,satellite,azimuth_deg,elevation_deg,distance_km,relative_velocity_kms,doppler_shift_hz,tx_freq_ghz,rx_freq_hz,ue_lat,ue_lon,ue_alt_m,time_minutes
2026-01-20T23:06:12+00:00,SAT-54180,187.4440170125963,40.07383116484135,918.6013470344737,-5.606957728546348,196379.3770613691,10.5,10500196379.377062,47.655,-122.3035,60.0,6.2
2026-01-20T23:06:13+00:00,SAT-54180,187.107021115964,40.219040070295925,913.0093411932035,-5.587658134364448,195703.42363591646,10.5,10500195703.423635,47.655,-122.3035,60.0,6.216666666666667
2026-01-20T23:06:14+00:00,SAT-54180,186.76483443581756,40.3647961922403,907.4365834805307,-5.56799430473639,195014.713144425,10.5,10500195014.713144,47.655,-122.3035,60.0,6.233333333333333
2026-01-20T23:06:15+00:00,SAT-54180,186.41734914104757,40.51107950475706,901.883437160607,-5.547958539137972,194312.97588196403,10.5,10500194312.975882,47.655,-122.3035,60.0,6.25
2026-01-20T23:06:16+00:00,SAT-54180,186.06445519934866,40.65786854223171,896.3502731775733,-5.527542980237467,193597.93665153979,10.5,10500193597.936651,47.655,-122.3035,60.0,6.266666666666667
2026-01-20T23:06:17+00:00,SAT-54180,185.70604036403992,40.80514033005996,890.8374703119498,-5.506739635678934,192869.31552703973,10.5,10500192869.315527,47.655,-122.3035,60.0,6.283333333333333
2026-01-20T23:06:18+00:00,SAT-54180,185.34199016289915,40.95287031332631,885.3454153152994,-5.485540333596355,192126.82629514893,10.5,10500192126.826296,47.655,-122.3035,60.0,6.3
2026-01-20T23:06:19+00:00,SAT-54180,184.97218789352098,41.1010322815714,879.8745030892593,-5.46393674603506,191370.17727566758,10.5,10500191370.177277,47.655,-122.3035,60.0,6.316666666666666
2026-01-20T23:06:20+00:00,SAT-54180,184.59651462153116,41.249598291480844,874.4251368412137,-5.4419203809729355,190599.0710420601,10.5,10500190599.071041,47.655,-122.3035,60.0,6.333333333333333
2026-01-20T23:06:21+00:00,SAT-54180,184.21484918390536,41.398538586523074,868.9977282479233,-5.419482583916741,189813.20447736478,10.5,10500189813.204477,47.655,-122.3035,60.0,6.35
2026-01-20T23:06:22+00:00,SAT-54180,183.82706819748768,41.547821513879114,863.5926976175637,-5.396614539024135,189012.2688134917,10.5,10500189012.268814,47.655,-122.3035,60.0,6.366666666666666
2026-01-20T23:06:23+00:00,SAT-54180,183.4330460730356,41.69741343848098,858.2104740506436,-5.373307252166612,188195.94903801556,10.5,10500188195.949038,47.655,-122.3035,60.0,6.383333333333334
2026-01-20T23:06:24+00:00,SAT-54180,183.0326550368845,41.8472786537616,852.8514956178161,-5.3495515618863365,187363.92427793008,10.5,10500187363.924278,47.655,-122.3035,60.0,6.4
2026-01-20T23:06:25+00:00,SAT-54180,182.62576515871916,41.9973792897333,847.5162095267615,-5.325338188436186,186515.86951723768,10.5,10500186515.869516,47.655,-122.3035,60.0,6.416666666666667
2026-01-20T23:06:26+00:00,SAT-54180,182.21224438331626,42.14767521975329,842.2050722401611,-5.300657619449982,185651.45159263752,10.5,10500185651.451593,47.655,-122.3035,60.0,6.433333333333334
2026-01-20T23:06:27+00:00,SAT-54180,181.79195857891267,42.298123960942235,836.9185497076963,-5.275500201702852,184770.33240736145,10.5,10500184770.332407,47.655,-122.3035,60.0,6.45
2026-01-20T23:06:28+00:00,SAT-54180,181.36477158806173,42.44868057455333,831.6571175065313,-5.249856128812175,183872.16850040917,10.5,10500183872.1685,47.655,-122.3035,60.0,6.466666666666667
2026-01-20T23:06:29+00:00,SAT-54180,180.93054528895118,42.59929756309761,826.4212609940627,-5.223715431711388,182956.61071290052,10.5,10500182956.610712,47.655,-122.3035,60.0,6.483333333333333
2026-01-20T23:06:30+00:00,SAT-54180,180.48913966819262,42.74992476457507,821.2114754701693,-5.197067949702933,182023.30317422727,10.5,10500182023.303175,47.655,-122.3035,60.0,6.5
2026-01-20T23:06:31+00:00,SAT-54180,180.04041290751306,42.90050924306399,816.0282663683321,-5.169903402299817,181071.8858182486,10.5,10500181071.885818,47.655,-122.3035,60.0,6.516666666666667
2026-01-20T23:06:32+00:00,SAT-54180,179.58422147710056,43.050995179040434,810.8721493751052,-5.1422112911769355,180101.99094921135,10.5,10500180101.99095,47.655,-122.3035,60.0,6.533333333333333
2026-01-20T23:06:33+00:00,SAT-54180,179.12042025066185,43.20132375426036,805.7436506473713,-5.113981046764776,179113.24837608205,10.5,10500179113.248377,47.655,-122.3035,60.0,6.55
2026-01-20T23:06:34+00:00,SAT-54180,178.6488626224423,43.351433038935326,800.6433068833978,-5.085201851649911,178105.27922728483,10.5,10500178105.279228,47.655,-122.3035,60.0,6.566666666666666
2026-01-20T23:06:35+00:00,SAT-54180,178.1694006552174,43.50125787139117,795.571665570019,-5.055862801745719,177077.70159558198,10.5,10500177077.701595,47.655,-122.3035,60.0,6.583333333333333
2026-01-20T23:06:36+00:00,SAT-54180,177.68188523099246,43.65072974093969,790.529285069078,-5.0259528364852155,176030.12809313156,10.5,10500176030.128094,47.655,-122.3035,60.0,6.6
2026-01-20T23:06:37+00:00,SAT-54180,177.1861662255697,43.79977666697796,785.5167347734902,-4.995460724559395,174962.16535198377,10.5,10500174962.165352,47.655,-122.3035,60.0,6.616666666666666
2026-01-20T23:06:38+00:00,SAT-54180,176.6820927039744,43.948323076472164,780.5345952775295,-4.964375158483719,173873.4173361995,10.5,10500173873.417336,47.655,-122.3035,60.0,6.633333333333334
2026-01-20T23:06:39+00:00,SAT-54180,176.16951312704015,44.096289683456746,775.5834584528018,-4.9326845978082465,172763.47985040565,10.5,10500172763.47985,47.655,-122.3035,60.0,6.65
2026-01-20T23:06:40+00:00,SAT-54180,175.64827559537588,44.24359336315545,770.6639276805877,-4.90037751102262,171631.94901233143,10.5,10500171631.949013,47.655,-122.3035,60.0,6.666666666666667
2026-01-20T23:06:41+00:00,SAT-54180,175.11822809199452,44.39014703364822,765.7766178429279,-4.867442147275187,170478.41325744582,10.5,10500170478.413258,47.655,-122.3035,60.0,6.683333333333334
2026-01-20T23:06:42+00:00,SAT-54180,174.57921877252548,44.535859530807485,760.9221555413786,-4.833866678460694,169302.45831547,10.5,10500169302.458315,47.655,-122.3035,60.0,6.7
2026-01-20T23:06:43+00:00,SAT-54180,174.0310962668565,44.68063548877981,756.1011791740605,-4.799639201371837,168103.6672857337,10.5,10500168103.667286,47.655,-122.3035,60.0,6.716666666666667
2026-01-20T23:06:44+00:00,SAT-54180,173.47371000726827,44.82437522213169,751.314339010559,-4.764747668902704,166881.6182276286,10.5,10500166881.618227,47.655,-122.3035,60.0,6.733333333333333
2026-01-20T23:06:45+00:00,SAT-54180,172.90691059284694,44.966974608158296,746.56229733544,-4.7291800304993545,165635.88907978206,10.5,10500165635.88908,47.655,-122.3035,60.0,6.75
2026-01-20T23:06:46+00:00,SAT-54180,172.33055016781873,45.108324976819056,741.8457284516886,-4.6929240924126185,164366.05276551854,10.5,10500164366.052765,47.655,-122.3035,60.0,6.766666666666667
2026-01-20T23:06:47+00:00,SAT-54180,171.74448284700276,45.24831300003124,737.1653188235225,-4.655967660839195,163071.6822062667,10.5,10500163071.682207,47.655,-122.3035,60.0,6.783333333333333
2026-01-20T23:06:48+00:00,SAT-54180,171.14856515699762,45.38682059047542,732.5217670764455,-4.618298459091241,161752.3474204879,10.5,10500161752.34742,47.655,-122.3035,60.0,6.8
2026-01-20T23:06:49+00:00,SAT-54180,170.54265652068716,45.52372480348006,727.9157840799119,-4.5799042324816135,160407.61919720125,10.5,10500160407.619198,47.655,-122.3035,60.0,6.816666666666666
2026-01-20T23:06:50+00:00,SAT-54180,169.92661976327668,45.65889774916343,723.3480929253836,-4.54077265136216,159037.06569997396,10.5,10500159037.0657,47.655,-122.3035,60.0,6.833333333333333
2026-01-20T23:06:51+00:00,SAT-54180,169.30032166621737,45.79220650949188,718.8194290010916,-4.500891475545633,157640.25822567273,10.5,10500157640.258226,47.655,-122.3035,60.0,6.85
2026-01-20T23:06:52+00:00,SAT-54180,168.66363353578984,45.923513069812124,714.3305399028142,-4.460248386668133,156216.76533308718,10.5,10500156216.765333,47.655,-122.3035,60.0,6.866666666666666
2026-01-20T23:06:53+00:00,SAT-54180,168.01643183104818,46.05267425560248,709.8821855118438,-4.418831211485628,154766.16066371853,10.5,10500154766.160664,47.655,-122.3035,60.0,6.883333333333334
2026-01-20T23:06:54+00:00,SAT-54180,167.3585987983583,46.17954168821611,705.4751378502555,-4.376627759835198,153288.01726649702,10.5,10500153288.017267,47.655,-122.3035,60.0,6.9
2026-01-20T23:06:55+00:00,SAT-54180,166.69002316578022,46.30396174893631,701.1101810977799,-4.333625988974501,151781.913353645,10.5,10500151781.913353,47.655,-122.3035,60.0,6.916666666666667
2026-01-20T23:06:56+00:00,SAT-54180,166.0106008510367,46.42577556308596,696.788111444776,-4.289813919899575,150247.42936977267,10.5,10500150247.429369,47.655,-122.3035,60.0,6.933333333333334
2026-01-20T23:06:57+00:00,SAT-54180,165.32023571827588,46.544818998090015,692.5097370286628,-4.245179745672902,148684.1517859848,10.5,10500148684.151787,47.655,-122.3035,60.0,6.95
2026-01-20T23:06:58+00:00,SAT-54180,164.61884035417788,46.660922683116574,688.2758777623116,-4.199711774942277,147091.6711216728,10.5,10500147091.671122,47.655,-122.3035,60.0,6.966666666666667
2026-01-20T23:06:59+00:00,SAT-54180,163.9063368873479,46.77391204690834,684.0873652187692,-4.153398552291821,145469.58615971624,10.5,10500145469.58616,47.655,-122.3035,60.0,6.983333333333333
2026-01-20T23:07:00+00:00,SAT-54180,163.1826578210693,46.88360738100265,679.9450423959502,-4.106228816998037,143817.50250194548,10.5,10500143817.502502,47.655,-122.3035,60.0,7.0
2026-01-20T23:07:01+00:00,SAT-54180,162.447746902928,46.98982392520337,675.8497635224642,-4.058191534019789,142135.0336545417,10.5,10500142135.033655,47.655,-122.3035,60.0,7.016666666666667
2026-01-20T23:07:02+00:00,SAT-54180,161.70156001746903,47.092371979318166,671.802393832535,-4.009275993962333,140421.8045292003,10.5,10500140421.80453,47.655,-122.3035,60.0,7.033333333333333
2026-01-20T23:07:03+00:00,SAT-54180,160.94406608548078,47.19105704494814,667.8038092412232,-3.9594717538998196,138677.44937048454,10.5,10500138677.449371,47.655,-122.3035,60.0,7.05
2026-01-20T23:07:04+00:00,SAT-54180,160.17524799428628,47.285679994526895,663.8548960786673,-3.9087687702702016,136901.6164103672,10.5,10500136901.616411,47.655,-122.3035,60.0,7.066666666666666
2026-01-20T23:07:05+00:00,SAT-54180,159.3951035194203,47.37603727475561,659.9565506917844,-3.85715730430251,135093.96455589402,10.5,10500135093.964556,47.655,-122.3035,60.0,7.083333333333333
2026-01-20T23:07:06+00:00,SAT-54180,158.6036462752517,47.461921139878626,656.1096791402933,-3.8046281332942353,133254.1707890112,10.5,10500133254.17079,47.655,-122.3035,60.0,7.1
2026-01-20T23:07:07+00:00,SAT-54180,157.80090662921324,47.54311992450928,652.3151966820212,-3.7511724169918437,131381.9254866457,10.5,10500131381.925488,47.655,-122.3035,60.0,7.116666666666666
2026-01-20T23:07:08+00:00,SAT-54180,156.9869326407141,47.61941834837612,648.5740273914747,-3.6967818619691175,129476.93817793019,10.5,10500129476.938177,47.655,-122.3035,60.0,7.133333333333334
2026-01-20T23:07:09+00:00,SAT-54180,156.16179095803614,47.690597861977906,644.8871036144708,-3.6414486901747054,127538.93644260526,10.5,10500127538.936443,47.655,-122.3035,60.0,7.15
2026-01-20T23:07:10+00:00,SAT-54180,155.32556770488802,47.75643702923021,641.2553654541366,-3.5851657180610528,125567.66868244916,10.5,10500125567.668682,47.655,-122.3035,60.0,7.166666666666667
2026-01-20T23:07:11+00:00,SAT-54180,154.4783693250834,47.81671195073222,637.6797601779904,-3.5279263988008203,123562.90559987539,10.5,10500123562.9056,47.655,-122.3035,60.0,7.183333333333334
2026-01-20T23:07:12+00:00,SAT-54180,153.62032338348786,47.87119672716135,634.1612415829197,-3.469724836864403,121524.44070849917,10.5,10500121524.440708,47.655,-122.3035,60.0,7.2
2026-01-20T23:07:13+00:00,SAT-54180,152.7515793205648,47.919663962693754,630.7007693456203,-3.410555876416884,119452.09342917253,10.5,10500119452.09343,47.655,-122.3035,60.0,7.216666666666667
2026-01-20T23:07:14+00:00,SAT-54180,151.8723091328516,47.961885309754145,627.2993082848739,-3.3504151130158575,117345.70949969163,10.5,10500117345.7095,47.655,-122.3035,60.0,7.233333333333333
2026-01-20T23:07:15+00:00,SAT-54180,150.98270798724963,47.99763205309344,623.9578276121593,-3.2892989568786875,115205.1631906838,10.5,10500115205.16319,47.655,-122.3035,60.0,7.25
2026-01-20T23:07:16+00:00,SAT-54180,150.08299474624184,48.026675733473475,620.6773001191657,-3.2272046762260325,113030.35882368108,10.5,10500113030.358824,47.655,-122.3035,60.0,7.266666666666667
2026-01-20T23:07:17+00:00,SAT-54180,149.17341239821002,48.048788809114455,617.4587013220763,-3.1641304442936984,110821.2324176742,10.5,10500110821.232418,47.655,-122.3035,60.0,7.283333333333333
2026-01-20T23:07:18+00:00,SAT-54180,148.25422838144783,48.06374535323502,614.3030085589673,-3.10007538477816,108577.75328080695,10.5,10500108577.75328,47.655,-122.3035,60.0,7.3
2026-01-20T23:07:19+00:00,SAT-54180,147.32573479234625,48.07132178548918,611.2112000418819,-3.035039636642202,106299.92628014385,10.5,10500106299.926281,47.655,-122.3035,60.0,7.316666666666666
2026-01-20T23:07:20+00:00,SAT-54180,146.38824846195516,48.07129763450978,608.1842538442708,-2.969024345925595,103987.7915548454,10.5,10500103987.791555,47.655,-122.3035,60.0,7.333333333333333
2026-01-20T23:07:21+00:00,SAT-54180,145.44211091425652,48.06345632801278,605.223146896601,-2.9020318053689462,101641.42940638599,10.5,10500101641.429407,47.655,-122.3035,60.0,7.35
2026-01-20T23:07:22+00:00,SAT-54180,144.48768815275602,48.0475860072026,602.3288538427131,-2.834065396350992,99260.95826495213,10.5,10500099260.958265,47.655,-122.3035,60.0,7.366666666666666
2026-01-20T23:07:23+00:00,SAT-54180,143.52537032920125,48.02348036061688,599.5023459540856,-2.765129710850662,96846.53896107002,10.5,10500096846.538961,47.655,-122.3035,60.0,7.383333333333334
2026-01-20T23:07:24+00:00,SAT-54180,142.55557123249844,47.99093947284124,596.7445899224639,-2.6952305519456523,94398.37474306757,10.5,10500094398.374743,47.655,-122.3035,60.0,7.4
2026-01-20T23:07:25+00:00,SAT-54180,141.5787276318694,47.949770682969046,594.0565466519901,-2.6243749874261715,91916.71315485462,10.5,10500091916.713156,47.655,-122.3035,60.0,7.416666666666667
2026-01-20T23:07:26+00:00,SAT-54180,140.5952984544377,47.899789446808704,591.4391699978637,-2.552571387200433,89401.84734602144,10.5,10500089401.847345,47.655,-122.3035,60.0,7.433333333333334
2026-01-20T23:07:27+00:00,SAT-54180,139.60576380157377,47.840820197178694,588.8934054676957,-2.4798294570649606,86854.11725461781,10.5,10500086854.117254,47.655,-122.3035,60.0,7.45
2026-01-20T23:07:28+00:00,SAT-54180,138.61062380600052,47.77269719554196,586.420188889183,-2.4061602691469584,84273.91067337345,10.5,10500084273.910673,47.655,-122.3035,60.0,7.466666666666667
2026-01-20T23:07:29+00:00,SAT-54180,137.61039733403317,47.69526536889361,584.0204450474205,-2.3315763105596163,81661.66495381272,10.5,10500081661.664953,47.655,-122.3035,60.0,7.483333333333333
2026-01-20T23:07:30+00:00,SAT-54180,136.60562052970195,47.60838112409295,581.6950862736891,-2.2560914712607434,79017.86658101254,10.5,10500079017.866581,47.655,-122.3035,60.0,7.5
2026-01-20T23:07:31+00:00,SAT-54180,135.59684523269834,47.51191313473553,579.4450110463516,-2.1797210956432957,76343.05298052097,10.5,10500076343.05298,47.655,-122.3035,60.0,7.516666666666667
2026-01-20T23:07:32+00:00,SAT-54180,134.58463725285736,47.40574309181986,577.2711025402967,-2.102482006036732,73637.81334147403,10.5,10500073637.813341,47.655,-122.3035,60.0,7.533333333333333
2026-01-20T23:07:33+00:00,SAT-54180,133.56957452189963,47.289766411939034,575.1742271529428,-2.0243925025432405,70902.78861085966,10.5,10500070902.78861,47.655,-122.3035,60.0,7.55
2026-01-20T23:07:34+00:00,SAT-54180,132.55224514510377,47.16389289695288,573.1552330304063,-1.9454723467113006,68138.67092169696,10.5,10500068138.670921,47.655,-122.3035,60.0,7.566666666666666
2026-01-20T23:07:35+00:00,SAT-54180,131.53324537675002,47.028047340627246,571.2149486099529,-1.8657428317594658,65346.20605256985,10.5,10500065346.206053,47.655,-122.3035,60.0,7.583333333333333
2026-01-20T23:07:36+00:00,SAT-54180,130.51317748978568,46.88217007087033,569.3541810924114,-1.7852267209414956,62526.191268913455,10.5,10500062526.191269,47.655,-122.3035,60.0,7.6
2026-01-20T23:07:37+00:00,SAT-54180,129.49264762088137,46.72621742909244,567.5737149760591,-1.703948261762919,59679.475820938256,10.5,10500059679.47582,47.655,-122.3035,60.0,7.616666666666666
2026-01-20T23:07:38+00:00,SAT-54180,128.47226357080987,46.56016217792128,565.8743105763276,-1.6219331837566802,56806.960865723784,10.5,10500056806.960865,47.655,-122.3035,60.0,7.633333333333334
2026-01-20T23:07:39+00:00,SAT-54180,127.45263258347396,46.383993833061254,564.2567025477276,-1.539208665255289,53909.598303438754,10.5,10500053909.598303,47.655,-122.3035,60.0,7.65
2026-01-20T23:07:40+00:00,SAT-54180,126.43435913823437,46.19771891778468,562.721598438913,-1.4558033111418456,50988.38999808787,10.5,10500050988.389997,47.655,-122.3035,60.0,7.666666666666667
2026-01-20T23:07:41+00:00,SAT-54180,125.41804276689169,46.0013611366708,561.2696772699342,-1.371747134567407,48044.387137176665,10.5,10500048044.387136,47.655,-122.3035,60.0,7.683333333333334
2026-01-20T23:07:42+00:00,SAT-54180,124.40427590706015,45.794961464840995,559.9015881277256,-1.2870715016466407,45078.6882947193,10.5,10500045078.688295,47.655,-122.3035,60.0,7.7
2026-01-20T23:07:43+00:00,SAT-54180,123.39364183191482,45.57857815564599,558.6179488167501,-1.2018091064385443,42092.43855495763,10.5,10500042092.438555,47.655,-122.3035,60.0,7.716666666666667
2026-01-20T23:07:44+00:00,SAT-54180,122.3867126488412,45.352286661708746,557.4193445345953,-1.1159939093881366,39086.827356328744,10.5,10500039086.827356,47.655,-122.3035,60.0,7.733333333333333
2026-01-20T23:07:45+00:00,SAT-54180,121.38404740509392,45.11617947429251,556.3063266089655,-1.0296610875423282,36063.08674781421,10.5,10500036063.086748,47.655,-122.3035,60.0,7.75
2026-01-20T23:07:46+00:00,SAT-54180,120.38619030247425,44.87036587962089,555.2794112843233,-0.9428469735133653,33022.48925118168,10.5,10500033022.489252,47.655,-122.3035,60.0,7.766666666666667
2026-01-20T23:07:47+00:00,SAT-54180,119.39366903772192,44.61497163522048,554.3390785694061,-0.8555889833679031,29966.345335355243,10.5,10500029966.345335,47.655,-122.3035,60.0,7.783333333333333
2026-01-20T23:07:48+00:00,SAT-54180,118.40699328557471,44.35013857043631,553.4857711566603,-0.7679255574546019,26896.001343947482,10.5,10500026896.001345,47.655,-122.3035,60.0,7.8
2026-01-20T23:07:49+00:00,SAT-54180,117.42665331387227,44.076024110146236,552.7198934006924,-0.679896062034821,23812.836049950332,10.5,10500023812.83605,47.655,-122.3035,60.0,7.816666666666666
2026-01-20T23:07:50+00:00,SAT-54180,116.45311877496364,43.792800734733035,552.041810394823,-0.5915407299780105,20718.258578636793,10.5,10500020718.25858,47.655,-122.3035,60.0,7.833333333333333
2026-01-20T23:07:51+00:00,SAT-54180,115.48683762730607,43.500655368576304,551.4518471067915,-0.5029005494707929,17613.704509682244,10.5,10500017613.70451,47.655,-122.3035,60.0,7.85
2026-01-20T23:07:52+00:00,SAT-54180,114.52823525062935,43.19978871794461,550.9502876254527,-0.414017198300145,14500.633575483484,10.5,10500014500.633575,47.655,-122.3035,60.0,7.866666666666666
2026-01-20T23:07:53+00:00,SAT-54180,113.57771368297944,42.89041454412302,550.5373744730148,-0.32493292321022016,11380.525435724308,10.5,10500011380.525436,47.655,-122.3035,60.0,7.883333333333334
2026-01-20T23:07:54+00:00,SAT-54180,112.63565106166106,42.57275890141966,550.2133080375996,-0.2356904618300086,8254.876942951949,10.5,10500008254.876944,47.655,-122.3035,60.0,7.9
2026-01-20T23:07:55+00:00,SAT-54180,111.70240118397574,42.24705932252802,549.9782460836678,-0.14633293000787528,5125.198196556001,10.5,10500005125.198196,47.655,-122.3035,60.0,7.916666666666667
2026-01-20T23:07:56+00:00,SAT-54180,110.77829324239649,41.91356397505963,549.8323033748068,-0.05690372203124872,1993.0090480398662,10.5,10500001993.009048,47.655,-122.3035,60.0,7.933333333333334
2026-01-20T23:07:57+00:00,SAT-54180,109.86363170416074,41.572530788929654,549.7755513960342,0.03255359251334148,-1140.1645113770192,10.5,10499998859.83549,47.655,-122.3035,60.0,7.95
2026-01-20T23:07:58+00:00,SAT-54180,108.95869631892666,41.22422655733986,549.8080181789675,0.12199537680735371,-4272.794135725769,10.5,10499995727.205864,47.655,-122.3035,60.0,7.966666666666667
2026-01-20T23:07:59+00:00,SAT-54180,108.063742269149,40.86892602565444,549.9296882347701,0.2113780323097711,-7403.352819678328,10.5,10499992596.64718,47.655,-122.3035,60.0,7.983333333333333
2026-01-20T23:08:00+00:00,SAT-54180,107.17900043307037,40.50691096711737,550.1405025923269,0.3006581038786761,-10530.318580349673,10.5,10499989469.68142,47.655,-122.3035,60.0,8.0
2026-01-20T23:08:01+00:00,SAT-54180,106.30467776777688,40.13846925767319,550.440358941262,0.38979238535384364,-13652.17815524685,10.5,10499986347.821844,47.655,-122.3035,60.0,8.016666666666667
