satellites_20260120_184412/SAT-59767.csv

timestamp,satellite,azimuth_deg,elevation_deg,distance_km,relative_velocity_kms,doppler_shift_hz,tx_freq_ghz,rx_freq_hz,ue_lat,ue_lon,ue_alt_m,time_minutes
2026-01-20T23:02:10+00:00,SAT-59767,213.76737917795077,40.087250676235655,1199.4994753069402,-5.230458215404079,183192.7715197653,10.5,10500183192.77152,47.655,-122.3035,60.0,2.1666666666666665
2026-01-20T23:02:11+00:00,SAT-59767,213.8397646690484,40.326771360993064,1194.2829649801108,-5.212298430139999,182556.7390240017,10.5,10500182556.739023,47.655,-122.3035,60.0,2.183333333333333
2026-01-20T23:02:12+00:00,SAT-59767,213.91362869989928,40.56808128304283,1189.084566012451,-5.193893434732277,181912.11823176988,10.5,10500181912.11823,47.655,-122.3035,60.0,2.2
2026-01-20T23:02:13+00:00,SAT-59767,213.9890065116407,40.81119511105355,1183.9045229602114,-5.1752398405732585,181258.790459696,10.5,10500181258.79046,47.655,-122.3035,60.0,2.216666666666667
2026-01-20T23:02:14+00:00,SAT-59767,214.06593445807778,41.05612746216096,1178.743083759213,-5.156334182406096,180596.6343398272,10.5,10500180596.63434,47.655,-122.3035,60.0,2.2333333333333334
2026-01-20T23:02:15+00:00,SAT-59767,214.144450048561,41.3028928895116,1173.6004998012932,-5.137172981967324,179925.52804866392,10.5,10500179925.52805,47.655,-122.3035,60.0,2.25
2026-01-20T23:02:16+00:00,SAT-59767,214.22459199383644,41.551505872185466,1168.477025947278,-5.117752738354831,179245.3489698054,10.5,10500179245.34897,47.655,-122.3035,60.0,2.2666666666666666
2026-01-20T23:02:17+00:00,SAT-59767,214.30640025390244,41.80198080413467,1163.3729205495588,-5.098069889986841,178555.97236159234,10.5,10500178555.972363,47.655,-122.3035,60.0,2.283333333333333
2026-01-20T23:02:18+00:00,SAT-59767,214.38991608748395,42.054331980651725,1158.2884455126118,-5.078120831617625,177857.27195306914,10.5,10500177857.271954,47.655,-122.3035,60.0,2.3
2026-01-20T23:02:19+00:00,SAT-59767,214.4751821040854,42.308573584964925,1153.2238663365451,-5.057901956095626,177149.1214065301,10.5,10500177149.121407,47.655,-122.3035,60.0,2.316666666666667
2026-01-20T23:02:20+00:00,SAT-59767,214.5622423192647,42.564719676221195,1148.179452118999,-5.037409613658113,176431.3928918458,10.5,10500176431.39289,47.655,-122.3035,60.0,2.3333333333333335
2026-01-20T23:02:21+00:00,SAT-59767,214.65114221182995,42.8227841747921,1143.155475597644,-5.016640126897991,175703.95761066448,10.5,10500175703.957611,47.655,-122.3035,60.0,2.35
2026-01-20T23:02:22+00:00,SAT-59767,214.74192878408473,43.08278084756796,1138.1522131777513,-4.995589744114317,174966.6841625493,10.5,10500174966.684162,47.655,-122.3035,60.0,2.3666666666666667
2026-01-20T23:02:23+00:00,SAT-59767,214.83465062406734,43.34472329004091,1133.169945006288,-4.97425474367776,174219.44220029874,10.5,10500174219.4422,47.655,-122.3035,60.0,2.3833333333333333
2026-01-20T23:02:24+00:00,SAT-59767,214.92935797282234,43.608624912952656,1128.2089549419265,-4.952631356108581,173462.09970078734,10.5,10500173462.0997,47.655,-122.3035,60.0,2.4
2026-01-20T23:02:25+00:00,SAT-59767,215.02610279350702,43.874498924125724,1123.2695306027676,-4.930715742036012,172694.52219301037,10.5,10500172694.522194,47.655,-122.3035,60.0,2.4166666666666665
2026-01-20T23:02:26+00:00,SAT-59767,215.124938843416,44.14235830812228,1118.3519634360437,-4.9085041142072345,171916.577031354,10.5,10500171916.577032,47.655,-122.3035,60.0,2.433333333333333
2026-01-20T23:02:27+00:00,SAT-59767,215.22592175208885,44.41221581152625,1113.456548666141,-4.885992571291742,171128.12757472135,10.5,10500171128.127575,47.655,-122.3035,60.0,2.45
2026-01-20T23:02:28+00:00,SAT-59767,215.3291090998839,44.684083918282255,1108.5835854083725,-4.8631772493276735,170329.03849082344,10.5,10500170329.03849,47.655,-122.3035,60.0,2.466666666666667
2026-01-20T23:02:29+00:00,SAT-59767,215.4345605036841,44.957974832204464,1103.73337663171,-4.840054236651782,169519.17277666708,10.5,10500169519.172777,47.655,-122.3035,60.0,2.4833333333333334
2026-01-20T23:02:30+00:00,SAT-59767,215.54233770515745,45.23390045378352,1098.9062292063556,-4.816619602105385,168698.39274644642,10.5,10500168698.392746,47.655,-122.3035,60.0,2.5
2026-01-20T23:02:31+00:00,SAT-59767,215.65250466410853,45.51187235740776,1094.1024539231894,-4.792869395055964,167866.5600322995,10.5,10500167866.560032,47.655,-122.3035,60.0,2.5166666666666666
2026-01-20T23:02:32+00:00,SAT-59767,215.7651276566538,45.79190176739027,1089.322365513187,-4.768799653418902,167023.5358652634,10.5,10500167023.535866,47.655,-122.3035,60.0,2.533333333333333
2026-01-20T23:02:33+00:00,SAT-59767,215.88027537865364,46.073999533243196,1084.5662826588439,-4.744406361626055,166169.1796031559,10.5,10500166169.179604,47.655,-122.3035,60.0,2.55
2026-01-20T23:02:34+00:00,SAT-59767,215.99801905348525,46.35817610114518,1079.8345280475153,-4.719685549019647,165303.35217674586,10.5,10500165303.352177,47.655,-122.3035,60.0,2.566666666666667
2026-01-20T23:02:35+00:00,SAT-59767,216.11843254795448,46.64444148986459,1075.1274283266266,-4.6946331957103995,164425.9127925066,10.5,10500164425.912792,47.655,-122.3035,60.0,2.5833333333333335
2026-01-20T23:02:36+00:00,SAT-59767,216.24159249193767,46.93280525971353,1070.4453141527713,-4.66924525301152,163536.71964830073,10.5,10500163536.719648,47.655,-122.3035,60.0,2.6
2026-01-20T23:02:37+00:00,SAT-59767,216.3675784048401,47.22327648111154,1065.7885202204345,-4.64351770067226,162635.6319379413,10.5,10500162635.631937,47.655,-122.3035,60.0,2.6166666666666667
2026-01-20T23:02:38+00:00,SAT-59767,216.4964728304087,47.51586370508719,1061.1573852336307,-4.617446489816515,161722.50785266052,10.5,10500161722.507853,47.655,-122.3035,60.0,2.6333333333333333
2026-01-20T23:02:39+00:00,SAT-59767,216.62836147721868,47.81057492865477,1056.5522519344536,-4.591027572455406,160797.20561476485,10.5,10500160797.205614,47.655,-122.3035,60.0,2.65
2026-01-20T23:02:40+00:00,SAT-59767,216.76333336760942,48.10741756023957,1051.9734671021913,-4.56425690079496,159859.5834533872,10.5,10500159859.583454,47.655,-122.3035,60.0,2.6666666666666665
2026-01-20T23:02:41+00:00,SAT-59767,216.90148099472628,48.406398383259855,1047.421381553132,-4.537130409899328,158909.49899727947,10.5,10500158909.498997,47.655,-122.3035,60.0,2.683333333333333
2026-01-20T23:02:42+00:00,SAT-59767,217.04290048762275,48.70752351662338,1042.896350157659,-4.50964407941548,157946.81143667246,10.5,10500157946.811438,47.655,-122.3035,60.0,2.7
2026-01-20T23:02:43+00:00,SAT-59767,217.1876917874787,49.010798377276316,1038.3987317957888,-4.481793845151603,156971.3784263773,10.5,10500156971.378426,47.655,-122.3035,60.0,2.716666666666667
2026-01-20T23:02:44+00:00,SAT-59767,217.33595883073053,49.3162276347829,1033.9288894008907,-4.4535756839528515,155983.05905849353,10.5,10500155983.05906,47.655,-122.3035,60.0,2.7333333333333334
2026-01-20T23:02:45+00:00,SAT-59767,217.48780974525093,49.62381516926627,1029.487189918762,-4.424985568991219,154981.7122964708,10.5,10500154981.712296,47.655,-122.3035,60.0,2.75
2026-01-20T23:02:46+00:00,SAT-59767,217.64335705605544,49.93356402402084,1025.0740043112878,-4.396019516120651,153967.19859866134,10.5,10500153967.198599,47.655,-122.3035,60.0,2.7666666666666666
2026-01-20T23:02:47+00:00,SAT-59767,217.8027179043557,50.24547635883581,1020.689707513877,-4.366673529870683,152939.3780267887,10.5,10500152939.378027,47.655,-122.3035,60.0,2.783333333333333
2026-01-20T23:02:48+00:00,SAT-59767,217.96601427711033,50.55955339694647,1016.3346784467526,-4.336943638523012,151898.11147447754,10.5,10500151898.111475,47.655,-122.3035,60.0,2.8
2026-01-20T23:02:49+00:00,SAT-59767,218.1333732510049,50.87579537160055,1012.0092999912656,-4.306825933141753,150843.2620342584,10.5,10500150843.262033,47.655,-122.3035,60.0,2.816666666666667
2026-01-20T23:02:50+00:00,SAT-59767,218.30492725211042,51.19420147260288,1007.7139589272789,-4.276316488035145,149774.69221180014,10.5,10500149774.692211,47.655,-122.3035,60.0,2.8333333333333335
2026-01-20T23:02:51+00:00,SAT-59767,218.48081432743064,51.51476978399573,1003.4490459498785,-4.245411437623787,148692.26661816073,10.5,10500148692.266619,47.655,-122.3035,60.0,2.85
2026-01-20T23:02:52+00:00,SAT-59767,218.66117843539226,51.83749722405669,999.2149556094217,-4.214106959053167,147595.85136080458,10.5,10500147595.85136,47.655,-122.3035,60.0,2.8666666666666667
2026-01-20T23:02:53+00:00,SAT-59767,218.84616975277478,52.162379480650976,995.012086268926,-4.182399268461562,146485.31391288835,10.5,10500146485.313913,47.655,-122.3035,60.0,2.8833333333333333
2026-01-20T23:02:54+00:00,SAT-59767,219.03594499957427,52.48941094267049,990.8408400651805,-4.150284605380977,145360.52256691613,10.5,10500145360.522568,47.655,-122.3035,60.0,2.9
2026-01-20T23:02:55+00:00,SAT-59767,219.2306677824013,52.81858462632821,986.7016228854138,-4.11775930411739,144221.3489347774,10.5,10500144221.348934,47.655,-122.3035,60.0,2.9166666666666665
2026-01-20T23:02:56+00:00,SAT-59767,219.43050896174142,53.149892102970085,982.594844272774,-4.084819728180609,143067.66565120325,10.5,10500143067.665651,47.655,-122.3035,60.0,2.933333333333333
2026-01-20T23:02:57+00:00,SAT-59767,219.6356470381513,53.48332341744328,978.5209173972019,-4.051462310097826,141899.34776820563,10.5,10500141899.347769,47.655,-122.3035,60.0,2.95
2026-01-20T23:02:58+00:00,SAT-59767,219.8462685636456,53.8188670049853,974.4802589865976,-4.017683553712178,140716.27283558238,10.5,10500140716.272835,47.655,-122.3035,60.0,2.966666666666667
2026-01-20T23:02:59+00:00,SAT-59767,220.06256857815796,54.15650960345077,970.4732892556954,-3.983480028287645,139518.32069444613,10.5,10500139518.320694,47.655,-122.3035,60.0,2.9833333333333334
2026-01-20T23:03:00+00:00,SAT-59767,220.28475107220044,54.4962361598653,966.5004318408165,-3.9488483721313825,138305.37360409353,10.5,10500138305.373604,47.655,-122.3035,60.0,3.0
2026-01-20T23:03:01+00:00,SAT-59767,220.51302947792675,54.838029731700914,962.5621137310109,-3.9137853504328244,137077.3182677753,10.5,10500137077.318268,47.655,-122.3035,60.0,3.0166666666666666
2026-01-20T23:03:02+00:00,SAT-59767,220.74762719371023,55.181871387306,958.6587651415125,-3.8782877647801053,135834.0426635786,10.5,10500135834.042664,47.655,-122.3035,60.0,3.033333333333333
2026-01-20T23:03:03+00:00,SAT-59767,220.9887781355827,55.52774009228001,954.7908194774385,-3.842352539080324,134575.4390537183,10.5,10500134575.439054,47.655,-122.3035,60.0,3.05
2026-01-20T23:03:04+00:00,SAT-59767,221.23672732778056,55.87561259655859,950.9587132117956,-3.805976705534085,133301.4034933057,10.5,10500133301.403494,47.655,-122.3035,60.0,3.066666666666667
2026-01-20T23:03:05+00:00,SAT-59767,221.49173152907514,56.225463313282944,947.1628857774764,-3.769157377939218,132011.8348953321,10.5,10500132011.834896,47.655,-122.3035,60.0,3.0833333333333335
2026-01-20T23:03:06+00:00,SAT-59767,221.75405989595168,56.57726418759219,943.4037794858783,-3.7318918237247005,130706.63755360167,10.5,10500130706.637554,47.655,-122.3035,60.0,3.1
2026-01-20T23:03:07+00:00,SAT-59767,222.0239946919035,56.93098456391961,939.6818393736836,-3.694177391880145,129385.71861851682,10.5,10500129385.718618,47.655,-122.3035,60.0,3.1166666666666667
2026-01-20T23:03:08+00:00,SAT-59767,222.3018320355275,57.286591037932766,935.997513121515,-3.656011572316756,128048.99017615026,10.5,10500128048.990175,47.655,-122.3035,60.0,3.1333333333333333
2026-01-20T23:03:09+00:00,SAT-59767,222.58788269918762,57.64404730464345,932.3512509133911,-3.6173920013422523,126696.36943999988,10.5,10500126696.36944,47.655,-122.3035,60.0,3.15
2026-01-20T23:03:10+00:00,SAT-59767,222.88247295764373,58.00331399719166,928.7435052907191,-3.578316440976199,125327.77802652425,10.5,10500125327.778027,47.655,-122.3035,60.0,3.1666666666666665
2026-01-20T23:03:11+00:00,SAT-59767,223.18594548739418,58.364348512930306,925.1747310269188,-3.5387828132018564,123943.14315478707,10.5,10500123943.143154,47.655,-122.3035,60.0,3.183333333333333
2026-01-20T23:03:12+00:00,SAT-59767,223.49866032410992,58.72710483141553,921.6453849678855,-3.4987891861811016,122542.3971636457,10.5,10500122542.397163,47.655,-122.3035,60.0,3.2
2026-01-20T23:03:13+00:00,SAT-59767,223.82099587751486,59.09153331872619,918.155925886201,-3.4583337990385297,121125.47837979488,10.5,10500121125.47838,47.655,-122.3035,60.0,3.216666666666667
2026-01-20T23:03:14+00:00,SAT-59767,224.15335001018136,59.457580521096915,914.7068143106264,-3.417415040052595,119692.33035392856,10.5,10500119692.330355,47.655,-122.3035,60.0,3.2333333333333334
2026-01-20T23:03:15+00:00,SAT-59767,224.49614117924617,59.825188942039574,911.2985123773475,-3.3760314946100896,118242.90354030834,10.5,10500118242.90354,47.655,-122.3035,60.0,3.25
2026-01-20T23:03:16+00:00,SAT-59767,224.84980965097225,60.19429680922293,907.9314836333896,-3.3341819408571784,116777.15514444454,10.5,10500116777.155144,47.655,-122.3035,60.0,3.2666666666666666
2026-01-20T23:03:17+00:00,SAT-59767,225.21481878678026,60.564837824626245,904.6061928443747,-3.2918653222207173,115295.04816067632,10.5,10500115295.04816,47.655,-122.3035,60.0,3.283333333333333
2026-01-20T23:03:18+00:00,SAT-59767,225.5916564008135,60.936740893940396,901.3231058296799,-3.2490807792547036,113796.5524875692,10.5,10500113796.552488,47.655,-122.3035,60.0,3.3
2026-01-20T23:03:19+00:00,SAT-59767,225.98083619809856,61.30992984031255,898.0826892658366,-3.2058276974077224,112281.64660093312,10.5,10500112281.6466,47.655,-122.3035,60.0,3.316666666666667
2026-01-20T23:03:20+00:00,SAT-59767,226.38289929878144,61.68432310317167,894.8854104422886,-3.1621056346956533,110750.31502061457,10.5,10500110750.315022,47.655,-122.3035,60.0,3.3333333333333335
2026-01-20T23:03:21+00:00,SAT-59767,226.79841583616144,62.059833406768995,891.7317370892855,-3.117914399923424,109202.55105015333,10.5,10500109202.55105,47.655,-122.3035,60.0,3.35
2026-01-20T23:03:22+00:00,SAT-59767,227.2279866481966,62.436367414004096,888.6221371277618,-3.073253998914089,107638.35489349748,10.5,10500107638.354893,47.655,-122.3035,60.0,3.3666666666666667
2026-01-20T23:03:23+00:00,SAT-59767,227.6722450468732,62.813825348402155,885.5570784728448,-3.0281247102112148,106057.73630642088,10.5,10500106057.736307,47.655,-122.3035,60.0,3.3833333333333333
2026-01-20T23:03:24+00:00,SAT-59767,228.13185868268442,63.1921005977732,882.5370287618609,-2.9825270268845387,104460.71255831144,10.5,10500104460.712559,47.655,-122.3035,60.0,3.4
2026-01-20T23:03:25+00:00,SAT-59767,228.6075314843302,63.57107928137573,879.5624551403813,-2.936461702797788,102847.31005266575,10.5,10500102847.310053,47.655,-122.3035,60.0,3.4166666666666665
2026-01-20T23:03:26+00:00,SAT-59767,229.1000056852495,63.9506397910944,876.6338240021244,-2.889929756880776,101217.56447671591,10.5,10500101217.564476,47.655,-122.3035,60.0,3.433333333333333
2026-01-20T23:03:27+00:00,SAT-59767,229.6100639264895,64.33065229939237,873.7516007245953,-2.842932457222124,99571.52024428947,10.5,10500099571.520245,47.655,-122.3035,60.0,3.45
2026-01-20T23:03:28+00:00,SAT-59767,230.13853142438194,64.71097822893371,870.9162494205924,-2.7954713557500495,97909.23171047725,10.5,10500097909.23171,47.655,-122.3035,60.0,3.466666666666667
2026-01-20T23:03:29+00:00,SAT-59767,230.68627820109003,65.09146968801632,868.1282326551244,-2.74754826992032,96230.76253026805,10.5,10500096230.76253,47.655,-122.3035,60.0,3.4833333333333334
2026-01-20T23:03:30+00:00,SAT-59767,231.2542213540144,65.47196886236044,865.3880111805905,-2.699165313660356,94536.18674234208,10.5,10500094536.186743,47.655,-122.3035,60.0,3.5
2026-01-20T23:03:31+00:00,SAT-59767,231.84332735412517,65.85230736732932,862.6960436410998,-2.650324890512205,92825.58852890873,10.5,10500092825.58853,47.655,-122.3035,60.0,3.5166666666666666
2026-01-20T23:03:32+00:00,SAT-59767,232.45461434109808,66.23230555302231,860.052786283629,-2.6010296917419606,91099.06214949072,10.5,10500091099.06215,47.655,-122.3035,60.0,3.533333333333333
2026-01-20T23:03:33+00:00,SAT-59767,233.0891543836345,66.61177176033412,857.4586926710651,-2.551282710199808,89356.71242636123,10.5,10500089356.712427,47.655,-122.3035,60.0,3.55
2026-01-20T23:03:34+00:00,SAT-59767,233.74807566809122,66.99050152794965,854.9142133814258,-2.5010872558023003,87598.65528679895,10.5,10500087598.655287,47.655,-122.3035,60.0,3.566666666666667
2026-01-20T23:03:35+00:00,SAT-59767,234.4325645665156,67.36827674869102,852.4197956916389,-2.450446947658769,85825.01748732144,10.5,10500085825.017487,47.655,-122.3035,60.0,3.5833333333333335
2026-01-20T23:03:36+00:00,SAT-59767,235.1438675162517,67.74486477020199,849.9758832691739,-2.3993657265135577,84035.93704946492,10.5,10500084035.93705,47.655,-122.3035,60.0,3.6
2026-01-20T23:03:37+00:00,SAT-59767,235.88329264045353,68.12001744197107,847.5829158512644,-2.3478478236344573,82231.5621701257,10.5,10500082231.56217,47.655,-122.3035,60.0,3.6166666666666667
2026-01-20T23:03:38+00:00,SAT-59767,236.65221100339176,68.493470101595,845.2413289551596,-2.2958978472931624,80412.05425047151,10.5,10500080412.05425,47.655,-122.3035,60.0,3.6333333333333333
2026-01-20T23:03:39+00:00,SAT-59767,237.45205742703874,68.86494051974282,842.9515535021259,-2.243520699241515,78577.58497058625,10.5,10500078577.58497,47.655,-122.3035,60.0,3.65
2026-01-20T23:03:40+00:00,SAT-59767,238.28433068264354,69.23412777930724,840.714015524749,-2.1907216109103427,76728.3375573064,10.5,10500076728.337557,47.655,-122.3035,60.0,3.6666666666666665
2026-01-20T23:03:41+00:00,SAT-59767,239.15059293528662,69.60071111134582,838.5291358381345,-2.137506174584171,74864.50787609137,10.5,10500074864.507875,47.655,-122.3035,60.0,3.683333333333333
2026-01-20T23:03:42+00:00,SAT-59767,240.05246825807956,69.96434869379529,836.3973296800159,-2.083880300350557,72986.30292320713,10.5,10500072986.302923,47.655,-122.3035,60.0,3.7
2026-01-20T23:03:43+00:00,SAT-59767,240.99163996984836,70.3246764095807,834.3190063937996,-2.0298502403899517,71093.9416764597,10.5,10500071093.941677,47.655,-122.3035,60.0,3.716666666666667
2026-01-20T23:03:44+00:00,SAT-59767,241.96984656979345,70.6813065876466,832.294569087384,-1.9754225767138764,69187.65466573446,10.5,10500069187.654665,47.655,-122.3035,60.0,3.7333333333333334
2026-01-20T23:03:45+00:00,SAT-59767,242.9888759665253,71.03382673740761,830.3244143042081,-1.92060425526609,67267.68516736316,10.5,10500067267.685167,47.655,-122.3035,60.0,3.75
2026-01-20T23:03:46+00:00,SAT-59767,244.05055769976832,71.38179830655737,828.4089316602893,-1.8654025476753673,65334.287864544465,10.5,10500065334.287865,47.655,-122.3035,60.0,3.7666666666666666
2026-01-20T23:03:47+00:00,SAT-59767,245.15675275701938,71.72475547706367,826.5485035194077,-1.8098250545317367,63387.72896209161,10.5,10500063387.728962,47.655,-122.3035,60.0,3.783333333333333
2026-01-20T23:03:48+00:00,SAT-59767,246.30934060597644,72.0622040411212,824.7435046650214,-1.7538797323615145,61428.287131212295,10.5,10500061428.28713,47.655,-122.3035,60.0,3.8
2026-01-20T23:03:49+00:00,SAT-59767,247.51020303584556,72.39362040433271,822.9943019452796,-1.6975748689571764,59456.25264545632,10.5,10500059456.252645,47.655,-122.3035,60.0,3.816666666666667
2026-01-20T23:03:50+00:00,SAT-59767,248.76120433590182,72.71845075834517,821.3012539426396,-1.6409190818553634,57471.92732740901,10.5,10500057471.927328,47.655,-122.3035,60.0,3.8333333333333335
2026-01-20T23:03:51+00:00,SAT-59767,250.0641673804862,73.03611048872723,819.6647106450025,-1.5839213287956653,55475.62491500198,10.5,10500055475.624914,47.655,-122.3035,60.0,3.85
2026-01-20T23:03:52+00:00,SAT-59767,251.42084521177514,73.34598389276212,818.085013106417,-1.5265908745726202,53467.669900530025,10.5,10500053467.6699,47.655,-122.3035,60.0,3.8666666666666667
2026-01-20T23:03:53+00:00,SAT-59767,252.83288772050696,73.64742428183784,816.5624931408432,-1.4689373344464514,51448.39905107866,10.5,10500051448.399052,47.655,-122.3035,60.0,3.8833333333333333
2026-01-20T23:03:54+00:00,SAT-59767,254.3018032237723,73.93975457722081,815.0974729726219,-1.4109706175560974,49418.159426609134,10.5,10500049418.159426,47.655,-122.3035,60.0,3.9
2026-01-20T23:03:55+00:00,SAT-59767,255.82891473628868,74.22226848270738,813.6902649433794,-1.3527009552839764,47377.30937341243,10.5,10500047377.309374,47.655,-122.3035,60.0,3.9166666666666665
2026-01-20T23:03:56+00:00,SAT-59767,257.41531110736474,74.4942323612075,812.3411711906427,-1.2941388851750193,45326.217960885806,10.5,10500045326.21796,47.655,-122.3035,60.0,3.933333333333333
2026-01-20T23:03:57+00:00,SAT-59767,259.0617933671255,74.75488792020994,811.0504833424949,-1.2352952392561327,43265.26457243095,10.5,10500043265.264572,47.655,-122.3035,60.0,3.95
2026-01-20T23:03:58+00:00,SAT-59767,260.76881702523525,75.00345581863198,809.8184822238768,-1.1761811430215339,41194.83886991615,10.5,10500041194.83887,47.655,-122.3035,60.0,3.966666666666667
2026-01-20T23:03:59+00:00,SAT-59767,262.53643151299366,75.23914029954638,808.6454375639033,-1.1168079959739077,39115.340112145284,10.5,10500039115.340113,47.655,-122.3035,60.0,3.9833333333333334
2026-01-20T23:04:00+00:00,SAT-59767,264.36421841836494,75.46113492882017,807.5316077225854,-1.0571874813932796,37027.17749700506,10.5,10500037027.177498,47.655,-122.3035,60.0,4.0
2026-01-20T23:04:01+00:00,SAT-59767,266.251230770278,75.66862949956993,806.4772394078091,-0.9973315417380338,34930.769299904656,10.5,10500034930.7693,47.655,-122.3035,60.0,4.016666666666667
2026-01-20T23:04:02+00:00,SAT-59767,268.1959360707532,75.860818107428,805.4825674168491,-0.9372523662879332,32826.54244098195,10.5,10500032826.54244,47.655,-122.3035,60.0,4.033333333333333
2026-01-20T23:04:03+00:00,SAT-59767,270.19616631739495,76.03690835634691,804.5478143902045,-0.8769623913273307,30714.932491520427,10.5,10500030714.932491,47.655,-122.3035,60.0,4.05
2026-01-20T23:04:04+00:00,SAT-59767,272.24907863136514,76.19613158786203,803.6731905652541,-0.8164742842824873,28596.383118370897,10.5,10500028596.383118,47.655,-122.3035,60.0,4.066666666666666
2026-01-20T23:04:05+00:00,SAT-59767,274.35113020721275,76.33775394523697,802.8588935457296,-0.7558009252796745,26471.34543803828,10.5,10500026471.345438,47.655,-122.3035,60.0,4.083333333333333
2026-01-20T23:04:06+00:00,SAT-59767,276.4980711895548,76.46108800648815,802.1051080895841,-0.6949554050692238,24340.277943972997,10.5,10500024340.277945,47.655,-122.3035,60.0,4.1
2026-01-20T23:04:07+00:00,SAT-59767,278.6849586691978,76.56550464522182,801.4120058989284,-0.6339510011921788,22203.645671826333,10.5,10500022203.645672,47.655,-122.3035,60.0,4.116666666666666
2026-01-20T23:04:08+00:00,SAT-59767,280.9061940436338,76.65044470349505,800.7797454337394,-0.5728011739823852,20061.920059426728,10.5,10500020061.92006,47.655,-122.3035,60.0,4.133333333333334
2026-01-20T23:04:09+00:00,SAT-59767,283.15558489083503,76.71543001930472,800.2084717295543,-0.5115195439090362,17915.578153219853,10.5,10500017915.578154,47.655,-122.3035,60.0,4.15
2026-01-20T23:04:10+00:00,SAT-59767,285.42643087565125,76.76007332426471,799.6983162377624,-0.4501198829596799,15765.10230646509,10.5,10500015765.102306,47.655,-122.3035,60.0,4.166666666666667
2026-01-20T23:04:11+00:00,SAT-59767,287.7116316305371,76.78408654556462,799.2493966744905,-0.38861609663196023,13610.97954851013,10.5,10500013610.97955,47.655,-122.3035,60.0,4.183333333333334
2026-01-20T23:04:12+00:00,SAT-59767,290.0038127815304,76.7872870943637,798.8618168874495,-0.3270222103758373,11453.70110994017,10.5,10500011453.70111,47.655,-122.3035,60.0,4.2
2026-01-20T23:04:13+00:00,SAT-59767,292.29546485274795,76.7696018124709,798.5356667363014,-0.2653523524681068,9293.761822771145,10.5,10500009293.761824,47.655,-122.3035,60.0,4.216666666666667
2026-01-20T23:04:14+00:00,SAT-59767,294.57908863695127,76.73106836703364,798.2710219901065,-0.2036207365696617,7131.6595095312505,10.5,10500007131.65951,47.655,-122.3035,60.0,4.233333333333333
2026-01-20T23:04:15+00:00,SAT-59767,296.8473400505572,76.67183402290907,798.0679442421678,-0.1418416512642968,4967.894616865632,10.5,10500004967.894617,47.655,-122.3035,60.0,4.25
2026-01-20T23:04:16+00:00,SAT-59767,299.09316762480177,76.59215186551147,797.9264808353068,-0.08002943763465471,2802.9694301511563,10.5,10500002802.96943,47.655,-122.3035,60.0,4.266666666666667
2026-01-20T23:04:17+00:00,SAT-59767,301.30993626465255,76.49237468796959,797.8466648095059,-0.018198474937162614,637.3875717720939,10.5,10500000637.387571,47.655,-122.3035,60.0,4.283333333333333
2026-01-20T23:04:18+00:00,SAT-59767,303.49153221326895,76.37294687295974,797.8285148638352,0.04363683498189191,-1528.3465446948137,10.5,10499998471.653456,47.655,-122.3035,60.0,4.3
2026-01-20T23:04:19+00:00,SAT-59767,305.6324457088161,76.23439468182288,797.8720353339239,0.10546208552258765,-3693.7283391804685,10.5,10499996306.271662,47.655,-122.3035,60.0,4.316666666666666
2026-01-20T23:04:20+00:00,SAT-59767,307.7278293822621,76.07731541992645,797.9772161872183,0.1672628820864862,-5858.253651958466,10.5,10499994141.746347,47.655,-122.3035,60.0,4.333333333333333
2026-01-20T23:04:21+00:00,SAT-59767,309.77353226082533,75.90236595283409,798.1440330349526,0.22902485845884196,-8021.419317419389,10.5,10499991978.580683,47.655,-122.3035,60.0,4.35
2026-01-20T23:04:22+00:00,SAT-59767,311.766110623652,75.7102510305841,798.3724471604555,0.2907336928049467,-10182.723724330452,10.5,10499989817.276276,47.655,-122.3035,60.0,4.366666666666666
2026-01-20T23:04:23+00:00,SAT-59767,313.70281816576613,75.50171182591728,798.662405563413,0.3523751251722015,-12341.667428832101,10.5,10499987658.332571,47.655,-122.3035,60.0,4.383333333333334
2026-01-20T23:04:24+00:00,SAT-59767,315.5815787140682,75.27751502417676,799.0138410215848,0.4139349737043605,-14497.753722329418,10.5,10499985502.246277,47.655,-122.3035,60.0,4.4
2026-01-20T23:04:25+00:00,SAT-59767,317.4009451360664,75.038442727293,799.4266721686926,0.4753991481495043,-16650.489104598473,10.5,10499983349.510895,47.655,-122.3035,60.0,4.416666666666667
2026-01-20T23:04:26+00:00,SAT-59767,319.16004817402654,74.78528335476106,799.9008035857803,0.5367536721129503,-18799.384063177396,10.5,10499981200.615936,47.655,-122.3035,60.0,4.433333333333334
2026-01-20T23:04:27+00:00,SAT-59767,320.8585387832219,74.51882364480134,800.4361259147677,0.5979846897087063,-20943.953306328396,10.5,10499979056.046694,47.655,-122.3035,60.0,4.45
2026-01-20T23:04:28+00:00,SAT-59767,322.4965270858604,74.2398418058886,801.0325159786372,0.6590784903030394,-23083.716629662224,10.5,10499976916.283371,47.655,-122.3035,60.0,4.466666666666667
2026-01-20T23:04:29+00:00,SAT-59767,324.0745206791048,73.94910179821909,801.6898369262993,0.7200215126080586,-25218.19905951275,10.5,10499974781.80094,47.655,-122.3035,60.0,4.483333333333333
2026-01-20T23:04:30+00:00,SAT-59767,325.59336437057425,73.64734870252359,802.4079383815405,0.78080036912607,-27346.931709081673,10.5,10499972653.06829,47.655,-122.3035,60.0,4.5
2026-01-20T23:04:31+00:00,SAT-59767,327.0541829991562,73.33530508562244,803.1866566163488,0.841401858733987,-29469.4522191978,10.5,10499970530.547781,47.655,-122.3035,60.0,4.516666666666667
2026-01-20T23:04:32+00:00,SAT-59767,328.45832841778764,73.013668268956,804.0258147367929,0.9018129718317237,-31585.30493863558,10.5,10499968414.69506,47.655,-122.3035,60.0,4.533333333333333
2026-01-20T23:04:33+00:00,SAT-59767,329.80733131929543,72.68310839394182,804.925222874033,0.9620209086109178,-33694.041563963016,10.5,10499966305.958437,47.655,-122.3035,60.0,4.55
2026-01-20T23:04:34+00:00,SAT-59767,331.1028582685055,72.34426716823046,805.8846783935544,1.022013096006853,-35795.22173326975,10.5,10499964204.778267,47.655,-122.3035,60.0,4.566666666666666
2026-01-20T23:04:35+00:00,SAT-59767,332.34667399462904,71.9977571867797,806.9039661213053,1.0817771961479965,-37888.41332210553,10.5,10499962111.586678,47.655,-122.3035,60.0,4.583333333333333
2026-01-20T23:04:36+00:00,SAT-59767,333.5406087917812,71.64416173030796,807.9828585782634,1.1413011187015436,-39973.19287587351,10.5,10499960026.807123,47.655,-122.3035,60.0,4.6
2026-01-20T23:04:37+00:00,SAT-59767,334.6865307515598,71.28403494838486,809.1211162273152,1.2005730200597606,-42049.14558133242,10.5,10499957950.854418,47.655,-122.3035,60.0,4.616666666666666
2026-01-20T23:04:38+00:00,SAT-59767,335.78632244174514,70.91790235007194,810.3184877193214,1.2595813300483296,-44115.86620203588,10.5,10499955884.133799,47.655,-122.3035,60.0,4.633333333333334
2026-01-20T23:04:39+00:00,SAT-59767,336.84186163413085,70.54626152312346,811.574710165823,1.3183147660951346,-46172.95957458314,10.5,10499953827.040426,47.655,-122.3035,60.0,4.65
2026-01-20T23:04:40+00:00,SAT-59767,337.85500562039493,70.16958302599592,812.8895094258752,1.3767623046850823,-48220.039608846215,10.5,10499951779.960392,47.655,-122.3035,60.0,4.666666666666667
2026-01-20T23:04:41+00:00,SAT-59767,338.82757864623557,69.78831141397913,814.2626003644144,1.4349132437179055,-50256.7314720039,10.5,10499949743.268528,47.655,-122.3035,60.0,4.683333333333334
2026-01-20T23:04:42+00:00,SAT-59767,339.7613621140537,69.40286633170294,815.6936871728158,1.492757163866688,-52282.670235153906,10.5,10499947717.329765,47.655,-122.3035,60.0,4.7
2026-01-20T23:04:43+00:00,SAT-59767,340.65808708418814,69.01364366671817,817.1824636509122,1.5502839632679324,-54297.50208830567,10.5,10499945702.497911,47.655,-122.3035,60.0,4.716666666666667
2026-01-20T23:04:44+00:00,SAT-59767,341.5194287728369,68.62101671636488,818.7286135236113,1.607483841156117,-56300.88376719347,10.5,10499943699.116232,47.655,-122.3035,60.0,4.733333333333333
2026-01-20T23:04:45+00:00,SAT-59767,342.34700269274,68.2253373602524,820.331810741191,1.6643473374328022,-58292.48393915374,10.5,10499941707.516062,47.655,-122.3035,60.0,4.75
2026-01-20T23:04:46+00:00,SAT-59767,343.14236218616315,67.82693720763449,821.9917198190574,1.7208652981565986,-60271.98199443791,10.5,10499939728.018005,47.655,-122.3035,60.0,4.766666666666667
2026-01-20T23:04:47+00:00,SAT-59767,343.90699706376915,67.42612872576679,823.7079961430856,1.7770289069986704,-62239.06914791712,10.5,10499937760.930853,47.655,-122.3035,60.0,4.783333333333333
2026-01-20T23:04:48+00:00,SAT-59767,344.64233317240263,67.02320632371453,825.4802863063322,1.832829671391584,-64193.447953956296,10.5,10499935806.552046,47.655,-122.3035,60.0,4.8
2026-01-20T23:04:49+00:00,SAT-59767,345.34973268680767,66.61844739636206,827.3082284319335,1.8882594502507917,-66134.83327733786,10.5,10499933865.166723,47.655,-122.3035,60.0,4.816666666666666
2026-01-20T23:04:50+00:00,SAT-59767,346.0304949892285,66.21211331490767,829.1914525236502,1.943310414671584,-68062.95091670263,10.5,10499931937.049084,47.655,-122.3035,60.0,4.833333333333333
2026-01-20T23:04:51+00:00,SAT-59767,346.6858579811617,65.80445037621841,831.129580777216,1.9979751106575108,-69977.53980156453,10.5,10499930022.4602,47.655,-122.3035,60.0,4.85
2026-01-20T23:04:52+00:00,SAT-59767,347.3169997565095,65.39569068802022,833.1222279542451,2.0522463748603395,-71878.34904116756,10.5,10499928121.650959,47.655,-122.3035,60.0,4.866666666666666
2026-01-20T23:04:53+00:00,SAT-59767,347.92504049606106,64.98605302070331,835.1690016721059,2.106117432388473,-73765.1413501502,10.5,10499926234.85865,47.655,-122.3035,60.0,4.883333333333334
2026-01-20T23:04:54+00:00,SAT-59767,348.51104456919626,64.57574358906798,837.2695027913413,2.159581816607331,-75637.69023961561,10.5,10499924362.309761,47.655,-122.3035,60.0,4.9
2026-01-20T23:04:55+00:00,SAT-59767,349.0760227262691,64.16495680149563,839.4233257231043,2.2126334163560144,-77495.78167085895,10.5,10499922504.218328,47.655,-122.3035,60.0,4.916666666666667
2026-01-20T23:04:56+00:00,SAT-59767,349.62093437231704,63.75387595274267,841.6300587836834,2.2652664528734943,-79339.21324722482,10.5,10499920660.786753,47.655,-122.3035,60.0,4.933333333333334
2026-01-20T23:04:57+00:00,SAT-59767,350.14668986238024,63.342673876250764,843.8892845260159,2.317475473581302,-81167.79399635087,10.5,10499918832.206003,47.655,-122.3035,60.0,4.95
2026-01-20T23:04:58+00:00,SAT-59767,350.6541527933692,62.93151355466231,846.200580065001,2.3692553912104843,-82981.34574055925,10.5,10499917018.654259,47.655,-122.3035,60.0,4.966666666666667
2026-01-20T23:04:59+00:00,SAT-59767,351.14414227766997,62.52054868299726,848.563517441835,2.420601401441409,-84779.70021225416,10.5,10499915220.299788,47.655,-122.3035,60.0,4.983333333333333
2026-01-20T23:05:00+00:00,SAT-59767,351.6174351538701,62.109924208103905,850.9776639062057,2.471509069733242,-86562.70209505752,10.5,10499913437.297905,47.655,-122.3035,60.0,5.0
2026-01-20T23:05:01+00:00,SAT-59767,352.0747681568503,61.69977681714424,853.4425822850864,2.521974267492181,-88330.20678815042,10.5,10499911669.793211,47.655,-122.3035,60.0,5.016666666666667
2026-01-20T23:05:02+00:00,SAT-59767,352.5168400051033,61.29023540359982,855.9578312878652,2.5719931832654996,-90082.08079833598,10.5,10499909917.9192,47.655,-122.3035,60.0,5.033333333333333
2026-01-20T23:05:03+00:00,SAT-59767,352.9443134143805,60.88142149981531,858.522965822642,2.6215623253585028,-91818.2018316961,10.5,10499908181.798168,47.655,-122.3035,60.0,5.05
2026-01-20T23:05:04+00:00,SAT-59767,353.35781703061065,60.47344967986755,861.1375373151329,2.6706785189305555,-93538.4586918822,10.5,10499906461.541307,47.655,-122.3035,60.0,5.066666666666666
2026-01-20T23:05:05+00:00,SAT-59767,353.75794727822137,60.06642793569468,863.8010940246796,2.7193388790895496,-95242.75033776957,10.5,10499904757.249662,47.655,-122.3035,60.0,5.083333333333333
2026-01-20T23:05:06+00:00,SAT-59767,354.14527011935934,59.660458031963486,866.513181333425,2.767540836090201,-96930.98676600834,10.5,10499903069.013233,47.655,-122.3035,60.0,5.1
2026-01-20T23:05:07+00:00,SAT-59767,354.5203227320509,59.255635833438205,869.2733420606189,2.815282105547797,-98603.08796778294,10.5,10499901396.912033,47.655,-122.3035,60.0,5.116666666666666
2026-01-20T23:05:08+00:00,SAT-59767,354.8836150999983,58.85205161493117,872.0811167472186,2.8625606951513993,-100258.98416393681,10.5,10499899741.015837,47.655,-122.3035,60.0,5.133333333333334
2026-01-20T23:05:09+00:00,SAT-59767,355.23563152130464,58.449790349793915,874.936043947183,2.9093748899255965,-101898.61528877677,10.5,10499898101.38471,47.655,-122.3035,60.0,5.15
2026-01-20T23:05:10+00:00,SAT-59767,355.5768320354018,58.048931981585966,877.8376605040687,2.9557232442604757,-103521.93071092867,10.5,10499896478.069288,47.655,-122.3035,60.0,5.166666666666667
2026-01-20T23:05:11+00:00,SAT-59767,355.90765377206486,57.64955167913187,880.7855018196778,3.0016045990672158,-105128.88983419913,10.5,10499894871.110167,47.655,-122.3035,60.0,5.183333333333334
2026-01-20T23:05:12+00:00,SAT-59767,356.22851222804917,57.251720072975026,883.7791021398142,3.0470180519048027,-106719.46105128645,10.5,10499893280.538948,47.655,-122.3035,60.0,5.2
2026-01-20T23:05:13+00:00,SAT-59767,356.53980246916035,56.85550348070553,886.8179948102472,3.0919629400735884,-108293.62115164578,10.5,10499891706.378849,47.655,-122.3035,60.0,5.216666666666667
2026-01-20T23:05:14+00:00,SAT-59767,356.84190026299757,56.46096412024412,889.901712515814,3.136438851969052,-109851.3557191457,10.5,10499890148.644281,47.655,-122.3035,60.0,5.233333333333333
2026-01-20T23:05:15+00:00,SAT-59767,357.1351631485662,56.068160308348126,893.0297875308445,3.1804456360920237,-111392.65944764443,10.5,10499888607.340553,47.655,-122.3035,60.0,5.25
2026-01-20T23:05:16+00:00,SAT-59767,357.4199314451889,55.677146645918405,896.2017519785736,3.2239833549429884,-112917.53452617336,10.5,10499887082.465473,47.655,-122.3035,60.0,5.266666666666667
2026-01-20T23:05:17+00:00,SAT-59767,357.6965291990938,55.28797419759682,899.41713804457,3.2670523079225986,-114425.99144100978,10.5,10499885574.008558,47.655,-122.3035,60.0,5.283333333333333
2026-01-20T23:05:18+00:00,SAT-59767,357.96526507732517,54.900690657855996,902.6754782130049,3.3096529924886875,-115918.04761523128,10.5,10499884081.952385,47.655,-122.3035,60.0,5.3
2026-01-20T23:05:19+00:00,SAT-59767,358.22643320661484,54.51534051172422,905.9763054641802,3.351786143039022,-117393.72877055411,10.5,10499882606.271229,47.655,-122.3035,60.0,5.316666666666666
2026-01-20T23:05:20+00:00,SAT-59767,358.4803139665402,54.13196518169046,909.3191535108379,3.3934526791592834,-118853.0671147587,10.5,10499881146.932886,47.655,-122.3035,60.0,5.333333333333333
2026-01-20T23:05:21+00:00,SAT-59767,358.7271747325435,53.75060317190396,912.7035569828527,3.434653732258358,-120296.10227457009,10.5,10499879703.897726,47.655,-122.3035,60.0,5.35
2026-01-20T23:05:22+00:00,SAT-59767,358.9672705776449,53.37129020124419,916.1290516384917,3.475390603564225,-121722.87982449631,10.5,10499878277.120176,47.655,-122.3035,60.0,5.366666666666666
2026-01-20T23:05:23+00:00,SAT-59767,359.20084493044374,52.99405933337733,919.5951745337798,3.5156647880644125,-123133.45212532443,10.5,10499876866.547874,47.655,-122.3035,60.0,5.383333333333334
2026-01-20T23:05:24+00:00,SAT-59767,359.42813019653795,52.61894109703162,923.1014642157427,3.5554779510324748,-124527.87750197834,10.5,10499875472.122498,47.655,-122.3035,60.0,5.4
2026-01-20T23:05:25+00:00,SAT-59767,359.6493483423458,52.24596360209577,926.647460892239,3.5948319214006683,-125906.22001140207,10.5,10499874093.77999,47.655,-122.3035,60.0,5.416666666666667
2026-01-20T23:05:26+00:00,SAT-59767,359.86471144478617,51.87515265008151,930.2327065951827,3.6337286968084883,-127268.54961938076,10.5,10499872731.45038,47.655,-122.3035,60.0,5.433333333333334
2026-01-20T23:05:27+00:00,SAT-59767,0.07442220951075346,51.5065318381323,933.8567453487997,3.672170420999468,-128614.94140888099,10.5,10499871385.058592,47.655,-122.3035,60.0,5.45
2026-01-20T23:05:28+00:00,SAT-59767,0.27867445803042606,51.140122659752215,937.519123315343,3.710159382725959,-129945.47554169148,10.5,10499870054.524458,47.655,-122.3035,60.0,5.466666666666667
2026-01-20T23:05:29+00:00,SAT-59767,0.47765358690662774,50.7759446003175,941.2193889397151,3.747697983528257,-131260.23612991194,10.5,10499868739.76387,47.655,-122.3035,60.0,5.483333333333333
2026-01-20T23:05:30+00:00,SAT-59767,0.6715369990818005,50.414015230682985,944.957093061954,3.784788829851977,-132559.31446229297,10.5,10499867440.685537,47.655,-122.3035,60.0,5.5
2026-01-20T23:05:31+00:00,SAT-59767,0.860494515354169,50.054350287254174,948.731789121593,3.821434573089558,-133842.80340181326,10.5,10499866157.196598,47.655,-122.3035,60.0,5.516666666666667
2026-01-20T23:05:32+00:00,SAT-59767,1.0446887545075896,49.69696376297041,952.5430332024877,3.857638014612146,-135110.80106434008,10.5,10499864889.198936,47.655,-122.3035,60.0,5.533333333333333
2026-01-20T23:05:33+00:00,SAT-59767,1.2242754973304633,49.3418679838704,956.3903841823941,3.893402077383735,-136363.40982443668,10.5,10499863636.590176,47.655,-122.3035,60.0,5.55
2026-01-20T23:05:34+00:00,SAT-59767,1.3994040287872334,48.989073684470554,960.2734038542383,3.9287297696313357,-137600.73504293768,10.5,10499862399.264957,47.655,-122.3035,60.0,5.566666666666666
2026-01-20T23:05:35+00:00,SAT-59767,1.570217459473723,48.63859008261202,964.1916570111505,3.963624230228994,-138822.88665648966,10.5,10499861177.113344,47.655,-122.3035,60.0,5.583333333333333
2026-01-20T23:05:36+00:00,SAT-59767,1.736853031187259,48.29042494665389,968.1447115767656,3.9980886563618636,-140029.97664404075,10.5,10499859970.023355,47.655,-122.3035,60.0,5.6
2026-01-20T23:05:37+00:00,SAT-59767,1.8994424026383896,47.94458466558817,972.1321386633772,4.032126332839299,-141222.12005350928,10.5,10499858777.879946,47.655,-122.3035,60.0,5.616666666666666
2026-01-20T23:05:38+00:00,SAT-59767,2.0581119207448717,47.60107431321037,976.1535126593288,4.0657406603995225,-142399.4359931329,10.5,10499857600.564007,47.655,-122.3035,60.0,5.633333333333334
2026-01-20T23:05:39+00:00,SAT-59767,2.212982878169896,47.25989770684372,980.208411344634,4.0989350851172635,-143562.04515902553,10.5,10499856437.954842,47.655,-122.3035,60.0,5.65
2026-01-20T23:05:40+00:00,SAT-59767,2.3641717541815943,46.92105746909209,984.296415936191,4.131713147331346,-144710.0715488284,10.5,10499855289.928452,47.655,-122.3035,60.0,5.666666666666667
2026-01-20T23:05:41+00:00,SAT-59767,2.5117904443659733,46.58455508261758,988.417111181796,4.164078415251875,-145843.64013635286,10.5,10499854156.359863,47.655,-122.3035,60.0,5.683333333333334
2026-01-20T23:05:42+00:00,SAT-59767,2.6559464756426077,46.250390947655056,992.5700853879406,4.196034565522723,-146962.8796932196,10.5,10499853037.120306,47.655,-122.3035,60.0,5.7
2026-01-20T23:05:43+00:00,SAT-59767,2.796743212656063,45.9185644303899,996.7549305279553,4.227585299785316,-148067.91986656922,10.5,10499851932.080133,47.655,-122.3035,60.0,5.716666666666667
2026-01-20T23:05:44+00:00,SAT-59767,2.9342800503275184,45.58907391564235,1000.9712422669411,4.2587343500611885,-149158.8913675823,10.5,10499850841.108633,47.655,-122.3035,60.0,5.733333333333333
2026-01-20T23:05:45+00:00,SAT-59767,3.068652596604342,45.26191685652725,1005.2186199920689,4.28948556161734,-150235.92887377462,10.5,10499849764.071127,47.655,-122.3035,60.0,5.75
2026-01-20T23:05:46+00:00,SAT-59767,3.199952848138368,44.937089815635886,1009.4966669255219,4.31984276903621,-151299.16668844354,10.5,10499848700.833311,47.655,-122.3035,60.0,5.766666666666667
2026-01-20T23:05:47+00:00,SAT-59767,3.32826935302052,44.61458851351919,1013.8049901138406,4.349809832962899,-152348.74002771088,10.5,10499847651.259972,47.655,-122.3035,60.0,5.783333333333333
2026-01-20T23:05:48+00:00,SAT-59767,3.453687366316136,44.29440787214547,1018.1432004539156,4.3793906841464585,-153384.7865630356,10.5,10499846615.213436,47.655,-122.3035,60.0,5.8
2026-01-20T23:05:49+00:00,SAT-59767,3.576288998819344,43.976542053178996,1022.5109127629045,4.408589267636618,-154407.44446674667,10.5,10499845592.555532,47.655,-122.3035,60.0,5.816666666666666
2026-01-20T23:05:50+00:00,SAT-59767,3.6961533566444498,43.66098449850059,1026.907745792494,4.437409556857393,-155416.85290496075,10.5,10499844583.147095,47.655,-122.3035,60.0,5.833333333333333
2026-01-20T23:05:51+00:00,SAT-59767,3.8133566741171068,43.3477279678346,1031.3333222571998,4.465855551736591,-156413.1519720693,10.5,10499843586.848028,47.655,-122.3035,60.0,5.85
2026-01-20T23:05:52+00:00,SAT-59767,3.9279724399113656,43.03676457480579,1035.7872688607983,4.493931230195334,-157396.48099169662,10.5,10499842603.519009,47.655,-122.3035,60.0,5.866666666666666
2026-01-20T23:05:53+00:00,SAT-59767,4.040071515689222,42.72808582457569,1040.26921627438,4.521640643212361,-158366.98184625377,10.5,10499841633.018154,47.655,-122.3035,60.0,5.883333333333334
2026-01-20T23:05:54+00:00,SAT-59767,4.149722251169493,42.42168264337305,1044.7787992092103,4.548987817792154,-159324.7955784719,10.5,10499840675.204422,47.655,-122.3035,60.0,5.9
2026-01-20T23:05:55+00:00,SAT-59767,4.2569905911272325,42.1175454131379,1049.315656392822,4.575976797105668,-160270.06379730045,10.5,10499839729.936203,47.655,-122.3035,60.0,5.916666666666667
2026-01-20T23:05:56+00:00,SAT-59767,4.3619401781164955,41.81566400191381,1053.879430585135,4.602611628996303,-161202.92827533768,10.5,10499838797.071724,47.655,-122.3035,60.0,5.933333333333334
2026-01-20T23:05:57+00:00,SAT-59767,4.46463244989767,41.51602779357885,1058.4697685831209,4.6288963723151175,-162123.53117071657,10.5,10499837876.46883,47.655,-122.3035,60.0,5.95
2026-01-20T23:05:58+00:00,SAT-59767,4.565126732280618,41.218625715831124,1063.0863212317763,4.654835055894153,-163032.0135901771,10.5,10499836967.98641,47.655,-122.3035,60.0,5.966666666666667
2026-01-20T23:05:59+00:00,SAT-59767,4.663480326628158,40.92344626941489,1067.728743394188,4.680431734925033,-163928.5175636835,10.5,10499836071.482437,47.655,-122.3035,60.0,5.983333333333333
2026-01-20T23:06:00+00:00,SAT-59767,4.759748594339662,40.63047755253648,1072.39669397782,4.705690470182809,-164813.185316755,10.5,10499835186.814684,47.655,-122.3035,60.0,6.0
2026-01-20T23:06:01+00:00,SAT-59767,4.853985036856938,40.33970728542112,1077.0898359400824,4.730615262806501,-165686.15698620497,10.5,10499834313.843014,47.655,-122.3035,60.0,6.016666666666667
2026-01-20T23:06:02+00:00,SAT-59767,4.946241370612515,40.05112283769144,1081.8078362288547,4.755210167582808,-166547.5745878153,10.5,10499833452.425413,47.655,-122.3035,60.0,6.033333333333333
