satellites_20260120_184412/SAT-64295.csv

timestamp,satellite,azimuth_deg,elevation_deg,distance_km,relative_velocity_kms,doppler_shift_hz,tx_freq_ghz,rx_freq_hz,ue_lat,ue_lon,ue_alt_m,time_minutes
2026-01-20T23:00:00+00:00,SAT-64295,317.5577598211797,78.83329539731542,891.5854590927224,4.905558266667179,-171813.4009895785,10.5,10499828186.59901,47.655,-122.3035,60.0,0.0
2026-01-20T23:00:01+00:00,SAT-64295,317.8235854784933,78.48094851588368,896.4779358706784,4.934291097607515,-172819.74626886347,10.5,10499827180.25373,47.655,-122.3035,60.0,0.016666666666666666
2026-01-20T23:00:02+00:00,SAT-64295,318.0703795228392,78.13187078063281,901.3990688586923,4.96254977714149,-173809.4847602392,10.5,10499826190.51524,47.655,-122.3035,60.0,0.03333333333333333
2026-01-20T23:00:03+00:00,SAT-64295,318.30001065330157,77.78605340754619,906.3483851697615,4.990341924508131,-174782.88332168577,10.5,10499825217.116678,47.655,-122.3035,60.0,0.05
2026-01-20T23:00:04+00:00,SAT-64295,318.51411194426817,77.4434838723617,911.3254195158042,5.017675059621008,-175740.20533238564,10.5,10499824259.794668,47.655,-122.3035,60.0,0.06666666666666667
2026-01-20T23:00:05+00:00,SAT-64295,318.7141166742193,77.10414650703058,916.3297141085995,5.044556631489793,-176681.71168816672,10.5,10499823318.288311,47.655,-122.3035,60.0,0.08333333333333333
2026-01-20T23:00:06+00:00,SAT-64295,318.9012878397928,76.76802299196258,921.3608185890721,5.0709940280167,-177607.6611446154,10.5,10499822392.338856,47.655,-122.3035,60.0,0.1
2026-01-20T23:00:07+00:00,SAT-64295,319.0767426115937,76.43509276557009,926.4182899663474,5.096994577188392,-178518.31035882203,10.5,10499821481.689642,47.655,-122.3035,60.0,0.11666666666666667
2026-01-20T23:00:08+00:00,SAT-64295,319.24147270927557,76.10533336767276,931.5016925579966,5.122565505993396,-179413.91245049486,10.5,10499820586.08755,47.655,-122.3035,60.0,0.13333333333333333
2026-01-20T23:00:09+00:00,SAT-64295,319.3963614647591,75.77872073176901,936.6105978893073,5.147713975950102,-180294.7182463011,10.5,10499819705.281754,47.655,-122.3035,60.0,0.15
2026-01-20T23:00:10+00:00,SAT-64295,319.542198185195,75.45522943086641,941.7445846279883,5.172447077086001,-181160.9760689944,10.5,10499818839.023932,47.655,-122.3035,60.0,0.16666666666666666
2026-01-20T23:00:11+00:00,SAT-64295,319.67969029869374,75.13483288742103,946.9032385128686,5.196771804014521,-182012.93089952407,10.5,10499817987.069101,47.655,-122.3035,60.0,0.18333333333333332
2026-01-20T23:00:12+00:00,SAT-64295,319.809473669611,74.81750355474864,952.0861522587393,5.220695080335411,-182850.82523164016,10.5,10499817149.174768,47.655,-122.3035,60.0,0.2
2026-01-20T23:00:13+00:00,SAT-64295,319.93212139852835,74.50321307174775,957.292925485527,5.244223708572813,-183674.89731851273,10.5,10499816325.102682,47.655,-122.3035,60.0,0.21666666666666667
2026-01-20T23:00:14+00:00,SAT-64295,320.04815135676,74.19193239971098,962.5231645975437,5.267364461348357,-184485.38436599943,10.5,10499815514.615635,47.655,-122.3035,60.0,0.23333333333333334
2026-01-20T23:00:15+00:00,SAT-64295,320.15803266693405,73.88363193577521,967.7764827536616,5.290123978804123,-185282.51893996375,10.5,10499814717.48106,47.655,-122.3035,60.0,0.25
2026-01-20T23:00:16+00:00,SAT-64295,320.2621912911014,73.57828161769213,973.052499735189,5.312508816031742,-186066.53062744255,10.5,10499813933.469372,47.655,-122.3035,60.0,0.26666666666666666
2026-01-20T23:00:17+00:00,SAT-64295,320.36101487095584,73.27585101280674,978.3508418610447,5.334525455482863,-186837.64647131338,10.5,10499813162.353529,47.655,-122.3035,60.0,0.2833333333333333
2026-01-20T23:00:18+00:00,SAT-64295,320.4548569324624,72.97630939547633,983.671141915313,5.3561802890138805,-187596.09034142463,10.5,10499812403.909658,47.655,-122.3035,60.0,0.3
2026-01-20T23:00:19+00:00,SAT-64295,320.5440405499449,72.67962581612758,989.0130390568895,5.377479594351293,-188342.08211031303,10.5,10499811657.91789,47.655,-122.3035,60.0,0.31666666666666665
2026-01-20T23:00:20+00:00,SAT-64295,320.62886154800236,72.38576916356504,994.3761787056559,5.398429580000412,-189075.83922609664,10.5,10499810924.160774,47.655,-122.3035,60.0,0.3333333333333333
2026-01-20T23:00:21+00:00,SAT-64295,320.70959130990593,72.09470821764975,999.760212473443,5.4190363393418135,-189797.57510473812,10.5,10499810202.424894,47.655,-122.3035,60.0,0.35
2026-01-20T23:00:22+00:00,SAT-64295,320.7864792449854,71.80641169850792,1005.1647980492131,5.439305896543532,-190507.50073808423,10.5,10499809492.499262,47.655,-122.3035,60.0,0.36666666666666664
2026-01-20T23:00:23+00:00,SAT-64295,320.8597549650766,71.52084830777562,1010.5895991300326,5.459244197230899,-191205.8243670841,10.5,10499808794.175632,47.655,-122.3035,60.0,0.38333333333333336
2026-01-20T23:00:24+00:00,SAT-64295,320.9296302070965,71.23798676584211,1016.0342853427375,5.478857016595845,-191892.74826338817,10.5,10499808107.251736,47.655,-122.3035,60.0,0.4
2026-01-20T23:00:25+00:00,SAT-64295,320.99630053471697,70.95779584975675,1021.4985320739557,5.498150138968346,-192568.4750186999,10.5,10499807431.52498,47.655,-122.3035,60.0,0.4166666666666667
2026-01-20T23:00:26+00:00,SAT-64295,321.0599468528499,70.68024441801109,1026.9820204792202,5.517129197257853,-193233.2019213354,10.5,10499806766.798079,47.655,-122.3035,60.0,0.43333333333333335
2026-01-20T23:00:27+00:00,SAT-64295,321.1207367525724,70.4053014406251,1032.484437331952,5.535799760661867,-193887.12402814883,10.5,10499806112.875973,47.655,-122.3035,60.0,0.45
2026-01-20T23:00:28+00:00,SAT-64295,321.17882571220997,70.13293602178874,1038.0054749599187,5.554167251456882,-194530.4312501993,10.5,10499805469.56875,47.655,-122.3035,60.0,0.4666666666666667
2026-01-20T23:00:29+00:00,SAT-64295,321.2343581696688,69.86311742416189,1043.5448310987051,5.572237085524852,-195163.31327458195,10.5,10499804836.686726,47.655,-122.3035,60.0,0.48333333333333334
2026-01-20T23:00:30+00:00,SAT-64295,321.2874684851526,69.59581508386738,1049.1022088853351,5.590014533033879,-195785.9546848765,10.5,10499804214.045315,47.655,-122.3035,60.0,0.5
2026-01-20T23:00:31+00:00,SAT-64295,321.3382818029155,69.33099863046766,1054.6773167129477,5.607504798199112,-196398.5377547112,10.5,10499803601.462246,47.655,-122.3035,60.0,0.5166666666666667
2026-01-20T23:00:32+00:00,SAT-64295,321.38691482720185,69.06863790116135,1060.2698681650184,5.624712968659743,-197001.24067473144,10.5,10499802998.759325,47.655,-122.3035,60.0,0.5333333333333333
2026-01-20T23:00:33+00:00,SAT-64295,321.43347652068564,68.80870295576773,1065.8795818990948,5.6416440678057,-197594.23938530116,10.5,10499802405.760614,47.655,-122.3035,60.0,0.55
2026-01-20T23:00:34+00:00,SAT-64295,321.4780687353516,68.5511640877526,1071.5061815827198,5.658303032094637,-198177.70678204883,10.5,10499801822.293219,47.655,-122.3035,60.0,0.5666666666666667
2026-01-20T23:00:35+00:00,SAT-64295,321.5207867823735,68.29599183505636,1077.1493958067288,5.674694717230382,-198751.81293226202,10.5,10499801248.187067,47.655,-122.3035,60.0,0.5833333333333334
2026-01-20T23:00:36+00:00,SAT-64295,321.5617199484538,68.04315698940826,1082.8089580047133,5.690823874171527,-199316.7242346071,10.5,10499800683.275764,47.655,-122.3035,60.0,0.6
2026-01-20T23:00:37+00:00,SAT-64295,321.6009519633322,67.7926306057223,1088.4846063485536,5.7066951650797355,-199872.60397770655,10.5,10499800127.396023,47.655,-122.3035,60.0,0.6166666666666667
2026-01-20T23:00:38+00:00,SAT-64295,321.63856142504414,67.54438400967815,1094.1760836598598,5.7223132168623625,-200419.6142154277,10.5,10499799580.385784,47.655,-122.3035,60.0,0.6333333333333333
2026-01-20T23:00:39+00:00,SAT-64295,321.6746221871478,67.29838880211113,1099.8831373748105,5.737682506892495,-200957.91176431527,10.5,10499799042.088236,47.655,-122.3035,60.0,0.65
2026-01-20T23:00:40+00:00,SAT-64295,321.70920371025085,67.05461686765452,1105.605519395018,5.752807484126874,-201487.6524456535,10.5,10499798512.347555,47.655,-122.3035,60.0,0.6666666666666666
2026-01-20T23:00:41+00:00,SAT-64295,321.7423713839619,66.8130403773049,1111.3429860591873,5.767692503407565,-202008.98878443244,10.5,10499797991.011215,47.655,-122.3035,60.0,0.6833333333333333
2026-01-20T23:00:42+00:00,SAT-64295,321.7741868205234,66.5736317932072,1117.0952980492525,5.782341815497159,-202522.06966033872,10.5,10499797477.93034,47.655,-122.3035,60.0,0.7
2026-01-20T23:00:43+00:00,SAT-64295,321.8047081228777,66.33636387328382,1122.862220286575,5.796759603035459,-203027.0415671108,10.5,10499796972.958433,47.655,-122.3035,60.0,0.7166666666666667
2026-01-20T23:00:44+00:00,SAT-64295,321.83399013099665,66.10120967369252,1128.6435218640024,5.810950035285282,-203524.05052996852,10.5,10499796475.94947,47.655,-122.3035,60.0,0.7333333333333333
2026-01-20T23:00:45+00:00,SAT-64295,321.86208464806504,65.86814254862497,1134.4389760325266,5.824917103039693,-204013.23632336603,10.5,10499795986.763676,47.655,-122.3035,60.0,0.75
2026-01-20T23:00:46+00:00,SAT-64295,321.8890406466624,65.63713615645406,1140.2483600232918,5.838664785708776,-204494.7383230773,10.5,10499795505.261677,47.655,-122.3035,60.0,0.7666666666666667
2026-01-20T23:00:47+00:00,SAT-64295,321.9149044598016,65.40816445855589,1146.0714550362386,5.852196974522544,-204968.69281643737,10.5,10499795031.307184,47.655,-122.3035,60.0,0.7833333333333333
2026-01-20T23:00:48+00:00,SAT-64295,321.9397199561339,65.18120172093053,1151.9080461521623,5.865517488211302,-205435.23355153474,10.5,10499794564.766449,47.655,-122.3035,60.0,0.8
2026-01-20T23:00:49+00:00,SAT-64295,321.96352870145614,64.95622251484114,1157.7579222604052,5.878630069028191,-205894.49159790407,10.5,10499794105.508402,47.655,-122.3035,60.0,0.8166666666666667
2026-01-20T23:00:50+00:00,SAT-64295,321.9863701076445,64.7332017173006,1163.6208759825827,5.891538418815513,-206346.5966097215,10.5,10499793653.40339,47.655,-122.3035,60.0,0.8333333333333334
2026-01-20T23:00:51+00:00,SAT-64295,322.00828157047675,64.51211450988393,1169.4967036322812,5.904246100736364,-206791.67338403096,10.5,10499793208.326616,47.655,-122.3035,60.0,0.85
2026-01-20T23:00:52+00:00,SAT-64295,322.0292985962697,64.29293638105901,1175.385205076749,5.916756684348777,-207229.8469418539,10.5,10499792770.153059,47.655,-122.3035,60.0,0.8666666666666667
2026-01-20T23:00:53+00:00,SAT-64295,322.0494549201249,64.07564312271667,1181.2861837432729,5.929073647763243,-207661.23910133206,10.5,10499792338.760899,47.655,-122.3035,60.0,0.8833333333333333
2026-01-20T23:00:54+00:00,SAT-64295,322.0687826147799,63.86021083026553,1187.1994465279754,5.941200388087894,-208085.96884356203,10.5,10499791914.031157,47.655,-122.3035,60.0,0.9
2026-01-20T23:00:55+00:00,SAT-64295,322.0873121914635,63.64661590212006,1193.1248037150283,5.953140237831054,-208504.15288708187,10.5,10499791495.847113,47.655,-122.3035,60.0,0.9166666666666666
2026-01-20T23:00:56+00:00,SAT-64295,322.1050726937504,63.4348350383632,1199.0620689122254,5.964896490840767,-208915.90659638293,10.5,10499791084.093403,47.655,-122.3035,60.0,0.9333333333333333
2026-01-20T23:00:57+00:00,SAT-64295,322.12209178476087,63.224845238361006,1205.0110590124236,5.9764723639181945,-209321.34263744904,10.5,10499790678.657362,47.655,-122.3035,60.0,0.95
2026-01-20T23:00:58+00:00,SAT-64295,322.13839582815353,63.01662379960975,1210.9715941167049,5.987870996697176,-209720.5709735378,10.5,10499790279.429026,47.655,-122.3035,60.0,0.9666666666666667
2026-01-20T23:00:59+00:00,SAT-64295,322.1540099631898,62.810148316492885,1216.943497457411,5.99909550461495,-210113.70072043967,10.5,10499789886.29928,47.655,-122.3035,60.0,0.9833333333333333
2026-01-20T23:01:00+00:00,SAT-64295,322.16895817533896,62.605396676989116,1222.9265953740135,6.010148907782482,-210500.83765521564,10.5,10499789499.162344,47.655,-122.3035,60.0,1.0
2026-01-20T23:01:01+00:00,SAT-64295,322.1832633612291,62.4023470618745,1228.9207172180418,6.021034189150472,-210882.08625341722,10.5,10499789117.913746,47.655,-122.3035,60.0,1.0166666666666666
2026-01-20T23:01:02+00:00,SAT-64295,322.1969473899998,62.20097794171226,1234.9256953160213,6.031754263764087,-211257.54861225665,10.5,10499788742.451387,47.655,-122.3035,60.0,1.0333333333333334
2026-01-20T23:01:03+00:00,SAT-64295,322.2100311600002,62.00126807491908,1240.9413649017488,6.0423120115123945,-211627.3255976311,10.5,10499788372.674402,47.655,-122.3035,60.0,1.05
2026-01-20T23:01:04+00:00,SAT-64295,322.2225346522385,61.80319650459747,1246.9675640812304,6.05271022642378,-211991.51506823328,10.5,10499788008.484932,47.655,-122.3035,60.0,1.0666666666666667
2026-01-20T23:01:05+00:00,SAT-64295,322.23447697987706,61.60674255706164,1253.0041337470502,6.062951663928353,-212350.2135308811,10.5,10499787649.786469,47.655,-122.3035,60.0,1.0833333333333333
2026-01-20T23:01:06+00:00,SAT-64295,322.2458764349135,61.41188583869268,1259.0509175398747,6.073039041736408,-212703.516171285,10.5,10499787296.48383,47.655,-122.3035,60.0,1.1
2026-01-20T23:01:07+00:00,SAT-64295,322.2567505317895,61.218606232775095,1265.1077618108334,6.082974995233496,-213051.51529179467,10.5,10499786948.484709,47.655,-122.3035,60.0,1.1166666666666667
2026-01-20T23:01:08+00:00,SAT-64295,322.26711604817433,61.02688389772358,1271.1745155394128,6.0927621339177245,-213394.30228807192,10.5,10499786605.697712,47.655,-122.3035,60.0,1.1333333333333333
2026-01-20T23:01:09+00:00,SAT-64295,322.27698906324804,60.83669926349344,1277.2510303076401,6.102402986737164,-213731.96573457567,10.5,10499786268.034266,47.655,-122.3035,60.0,1.15
2026-01-20T23:01:10+00:00,SAT-64295,322.28638499358385,60.64803302968207,1283.337160219746,6.111900090134855,-214064.59446827034,10.5,10499785935.40553,47.655,-122.3035,60.0,1.1666666666666667
2026-01-20T23:01:11+00:00,SAT-64295,322.29531862710945,60.46086616085428,1289.4327619096405,6.121255865467978,-214392.27329532674,10.5,10499785607.726706,47.655,-122.3035,60.0,1.1833333333333333
2026-01-20T23:01:12+00:00,SAT-64295,322.30380415450844,60.27517988572509,1295.5376944261338,6.1304727228025975,-214715.086626453,10.5,10499785284.913374,47.655,-122.3035,60.0,1.2
2026-01-20T23:01:13+00:00,SAT-64295,322.3118551991512,60.09095569306294,1301.6518192216756,6.139553041851605,-215033.11780926076,10.5,10499784966.88219,47.655,-122.3035,60.0,1.2166666666666666
2026-01-20T23:01:14+00:00,SAT-64295,322.3194848452729,59.90817532821182,1307.7750001220825,6.148499094223197,-215346.4464050779,10.5,10499784653.553595,47.655,-122.3035,60.0,1.2333333333333334
2026-01-20T23:01:15+00:00,SAT-64295,322.3267056639763,59.72682079201285,1313.907103218721,6.157313195773212,-215655.15352497203,10.5,10499784344.846476,47.655,-122.3035,60.0,1.25
2026-01-20T23:01:16+00:00,SAT-64295,322.3335297385921,59.54687433506227,1320.0479969126386,6.165997550768947,-215959.3163717079,10.5,10499784040.683628,47.655,-122.3035,60.0,1.2666666666666666
2026-01-20T23:01:17+00:00,SAT-64295,322.339968687689,59.36831845675606,1326.1975518032723,6.174554336631243,-216259.0112077738,10.5,10499783740.988792,47.655,-122.3035,60.0,1.2833333333333334
2026-01-20T23:01:18+00:00,SAT-64295,322.3460336873375,59.19113590173,1332.3556406616724,6.182985688497057,-216554.3128146976,10.5,10499783445.687185,47.655,-122.3035,60.0,1.3
2026-01-20T23:01:19+00:00,SAT-64295,322.3517354918654,59.01530965682405,1338.5221383883336,6.1912937425927135,-216845.29601216153,10.5,10499783154.703987,47.655,-122.3035,60.0,1.3166666666666667
2026-01-20T23:01:20+00:00,SAT-64295,322.35708445377026,58.840822946799534,1344.6969220142796,6.199480516116676,-217132.03145098835,10.5,10499782867.96855,47.655,-122.3035,60.0,1.3333333333333333
2026-01-20T23:01:21+00:00,SAT-64295,322.36209054193273,58.66765923357403,1350.879870582353,6.207548039215317,-217414.59023549163,10.5,10499782585.409765,47.655,-122.3035,60.0,1.35
2026-01-20T23:01:22+00:00,SAT-64295,322.3667633594204,58.495802211636644,1357.0708651601303,6.2154982927369335,-217693.0417433577,10.5,10499782306.958256,47.655,-122.3035,60.0,1.3666666666666667
2026-01-20T23:01:23+00:00,SAT-64295,322.37111216002614,58.32523580531674,1363.2697887907536,6.223333256774862,-217967.45532583096,10.5,10499782032.544674,47.655,-122.3035,60.0,1.3833333333333333
2026-01-20T23:01:24+00:00,SAT-64295,322.37514586416256,58.15594416470958,1369.476526492177,6.231054763237241,-218237.89514408342,10.5,10499781762.104856,47.655,-122.3035,60.0,1.4
2026-01-20T23:01:25+00:00,SAT-64295,322.3788730732463,57.987911665753366,1375.6909651093788,6.238664760845,-218504.4294505651,10.5,10499781495.570549,47.655,-122.3035,60.0,1.4166666666666667
2026-01-20T23:01:26+00:00,SAT-64295,322.3823020844261,57.82112290294922,1381.9129934308617,6.246165030553436,-218767.12062186393,10.5,10499781232.879377,47.655,-122.3035,60.0,1.4333333333333333
2026-01-20T23:01:27+00:00,SAT-64295,322.3854409033835,57.65556269002566,1388.1425020213337,6.253557376303609,-219026.03183962652,10.5,10499780973.96816,47.655,-122.3035,60.0,1.45
2026-01-20T23:01:28+00:00,SAT-64295,322.3882972572137,57.49121605534716,1394.3793832446336,6.260843594437423,-219281.22601934485,10.5,10499780718.773981,47.655,-122.3035,60.0,1.4666666666666666
2026-01-20T23:01:29+00:00,SAT-64295,322.39087860650255,57.328068238249244,1400.6235312561525,6.268025384180558,-219532.7626750899,10.5,10499780467.237326,47.655,-122.3035,60.0,1.4833333333333334
2026-01-20T23:01:30+00:00,SAT-64295,322.3931921565103,57.166104687800306,1406.8748419059755,6.2751044487108665,-219780.7014593546,10.5,10499780219.29854,47.655,-122.3035,60.0,1.5
2026-01-20T23:01:31+00:00,SAT-64295,322.3952448680595,57.005311058892026,1413.133212742823,6.282082469895274,-220025.10127823288,10.5,10499779974.898722,47.655,-122.3035,60.0,1.5166666666666666
2026-01-20T23:01:32+00:00,SAT-64295,322.39704346787323,56.84567320905624,1419.3985429927986,6.2889610606147,-220266.0186216371,10.5,10499779733.981379,47.655,-122.3035,60.0,1.5333333333333334
2026-01-20T23:01:33+00:00,SAT-64295,322.39859445816325,56.68717719657182,1425.6707334905848,6.295741840161769,-220503.51020404446,10.5,10499779496.489796,47.655,-122.3035,60.0,1.55
2026-01-20T23:01:34+00:00,SAT-64295,322.39990412604516,56.529809276639604,1431.9496866858397,6.302426381410845,-220737.63111416856,10.5,10499779262.368885,47.655,-122.3035,60.0,1.5666666666666667
2026-01-20T23:01:35+00:00,SAT-64295,322.4009785522534,56.373555898986055,1438.2353065969,6.309016211718613,-220968.43484650116,10.5,10499779031.565153,47.655,-122.3035,60.0,1.5833333333333333
2026-01-20T23:01:36+00:00,SAT-64295,322.40182361952736,56.218403705452985,1444.5274987653872,6.3155128611584415,-221195.97499068384,10.5,10499778804.02501,47.655,-122.3035,60.0,1.6
2026-01-20T23:01:37+00:00,SAT-64295,322.40244502063206,56.06433952642881,1450.8261702589161,6.321917815456191,-221420.30358312084,10.5,10499778579.696417,47.655,-122.3035,60.0,1.6166666666666667
2026-01-20T23:01:38+00:00,SAT-64295,322.40284826593717,55.9113503785073,1457.1312296268645,6.328232526892283,-221641.4714888157,10.5,10499778358.528511,47.655,-122.3035,60.0,1.6333333333333333
2026-01-20T23:01:39+00:00,SAT-64295,322.4030386906054,55.75942346191248,1463.4425868670185,6.334458415269362,-221859.5284352627,10.5,10499778140.471565,47.655,-122.3035,60.0,1.65
2026-01-20T23:01:40+00:00,SAT-64295,322.4030214615119,55.60854615792265,1469.7601533931804,6.340596900011694,-222074.5241367039,10.5,10499777925.475863,47.655,-122.3035,60.0,1.6666666666666667
2026-01-20T23:01:41+00:00,SAT-64295,322.4028015838287,55.45870602558342,1476.083842034792,6.3466493478167685,-222286.50646066642,10.5,10499777713.49354,47.655,-122.3035,60.0,1.6833333333333333
2026-01-20T23:01:42+00:00,SAT-64295,322.4023839072688,55.30989079971543,1482.413566984348,6.352617137051049,-222495.52368337437,10.5,10499777504.476316,47.655,-122.3035,60.0,1.7
2026-01-20T23:01:43+00:00,SAT-64295,322.40177313210796,55.16208838743358,1488.7492438090335,6.358501545667704,-222701.62056415342,10.5,10499777298.379436,47.655,-122.3035,60.0,1.7166666666666666
2026-01-20T23:01:44+00:00,SAT-64295,322.40097381473834,55.01528686736673,1495.0907893505796,6.3643039021445675,-222904.8436319167,10.5,10499777095.156368,47.655,-122.3035,60.0,1.7333333333333334
2026-01-20T23:01:45+00:00,SAT-64295,322.39999037326277,54.86947448533054,1501.4381217756516,6.370025505804684,-223105.23839445348,10.5,10499776894.761606,47.655,-122.3035,60.0,1.75
2026-01-20T23:01:46+00:00,SAT-64295,322.3988270927321,54.72463965195483,1507.791160546774,6.375667593972355,-223302.8481880946,10.5,10499776697.151812,47.655,-122.3035,60.0,1.7666666666666666
2026-01-20T23:01:47+00:00,SAT-64295,322.3974881299295,54.58077094112516,1514.149826360496,6.381231359470376,-223497.71479054002,10.5,10499776502.28521,47.655,-122.3035,60.0,1.7833333333333334
2026-01-20T23:01:48+00:00,SAT-64295,322.3959775181503,54.437857087999035,1520.5140411030077,6.386718058705682,-223689.8822064752,10.5,10499776310.117794,47.655,-122.3035,60.0,1.8
2026-01-20T23:01:49+00:00,SAT-64295,322.3942991718873,54.295886984618406,1526.8837279135569,6.392128861038091,-223879.39139182732,10.5,10499776120.608608,47.655,-122.3035,60.0,1.8166666666666667
2026-01-20T23:01:50+00:00,SAT-64295,322.3924568910466,54.15484967902322,1533.2588110976321,6.397464940803396,-224066.28347680336,10.5,10499775933.716524,47.655,-122.3035,60.0,1.8333333333333333
2026-01-20T23:01:51+00:00,SAT-64295,322.3904543651119,54.014734372300616,1539.6392161319268,6.402727413529761,-224250.5975319182,10.5,10499775749.402468,47.655,-122.3035,60.0,1.85
2026-01-20T23:01:52+00:00,SAT-64295,322.38829517711537,53.87553041708957,1546.024869605687,6.4079174110345525,-224432.37319820366,10.5,10499775567.626802,47.655,-122.3035,60.0,1.8666666666666667
2026-01-20T23:01:53+00:00,SAT-64295,322.3859828074179,53.73722731447828,1552.4156992369587,6.413036061515848,-224611.64998992876,10.5,10499775388.35001,47.655,-122.3035,60.0,1.8833333333333333
2026-01-20T23:01:54+00:00,SAT-64295,322.38352063746197,53.599814711374385,1558.8116338689774,6.418084412876566,-224788.46460908614,10.5,10499775211.53539,47.655,-122.3035,60.0,1.9
2026-01-20T23:01:55+00:00,SAT-64295,322.38091195307027,53.46328239961854,1565.2126033900863,6.423063531645364,-224962.85441002098,10.5,10499775037.14559,47.655,-122.3035,60.0,1.9166666666666667
2026-01-20T23:01:56+00:00,SAT-64295,322.378159947916,53.3276203129346,1571.618538752314,6.427974481128536,-225134.85663421737,10.5,10499774865.143366,47.655,-122.3035,60.0,1.9333333333333333
2026-01-20T23:01:57+00:00,SAT-64295,322.3752677267061,53.19281852443962,1578.0293719681595,6.432818251534365,-225304.505962958,10.5,10499774695.494038,47.655,-122.3035,60.0,1.95
2026-01-20T23:01:58+00:00,SAT-64295,322.372238308187,53.05886724566858,1584.4450360376898,6.437595868683869,-225471.8383248341,10.5,10499774528.161674,47.655,-122.3035,60.0,1.9666666666666666
2026-01-20T23:01:59+00:00,SAT-64295,322.3690746281499,52.92575682332234,1590.865464984057,6.442308313198272,-225636.88806534905,10.5,10499774363.111935,47.655,-122.3035,60.0,1.9833333333333334
2026-01-20T23:02:00+00:00,SAT-64295,322.3657795422265,52.79347773777316,1597.2905938084202,6.446956558723482,-225799.689285701,10.5,10499774200.310715,47.655,-122.3035,60.0,2.0
2026-01-20T23:02:01+00:00,SAT-64295,322.36235582859666,52.662020600800375,1603.720358482987,6.451541545175115,-225960.2749057106,10.5,10499774039.725094,47.655,-122.3035,60.0,2.0166666666666666
2026-01-20T23:02:02+00:00,SAT-64295,322.35880619058725,52.53137615391726,1610.154695917375,6.4560641950985955,-226118.67723682112,10.5,10499773881.322763,47.655,-122.3035,60.0,2.033333333333333
2026-01-20T23:02:03+00:00,SAT-64295,322.3551332591236,52.401535266397204,1616.5935439412867,6.46052547485806,-226274.93012519224,10.5,10499773725.069876,47.655,-122.3035,60.0,2.05
2026-01-20T23:02:04+00:00,SAT-64295,322.35133959527275,52.27248893207648,1623.0368413482117,6.464926230089019,-226429.0631885566,10.5,10499773570.936811,47.655,-122.3035,60.0,2.066666666666667
2026-01-20T23:02:05+00:00,SAT-64295,322.3474276923309,52.144228269580175,1629.4845277750205,6.46926738364158,-226581.1087490286,10.5,10499773418.89125,47.655,-122.3035,60.0,2.0833333333333335
2026-01-20T23:02:06+00:00,SAT-64295,322.3433999782161,52.01674451851798,1635.9365437789725,6.473549760079698,-226731.09568632586,10.5,10499773268.904314,47.655,-122.3035,60.0,2.1
2026-01-20T23:02:07+00:00,SAT-64295,322.3392588174328,51.890029039295385,1642.3928307396918,6.477774262201414,-226879.0556202546,10.5,10499773120.94438,47.655,-122.3035,60.0,2.1166666666666667
2026-01-20T23:02:08+00:00,SAT-64295,322.33500651329626,51.764073309387754,1648.8533309371942,6.4819417169529645,-227025.01751397003,10.5,10499772974.982487,47.655,-122.3035,60.0,2.1333333333333333
2026-01-20T23:02:09+00:00,SAT-64295,322.3306453097586,51.63886892276758,1655.3179874762352,6.486052903593566,-227169.00866042616,10.5,10499772830.991339,47.655,-122.3035,60.0,2.15
2026-01-20T23:02:10+00:00,SAT-64295,322.32617739329487,51.51440758875249,1661.7867442387524,6.490108685703464,-227311.0593058561,10.5,10499772688.940695,47.655,-122.3035,60.0,2.1666666666666665
2026-01-20T23:02:11+00:00,SAT-64295,322.32160489482294,51.390681128311826,1668.2595459679608,6.4941098247496045,-227451.19612005333,10.5,10499772548.80388,47.655,-122.3035,60.0,2.183333333333333
2026-01-20T23:02:12+00:00,SAT-64295,322.3169298913665,51.267681474064744,1674.7363381665111,6.498057123080902,-227589.44720467072,10.5,10499772410.552795,47.655,-122.3035,60.0,2.2
2026-01-20T23:02:13+00:00,SAT-64295,322.3121544077727,51.14540066751654,1681.2170671372637,6.501951330968728,-227725.83883738547,10.5,10499772274.161163,47.655,-122.3035,60.0,2.216666666666667
2026-01-20T23:02:14+00:00,SAT-64295,322.30728041832117,51.0238308581241,1687.7016799313499,6.5057932015678475,-227860.3973968631,10.5,10499772139.602604,47.655,-122.3035,60.0,2.2333333333333334
2026-01-20T23:02:15+00:00,SAT-64295,322.3023098482702,50.902964301338095,1694.190124351047,6.509583491674158,-227993.14938929738,10.5,10499772006.85061,47.655,-122.3035,60.0,2.25
2026-01-20T23:02:16+00:00,SAT-64295,322.29724457540914,50.78279335666081,1700.68234895341,6.513322917375923,-228124.11989512827,10.5,10499771875.880104,47.655,-122.3035,60.0,2.2666666666666666
2026-01-20T23:02:17+00:00,SAT-64295,322.2920864314507,50.66331048658493,1707.1783030096728,6.517012182351694,-228253.33356015506,10.5,10499771746.66644,47.655,-122.3035,60.0,2.283333333333333
2026-01-20T23:02:18+00:00,SAT-64295,322.28683720345543,50.5445082550077,1713.6779364928716,6.520652010561036,-228380.81574050433,10.5,10499771619.18426,47.655,-122.3035,60.0,2.3
2026-01-20T23:02:19+00:00,SAT-64295,322.2814986351634,50.42637932508696,1720.181200098071,6.524243070156159,-228506.5898376926,10.5,10499771493.410162,47.655,-122.3035,60.0,2.316666666666667
2026-01-20T23:02:20+00:00,SAT-64295,322.27607242830413,50.30891645852078,1726.6880451867069,6.527786061232412,-228630.68037202032,10.5,10499771369.319628,47.655,-122.3035,60.0,2.3333333333333335
2026-01-20T23:02:21+00:00,SAT-64295,322.2705602438458,50.192112513248205,1733.1984238184427,6.531281628021877,-228753.10990722023,10.5,10499771246.890093,47.655,-122.3035,60.0,2.35
2026-01-20T23:02:22+00:00,SAT-64295,322.26496370318193,50.075960442786204,1739.7122886954564,6.534730442035079,-228873.9019624314,10.5,10499771126.098038,47.655,-122.3035,60.0,2.3666666666666667
2026-01-20T23:02:23+00:00,SAT-64295,322.25928438931834,49.960453294071904,1746.229593189646,6.5381331472093365,-228993.0790910625,10.5,10499771006.92091,47.655,-122.3035,60.0,2.3833333333333333
2026-01-20T23:02:24+00:00,SAT-64295,322.25352384800385,49.845584206333356,1752.7502913151295,6.541490359271195,-229110.6628584617,10.5,10499770889.337141,47.655,-122.3035,60.0,2.4
2026-01-20T23:02:25+00:00,SAT-64295,322.24768358875855,49.73134641000051,1759.2743377001095,6.54480271696015,-229226.67563598807,10.5,10499770773.324364,47.655,-122.3035,60.0,2.4166666666666665
2026-01-20T23:02:26+00:00,SAT-64295,322.2417650859948,49.61773322470992,1765.8016876098243,6.548070831420894,-229341.1388285138,10.5,10499770658.861172,47.655,-122.3035,60.0,2.433333333333333
2026-01-20T23:02:27+00:00,SAT-64295,322.23576977997004,49.504738058259946,1772.332296919028,6.551295292561391,-229454.07309711108,10.5,10499770545.926903,47.655,-122.3035,60.0,2.45
2026-01-20T23:02:28+00:00,SAT-64295,322.2296990777919,49.392354405457155,1778.8661220908093,6.554476696418991,-229565.4993175292,10.5,10499770434.500683,47.655,-122.3035,60.0,2.466666666666667
2026-01-20T23:02:29+00:00,SAT-64295,322.22355435433155,49.280575846519575,1785.4031201827045,6.5576156296795425,-229675.43803798826,10.5,10499770324.561962,47.655,-122.3035,60.0,2.4833333333333334
2026-01-20T23:02:30+00:00,SAT-64295,322.2173369531959,49.169396045762454,1791.9432488373716,6.560712640537607,-229783.90845858058,10.5,10499770216.091541,47.655,-122.3035,60.0,2.5
2026-01-20T23:02:31+00:00,SAT-64295,322.21104818750314,49.05880875083636,1798.4864662442012,6.563768323926675,-229890.93141639372,10.5,10499770109.068584,47.655,-122.3035,60.0,2.5166666666666666
2026-01-20T23:02:32+00:00,SAT-64295,322.2046893408499,48.948807790488466,1805.0327311859305,6.566783209367025,-229996.52545746753,10.5,10499770003.474543,47.655,-122.3035,60.0,2.533333333333333
2026-01-20T23:02:33+00:00,SAT-64295,322.19826166804535,48.83938707430326,1811.582002973406,6.569757845170866,-230100.709786015,10.5,10499769899.290215,47.655,-122.3035,60.0,2.55
2026-01-20T23:02:34+00:00,SAT-64295,322.19176639595264,48.73054059100196,1818.1342414643232,6.572692764660464,-230203.50308123784,10.5,10499769796.49692,47.655,-122.3035,60.0,2.566666666666667
2026-01-20T23:02:35+00:00,SAT-64295,322.1852047242247,48.62226240735776,1824.6894070482779,6.575588498512549,-230304.92392967994,10.5,10499769695.07607,47.655,-122.3035,60.0,2.5833333333333335
2026-01-20T23:02:36+00:00,SAT-64295,322.17857782610236,48.51454666690674,1831.2474606441276,6.57844554535348,-230404.9897953455,10.5,10499769595.010204,47.655,-122.3035,60.0,2.6
2026-01-20T23:02:37+00:00,SAT-64295,322.1718868490386,48.407387589199224,1837.808363668027,6.581264429806326,-230503.71905275356,10.5,10499769496.280947,47.655,-122.3035,60.0,2.6166666666666667
2026-01-20T23:02:38+00:00,SAT-64295,322.1651329155059,48.300779468068235,1844.3720780593537,6.584045661609161,-230601.1295550877,10.5,10499769398.870445,47.655,-122.3035,60.0,2.6333333333333333
2026-01-20T23:02:39+00:00,SAT-64295,322.1583171235845,48.19471667064324,1850.9385662658651,6.586789681569451,-230697.23674129,10.5,10499769302.763258,47.655,-122.3035,60.0,2.65
2026-01-20T23:02:40+00:00,SAT-64295,322.151440547644,48.08919363722902,1857.5077911749506,6.589497016595477,-230792.0590659172,10.5,10499769207.940933,47.655,-122.3035,60.0,2.6666666666666665
2026-01-20T23:02:41+00:00,SAT-64295,322.14450423897154,47.98420487869101,1864.0797161995017,6.5921681419626745,-230885.6131751256,10.5,10499769114.386826,47.655,-122.3035,60.0,2.683333333333333
2026-01-20T23:02:42+00:00,SAT-64295,322.1375092264199,47.87974497609795,1870.6543052264192,6.5948035187310685,-230977.91521718743,10.5,10499769022.084784,47.655,-122.3035,60.0,2.7
2026-01-20T23:02:43+00:00,SAT-64295,322.1304565169421,47.77580857979402,1877.2315226024336,6.597403577971397,-231068.98029002338,10.5,10499768931.01971,47.655,-122.3035,60.0,2.716666666666667
2026-01-20T23:02:44+00:00,SAT-64295,322.1233470961537,47.67239040872014,1883.8113331041973,6.599968805487632,-231158.82540854358,10.5,10499768841.174591,47.655,-122.3035,60.0,2.7333333333333334
2026-01-20T23:02:45+00:00,SAT-64295,322.11618192897356,47.56948524839176,1890.39370199287,6.602499639906466,-231247.46593531015,10.5,10499768752.534065,47.655,-122.3035,60.0,2.75
2026-01-20T23:02:46+00:00,SAT-64295,322.1089619600803,47.46708795055748,1896.97859496707,6.604996512966695,-231334.9169916419,10.5,10499768665.083008,47.655,-122.3035,60.0,2.7666666666666666
2026-01-20T23:02:47+00:00,SAT-64295,322.1016881144746,47.36519343220374,1903.5659781560023,6.607459837843618,-231421.19304868564,10.5,10499768578.806952,47.655,-122.3035,60.0,2.783333333333333
2026-01-20T23:02:48+00:00,SAT-64295,322.09436129795023,47.26379667477192,1910.1558181009448,6.609890082968478,-231506.31051288496,10.5,10499768493.689487,47.655,-122.3035,60.0,2.8
2026-01-20T23:02:49+00:00,SAT-64295,322.0869823976478,47.16289272222987,1916.7480818103588,6.6122875969254045,-231590.2815931305,10.5,10499768409.718407,47.655,-122.3035,60.0,2.816666666666667
2026-01-20T23:02:50+00:00,SAT-64295,322.07955228242724,47.06247668191406,1923.3427366403591,6.614652868357284,-231673.12340376317,10.5,10499768326.876596,47.655,-122.3035,60.0,2.8333333333333335
2026-01-20T23:02:51+00:00,SAT-64295,322.07207180345154,46.96254372131806,1929.9397504344008,6.616986243999088,-231754.84808890833,10.5,10499768245.15191,47.655,-122.3035,60.0,2.85
2026-01-20T23:02:52+00:00,SAT-64295,322.06454179451947,46.86308906929785,1936.5390913817491,6.619288126288198,-231835.46974362535,10.5,10499768164.530256,47.655,-122.3035,60.0,2.8666666666666667
2026-01-20T23:02:53+00:00,SAT-64295,322.0569630725719,46.76410801420965,1943.1407280730339,6.621558933534458,-231915.00301889452,10.5,10499768084.99698,47.655,-122.3035,60.0,2.8833333333333333
2026-01-20T23:02:54+00:00,SAT-64295,322.0493364380842,46.66559590270649,1949.744629516079,6.623799027535712,-231993.46058640667,10.5,10499768006.539413,47.655,-122.3035,60.0,2.9
2026-01-20T23:02:55+00:00,SAT-64295,322.0416626754847,46.567548139642746,1956.3507650795414,6.626008797423131,-232070.85607518142,10.5,10499767929.143925,47.655,-122.3035,60.0,2.9166666666666665
2026-01-20T23:02:56+00:00,SAT-64295,322.03394255353663,46.46996018672258,1962.9591045201712,6.628188604098565,-232147.20212552822,10.5,10499767852.797874,47.655,-122.3035,60.0,2.933333333333333
2026-01-20T23:02:57+00:00,SAT-64295,322.02617682573316,46.37282756199887,1969.5696179546587,6.630338813591291,-232222.51155734062,10.5,10499767777.488443,47.655,-122.3035,60.0,2.95
2026-01-20T23:02:58+00:00,SAT-64295,322.0183662306582,46.276145838891836,1976.1822758647475,6.63245979770168,-232296.79739264035,10.5,10499767703.202608,47.655,-122.3035,60.0,2.966666666666667
2026-01-20T23:02:59+00:00,SAT-64295,322.0105114923757,46.179910645207855,1982.7970491029882,6.634551916606098,-232370.07224632724,10.5,10499767629.927753,47.655,-122.3035,60.0,2.9833333333333334
2026-01-20T23:03:00+00:00,SAT-64295,322.0026133207441,46.08411766244379,1989.4139088811503,6.636615485886659,-232442.3471714219,10.5,10499767557.652828,47.655,-122.3035,60.0,3.0
2026-01-20T23:03:01+00:00,SAT-64295,321.9946724117875,45.988762625573244,1996.0328267257412,6.638650899754698,-232513.63597487274,10.5,10499767486.364025,47.655,-122.3035,60.0,3.0166666666666666
2026-01-20T23:03:02+00:00,SAT-64295,321.98668944801074,45.89384132105138,2002.6537745564299,6.640658428965061,-232583.9481396598,10.5,10499767416.05186,47.655,-122.3035,60.0,3.033333333333333
2026-01-20T23:03:03+00:00,SAT-64295,321.97866509872085,45.79934958778161,2009.2767245629177,6.642638474258437,-232653.29770141712,10.5,10499767346.7023,47.655,-122.3035,60.0,3.05
2026-01-20T23:03:04+00:00,SAT-64295,321.97060002035505,45.70528331440412,2015.901649334578,6.644591340994352,-232721.69535512698,10.5,10499767278.304646,47.655,-122.3035,60.0,3.066666666666667
2026-01-20T23:03:05+00:00,SAT-64295,321.962494856778,45.61163843987998,2022.52852176533,6.646517323523534,-232789.15141019694,10.5,10499767210.848589,47.655,-122.3035,60.0,3.0833333333333335
2026-01-20T23:03:06+00:00,SAT-64295,321.9543502395514,45.51841095285314,2029.1573150426573,6.648416785209648,-232855.67859315962,10.5,10499767144.321407,47.655,-122.3035,60.0,3.1
2026-01-20T23:03:07+00:00,SAT-64295,321.9461667882751,45.425596889874036,2035.7880027164397,6.650289993531046,-232921.28627223833,10.5,10499767078.713728,47.655,-122.3035,60.0,3.1166666666666667
2026-01-20T23:03:08+00:00,SAT-64295,321.9379451108097,45.33319233601389,2042.4205586033215,6.652137301922049,-232985.986826198,10.5,10499767014.013174,47.655,-122.3035,60.0,3.1333333333333333
2026-01-20T23:03:09+00:00,SAT-64295,321.92968580359684,45.241193422881985,2049.054956872438,6.653958985365638,-233049.7898861058,10.5,10499766950.210114,47.655,-122.3035,60.0,3.15
2026-01-20T23:03:10+00:00,SAT-64295,321.9213894518764,45.149596329003494,2055.691171967176,6.655755325747684,-233112.70532479734,10.5,10499766887.294676,47.655,-122.3035,60.0,3.1666666666666665
2026-01-20T23:03:11+00:00,SAT-64295,321.9130566299799,45.05839727898147,2062.3291786120553,6.65752666806276,-233174.74522544182,10.5,10499766825.254774,47.655,-122.3035,60.0,3.183333333333333
2026-01-20T23:03:12+00:00,SAT-64295,321.9046879015633,44.967592541904715,2068.96895187567,6.659273251142391,-233235.91795292965,10.5,10499766764.082047,47.655,-122.3035,60.0,3.2
2026-01-20T23:03:13+00:00,SAT-64295,321.89628381985347,44.87717843212265,2075.610467064809,6.660995405517469,-233296.23508385068,10.5,10499766703.764915,47.655,-122.3035,60.0,3.216666666666667
2026-01-20T23:03:14+00:00,SAT-64295,321.8878449278876,44.78715130727873,2082.253699815912,6.662693378377197,-233355.7052758164,10.5,10499766644.294724,47.655,-122.3035,60.0,3.2333333333333334
2026-01-20T23:03:15+00:00,SAT-64295,321.87937175874146,44.69750756878099,2088.898626011947,6.664367451777192,-233414.33840760772,10.5,10499766585.661592,47.655,-122.3035,60.0,3.25
2026-01-20T23:03:16+00:00,SAT-64295,321.8708648357366,44.608243660653685,2095.545221817186,6.666017915483021,-233472.14462804038,10.5,10499766527.855371,47.655,-122.3035,60.0,3.2666666666666666
2026-01-20T23:03:17+00:00,SAT-64295,321.8623246726913,44.51935606876848,2102.193463684894,6.667645020843411,-233529.13274041007,10.5,10499766470.86726,47.655,-122.3035,60.0,3.283333333333333
2026-01-20T23:03:18+00:00,SAT-64295,321.8537517740971,44.43084132072473,2108.8433283190157,6.6692490324045375,-233585.3120102429,10.5,10499766414.68799,47.655,-122.3035,60.0,3.3
2026-01-20T23:03:19+00:00,SAT-64295,321.84514663535737,44.34269598502691,2115.4947926873338,6.670830221778359,-233640.69195053854,10.5,10499766359.30805,47.655,-122.3035,60.0,3.316666666666667
2026-01-20T23:03:20+00:00,SAT-64295,321.83650974295637,44.25491667036774,2122.1478340285207,6.6723888571770935,-233695.2819552234,10.5,10499766304.718044,47.655,-122.3035,60.0,3.3333333333333335
2026-01-20T23:03:21+00:00,SAT-64295,321.8278415746934,44.16750002505399,2128.802429848745,6.673925139971137,-233749.0890771406,10.5,10499766250.910923,47.655,-122.3035,60.0,3.35
2026-01-20T23:03:22+00:00,SAT-64295,321.8191425998217,44.080442737297055,2135.4585578550095,6.675439376142585,-233802.12403307742,10.5,10499766197.875967,47.655,-122.3035,60.0,3.3666666666666667
2026-01-20T23:03:23+00:00,SAT-64295,321.81041327928835,43.993741533214035,2142.1161960594827,6.676931782436244,-233854.39441435368,10.5,10499766145.605585,47.655,-122.3035,60.0,3.3833333333333333
2026-01-20T23:03:24+00:00,SAT-64295,321.80165406587344,43.90739317743477,2148.775322690499,6.678402606374453,-233905.90889024886,10.5,10499766094.09111,47.655,-122.3035,60.0,3.4
2026-01-20T23:03:25+00:00,SAT-64295,321.7928654043903,43.82139447211043,2155.4359162232563,6.67985209160463,-233956.6759943261,10.5,10499766043.324005,47.655,-122.3035,60.0,3.4166666666666665
2026-01-20T23:03:26+00:00,SAT-64295,321.7840477318414,43.735742256400734,2162.0979553759503,6.6812804501420855,-234006.7031522584,10.5,10499765993.296848,47.655,-122.3035,60.0,3.433333333333333
2026-01-20T23:03:27+00:00,SAT-64295,321.77520147760197,43.65043340632367,2168.761419078225,6.6826879584868335,-234056.0000482459,10.5,10499765943.999952,47.655,-122.3035,60.0,3.45
2026-01-20T23:03:28+00:00,SAT-64295,321.76632706356173,43.56546483336967,2175.4262865354895,6.684074782024515,-234104.57247479324,10.5,10499765895.427525,47.655,-122.3035,60.0,3.466666666666667
2026-01-20T23:03:29+00:00,SAT-64295,321.7574249043065,43.480833485400574,2182.092537118095,6.68544120192619,-234152.43027970038,10.5,10499765847.569721,47.655,-122.3035,60.0,3.4833333333333334
2026-01-20T23:03:30+00:00,SAT-64295,321.7484954072487,43.39653634461895,2188.7601504768163,6.686787422483757,-234199.58061813365,10.5,10499765800.419382,47.655,-122.3035,60.0,3.5
2026-01-20T23:03:31+00:00,SAT-64295,321.73953897280484,43.312570428037766,2195.4291064661734,6.688113638650825,-234246.0303181932,10.5,10499765753.969683,47.655,-122.3035,60.0,3.5166666666666666
2026-01-20T23:03:32+00:00,SAT-64295,321.73055599451203,43.22893278708467,2202.0993851351213,6.689420082744307,-234291.78751659996,10.5,10499765708.212482,47.655,-122.3035,60.0,3.533333333333333
2026-01-20T23:03:33+00:00,SAT-64295,321.721546859207,43.14562050660703,2208.770966764311,6.690706971607093,-234336.85980810924,10.5,10499765663.140192,47.655,-122.3035,60.0,3.55
2026-01-20T23:03:34+00:00,SAT-64295,321.7125119471238,43.06263070458533,2215.443831850661,6.691974508714623,-234381.2543192916,10.5,10499765618.74568,47.655,-122.3035,60.0,3.566666666666667
2026-01-20T23:03:35+00:00,SAT-64295,321.70345163207594,42.97996053179886,2222.117961094019,6.693222916323602,-234424.978834517,10.5,10499765575.021166,47.655,-122.3035,60.0,3.5833333333333335
2026-01-20T23:03:36+00:00,SAT-64295,321.6943662815395,42.897607171117144,2228.7933354158995,6.694452340652922,-234468.03847498953,10.5,10499765531.961525,47.655,-122.3035,60.0,3.6
2026-01-20T23:03:37+00:00,SAT-64295,321.685256256838,42.815567837965865,2235.4699358836438,6.695663049279527,-234510.44261238564,10.5,10499765489.557388,47.655,-122.3035,60.0,3.6166666666666667
2026-01-20T23:03:38+00:00,SAT-64295,321.67612191320734,42.73383977835108,2242.1477438314587,6.696855222617623,-234552.197565574,10.5,10499765447.802435,47.655,-122.3035,60.0,3.6333333333333333
2026-01-20T23:03:39+00:00,SAT-64295,321.6669635999816,42.65242026948017,2248.8267407734825,6.698029008789134,-234593.3085224109,10.5,10499765406.691477,47.655,-122.3035,60.0,3.65
2026-01-20T23:03:40+00:00,SAT-64295,321.6577816606613,42.57130661971233,2255.506908371581,6.699184667806662,-234633.7845896375,10.5,10499765366.21541,47.655,-122.3035,60.0,3.6666666666666665
2026-01-20T23:03:41+00:00,SAT-64295,321.64857643306624,42.49049616672334,2262.1882285469405,6.700322319714004,-234673.6299716954,10.5,10499765326.370028,47.655,-122.3035,60.0,3.683333333333333
2026-01-20T23:03:42+00:00,SAT-64295,321.63934824942925,42.40998627879692,2268.8706833404685,6.7014422134000995,-234712.85338572809,10.5,10499765287.146614,47.655,-122.3035,60.0,3.7
2026-01-20T23:03:43+00:00,SAT-64295,321.63009743651844,42.329774352805074,2275.5542550412997,6.702544480695381,-234751.45944899486,10.5,10499765248.54055,47.655,-122.3035,60.0,3.716666666666667
2026-01-20T23:03:44+00:00,SAT-64295,321.6208243157396,42.24985781522056,2282.2389260700465,6.7036293481250855,-234789.45609536784,10.5,10499765210.543905,47.655,-122.3035,60.0,3.7333333333333334
2026-01-20T23:03:45+00:00,SAT-64295,321.6115292032508,42.17023412053987,2288.9246790732436,6.704696954034262,-234826.84817027568,10.5,10499765173.15183,47.655,-122.3035,60.0,3.75
2026-01-20T23:03:46+00:00,SAT-64295,321.6022124100591,42.090900751942726,2295.6114968354004,6.705747502641618,-234863.64282632148,10.5,10499765136.357174,47.655,-122.3035,60.0,3.7666666666666666
2026-01-20T23:03:47+00:00,SAT-64295,321.59287424213005,42.011855220090325,2302.2993623447014,6.706781144348188,-234899.84533118564,10.5,10499765100.154669,47.655,-122.3035,60.0,3.783333333333333
2026-01-20T23:03:48+00:00,SAT-64295,321.5835150004733,41.93309506337328,2308.9882587393313,6.707798072799425,-234935.46246715102,10.5,10499765064.537533,47.655,-122.3035,60.0,3.8
2026-01-20T23:03:49+00:00,SAT-64295,321.5741349812523,41.85461784700115,2315.678169350603,6.708798427913314,-234970.4991347374,10.5,10499765029.500866,47.655,-122.3035,60.0,3.816666666666667
2026-01-20T23:03:50+00:00,SAT-64295,321.5647344758726,41.776421163255606,2322.3690776493754,6.709782421827902,-235004.96276391638,10.5,10499764995.037235,47.655,-122.3035,60.0,3.8333333333333335
2026-01-20T23:03:51+00:00,SAT-64295,321.5553137710812,41.69850263024896,2329.0609673180784,6.710750166660026,-235038.85728149398,10.5,10499764961.14272,47.655,-122.3035,60.0,3.85
2026-01-20T23:03:52+00:00,SAT-64295,321.5458731490476,41.62085989274023,2335.753822150961,6.711701852700893,-235072.18935227307,10.5,10499764927.810648,47.655,-122.3035,60.0,3.8666666666666667
2026-01-20T23:03:53+00:00,SAT-64295,321.53641288746155,41.543490620835854,2342.447626132054,6.712637639171688,-235104.96455285317,10.5,10499764895.035448,47.655,-122.3035,60.0,3.8833333333333333
2026-01-20T23:03:54+00:00,SAT-64295,321.52693325960087,41.46639250999682,2349.1423634041885,6.713557654808034,-235137.1873921003,10.5,10499764862.812609,47.655,-122.3035,60.0,3.9
2026-01-20T23:03:55+00:00,SAT-64295,321.5174345344489,41.38956328103304,2355.8380182385836,6.7144621059126015,-235168.86509560663,10.5,10499764831.134905,47.655,-122.3035,60.0,3.9166666666666665
2026-01-20T23:03:56+00:00,SAT-64295,321.50791697673196,41.313000678849484,2362.534575112214,6.715351105473823,-235200.001620705,10.5,10499764799.998379,47.655,-122.3035,60.0,3.933333333333333
2026-01-20T23:03:57+00:00,SAT-64295,321.4983808470454,41.2367024731849,2369.2320186147394,6.716224821437496,-235230.6028495677,10.5,10499764769.39715,47.655,-122.3035,60.0,3.95
2026-01-20T23:03:58+00:00,SAT-64295,321.4888264018973,41.16066645763004,2375.93033350332,6.717083379585473,-235260.67318760723,10.5,10499764739.326813,47.655,-122.3035,60.0,3.966666666666667
2026-01-20T23:03:59+00:00,SAT-64295,321.4792538938104,41.0848904497799,2382.6295046605596,6.717926960963423,-235290.2189758087,10.5,10499764709.781025,47.655,-122.3035,60.0,3.9833333333333334
2026-01-20T23:04:00+00:00,SAT-64295,321.4696635713729,41.009372290266015,2389.329517149627,6.718755693266643,-235319.24468660165,10.5,10499764680.755314,47.655,-122.3035,60.0,4.0
2026-01-20T23:04:01+00:00,SAT-64295,321.46005567933366,40.93410984304248,2396.0303561610453,6.719569707668689,-235347.75491423882,10.5,10499764652.245087,47.655,-122.3035,60.0,4.016666666666667
2026-01-20T23:04:02+00:00,SAT-64295,321.4504304586608,40.859100995025386,2402.73200701616,6.720369168065357,-235375.75539904425,10.5,10499764624.2446,47.655,-122.3035,60.0,4.033333333333333
2026-01-20T23:04:03+00:00,SAT-64295,321.4407881466213,40.784343655400974,2409.4344551997774,6.721154184587866,-235403.24999827912,10.5,10499764596.750002,47.655,-122.3035,60.0,4.05
2026-01-20T23:04:04+00:00,SAT-64295,321.4311289768352,40.70983575592821,2416.1376863065398,6.721924934691824,-235430.24492718946,10.5,10499764569.755074,47.655,-122.3035,60.0,4.066666666666666
2026-01-20T23:04:05+00:00,SAT-64295,321.4214531793615,40.635575249865525,2422.8416861080723,6.722681518999153,-235456.74370998057,10.5,10499764543.25629,47.655,-122.3035,60.0,4.083333333333333
2026-01-20T23:04:06+00:00,SAT-64295,321.4117609807432,40.56156011254193,2429.5464404763543,6.723424082587288,-235482.75142787787,10.5,10499764517.248571,47.655,-122.3035,60.0,4.1
2026-01-20T23:04:07+00:00,SAT-64295,321.4020526040945,40.48778834055234,2436.2519354280544,6.724152751256879,-235508.2724869524,10.5,10499764491.727512,47.655,-122.3035,60.0,4.116666666666666
2026-01-20T23:04:08+00:00,SAT-64295,321.39232826914275,40.414257951684455,2442.958157105308,6.724867677995295,-235533.3122454688,10.5,10499764466.687754,47.655,-122.3035,60.0,4.133333333333334
2026-01-20T23:04:09+00:00,SAT-64295,321.38258819229867,40.34096698432487,2449.665091802829,6.725568950712355,-235557.87378240094,10.5,10499764442.126217,47.655,-122.3035,60.0,4.15
2026-01-20T23:04:10+00:00,SAT-64295,321.37283258672073,40.267913497900054,2456.3727259030056,6.726256730464432,-235581.96273862416,10.5,10499764418.037262,47.655,-122.3035,60.0,4.166666666666667
2026-01-20T23:04:11+00:00,SAT-64295,321.3630616623702,40.19509557178212,2463.0810459488557,6.726931136159702,-235605.58327880575,10.5,10499764394.416721,47.655,-122.3035,60.0,4.183333333333334
2026-01-20T23:04:12+00:00,SAT-64295,321.35327562605505,40.12251130548327,2469.7900386019855,6.7275922854398615,-235628.73952325562,10.5,10499764371.260477,47.655,-122.3035,60.0,4.2
2026-01-20T23:04:13+00:00,SAT-64295,321.3434746815158,40.050158818394536,2476.499690641331,6.728240288217601,-235651.43532158108,10.5,10499764348.564678,47.655,-122.3035,60.0,4.216666666666667
