satellites_20260120_184412/SAT-60260.csv

timestamp,satellite,azimuth_deg,elevation_deg,distance_km,relative_velocity_kms,doppler_shift_hz,tx_freq_ghz,rx_freq_hz,ue_lat,ue_lon,ue_alt_m,time_minutes
2026-01-20T23:03:50+00:00,SAT-60260,188.9207618794948,40.00780652998224,825.9817691405437,-4.238559228979162,148452.27328661218,10.5,10500148452.273287,47.655,-122.3035,60.0,3.8333333333333335
2026-01-20T23:03:51+00:00,SAT-60260,188.94275842894763,40.42393830896317,821.7545127361752,-4.199924067840052,147099.10651695097,10.5,10500147099.106518,47.655,-122.3035,60.0,3.85
2026-01-20T23:03:52+00:00,SAT-60260,188.96574830536517,40.844070169225425,817.5657884658494,-4.160687528341575,145724.87693331676,10.5,10500145724.876934,47.655,-122.3035,60.0,3.8666666666666667
2026-01-20T23:03:53+00:00,SAT-60260,188.98976621090074,41.26822550910583,813.4161961042502,-4.120842950402537,144329.3512714941,10.5,10500144329.35127,47.655,-122.3035,60.0,3.8833333333333333
2026-01-20T23:03:54+00:00,SAT-60260,189.01484848790656,41.69642660476535,809.3063420683819,-4.080383855396912,142912.30262259493,10.5,10500142912.302622,47.655,-122.3035,60.0,3.9
2026-01-20T23:03:55+00:00,SAT-60260,189.04103321707908,42.12869454675857,805.2368392365995,-4.039303865027991,141473.50759168834,10.5,10500141473.507591,47.655,-122.3035,60.0,3.9166666666666665
2026-01-20T23:03:56+00:00,SAT-60260,189.06836032224902,42.56504916530426,801.2083068485449,-3.997596773700909,140012.7488325925,10.5,10500140012.748833,47.655,-122.3035,60.0,3.933333333333333
2026-01-20T23:03:57+00:00,SAT-60260,189.09687168313533,43.005508959501825,797.2213703329072,-3.9552565441290817,138529.81489399364,10.5,10500138529.814894,47.655,-122.3035,60.0,3.95
2026-01-20T23:03:58+00:00,SAT-60260,189.1266112563544,43.45009102288124,793.2766611395625,-3.912277305539818,137024.50015659863,10.5,10500137024.500156,47.655,-122.3035,60.0,3.966666666666667
2026-01-20T23:03:59+00:00,SAT-60260,189.1576252054361,43.898810965261966,789.3748165735041,-3.8686534170019216,135496.60705113594,10.5,10500135496.607052,47.655,-122.3035,60.0,3.9833333333333334
2026-01-20T23:04:00+00:00,SAT-60260,189.18996204097914,44.35168283816839,785.5164795656142,-3.824379432157029,133945.9448230976,10.5,10500133945.944822,47.655,-122.3035,60.0,4.0
2026-01-20T23:04:01+00:00,SAT-60260,189.22367277128762,44.808719052950174,781.7022984786096,-3.7794501356386303,132372.33080828743,10.5,10500132372.330809,47.655,-122.3035,60.0,4.016666666666667
2026-01-20T23:04:02+00:00,SAT-60260,189.25881106488043,45.26993029947135,777.9329268766659,-3.733860557781349,130775.59094800231,10.5,10500130775.590948,47.655,-122.3035,60.0,4.033333333333333
2026-01-20T23:04:03+00:00,SAT-60260,189.29543342578293,45.73532546295206,774.209023280372,-3.687606003640293,129155.56080541252,10.5,10500129155.560806,47.655,-122.3035,60.0,4.05
2026-01-20T23:04:04+00:00,SAT-60260,189.3335993829633,46.20491154086686,770.5312508927414,-3.6406820776177313,127512.08642809212,10.5,10500127512.086428,47.655,-122.3035,60.0,4.066666666666666
2026-01-20T23:04:05+00:00,SAT-60260,189.3733716951807,46.678693559472364,766.900277300664,-3.593084639840049,125845.02282015551,10.5,10500125845.02282,47.655,-122.3035,60.0,4.083333333333333
2026-01-20T23:04:06+00:00,SAT-60260,189.41481657212418,47.156674481363346,763.3167742198635,-3.5448098967929003,124154.23711668374,10.5,10500124154.237116,47.655,-122.3035,60.0,4.1
2026-01-20T23:04:07+00:00,SAT-60260,189.45800391457558,47.63885512074004,759.7814171494621,-3.495854422722469,122439.60933328724,10.5,10500122439.609333,47.655,-122.3035,60.0,4.116666666666666
2026-01-20T23:04:08+00:00,SAT-60260,189.50300757497502,48.12523405856798,756.2948850052002,-3.446215079381088,120701.02955525793,10.5,10500120701.029554,47.655,-122.3035,60.0,4.133333333333334
2026-01-20T23:04:09+00:00,SAT-60260,189.54990563916851,48.615807543392094,752.8578598326974,-3.3958891657790193,118938.40318251002,10.5,10500118938.403183,47.655,-122.3035,60.0,4.15
2026-01-20T23:04:10+00:00,SAT-60260,189.59878073409564,49.110569408912774,749.4710263713605,-3.3448743586643017,117151.64884493248,10.5,10500117151.648846,47.655,-122.3035,60.0,4.166666666666667
2026-01-20T23:04:11+00:00,SAT-60260,189.64972036166967,49.60951098043409,746.1350716776526,-3.2931687383603854,115340.6993073323,10.5,10500115340.699306,47.655,-122.3035,60.0,4.183333333333334
2026-01-20T23:04:12+00:00,SAT-60260,189.70281726255982,50.11262098147595,742.8506847225946,-3.2407708356553764,113505.50311169418,10.5,10500113505.50311,47.655,-122.3035,60.0,4.2
2026-01-20T23:04:13+00:00,SAT-60260,189.75816981331027,50.619885443946444,739.618555942501,-3.1876796163048935,111646.0240344051,10.5,10500111646.024035,47.655,-122.3035,60.0,4.216666666666667
2026-01-20T23:04:14+00:00,SAT-60260,189.81588245952892,51.1312876129258,736.4393768051729,-3.1338945603174015,109762.24386316187,10.5,10500109762.243864,47.655,-122.3035,60.0,4.233333333333333
2026-01-20T23:04:15+00:00,SAT-60260,189.8760661904876,51.646807860558326,733.3138392970162,-3.07941559983438,107854.1602212721,10.5,10500107854.160221,47.655,-122.3035,60.0,4.25
2026-01-20T23:04:16+00:00,SAT-60260,189.93883905748353,52.166423587414954,730.2426354721148,-3.024243193789588,105921.78918253732,10.5,10500105921.789183,47.655,-122.3035,60.0,4.266666666666667
2026-01-20T23:04:17+00:00,SAT-60260,190.004326742988,52.690109132391285,727.2264569268419,-2.9683783514364617,103965.16609528198,10.5,10500103965.166096,47.655,-122.3035,60.0,4.283333333333333
2026-01-20T23:04:18+00:00,SAT-60260,190.07266318582768,53.21783568414339,724.2659942510093,-2.911822619660027,101984.34513796303,10.5,10500101984.345139,47.655,-122.3035,60.0,4.3
2026-01-20T23:04:19+00:00,SAT-60260,190.14399126782337,53.74957118755223,721.3619364916684,-2.8545781127681082,99979.40036258395,10.5,10500099979.400362,47.655,-122.3035,60.0,4.316666666666666
2026-01-20T23:04:20+00:00,SAT-60260,190.2184635702749,54.285280252596145,718.5149705872011,-2.7966475427485697,97950.42675443151,10.5,10500097950.426754,47.655,-122.3035,60.0,4.333333333333333
2026-01-20T23:04:21+00:00,SAT-60260,190.29624320842618,54.82492406588469,715.7257807712332,-2.7380342229886003,95897.54036234062,10.5,10500095897.540361,47.655,-122.3035,60.0,4.35
2026-01-20T23:04:22+00:00,SAT-60260,190.37750475300663,55.36846030045991,712.9950479728392,-2.678742102510807,93820.87949778735,10.5,10500093820.879498,47.655,-122.3035,60.0,4.366666666666666
2026-01-20T23:04:23+00:00,SAT-60260,190.46243525032406,55.915843029531196,710.3234491826017,-2.6187757442764257,91720.60397497547,10.5,10500091720.603975,47.655,-122.3035,60.0,4.383333333333334
2026-01-20T23:04:24+00:00,SAT-60260,190.5512353517926,56.467022633359484,707.7116568403101,-2.558140399584499,89596.89771661046,10.5,10500089596.897717,47.655,-122.3035,60.0,4.4
2026-01-20T23:04:25+00:00,SAT-60260,190.64412056973038,57.02194571829936,705.1603381484579,-2.496841961204745,87449.96711241423,10.5,10500087449.967112,47.655,-122.3035,60.0,4.416666666666667
2026-01-20T23:04:26+00:00,SAT-60260,190.74132267235396,57.580555023939894,702.670154432483,-2.4348870284402278,85280.04329789507,10.5,10500085280.043299,47.655,-122.3035,60.0,4.433333333333334
2026-01-20T23:04:27+00:00,SAT-60260,190.84309123987018,58.14278934082036,700.2417604361185,-2.3722828697209857,83087.3808442184,10.5,10500083087.380844,47.655,-122.3035,60.0,4.45
2026-01-20T23:04:28+00:00,SAT-60260,190.94969540022163,58.70858341726504,697.8758036540501,-2.309037490445782,80872.26013431168,10.5,10500080872.260134,47.655,-122.3035,60.0,4.466666666666667
2026-01-20T23:04:29+00:00,SAT-60260,191.0614257730604,59.277867877987276,695.5729235969122,-2.245159589514702,78634.98584045224,10.5,10500078634.98584,47.655,-122.3035,60.0,4.483333333333333
2026-01-20T23:04:30+00:00,SAT-60260,191.17859664696087,59.850569129369966,693.3337510996362,-2.1806586013928517,76375.88839751581,10.5,10500076375.888397,47.655,-122.3035,60.0,4.5
2026-01-20T23:04:31+00:00,SAT-60260,191.30154842693113,60.426609270263405,691.1589075878471,-2.115544690169014,74095.32379488561,10.5,10500074095.323795,47.655,-122.3035,60.0,4.516666666666667
2026-01-20T23:04:32+00:00,SAT-60260,191.4306503897156,61.00590599680004,689.0490043501852,-2.049828754763124,71793.6737588402,10.5,10500071793.67376,47.655,-122.3035,60.0,4.533333333333333
2026-01-20T23:04:33+00:00,SAT-60260,191.56630379325995,61.58837250259704,687.0046418054347,-1.9835224505004518,69471.34650817249,10.5,10500069471.346508,47.655,-122.3035,60.0,4.55
2026-01-20T23:04:34+00:00,SAT-60260,191.7089453957382,62.17391737842679,685.0264087481355,-1.9166381477580134,67128.7753058122,10.5,10500067128.775307,47.655,-122.3035,60.0,4.566666666666666
2026-01-20T23:04:35+00:00,SAT-60260,191.85905144366296,62.762444492110276,683.1148816354383,-1.8491889835061857,64766.42026403129,10.5,10500064766.420263,47.655,-122.3035,60.0,4.583333333333333
2026-01-20T23:04:36+00:00,SAT-60260,192.0171422099663,63.35385287293718,681.2706238225549,-1.7811888318710964,62384.76731341424,10.5,10500062384.767313,47.655,-122.3035,60.0,4.6
2026-01-20T23:04:37+00:00,SAT-60260,192.183787166243,63.948036576212246,679.4941848275687,-1.7126522965100532,59984.32793581338,10.5,10500059984.327936,47.655,-122.3035,60.0,4.616666666666666
2026-01-20T23:04:38+00:00,SAT-60260,192.35961089575827,64.54488453049306,677.7860996038494,-1.6435947189166196,57565.63945522774,10.5,10500057565.639456,47.655,-122.3035,60.0,4.633333333333334
2026-01-20T23:04:39+00:00,SAT-60260,192.54529987460762,65.14428036927347,676.1468878041832,-1.5740321664871055,55129.26461984113,10.5,10500055129.26462,47.655,-122.3035,60.0,4.65
2026-01-20T23:04:40+00:00,SAT-60260,192.7416102709316,65.7461022373568,674.5770530568067,-1.5039814185085667,52675.79111126255,10.5,10500052675.791111,47.655,-122.3035,60.0,4.666666666666667
2026-01-20T23:04:41+00:00,SAT-60260,192.9493769427048,66.35022256505276,673.0770822554141,-1.433459953248626,50205.83109235715,10.5,10500050205.831093,47.655,-122.3035,60.0,4.683333333333334
2026-01-20T23:04:42+00:00,SAT-60260,193.16952385335486,66.95650780444251,671.6474448620409,-1.3624859399564748,47720.02092708745,10.5,10500047720.020927,47.655,-122.3035,60.0,4.7
2026-01-20T23:04:43+00:00,SAT-60260,193.4030761708553,67.56481812138735,670.2885922179241,-1.2910782213217944,45219.020566150604,10.5,10500045219.020567,47.655,-122.3035,60.0,4.716666666666667
2026-01-20T23:04:44+00:00,SAT-60260,193.6511743721709,68.17500703028277,669.0009568718592,-1.219256290581998,42703.512745177126,10.5,10500042703.512745,47.655,-122.3035,60.0,4.733333333333333
2026-01-20T23:04:45+00:00,SAT-60260,193.91509074627947,68.78692095638775,667.7849519313855,-1.1470402711816219,40174.20227231677,10.5,10500040174.202272,47.655,-122.3035,60.0,4.75
2026-01-20T23:04:46+00:00,SAT-60260,194.19624878061325,69.40039871151164,666.6409704342605,-1.0744508939343282,37631.815228355226,10.5,10500037631.815228,47.655,-122.3035,60.0,4.766666666666667
2026-01-20T23:04:47+00:00,SAT-60260,194.49624602714053,70.01527086176377,665.5693847427099,-1.0015094855555604,35077.098565079265,10.5,10500035077.098564,47.655,-122.3035,60.0,4.783333333333333
2026-01-20T23:04:48+00:00,SAT-60260,194.81688119333202,70.63135897071005,664.5705459491157,-0.9282379148042078,32510.818218929915,10.5,10500032510.818218,47.655,-122.3035,60.0,4.8
2026-01-20T23:04:49+00:00,SAT-60260,195.16018636983526,71.24847466331663,663.6447833354177,-0.8546585865872556,29933.758904522485,10.5,10500029933.758905,47.655,-122.3035,60.0,4.816666666666666
2026-01-20T23:04:50+00:00,SAT-60260,195.52846556455128,71.86641849799858,662.7924038383946,-0.7807944006637529,27346.722668284758,10.5,10500027346.722668,47.655,-122.3035,60.0,4.833333333333333
2026-01-20T23:04:51+00:00,SAT-60260,195.924340991447,72.48497857717653,662.0136915561327,-0.706668723597689,24750.527906128093,10.5,10500024750.527906,47.655,-122.3035,60.0,4.85
2026-01-20T23:04:52+00:00,SAT-60260,196.35080896610796,73.10392884071103,661.3089072824647,-0.6323053473220714,22146.007912186207,10.5,10500022146.007912,47.655,-122.3035,60.0,4.866666666666666
2026-01-20T23:04:53+00:00,SAT-60260,196.81130775655,73.72302694978049,660.6782880827354,-0.557728460179422,19534.009864530784,10.5,10500019534.009865,47.655,-122.3035,60.0,4.883333333333334
2026-01-20T23:04:54+00:00,SAT-60260,197.30980041337952,74.34201166281224,660.1220468984498,-0.48296260738532704,16915.39344043783,10.5,10500016915.39344,47.655,-122.3035,60.0,4.9
2026-01-20T23:04:55+00:00,SAT-60260,197.8508764698219,74.96059955679064,659.6403721913509,-0.40803264744833845,14291.029290028217,10.5,10500014291.02929,47.655,-122.3035,60.0,4.916666666666667
2026-01-20T23:04:56+00:00,SAT-60260,198.4398775572181,75.57848090216002,659.2334276309623,-0.3329637210562515,11661.797946533534,10.5,10500011661.797947,47.655,-122.3035,60.0,4.933333333333334
2026-01-20T23:04:57+00:00,SAT-60260,199.08305354239272,76.19531446064325,658.9013518131624,-0.2577811976425132,9028.587954825698,10.5,10500009028.587955,47.655,-122.3035,60.0,4.95
2026-01-20T23:04:58+00:00,SAT-60260,199.78775781400427,76.81072084791697,658.6442580320469,-0.18251064601353414,6392.2948426611465,10.5,10500006392.294842,47.655,-122.3035,60.0,4.966666666666667
2026-01-20T23:04:59+00:00,SAT-60260,200.56269316361482,77.42427404947814,658.4622340810893,-0.10717778125293609,3753.819261043014,10.5,10500003753.819262,47.655,-122.3035,60.0,4.983333333333333
2026-01-20T23:05:00+00:00,SAT-60260,201.41822334455776,78.03549044579529,658.355342107253,-0.0318084275022046,1114.0656806421337,10.5,10500001114.065681,47.655,-122.3035,60.0,5.0
2026-01-20T23:05:01+00:00,SAT-60260,202.36677042824186,78.64381454135724,658.3236185022242,0.0435715304832007,-1526.0593049128918,10.5,10499998473.940695,47.655,-122.3035,60.0,5.016666666666667
2026-01-20T23:05:02+00:00,SAT-60260,203.42332462893222,79.24860021141399,658.3670738419595,0.11893618825303354,-4165.648412198722,10.5,10499995834.351587,47.655,-122.3035,60.0,5.033333333333333
2026-01-20T23:05:03+00:00,SAT-60260,204.60610202369298,79.84908586626831,658.4856928670438,0.19425966785156065,-6803.795285741935,10.5,10499993196.204714,47.655,-122.3035,60.0,5.05
2026-01-20T23:05:04+00:00,SAT-60260,205.93739669675375,80.44436124850188,658.6794345091143,0.26951616181058957,-9439.596038840946,10.5,10499990560.403961,47.655,-122.3035,60.0,5.066666666666666
2026-01-20T23:05:05+00:00,SAT-60260,207.44468727396725,81.03332261468516,658.9482319611602,0.34467997591565386,-12072.150751418721,10.5,10499987927.849249,47.655,-122.3035,60.0,5.083333333333333
2026-01-20T23:05:06+00:00,SAT-60260,209.16207235485115,81.61461173184323,659.2919927904734,0.41972557489408074,-14700.565070212166,10.5,10499985299.434929,47.655,-122.3035,60.0,5.1
2026-01-20T23:05:07+00:00,SAT-60260,211.13212020659216,82.18653218159028,659.7105990971677,0.49462762404797395,-17323.951666935285,10.5,10499982676.048332,47.655,-122.3035,60.0,5.116666666666666
2026-01-20T23:05:08+00:00,SAT-60260,213.4082131063185,82.74693386345596,660.2039077142183,0.5693610290337179,-19941.43163152569,10.5,10499980058.568369,47.655,-122.3035,60.0,5.133333333333334
2026-01-20T23:05:09+00:00,SAT-60260,216.0574162759051,83.29305330355815,660.7717504471746,0.643900981819783,-22552.13608178135,10.5,10499977447.863918,47.655,-122.3035,60.0,5.15
2026-01-20T23:05:10+00:00,SAT-60260,219.1637387891862,83.8212939221539,661.4139343597095,0.7182229980655281,-25155.207472524362,10.5,10499974844.792528,47.655,-122.3035,60.0,5.166666666666667
2026-01-20T23:05:11+00:00,SAT-60260,222.83123893540406,84.32692876423923,662.1302420964468,0.7923029556238023,-27749.800944124898,10.5,10499972250.199057,47.655,-122.3035,60.0,5.183333333333334
2026-01-20T23:05:12+00:00,SAT-60260,227.1854943644857,84.80371412148602,662.920432244189,0.8661171302249611,-30335.085572306463,10.5,10499969664.914427,47.655,-122.3035,60.0,5.2
2026-01-20T23:05:13+00:00,SAT-60260,232.3701025426497,85.24342964572557,663.7842397287333,0.9396422370910443,-32910.245825650374,10.5,10499967089.754175,47.655,-122.3035,60.0,5.216666666666667
2026-01-20T23:05:14+00:00,SAT-60260,238.53181835114225,85.63543641807308,664.721376253192,1.012855459199148,-35474.482555498624,10.5,10499964525.517445,47.655,-122.3035,60.0,5.233333333333333
2026-01-20T23:05:15+00:00,SAT-60260,245.78473614519442,85.9665066304771,665.7315307645,1.0857344825427289,-38027.01423095391,10.5,10499961972.98577,47.655,-122.3035,60.0,5.25
2026-01-20T23:05:16+00:00,SAT-60260,254.145968758062,86.22142534549417,666.8143699550894,1.1582575282592238,-40567.078064124784,10.5,10499959432.921936,47.655,-122.3035,60.0,5.266666666666667
2026-01-20T23:05:17+00:00,SAT-60260,263.45413126661197,86.38500416294968,667.9695387966066,1.2304033716993474,-43093.93067801308,10.5,10499956906.069323,47.655,-122.3035,60.0,5.283333333333333
2026-01-20T23:05:18+00:00,SAT-60260,273.32168870351416,86.44566420820153,669.196661092648,1.3021513880776756,-45606.8497053905,10.5,10499954393.150295,47.655,-122.3035,60.0,5.3
2026-01-20T23:05:19+00:00,SAT-60260,283.19271959960406,86.39931644541473,670.4953400770241,1.3734815595821346,-48105.134037802956,10.5,10499951894.865963,47.655,-122.3035,60.0,5.316666666666666
2026-01-20T23:05:20+00:00,SAT-60260,292.5101738821353,86.25106833670682,671.8651590191141,1.4443745014449108,-50588.10473868413,10.5,10499949411.895262,47.655,-122.3035,60.0,5.333333333333333
2026-01-20T23:05:21+00:00,SAT-60260,300.8839388787608,86.01340667901445,673.3056818552219,1.5148114917839728,-53055.1060885318,10.5,10499946944.893911,47.655,-122.3035,60.0,5.35
2026-01-20T23:05:22+00:00,SAT-60260,308.15010162756903,85.70224828771114,674.8164538496943,1.5847744787264073,-55505.5058343972,10.5,10499944494.494165,47.655,-122.3035,60.0,5.366666666666666
2026-01-20T23:05:23+00:00,SAT-60260,314.3241484113354,85.33334286788137,676.3970022631441,1.6542461033347209,-57938.69599286106,10.5,10499942061.304007,47.655,-122.3035,60.0,5.383333333333334
2026-01-20T23:05:24+00:00,SAT-60260,319.5194627334419,84.92028416693539,678.0468370435367,1.723209705553009,-60354.09305829366,10.5,10499939645.906942,47.655,-122.3035,60.0,5.4
2026-01-20T23:05:25+00:00,SAT-60260,323.88267476095746,84.47394743711403,679.7654515232082,1.7916493480666078,-62751.13883852069,10.5,10499937248.861162,47.655,-122.3035,60.0,5.416666666666667
2026-01-20T23:05:26+00:00,SAT-60260,327.5575364607367,84.00269676566194,681.55232313968,1.8595498230150387,-65129.300689938995,10.5,10499934870.69931,47.655,-122.3035,60.0,5.433333333333334
2026-01-20T23:05:27+00:00,SAT-60260,330.6698727170864,83.51285561329198,683.406914163167,1.9268966356958155,-67488.07094675498,10.5,10499932511.929052,47.655,-122.3035,60.0,5.45
2026-01-20T23:05:28+00:00,SAT-60260,333.32399222690543,83.00918674888922,685.3286724078342,1.993676054343935,-69826.96866447292,10.5,10499930173.031336,47.655,-122.3035,60.0,5.466666666666667
2026-01-20T23:05:29+00:00,SAT-60260,335.6041233814781,82.49529201563543,687.3170319927,2.0598750738198297,-72145.5383480935,10.5,10499927854.461653,47.655,-122.3035,60.0,5.483333333333333
2026-01-20T23:05:30+00:00,SAT-60260,337.57751151794855,81.97391839180369,689.3714140663229,2.1254814476901047,-74443.35107571684,10.5,10499925556.648924,47.655,-122.3035,60.0,5.5
2026-01-20T23:05:31+00:00,SAT-60260,339.2976823734356,81.4471834852787,691.4912275634858,2.190483640930572,-76720.00284200281,10.5,10499923279.997158,47.655,-122.3035,60.0,5.516666666666667
2026-01-20T23:05:32+00:00,SAT-60260,340.8073168860592,80.91673904883646,693.6758699147073,2.2548708959692854,-78975.11687127732,10.5,10499921024.88313,47.655,-122.3035,60.0,5.533333333333333
2026-01-20T23:05:33+00:00,SAT-60260,342.1406017476264,80.38388904626889,695.9247278216206,2.3186331787161394,-81208.34172726075,10.5,10499918791.658272,47.655,-122.3035,60.0,5.55
2026-01-20T23:05:34+00:00,SAT-60260,343.32508447203446,79.8496751419126,698.2371779785269,2.3817611743277474,-83419.35116473593,10.5,10499916580.648836,47.655,-122.3035,60.0,5.566666666666666
2026-01-20T23:05:35+00:00,SAT-60260,344.38311319073085,79.31493898576197,700.6125877897231,2.4442462989268634,-85607.84454001197,10.5,10499914392.15546,47.655,-122.3035,60.0,5.583333333333333
2026-01-20T23:05:36+00:00,SAT-60260,345.3329466163194,78.78036796931113,703.0503160985195,2.5060807023528673,-87773.54690725777,10.5,10499912226.453093,47.655,-122.3035,60.0,5.6
2026-01-20T23:05:37+00:00,SAT-60260,346.18960880092607,78.24652915742551,705.5497139189994,2.567257213589633,-89916.20710715528,10.5,10499910083.792892,47.655,-122.3035,60.0,5.616666666666666
2026-01-20T23:05:38+00:00,SAT-60260,346.96554883988273,77.71389471272688,708.1101251133528,2.627769353968698,-92035.59822933013,10.5,10499907964.401772,47.655,-122.3035,60.0,5.633333333333334
2026-01-20T23:05:39+00:00,SAT-60260,347.6711522226786,77.18286112612364,710.7308870823775,2.68761135653015,-94131.51829045203,10.5,10499905868.48171,47.655,-122.3035,60.0,5.65
2026-01-20T23:05:40+00:00,SAT-60260,348.31513934412067,76.65376390432787,713.4113314752904,2.7467780936784307,-96203.78770043483,10.5,10499903796.2123,47.655,-122.3035,60.0,5.666666666666667
2026-01-20T23:05:41+00:00,SAT-60260,348.904877944288,76.12688891265921,716.1507848273856,2.8052650970923554,-98252.24995976962,10.5,10499901747.75004,47.655,-122.3035,60.0,5.683333333333334
2026-01-20T23:05:42+00:00,SAT-60260,349.4466296603808,75.6024812030102,718.9485692175524,2.8630685349779563,-100276.77086282318,10.5,10499899723.229137,47.655,-122.3035,60.0,5.7
2026-01-20T23:05:43+00:00,SAT-60260,349.9457458448111,75.08075195358265,721.8040029031038,2.9201852115009306,-102277.23847795988,10.5,10499897722.761522,47.655,-122.3035,60.0,5.716666666666667
2026-01-20T23:05:44+00:00,SAT-60260,350.4068241055569,74.561883968516,724.7164009540408,2.976612512601135,-104253.56124973604,10.5,10499895746.43875,47.655,-122.3035,60.0,5.733333333333333
2026-01-20T23:05:45+00:00,SAT-60260,350.83383423823364,74.0460360822323,727.6850758332748,3.0323484227605384,-106205.66858618456,10.5,10499893794.331413,47.655,-122.3035,60.0,5.75
2026-01-20T23:05:46+00:00,SAT-60260,351.2302201770987,73.53334670485158,730.7093379935746,3.0873914913753326,-108133.50968102405,10.5,10499891866.490318,47.655,-122.3035,60.0,5.766666666666667
2026-01-20T23:05:47+00:00,SAT-60260,351.59898302127567,73.023936706268,733.7884964409731,3.1417408198693884,-110037.05306231746,10.5,10499889962.946938,47.655,-122.3035,60.0,5.783333333333333
2026-01-20T23:05:48+00:00,SAT-60260,351.9427490452508,72.51791177745766,736.9218592853227,3.195396026429009,-111916.28535733408,10.5,10499888083.714643,47.655,-122.3035,60.0,5.8
2026-01-20T23:05:49+00:00,SAT-60260,352.2638257175932,72.01536438178162,740.1087342556813,3.248357269427926,-113771.21211299193,10.5,10499886228.787888,47.655,-122.3035,60.0,5.816666666666666
2026-01-20T23:05:50+00:00,SAT-60260,352.5642480953917,71.51637537079993,743.3484292390575,3.3006251633686374,-115601.85485176778,10.5,10499884398.145147,47.655,-122.3035,60.0,5.833333333333333
2026-01-20T23:05:51+00:00,SAT-60260,352.84581743446927,71.02101534697319,746.6402527353238,3.3522008132665237,-117408.25227597453,10.5,10499882591.747725,47.655,-122.3035,60.0,5.85
2026-01-20T23:05:52+00:00,SAT-60260,353.1101334901262,70.52934580504788,749.9835143464215,3.4030857784073016,-119190.45899839372,10.5,10499880809.541002,47.655,-122.3035,60.0,5.866666666666666
2026-01-20T23:05:53+00:00,SAT-60260,353.35862165967893,70.04142010372789,753.3775252294198,3.4532820421957395,-120948.5444862501,10.5,10499879051.455513,47.655,-122.3035,60.0,5.883333333333334
2026-01-20T23:05:54+00:00,SAT-60260,353.59255589387914,69.55728429786426,756.821598519503,3.5027920056918647,-122682.59283482234,10.5,10499877317.407166,47.655,-122.3035,60.0,5.9
2026-01-20T23:05:55+00:00,SAT-60260,353.8130781211698,69.07697785297421,760.3150497465131,3.551618445033329,-124392.70127619406,10.5,10499875607.298723,47.655,-122.3035,60.0,5.916666666666667
2026-01-20T23:05:56+00:00,SAT-60260,354.021214780891,68.60053426732618,763.8571972090263,3.599764554101094,-126078.98167358662,10.5,10499873921.018326,47.655,-122.3035,60.0,5.933333333333334
2026-01-20T23:05:57+00:00,SAT-60260,354.2178909559558,68.12798160617481,767.447362390983,3.647233821400395,-127741.55620920974,10.5,10499872258.44379,47.655,-122.3035,60.0,5.95
2026-01-20T23:05:58+00:00,SAT-60260,354.4039424895518,67.65934298379618,771.0848702555264,3.694030114659768,-129380.56034727719,10.5,10499870619.439653,47.655,-122.3035,60.0,5.966666666666667
2026-01-20T23:05:59+00:00,SAT-60260,354.58012642195547,67.19463697588652,774.7690496232137,3.740157600791135,-130996.14003067053,10.5,10499869003.85997,47.655,-122.3035,60.0,5.983333333333333
2026-01-20T23:06:00+00:00,SAT-60260,354.7471300029978,66.73387799318331,778.4992334704028,3.7856207471606083,-132588.45172544796,10.5,10499867411.548275,47.655,-122.3035,60.0,6.0
2026-01-20T23:06:01+00:00,SAT-60260,354.90557850399307,66.2770766126676,782.2747592289043,3.8304243014704866,-134157.66171622672,10.5,10499865842.338284,47.655,-122.3035,60.0,6.016666666666667
2026-01-20T23:06:02+00:00,SAT-60260,355.0560420097198,65.82423987500937,786.0949690655708,3.874573273500694,-135703.94546669113,10.5,10499864296.054533,47.655,-122.3035,60.0,6.033333333333333
2026-01-20T23:06:03+00:00,SAT-60260,355.1990413414306,65.37537155298199,789.9592101436756,3.9180729155505785,-137227.48693458148,10.5,10499862772.513065,47.655,-122.3035,60.0,6.05
2026-01-20T23:06:04+00:00,SAT-60260,355.33505323728065,64.93047239496583,793.8668348647847,3.9609287241068882,-138728.47863011394,10.5,10499861271.52137,47.655,-122.3035,60.0,6.066666666666666
2026-01-20T23:06:05+00:00,SAT-60260,355.4645148964507,64.48954034467096,797.8172011122939,4.003146375611278,-140207.11936628647,10.5,10499859792.880634,47.655,-122.3035,60.0,6.083333333333333
2026-01-20T23:06:06+00:00,SAT-60260,355.58782797388955,64.05257074724396,801.8096724309036,4.044731775171641,-141663.61596495612,10.5,10499858336.384035,47.655,-122.3035,60.0,6.1
2026-01-20T23:06:07+00:00,SAT-60260,355.70536210460864,63.619556531526854,805.8436182546748,4.085690993223829,-143098.1810384643,10.5,10499856901.818962,47.655,-122.3035,60.0,6.116666666666666
2026-01-20T23:06:08+00:00,SAT-60260,355.817458017371,63.190488383068725,809.9184140719166,4.126030265341701,-144511.03298298403,10.5,10499855488.967016,47.655,-122.3035,60.0,6.133333333333334
2026-01-20T23:06:09+00:00,SAT-60260,355.9244302938841,62.765354902567886,814.0334415898841,4.165755997006517,-145902.39614556427,10.5,10499854097.603855,47.655,-122.3035,60.0,6.15
2026-01-20T23:06:10+00:00,SAT-60260,356.02656981983927,62.344142750801474,818.1880889042319,4.204874693012411,-147272.4983516107,10.5,10499852727.501648,47.655,-122.3035,60.0,6.166666666666667
2026-01-20T23:06:11+00:00,SAT-60260,356.12414596487923,61.92683678914347,822.381750598063,4.2433930355941305,-148621.57364125006,10.5,10499851378.42636,47.655,-122.3035,60.0,6.183333333333334
2026-01-20T23:06:12+00:00,SAT-60260,356.21740852951075,61.51342020147315,826.6138279188955,4.281317769195062,-149949.85823341878,10.5,10499850050.141768,47.655,-122.3035,60.0,6.2
2026-01-20T23:06:13+00:00,SAT-60260,356.30658948269235,61.103874618134405,830.883728840706,4.318655759105759,-151257.5925796321,10.5,10499848742.407421,47.655,-122.3035,60.0,6.216666666666667
2026-01-20T23:06:14+00:00,SAT-60260,356.391904519861,60.69818022510019,835.1908681844542,4.355413976484033,-152545.0208393246,10.5,10499847454.97916,47.655,-122.3035,60.0,6.233333333333333
2026-01-20T23:06:15+00:00,SAT-60260,356.4735544608217,60.296315866778784,839.5346677236676,4.391599432734003,-153812.3885815267,10.5,10499846187.611418,47.655,-122.3035,60.0,6.25
2026-01-20T23:06:16+00:00,SAT-60260,356.55172650540663,59.898259147601976,843.914556224581,4.427219241661238,-155059.94496180088,10.5,10499844940.055038,47.655,-122.3035,60.0,6.266666666666667
2026-01-20T23:06:17+00:00,SAT-60260,356.62659536586995,59.50398652094537,848.3299695482646,4.462280531381131,-156287.93963689997,10.5,10499843712.060364,47.655,-122.3035,60.0,6.283333333333333
2026-01-20T23:06:18+00:00,SAT-60260,356.6983242870642,59.113473379879,852.7803506648953,4.496790505108703,-157496.62489388368,10.5,10499842503.375107,47.655,-122.3035,60.0,6.3
2026-01-20T23:06:19+00:00,SAT-60260,356.76706596977226,58.726694136487666,857.265149728657,4.530756422150052,-158686.25498435838,10.5,10499841313.745016,47.655,-122.3035,60.0,6.316666666666666
2026-01-20T23:06:20+00:00,SAT-60260,356.8329634063444,58.34362229767,861.7838241336814,4.5641854918686455,-159857.08241072824,10.5,10499840142.91759,47.655,-122.3035,60.0,6.333333333333333
2026-01-20T23:06:21+00:00,SAT-60260,356.89615063670175,57.96423054492256,866.3358384642383,4.597085031285542,-161009.36344602169,10.5,10499838990.636555,47.655,-122.3035,60.0,6.35
2026-01-20T23:06:22+00:00,SAT-60260,356.95675343765964,57.58849079583014,870.9206646021071,4.629462325672548,-162143.35325127412,10.5,10499837856.64675,47.655,-122.3035,60.0,6.366666666666666
2026-01-20T23:06:23+00:00,SAT-60260,357.01488994760143,57.21637427316066,875.5377816949111,4.66132464854546,-163259.30657577555,10.5,10499836740.693424,47.655,-122.3035,60.0,6.383333333333334
2026-01-20T23:06:24+00:00,SAT-60260,357.0706712359945,56.847851567851315,880.1866761443939,4.69267930356131,-164357.47922448989,10.5,10499835642.520775,47.655,-122.3035,60.0,6.4
2026-01-20T23:06:25+00:00,SAT-60260,357.12420182338803,56.4828926947848,884.866841636479,4.723533557699049,-165438.1257177591,10.5,10499834561.874283,47.655,-122.3035,60.0,6.416666666666667
2026-01-20T23:06:26+00:00,SAT-60260,357.1755801556037,56.12146715024302,889.5777791046909,4.753894703775131,-166501.50148086407,10.5,10499833498.49852,47.655,-122.3035,60.0,6.433333333333334
2026-01-20T23:06:27+00:00,SAT-60260,357.2248990381536,55.76354396106226,894.3189967559225,4.783769928852849,-167547.8582351625,10.5,10499832452.141766,47.655,-122.3035,60.0,6.45
2026-01-20T23:06:28+00:00,SAT-60260,357.27224603260225,55.40909174056545,899.0900099649651,4.813166482658737,-168577.44989674402,10.5,10499831422.550104,47.655,-122.3035,60.0,6.466666666666667
2026-01-20T23:06:29+00:00,SAT-60260,357.31770382194946,55.058078728586416,903.8903413370035,4.842091526097381,-169590.52727077776,10.5,10499830409.472729,47.655,-122.3035,60.0,6.483333333333333
2026-01-20T23:06:30+00:00,SAT-60260,357.3613505444009,54.710472840079234,908.7195206190313,4.870552227021618,-170587.34140579012,10.5,10499829412.658594,47.655,-122.3035,60.0,6.5
2026-01-20T23:06:31+00:00,SAT-60260,357.4032601011606,54.36624170387301,913.5770847067809,4.8985556136435395,-171568.13845949774,10.5,10499828431.86154,47.655,-122.3035,60.0,6.516666666666667
2026-01-20T23:06:32+00:00,SAT-60260,357.4435024382245,54.02535270930957,918.4625775054546,4.926108804548777,-172533.16775488114,10.5,10499827466.832245,47.655,-122.3035,60.0,6.533333333333333
2026-01-20T23:06:33+00:00,SAT-60260,357.4821438082592,53.68777303404339,923.3755500198579,4.953218759924964,-173482.67306715276,10.5,10499826517.326933,47.655,-122.3035,60.0,6.55
2026-01-20T23:06:34+00:00,SAT-60260,357.51924700971773,53.35346968718039,928.3155601964231,4.979892434304522,-174416.8979734556,10.5,10499825583.102026,47.655,-122.3035,60.0,6.566666666666666
2026-01-20T23:06:35+00:00,SAT-60260,357.5548716090271,53.022409539392854,933.2821729175695,5.006136691404807,-175336.08287020505,10.5,10499824663.91713,47.655,-122.3035,60.0,6.583333333333333
2026-01-20T23:06:36+00:00,SAT-60260,357.5890741452243,52.69455935680005,938.2749599111306,5.031958392070592,-176240.46805320642,10.5,10499823759.531946,47.655,-122.3035,60.0,6.6
2026-01-20T23:06:37+00:00,SAT-60260,357.6219083199515,52.369885827026295,943.293499747489,5.057364270651641,-177130.28938787457,10.5,10499822869.710611,47.655,-122.3035,60.0,6.616666666666666
2026-01-20T23:06:38+00:00,SAT-60260,357.65342517242846,52.048355591546596,948.337377713419,5.0823610111570225,-178005.7809764805,10.5,10499821994.219023,47.655,-122.3035,60.0,6.633333333333334
2026-01-20T23:06:39+00:00,SAT-60260,357.6836732422478,51.729935271139645,953.4061857618794,5.106955259298395,-178867.1755799579,10.5,10499821132.82442,47.655,-122.3035,60.0,6.65
2026-01-20T23:06:40+00:00,SAT-60260,357.712698720508,51.4145914889803,958.4995224738198,5.131153568383412,-179714.70272286108,10.5,10499820285.297277,47.655,-122.3035,60.0,6.666666666666667
2026-01-20T23:06:41+00:00,SAT-60260,357.74054558971983,51.10229089560056,963.6169929660208,5.154962392452584,-180548.58845298947,10.5,10499819451.411547,47.655,-122.3035,60.0,6.683333333333334
2026-01-20T23:06:42+00:00,SAT-60260,357.7672557538609,50.793000192615,968.7582087920935,5.178388168343187,-181369.05821561217,10.5,10499818630.941784,47.655,-122.3035,60.0,6.7
2026-01-20T23:06:43+00:00,SAT-60260,357.79286915988615,50.48668615000399,973.9227879253211,5.201437203918388,-182176.33293877952,10.5,10499817823.66706,47.655,-122.3035,60.0,6.716666666666667
2026-01-20T23:06:44+00:00,SAT-60260,357.81742391013313,50.18331562885409,979.1103546300291,5.224115764531438,-182970.63206166483,10.5,10499817029.367939,47.655,-122.3035,60.0,6.733333333333333
2026-01-20T23:06:45+00:00,SAT-60260,357.8409563675947,49.8828555975552,984.3205394191884,5.246430029413305,-183752.17200707464,10.5,10499816247.827993,47.655,-122.3035,60.0,6.75
2026-01-20T23:06:46+00:00,SAT-60260,357.86350125387327,49.585273149398944,989.5529789685232,5.26838606570975,-184521.1652721176,10.5,10499815478.834728,47.655,-122.3035,60.0,6.766666666666667
2026-01-20T23:06:47+00:00,SAT-60260,357.8850917403947,49.2905355204513,994.8073160047245,5.289989923846869,-185277.82376830882,10.5,10499814722.176231,47.655,-122.3035,60.0,6.783333333333333
2026-01-20T23:06:48+00:00,SAT-60260,357.9057595341967,48.99861010087332,1000.0831992887744,5.311247496429461,-186022.35387959404,10.5,10499813977.64612,47.655,-122.3035,60.0,6.8
2026-01-20T23:06:49+00:00,SAT-60260,357.9255349573119,48.70946445319881,1005.3802834585467,5.332164680020722,-186754.96212855887,10.5,10499813245.037872,47.655,-122.3035,60.0,6.816666666666666
2026-01-20T23:06:50+00:00,SAT-60260,357.94444702189725,48.42306632056545,1010.698229032754,5.352747212479645,-187475.84947929636,10.5,10499812524.15052,47.655,-122.3035,60.0,6.833333333333333
2026-01-20T23:06:51+00:00,SAT-60260,357.96252349970706,48.139383643016366,1016.036702252667,5.373000785578334,-188185.2152817417,10.5,10499811814.784718,47.655,-122.3035,60.0,6.85
2026-01-20T23:06:52+00:00,SAT-60260,357.9797909877828,47.85838456668405,1021.3953750361505,5.392931021942668,-188883.2564640369,10.5,10499811116.743536,47.655,-122.3035,60.0,6.866666666666666
2026-01-20T23:06:53+00:00,SAT-60260,357.99627496984743,47.5800374534882,1026.7739249087012,5.4125434159945,-189570.16546407665,10.5,10499810429.834536,47.655,-122.3035,60.0,6.883333333333334
2026-01-20T23:06:54+00:00,SAT-60260,358.01199987369426,47.304310893097,1032.1720348755864,5.4318434206704636,-190246.13326676772,10.5,10499809753.866734,47.655,-122.3035,60.0,6.9
2026-01-20T23:06:55+00:00,SAT-60260,358.0269891253967,47.031173709596196,1037.5893933804687,5.450836397096151,-190911.34764140594,10.5,10499809088.652359,47.655,-122.3035,60.0,6.916666666666667
2026-01-20T23:06:56+00:00,SAT-60260,358.04126520002274,46.76059497011224,1043.0256942138392,5.469527623885894,-191565.99346739368,10.5,10499808434.006533,47.655,-122.3035,60.0,6.933333333333334
2026-01-20T23:06:57+00:00,SAT-60260,358.05484966932886,46.49254399227673,1048.480636430728,5.48792226530191,-192210.2516190386,10.5,10499807789.74838,47.655,-122.3035,60.0,6.95
2026-01-20T23:06:58+00:00,SAT-60260,358.06776324652355,46.226990352594584,1053.9539242366557,5.50602545891052,-192844.30203564517,10.5,10499807155.697964,47.655,-122.3035,60.0,6.966666666666667
2026-01-20T23:06:59+00:00,SAT-60260,358.0800258286695,45.9639038899176,1059.4452669610093,5.523842228696392,-193468.32067840782,10.5,10499806531.679321,47.655,-122.3035,60.0,6.983333333333333
2026-01-20T23:07:00+00:00,SAT-60260,358.09165653633966,45.70325471265322,1064.9543789437623,5.5413775131090235,-194082.4805127177,10.5,10499805917.519487,47.655,-122.3035,60.0,7.0
2026-01-20T23:07:01+00:00,SAT-60260,358.1026737510451,45.44501320402367,1070.4809794501698,5.558636174006022,-194686.95182139383,10.5,10499805313.048178,47.655,-122.3035,60.0,7.016666666666667
2026-01-20T23:07:02+00:00,SAT-60260,358.1130951505775,45.18915002640864,1076.0247925943784,5.575623026713026,-195281.90325750882,10.5,10499804718.096743,47.655,-122.3035,60.0,7.033333333333333
2026-01-20T23:07:03+00:00,SAT-60260,358.1229377423971,44.93563612385818,1081.5855472930202,5.5923427505138825,-195867.49870937635,10.5,10499804132.501291,47.655,-122.3035,60.0,7.05
2026-01-20T23:07:04+00:00,SAT-60260,358.1322178949144,44.68444272830859,1087.1629771295327,5.608799979208673,-196443.9004722763,10.5,10499803556.099527,47.655,-122.3035,60.0,7.066666666666666
2026-01-20T23:07:05+00:00,SAT-60260,358.1409513672698,44.435541361171936,1092.756820308797,5.624999277959352,-197011.26843749083,10.5,10499802988.731562,47.655,-122.3035,60.0,7.083333333333333
2026-01-20T23:07:06+00:00,SAT-60260,358.14915333739606,44.1889038356681,1098.3668195886817,5.6409451015624885,-197569.7586308396,10.5,10499802430.24137,47.655,-122.3035,60.0,7.1
2026-01-20T23:07:07+00:00,SAT-60260,358.1568384284597,43.94450226063102,1103.9927221699734,5.656641871229834,-198119.52590185992,10.5,10499801880.474098,47.655,-122.3035,60.0,7.116666666666666
2026-01-20T23:07:08+00:00,SAT-60260,358.16402073402566,43.70230904058524,1109.6342796628799,5.672093870205961,-198660.72026789477,10.5,10499801339.279732,47.655,-122.3035,60.0,7.133333333333334
2026-01-20T23:07:09+00:00,SAT-60260,358.17071384165615,43.46229688005057,1115.2912479494319,5.687305393232896,-199193.49214897666,10.5,10499800806.50785,47.655,-122.3035,60.0,7.15
2026-01-20T23:07:10+00:00,SAT-60260,358.17693085556294,43.22443878111755,1120.9633871949497,5.702280574884665,-199717.9863553772,10.5,10499800282.013645,47.655,-122.3035,60.0,7.166666666666667
2026-01-20T23:07:11+00:00,SAT-60260,358.1826844176991,42.98870804809171,1126.6504616883012,5.717023543691164,-200234.347485677,10.5,10499799765.652514,47.655,-122.3035,60.0,7.183333333333334
2026-01-20T23:07:12+00:00,SAT-60260,358.1879867280682,42.75507828533542,1132.3522398358757,5.7315382982705145,-200742.71558839682,10.5,10499799257.284412,47.655,-122.3035,60.0,7.2
2026-01-20T23:07:13+00:00,SAT-60260,358.19284956373514,42.523523400062466,1138.0684940320177,5.7458288097406855,-201243.22974888582,10.5,10499798756.77025,47.655,-122.3035,60.0,7.216666666666667
2026-01-20T23:07:14+00:00,SAT-60260,358.1972842970409,42.29401760065733,1143.799000631599,5.759898963513719,-201736.0260507089,10.5,10499798263.97395,47.655,-122.3035,60.0,7.233333333333333
2026-01-20T23:07:15+00:00,SAT-60260,358.2013019127948,42.066535397211226,1149.5435398645434,5.77375259121384,-202221.2386935542,10.5,10499797778.761307,47.655,-122.3035,60.0,7.25
2026-01-20T23:07:16+00:00,SAT-60260,358.20491302463074,41.84105160057089,1155.3018957821805,5.787393416668296,-202698.99810160368,10.5,10499797301.001898,47.655,-122.3035,60.0,7.266666666666667
2026-01-20T23:07:17+00:00,SAT-60260,358.20812789048296,41.61754132333987,1161.0738561497378,5.8008251300559985,-203169.43352053233,10.5,10499796830.566479,47.655,-122.3035,60.0,7.283333333333333
2026-01-20T23:07:18+00:00,SAT-60260,358.21095642737,41.39597997778052,1166.8592124127804,5.814051335917015,-203632.6711965805,10.5,10499796367.328804,47.655,-122.3035,60.0,7.3
2026-01-20T23:07:19+00:00,SAT-60260,358.21340822541606,41.17634327561611,1172.6577596118016,5.827075617330817,-204088.83662434758,10.5,10499795911.163376,47.655,-122.3035,60.0,7.316666666666666
2026-01-20T23:07:20+00:00,SAT-60260,358.2154925612279,40.958607225248855,1178.4692963608195,5.83990140938455,-204538.05011511588,10.5,10499795461.949884,47.655,-122.3035,60.0,7.333333333333333
2026-01-20T23:07:21+00:00,SAT-60260,358.21721841048293,40.74274813363019,1184.293624699779,5.852532161573642,-204980.4324848067,10.5,10499795019.567514,47.655,-122.3035,60.0,7.35
2026-01-20T23:07:22+00:00,SAT-60260,358.2185944601064,40.528742601884026,1190.1305501089216,5.864971242728373,-205416.10172410647,10.5,10499794583.898275,47.655,-122.3035,60.0,7.366666666666666
2026-01-20T23:07:23+00:00,SAT-60260,358.2196291197598,40.31656752443699,1195.9798814283363,5.87722192357101,-205845.17238754418,10.5,10499794154.827612,47.655,-122.3035,60.0,7.383333333333334
2026-01-20T23:07:24+00:00,SAT-60260,358.22033053273316,40.10620008864471,1201.841430760111,5.889287445648697,-206267.7580078126,10.5,10499793732.241993,47.655,-122.3035,60.0,7.4
