satellites_20260120_184412/SAT-66163.csv

timestamp,satellite,azimuth_deg,elevation_deg,distance_km,relative_velocity_kms,doppler_shift_hz,tx_freq_ghz,rx_freq_hz,ue_lat,ue_lon,ue_alt_m,time_minutes
2026-01-20T23:01:57+00:00,SAT-66163,79.25716390748713,41.11152842605945,497618.94431363075,51.0431820764266,-1787748.148762566,10.5,10498212251.851238,47.655,-122.3035,60.0,1.95
2026-01-20T23:01:58+00:00,SAT-66163,77.06826512464276,42.30214189774653,497669.85138055496,58.822171217221005,-2060201.253564626,10.5,10497939798.746435,47.655,-122.3035,60.0,1.9666666666666666
2026-01-20T23:01:59+00:00,SAT-66163,74.7966473380929,43.449161780867996,497728.51669264893,66.52803143036238,-2330093.07398522,10.5,10497669906.926014,47.655,-122.3035,60.0,1.9833333333333334
2026-01-20T23:02:00+00:00,SAT-66163,72.43918773987731,44.5491035727189,497794.8673159955,74.15108126431186,-2597084.524638957,10.5,10497402915.47536,47.655,-122.3035,60.0,2.0
2026-01-20T23:02:01+00:00,SAT-66163,69.993251319526,45.59830145003682,497868.8206610431,81.68175798870924,-2860840.678258314,10.5,10497139159.321741,47.655,-122.3035,60.0,2.0166666666666666
2026-01-20T23:02:02+00:00,SAT-66163,67.45684380859723,46.59292599609809,497950.2846010105,89.11063060453895,-3121031.2213646783,10.5,10496878968.778635,47.655,-122.3035,60.0,2.033333333333333
2026-01-20T23:02:03+00:00,SAT-66163,64.82878123482008,47.529010891855854,498039.15760326677,96.42841339513926,-3377330.9288820145,10.5,10496622669.071117,47.655,-122.3035,60.0,2.05
2026-01-20T23:02:04+00:00,SAT-66163,62.10887124001509,48.40248991972368,498135.3288742262,103.62597842798576,-3629420.1020022,10.5,10496370579.897997,47.655,-122.3035,60.0,2.066666666666667
2026-01-20T23:02:05+00:00,SAT-66163,59.29809854012513,49.20924533388135,498238.6785167117,110.694367692378,-3876984.9932981604,10.5,10496123015.006702,47.655,-122.3035,60.0,2.0833333333333335
2026-01-20T23:02:06+00:00,SAT-66163,56.39880376864607,49.9451681710781,498349.07769942353,117.62480524493257,-4119718.232110402,10.5,10495880281.767889,47.655,-122.3035,60.0,2.1
2026-01-20T23:02:07+00:00,SAT-66163,53.4148418970363,50.606230337704574,498466.3888385212,124.40870936613473,-4357319.250320883,10.5,10495642680.74968,47.655,-122.3035,60.0,2.1166666666666667
2026-01-20T23:02:08+00:00,SAT-66163,50.351703995808165,51.18856732131141,498590.46579132904,131.0377033564552,-4589494.660478682,10.5,10495410505.339521,47.655,-122.3035,60.0,2.1333333333333333
2026-01-20T23:02:09+00:00,SAT-66163,47.21658497565463,51.68856918666487,498721.1540608099,137.50362666403726,-4815958.645538678,10.5,10495184041.354462,47.655,-122.3035,60.0,2.15
2026-01-20T23:02:10+00:00,SAT-66163,44.01838071521664,52.10297625609771,498858.29101113614,143.79854497246095,-5036433.31217772,10.5,10494963566.687822,47.655,-122.3035,60.0,2.1666666666666665
2026-01-20T23:02:11+00:00,SAT-66163,40.76760134417829,52.42897467035697,499001.70609332196,149.91476140454108,-5250649.083199022,10.5,10494749350.916801,47.655,-122.3035,60.0,2.183333333333333
2026-01-20T23:02:12+00:00,SAT-66163,37.47619343202405,52.66428612118931,499151.22108202946,155.84482505781767,-5458344.996481151,10.5,10494541655.00352,47.655,-122.3035,60.0,2.2
2026-01-20T23:02:13+00:00,SAT-66163,34.15727228967844,52.807245625701356,499306.6503208871,161.58154050626482,-5659269.037768057,10.5,10494340730.962233,47.655,-122.3035,60.0,2.216666666666667
2026-01-20T23:02:14+00:00,SAT-66163,30.824775217923143,52.85686148581855,499467.8009772853,167.11797650504653,-5853178.445546448,10.5,10494146821.554453,47.655,-122.3035,60.0,2.2333333333333334
2026-01-20T23:02:15+00:00,SAT-66163,27.493056105901935,52.812852575335356,499634.4733058531,172.44747478374362,-6039840.019021786,10.5,10493960159.980978,47.655,-122.3035,60.0,2.25
2026-01-20T23:02:16+00:00,SAT-66163,24.1764493611029,52.6756597825801,499806.460920704,177.56365709748357,-6219030.365078689,10.5,10493780969.634922,47.655,-122.3035,60.0,2.2666666666666666
2026-01-20T23:02:17+00:00,SAT-66163,20.888835323251364,52.446430592996364,499983.5510747159,182.46043249541077,-6390536.152853495,10.5,10493609463.847147,47.655,-122.3035,60.0,2.283333333333333
2026-01-20T23:02:18+00:00,SAT-66163,17.643239073231655,52.126978108939156,500165.52494605805,187.13200464744259,-6554154.37034826,10.5,10493445845.629652,47.655,-122.3035,60.0,2.3
2026-01-20T23:02:19+00:00,SAT-66163,14.451490060892825,51.71971791803857,500352.15793202637,191.5728781707194,-6709692.546009792,10.5,10493290307.45399,47.655,-122.3035,60.0,2.316666666666667
2026-01-20T23:02:20+00:00,SAT-66163,11.323962157945576,51.22758783821558,500543.21994918864,195.77786357701402,-6856968.922008862,10.5,10493143031.077991,47.655,-122.3035,60.0,2.3333333333333335
2026-01-20T23:02:21+00:00,SAT-66163,8.269404129385617,50.653956491095215,500738.4757384628,199.74208276482292,-6995812.646596469,10.5,10493004187.353403,47.655,-122.3035,60.0,2.35
2026-01-20T23:02:22+00:00,SAT-66163,5.294860836104319,50.002526827685195,500937.6851756736,203.46097491809843,-7126063.980702388,10.5,10492873936.019299,47.655,-122.3035,60.0,2.3666666666666667
2026-01-20T23:02:23+00:00,SAT-66163,2.4056772973742895,49.277240245790836,501140.6035879919,206.93029942403172,-7247574.400128282,10.5,10492752425.599873,47.655,-122.3035,60.0,2.3833333333333333
2026-01-20T23:02:24+00:00,SAT-66163,359.6055719963013,48.48218598986367,501346.98207328416,210.14614018939182,-7360206.746724143,10.5,10492639793.253275,47.655,-122.3035,60.0,2.4
2026-01-20T23:02:25+00:00,SAT-66163,356.89676265456507,47.62151929020064,501556.5678237663,213.10490819219547,-7463835.317758569,10.5,10492536164.682241,47.655,-122.3035,60.0,2.4166666666666665
2026-01-20T23:02:26+00:00,SAT-66163,354.2801271418257,46.69939043341871,501769.1044522034,215.80334623682273,-7558346.032463026,10.5,10492441653.967537,47.655,-122.3035,60.0,2.433333333333333
2026-01-20T23:02:27+00:00,SAT-66163,351.7553834343593,45.71988577161487,501984.33232285024,218.23852862465787,-7643636.420496301,10.5,10492356363.579504,47.655,-122.3035,60.0,2.45
2026-01-20T23:02:28+00:00,SAT-66163,349.32127514112545,44.686980746493695,502201.9888820652,220.40786484326097,-7719615.7511548875,10.5,10492280384.248846,47.655,-122.3035,60.0,2.466666666666667
2026-01-20T23:02:29+00:00,SAT-66163,346.97575206502364,43.60450425328855,502421.8089926022,222.3090995718321,-7786205.033564377,10.5,10492213794.966436,47.655,-122.3035,60.0,2.4833333333333334
2026-01-20T23:02:30+00:00,SAT-66163,344.7161384607112,42.47611323529493,502643.5252679085,223.94031499882362,-7843337.0978520345,10.5,10492156662.902147,47.655,-122.3035,60.0,2.5
2026-01-20T23:02:31+00:00,SAT-66163,342.5392843670897,41.30527612006347,502866.86840873404,225.29992996598443,-7890956.565167615,10.5,10492109043.434832,47.655,-122.3035,60.0,2.5166666666666666
2026-01-20T23:02:32+00:00,SAT-66163,340.44169774619195,40.09526365123549,503091.5675388868,226.38669988984174,-7929019.844933317,10.5,10492070980.155067,47.655,-122.3035,60.0,2.533333333333333
2026-01-20T23:04:57+00:00,SAT-66163,80.24999790032238,40.55273217078605,497747.5783515146,46.138278302207056,-1615957.670867004,10.5,10498384042.329132,47.655,-122.3035,60.0,4.95
2026-01-20T23:04:58+00:00,SAT-66163,78.09757931867225,41.762651308204056,497793.59359440795,53.981839198431054,-1890672.351682463,10.5,10498109327.648317,47.655,-122.3035,60.0,4.966666666666667
2026-01-20T23:04:59+00:00,SAT-66163,75.86395240079491,42.930507129376295,497847.4314820352,61.75836592282186,-2163039.212246058,10.5,10497836960.787754,47.655,-122.3035,60.0,4.983333333333333
2026-01-20T23:05:00+00:00,SAT-66163,73.54581118497214,44.05289947008645,497909.02515898226,69.45807638676378,-2432715.642436274,10.5,10497567284.357563,47.655,-122.3035,60.0,5.0
2026-01-20T23:05:01+00:00,SAT-66163,71.1402736648375,45.12624099045753,497978.29801383195,77.0712989879357,-2699362.9018289875,10.5,10497300637.098171,47.655,-122.3035,60.0,5.016666666666667
2026-01-20T23:05:02+00:00,SAT-66163,68.64502635439054,46.14677126353941,498055.16378935595,84.58848551105933,-2962646.5715362425,10.5,10497037353.428463,47.655,-122.3035,60.0,5.033333333333333
2026-01-20T23:05:03+00:00,SAT-66163,66.0584869220124,47.110579177572745,498139.5267055723,92.00022540482507,-3222237.0542445844,10.5,10496777762.945755,47.655,-122.3035,60.0,5.05
2026-01-20T23:05:04+00:00,SAT-66163,63.379981159368015,48.01363508217736,498231.28159704275,99.29725788113305,-3477809.9979816605,10.5,10496522190.002018,47.655,-122.3035,60.0,5.066666666666666
2026-01-20T23:05:05+00:00,SAT-66163,60.609928041642405,48.85183387175958,498330.31406223617,106.47048507806625,-3729046.7571392194,10.5,10496270953.24286,47.655,-122.3035,60.0,5.083333333333333
2026-01-20T23:05:06+00:00,SAT-66163,57.75002350660338,49.621049855438585,498436.5006260207,113.51098350568297,-3975634.793353178,10.5,10496024365.206646,47.655,-122.3035,60.0,5.1
2026-01-20T23:05:07+00:00,SAT-66163,54.803410526241635,50.317203606605126,498549.7089135703,120.41001778216422,-4217268.156601606,10.5,10495782731.8434,47.655,-122.3035,60.0,5.116666666666666
2026-01-20T23:05:08+00:00,SAT-66163,51.77482013735001,50.936340139570426,498669.7978379718,127.15905011242978,-4453647.817185957,10.5,10495546352.182814,47.655,-122.3035,60.0,5.133333333333334
2026-01-20T23:05:09+00:00,SAT-66163,48.67066643328248,51.47471661183147,498796.61779728386,133.74975332523536,-4684482.122345357,10.5,10495315517.877655,47.655,-122.3035,60.0,5.15
2026-01-20T23:05:10+00:00,SAT-66163,45.499078133322065,51.928896552128336,498930.0108846003,140.1740200221045,-4909487.116690898,10.5,10495090512.883308,47.655,-122.3035,60.0,5.166666666666667
2026-01-20T23:05:11+00:00,SAT-66163,42.26985166531175,52.295846311398925,499069.81110723567,146.42397492780051,-5128386.974771411,10.5,10494871613.025229,47.655,-122.3035,60.0,5.183333333333334
2026-01-20T23:05:12+00:00,SAT-66163,38.99431533114876,52.573028394645405,499215.84461823036,152.49198288341208,-5340914.281025131,10.5,10494659085.718975,47.655,-122.3035,60.0,5.2
2026-01-20T23:05:13+00:00,SAT-66163,35.68510170989992,52.75848563548727,499367.929955826,158.37066004312575,-5546810.421938034,10.5,10494453189.578062,47.655,-122.3035,60.0,5.216666666666667
2026-01-20T23:05:14+00:00,SAT-66163,32.355834561350825,52.85091013556541,499525.878294109,164.05288130233367,-5745825.846207591,10.5,10494254174.153793,47.655,-122.3035,60.0,5.233333333333333
2026-01-20T23:05:15+00:00,SAT-66163,29.02074650706477,52.84969153922636,499689.49370106123,169.53179060514353,-5937720.425755364,10.5,10494062279.574245,47.655,-122.3035,60.0,5.25
2026-01-20T23:05:16+00:00,SAT-66163,25.69425234175369,52.75494061957447,499858.5734068915,174.80080789409288,-6122263.699135405,10.5,10493877736.300865,47.655,-122.3035,60.0,5.266666666666667
2026-01-20T23:05:17+00:00,SAT-66163,22.39050885727758,52.56748612477681,500032.90807929786,179.85363654521737,-6299235.131941786,10.5,10493700764.86806,47.655,-122.3035,60.0,5.283333333333333
2026-01-20T23:05:18+00:00,SAT-66163,19.12299381936674,52.28884512935155,500212.2821061456,184.68427194036005,-6468424.417047144,10.5,10493531575.582952,47.655,-122.3035,60.0,5.3
2026-01-20T23:05:19+00:00,SAT-66163,15.90413412645881,51.9211693843367,500396.4738866941,189.2870062838916,-6629631.643304588,10.5,10493370368.356695,47.655,-122.3035,60.0,5.316666666666666
2026-01-20T23:05:20+00:00,SAT-66163,12.745006773612905,51.46717204966629,500585.2561276279,193.6564363054028,-6782667.565328576,10.5,10493217332.434671,47.655,-122.3035,60.0,5.333333333333333
2026-01-20T23:05:21+00:00,SAT-66163,9.655127073592682,50.93004043976661,500778.3961467698,197.78746701750586,-6927353.735109013,10.5,10493072646.26489,47.655,-122.3035,60.0,5.35
2026-01-20T23:05:22+00:00,SAT-66163,6.642328836778858,50.313340939563076,500975.6561805419,201.67531935588212,-7063522.769598034,10.5,10492936477.230402,47.655,-122.3035,60.0,5.366666666666666
2026-01-20T23:05:23+00:00,SAT-66163,3.7127320437566254,49.62092202947834,501176.7936990462,205.31553243932285,-7191018.429866204,10.5,10492808981.570133,47.655,-122.3035,60.0,5.383333333333334
2026-01-20T23:05:24+00:00,SAT-66163,0.870786710498031,48.85682061190732,501381.56172339903,208.70396887297423,-7309695.806844578,10.5,10492690304.193155,47.655,-122.3035,60.0,5.4
2026-01-20T23:05:25+00:00,SAT-66163,358.11937717726585,48.02517567568136,501589.709148355,211.83681782920624,-7419421.429229769,10.5,10492580578.57077,47.655,-122.3035,60.0,5.416666666666667
2026-01-20T23:05:26+00:00,SAT-66163,355.459969449751,47.13015207255759,501800.98106800334,214.71059870868152,-7520073.391710061,10.5,10492479926.60829,47.655,-122.3035,60.0,5.433333333333334
2026-01-20T23:05:27+00:00,SAT-66163,352.89278469753276,46.175875934222944,502015.1191051155,217.32216307591634,-7611541.422756945,10.5,10492388458.577244,47.655,-122.3035,60.0,5.45
2026-01-20T23:05:28+00:00,SAT-66163,350.4169841013594,45.16638219991678,502231.86174242315,219.66869770476123,-7693726.991290731,10.5,10492306273.008709,47.655,-122.3035,60.0,5.466666666666667
2026-01-20T23:05:29+00:00,SAT-66163,348.0308531019186,44.10557388242014,502450.94465693407,221.74772414814638,-7766543.291611215,10.5,10492233456.70839,47.655,-122.3035,60.0,5.483333333333333
2026-01-20T23:05:30+00:00,SAT-66163,345.7319763017271,42.99719214348957,502672.1010538178,223.55710294597822,-7829915.390776013,10.5,10492170084.609224,47.655,-122.3035,60.0,5.5
2026-01-20T23:05:31+00:00,SAT-66163,343.5173971495663,41.84479586575565,502895.0620044893,225.09503183763738,-7883780.165994678,10.5,10492116219.834005,47.655,-122.3035,60.0,5.516666666666667
2026-01-20T23:05:32+00:00,SAT-66163,341.3837591923209,40.65174930454441,503119.5567829087,226.3600463681343,-7928086.325858838,10.5,10492071913.67414,47.655,-122.3035,60.0,5.533333333333333
2026-01-20T23:07:57+00:00,SAT-66163,81.17109083678687,40.01874830461789,497878.7630145608,41.30784002074391,-1446775.289516493,10.5,10498553224.710484,47.655,-122.3035,60.0,7.95
2026-01-20T23:07:58+00:00,SAT-66163,79.05233506655003,41.24626458947317,497919.9607003415,49.212861626926795,-1723642.5843732578,10.5,10498276357.415627,47.655,-122.3035,60.0,7.966666666666667
2026-01-20T23:07:59+00:00,SAT-66163,76.85385096355553,42.433122774561625,497969.0423276708,57.0568594049966,-1998372.5666389654,10.5,10498001627.433361,47.655,-122.3035,60.0,7.983333333333333
2026-01-20T23:08:00+00:00,SAT-66163,74.5721837889223,43.5760034907428,498025.9470354507,64.82995495561782,-2270619.252983299,10.5,10497729380.747017,47.655,-122.3035,60.0,8.0
2026-01-20T23:08:01+00:00,SAT-66163,72.2042463028968,44.67139598599058,498090.60411052644,72.52237199093827,-2540040.2364520184,10.5,10497459959.763548,47.655,-122.3035,60.0,8.016666666666667
2026-01-20T23:08:02+00:00,SAT-66163,69.7474551201468,45.71560905549047,498162.9330895254,80.12444971464137,-2806297.1550929896,10.5,10497193702.844908,47.655,-122.3035,60.0,8.033333333333333
2026-01-20T23:08:03+00:00,SAT-66163,67.1998860863908,46.704789672761,498242.84387404076,87.62665693168825,-3069056.186139034,10.5,10496930943.813862,47.655,-122.3035,60.0,8.05
2026-01-20T23:08:04+00:00,SAT-66163,64.56044593911587,47.63495077917552,498330.2368598874,95.01960478532946,-3327988.492111964,10.5,10496672011.507889,47.655,-122.3035,60.0,8.066666666666666
2026-01-20T23:08:05+00:00,SAT-66163,61.82905517358267,48.50200954250529,498425.0030790599,102.2940598278347,-3582770.678614818,10.5,10496417229.321384,47.655,-122.3035,60.0,8.083333333333334
2026-01-20T23:08:06+00:00,SAT-66163,59.00683409289599,49.30183712459217,498527.02435472823,109.44095601369848,-3833085.214384659,10.5,10496166914.785616,47.655,-122.3035,60.0,8.1
2026-01-20T23:08:07+00:00,SAT-66163,56.09628092102494,50.030320461748204,498636.1734681925,116.45140832344283,-4078620.908455775,10.5,10495921379.091545,47.655,-122.3035,60.0,8.116666666666667
2026-01-20T23:08:08+00:00,SAT-66163,53.10142776114292,50.68343581187049,498752.3143394271,123.31672318236647,-4319073.275068341,10.5,10495680926.724932,47.655,-122.3035,60.0,8.133333333333333
2026-01-20T23:08:09+00:00,SAT-66163,50.027957966987096,51.2573327718281,498875.3022180143,130.02841078616714,-4554144.9653638555,10.5,10495445855.034636,47.655,-122.3035,60.0,8.15
2026-01-20T23:08:10+00:00,SAT-66163,46.88326736521718,51.74842630428659,499004.9838863717,136.5781958320711,-4783546.143234686,10.5,10495216453.856766,47.655,-122.3035,60.0,8.166666666666666
2026-01-20T23:08:11+00:00,SAT-66163,43.67645292522273,52.15349300672395,499141.1978736816,142.95802876127232,-5006994.879081845,10.5,10494993005.120918,47.655,-122.3035,60.0,8.183333333333334
2026-01-20T23:08:12+00:00,SAT-66163,40.41821605629367,52.469766684781725,499283.7746810328,149.16009565706966,-5224217.496489626,10.5,10494775782.50351,47.655,-122.3035,60.0,8.2
2026-01-20T23:08:13+00:00,SAT-66163,37.120674107154024,52.69502741158355,499432.53701643477,155.1768280047029,-5434948.914056339,10.5,10494565051.085943,47.655,-122.3035,60.0,8.216666666666667
2026-01-20T23:08:14+00:00,SAT-66163,33.79708224011305,52.82767791359524,499587.30003956484,161.00091186350798,-5638932.96664199,10.5,10494361067.033358,47.655,-122.3035,60.0,8.233333333333333
2026-01-20T23:08:15+00:00,SAT-66163,30.46147769540209,52.86680146489404,499747.87161566335,166.62529810475624,-5835922.763940714,10.5,10494164077.23606,47.655,-122.3035,60.0,8.25
2026-01-20T23:08:16+00:00,SAT-66163,27.128267888195648,52.8121965636498,499914.0525796398,172.0432092738736,-6025680.930824727,10.5,10493974319.069176,47.655,-122.3035,60.0,8.266666666666667
2026-01-20T23:08:17+00:00,SAT-66163,23.8117911984683,52.66438542280612,500085.63700702233,177.24814770205074,-6207979.891447212,10.5,10493792020.108553,47.655,-122.3035,60.0,8.283333333333333
2026-01-20T23:08:18+00:00,SAT-66163,20.525882916398917,52.42459551490291,500262.4124929972,182.23390464144896,-6382602.189195881,10.5,10493617397.810804,47.655,-122.3035,60.0,8.3
2026-01-20T23:08:19+00:00,SAT-66163,17.28347811465447,52.09471572472079,500444.16044055956,186.99456510163063,-6549340.656085223,10.5,10493450659.343914,47.655,-122.3035,60.0,8.316666666666666
2026-01-20T23:08:20+00:00,SAT-66163,14.096278353460969,51.67723075791268,500630.65635348763,191.52451572873858,-6707998.688718697,10.5,10493292001.311281,47.655,-122.3035,60.0,8.333333333333334
2026-01-20T23:08:21+00:00,SAT-66163,10.974500808355604,51.17513899909028,500821.6701371744,195.81844951117174,-6858390.4131013965,10.5,10493141609.586899,47.655,-122.3035,60.0,8.35
2026-01-20T23:08:22+00:00,SAT-66163,7.9267187600343085,50.59185986111151,501016.9664041535,199.87137319650398,-7000340.944411924,10.5,10492999659.055588,47.655,-122.3035,60.0,8.366666666666667
2026-01-20T23:08:23+00:00,SAT-66163,4.959792678442609,49.93113674969756,501216.30478702154,203.67861017934337,-7133686.488147428,10.5,10492866313.511852,47.655,-122.3035,60.0,8.383333333333333
2026-01-20T23:08:24+00:00,SAT-66163,2.0788832515568685,49.196941235371256,501419.4402542404,207.23580609392863,-7258274.536000004,10.5,10492741725.464,47.655,-122.3035,60.0,8.4
2026-01-20T23:08:25+00:00,SAT-66163,359.2875320741284,48.3933829974943,501626.1234315181,210.53893160909425,-7373963.96374818,10.5,10492626036.036251,47.655,-122.3035,60.0,8.416666666666666
2026-01-20T23:08:26+00:00,SAT-66163,356.5877930036876,47.52462887637558,501836.10092597624,213.58428811564784,-7480625.230452936,10.5,10492519374.769547,47.655,-122.3035,60.0,8.433333333333334
2026-01-20T23:08:27+00:00,SAT-66163,353.98039675996995,46.59483307185404,502049.1156559902,216.36850779636632,-7578140.380909271,10.5,10492421859.619091,47.655,-122.3035,60.0,8.45
2026-01-20T23:08:28+00:00,SAT-66163,351.4649329474099,45.608079405483885,502264.9071810991,218.88855837961552,-7666403.212138055,10.5,10492333596.787863,47.655,-122.3035,60.0,8.466666666666667
2026-01-20T23:08:29+00:00,SAT-66163,349.0400361724371,44.56833558334896,502483.2120366564,221.14174308464092,-7745319.271469897,10.5,10492254680.72853,47.655,-122.3035,60.0,8.483333333333333
2026-01-20T23:08:30+00:00,SAT-66163,346.7035661597796,43.47941874894826,502703.76406842616,223.12570383319164,-7814805.969029788,10.5,10492185194.03097,47.655,-122.3035,60.0,8.5
2026-01-20T23:08:31+00:00,SAT-66163,344.4527747685594,42.34497113880205,502926.29477038246,224.83842169903048,-7874792.593480854,10.5,10492125207.406519,47.655,-122.3035,60.0,8.516666666666667
2026-01-20T23:08:32+00:00,SAT-66163,342.2844556306305,41.16844444970936,503150.53362295695,226.27821575104713,-7925220.2715052795,10.5,10492074779.728495,47.655,-122.3035,60.0,8.533333333333333
2026-01-20T23:10:58+00:00,SAT-66163,79.9355380620111,40.75472460261113,498049.181155463,44.52793542903104,-1559556.65170478,10.5,10498440443.348295,47.655,-122.3035,60.0,10.966666666666667
2026-01-20T23:10:59+00:00,SAT-66163,77.7694372042348,41.95887935555224,498093.5903497309,52.435929799956625,-1836528.0653576166,10.5,10498163471.934643,47.655,-122.3035,60.0,10.983333333333333
2026-01-20T23:11:00+00:00,SAT-66163,75.52146393747304,43.120419721999475,498145.88645038474,60.27883908245672,-2111219.9239041414,10.5,10497888780.076096,47.655,-122.3035,60.0,11.0
2026-01-20T23:11:01+00:00,SAT-66163,73.18836121188231,44.23590862226449,498206.0045458963,68.04678704082963,-2383286.3197936458,10.5,10497616713.680206,47.655,-122.3035,60.0,11.016666666666667
2026-01-20T23:11:02+00:00,SAT-66163,70.76731827419643,45.30172289851316,498273.86987483833,75.73000512686549,-2652385.117146902,10.5,10497347614.882853,47.655,-122.3035,60.0,11.033333333333333
2026-01-20T23:11:03+00:00,SAT-66163,68.25611875712276,46.31406864599813,498349.39793328487,83.31884660637158,-2918178.446526835,10.5,10497081821.553473,47.655,-122.3035,60.0,11.05
2026-01-20T23:11:04+00:00,SAT-66163,65.65330647168274,47.26900513271804,498432.4945963003,90.80379932246541,-3180333.1519630384,10.5,10496819666.848038,47.655,-122.3035,60.0,11.066666666666666
2026-01-20T23:11:05+00:00,SAT-66163,62.95836486165042,48.16247869061157,498523.0562521579,98.17549937811941,-3438521.2701723594,10.5,10496561478.729828,47.655,-122.3035,60.0,11.083333333333334
2026-01-20T23:11:06+00:00,SAT-66163,60.17190328639875,48.990367774974295,498620.9699502043,105.42474332335232,-3692420.457405901,10.5,10496307579.542595,47.655,-122.3035,60.0,11.1
2026-01-20T23:11:07+00:00,SAT-66163,57.29584029398967,49.748539932240476,498726.1135608788,112.54250180212522,-3941714.467421041,10.5,10496058285.53258,47.655,-122.3035,60.0,11.116666666666667
2026-01-20T23:11:08+00:00,SAT-66163,54.3335708191861,50.4329207765188,498838.35594934283,119.51993019695182,-4186093.524300715,10.5,10495813906.475698,47.655,-122.3035,60.0,11.133333333333333
2026-01-20T23:11:09+00:00,SAT-66163,51.29010165855426,51.03957411800854,498957.5571597259,126.34838202911678,-4425254.791785743,10.5,10495574745.208214,47.655,-122.3035,60.0,11.15
2026-01-20T23:11:10+00:00,SAT-66163,48.17213778237851,51.56479128905472,499083.5686127363,133.01941859621397,-4658902.710822187,10.5,10495341097.289177,47.655,-122.3035,60.0,11.166666666666666
2026-01-20T23:11:11+00:00,SAT-66163,44.98810236856176,52.0051864000997,499216.2333128829,139.5248220179609,-4886749.456480954,10.5,10495113250.54352,47.655,-122.3035,60.0,11.183333333333334
2026-01-20T23:11:12+00:00,SAT-66163,41.74807581381033,52.35779304650802,499355.38606870885,145.85660413344357,-5108515.2495769495,10.5,10494891484.750423,47.655,-122.3035,60.0,11.2
2026-01-20T23:11:13+00:00,SAT-66163,38.46364444989073,52.62015692282245,499500.8537218979,152.00701769639298,-5323928.748775015,10.5,10494676071.251225,47.655,-122.3035,60.0,11.216666666666667
2026-01-20T23:11:14+00:00,SAT-66163,35.14765735469708,52.790418242543254,499652.45538754715,157.96856507649304,-5532727.355346534,10.5,10494467272.644653,47.655,-122.3035,60.0,11.233333333333333
2026-01-20T23:11:15+00:00,SAT-66163,31.813899304321666,52.86737789422933,499810.00270311674,163.7340089991621,-5734657.5893220175,10.5,10494265342.410679,47.655,-122.3035,60.0,11.25
2026-01-20T23:11:16+00:00,SAT-66163,28.47669766373601,52.85054206646182,499973.3000880919,169.29638011475845,-5929475.354596691,10.5,10494070524.645403,47.655,-122.3035,60.0,11.266666666666667
2026-01-20T23:11:17+00:00,SAT-66163,25.15048954930153,52.74014158099949,500142.14501119306,174.6489850539207,-6116946.221062598,10.5,10493883053.778938,47.655,-122.3035,60.0,11.283333333333333
2026-01-20T23:11:18+00:00,SAT-66163,21.84938083964813,52.53712424547308,500316.3282656201,179.78541591997467,-6296845.757072829,10.5,10493703154.242928,47.655,-122.3035,60.0,11.3
2026-01-20T23:11:19+00:00,SAT-66163,18.586729715453803,52.243120853612425,500495.63425376435,184.6995556386904,-6468959.716812654,10.5,10493531040.283188,47.655,-122.3035,60.0,11.316666666666666
2026-01-20T23:11:20+00:00,SAT-66163,15.374784179110103,51.86038769561543,500679.8412772546,189.38558628671123,-6633084.331996331,10.5,10493366915.668003,47.655,-122.3035,60.0,11.333333333333334
2026-01-20T23:11:21+00:00,SAT-66163,12.224395791534947,51.391730238039045,500868.7218353112,193.83799352257986,-6789026.467060383,10.5,10493210973.53294,47.655,-122.3035,60.0,11.35
2026-01-20T23:11:22+00:00,SAT-66163,9.144822621220706,50.84041378482597,501062.0429275178,198.0515750453363,-6936603.9154194845,10.5,10493063396.084581,47.655,-122.3035,60.0,11.366666666666667
2026-01-20T23:11:23+00:00,SAT-66163,6.143624361804974,50.2100673054099,501259.5663650296,202.0214433739358,-7075645.496813418,10.5,10492924354.503187,47.655,-122.3035,60.0,11.383333333333333
2026-01-20T23:11:24+00:00,SAT-66163,3.2266439232279436,49.504586327693886,501461.0490845546,205.7430320804134,-7205991.275618884,10.5,10492794008.72438,47.655,-122.3035,60.0,11.4
2026-01-20T23:11:25+00:00,SAT-66163,0.39806305052380864,48.728039918155815,501666.24346854945,209.2120988946922,-7327492.669593003,10.5,10492672507.330406,47.655,-122.3035,60.0,11.416666666666666
2026-01-20T23:11:26+00:00,SAT-66163,357.66051573985794,47.88458560930187,501874.89766851376,212.4247307612806,-7440012.62698025,10.5,10492559987.37302,47.655,-122.3035,60.0,11.433333333333334
2026-01-20T23:11:27+00:00,SAT-66163,355.0152418705503,46.978394828430396,502086.7559333264,215.37734626929455,-7543425.711622115,10.5,10492456574.288378,47.655,-122.3035,60.0,11.45
2026-01-20T23:11:28+00:00,SAT-66163,352.4622643762953,46.0135901757378,502301.5589400056,218.06669836129353,-7637618.197831988,10.5,10492362381.802168,47.655,-122.3035,60.0,11.466666666666667
2026-01-20T23:11:29+00:00,SAT-66163,350.0005755003565,44.99419485403355,502519.0441271713,220.48987622714287,-7722488.136726242,10.5,10492277511.863274,47.655,-122.3035,60.0,11.483333333333333
2026-01-20T23:11:30+00:00,SAT-66163,347.62832069231536,43.92409376509462,502738.94603039516,222.64430846444162,-7797945.466915772,10.5,10492202054.533085,47.655,-122.3035,60.0,11.5
2026-01-20T23:11:31+00:00,SAT-66163,345.3429718421041,42.80700523937998,502960.99662070366,224.52776283971627,-7863912.006141999,10.5,10492136087.993858,47.655,-122.3035,60.0,11.516666666666667
2026-01-20T23:11:32+00:00,SAT-66163,343.1414845230805,41.6464620776611,503184.9256428425,226.13834708082052,-7920321.479030054,10.5,10492079678.52097,47.655,-122.3035,60.0,11.533333333333333
2026-01-20T23:11:33+00:00,SAT-66163,341.0204363270336,40.44580043646233,503410.4609543311,227.4745110436918,-7967119.592977766,10.5,10492032880.407022,47.655,-122.3035,60.0,11.55
2026-01-20T23:13:58+00:00,SAT-66163,80.74990550354242,40.28961045180906,498181.5146553011,39.94372994558636,-1398998.3845045788,10.5,10498601001.615496,47.655,-122.3035,60.0,13.966666666666667
2026-01-20T23:13:59+00:00,SAT-66163,78.61352107344307,41.509470814289045,498221.35186863353,47.911926425304834,-1678078.33066201,10.5,10498321921.669338,47.655,-122.3035,60.0,13.983333333333333
2026-01-20T23:14:00+00:00,SAT-66163,76.39653497192197,42.68796256135209,498269.13602992165,55.820736588065536,-1955078.3167957084,10.5,10498044921.683205,47.655,-122.3035,60.0,14.0
2026-01-20T23:14:01+00:00,SAT-66163,74.09555022611366,43.82171861303771,498324.80791121215,63.660189662524516,-2229649.124316888,10.5,10497770350.875683,47.655,-122.3035,60.0,14.016666666666667
2026-01-20T23:14:02+00:00,SAT-66163,71.70756519253827,44.90718159665995,498388.2983403689,71.42041447188909,-2501445.0228592325,10.5,10497498554.97714,47.655,-122.3035,60.0,14.033333333333333
2026-01-20T23:14:03+00:00,SAT-66163,69.23011455814157,45.94061629779609,498459.5283004022,79.09165424271023,-2770124.2889454463,10.5,10497229875.711054,47.655,-122.3035,60.0,14.05
2026-01-20T23:14:04+00:00,SAT-66163,66.66142902024394,46.918130169805636,498538.40904356696,86.66427923709544,-3035349.6484207823,10.5,10496964650.35158,47.655,-122.3035,60.0,14.066666666666666
2026-01-20T23:14:05+00:00,SAT-66163,64.00061053553968,47.835703310615834,498624.8422180594,94.12880071770977,-3296788.7655664524,10.5,10496703211.234434,47.655,-122.3035,60.0,14.083333333333334
2026-01-20T23:14:06+00:00,SAT-66163,61.24781736128443,48.68922922272856,498718.7200086419,101.47588357458953,-3554114.6853440525,10.5,10496445885.314655,47.655,-122.3035,60.0,14.1
2026-01-20T23:14:07+00:00,SAT-66163,58.40445022886893,49.47456728778774,498819.9252898602,108.69635965881244,-3807006.3003970915,10.5,10496192993.699602,47.655,-122.3035,60.0,14.116666666666667
2026-01-20T23:14:08+00:00,SAT-66163,55.473327747126355,50.18760733720319,498928.33179256,115.78123983138795,-4055148.7730541024,10.5,10495944851.226946,47.655,-122.3035,60.0,14.133333333333333
2026-01-20T23:14:09+00:00,SAT-66163,52.45883624194682,50.82434585185784,499043.8042824185,122.72172605631849,-4298233.958878792,10.5,10495701766.04112,47.655,-122.3035,60.0,14.15
2026-01-20T23:14:10+00:00,SAT-66163,49.367037066350726,51.38097227041575,499166.19875053864,129.5092229373993,-4535960.810737583,10.5,10495464039.189262,47.655,-122.3035,60.0,14.166666666666666
2026-01-20T23:14:11+00:00,SAT-66163,46.2057138200654,51.85396264068273,499295.36261554825,136.13534978070518,-4768035.801278911,10.5,10495231964.19872,47.655,-122.3035,60.0,14.183333333333334
2026-01-20T23:14:12+00:00,SAT-66163,42.98434347987995,52.24017656871221,499431.1349377295,142.59195062100991,-4994173.274100859,10.5,10495005826.725899,47.655,-122.3035,60.0,14.2
2026-01-20T23:14:13+00:00,SAT-66163,39.71397975662269,52.536952267924654,499573.3466431489,148.87110512120609,-5214095.825494929,10.5,10494785904.174505,47.655,-122.3035,60.0,14.216666666666667
2026-01-20T23:14:14+00:00,SAT-66163,36.40704386425938,52.74219374148571,499721.8207586564,154.96513828894624,-5427534.644763931,10.5,10494572465.355236,47.655,-122.3035,60.0,14.233333333333333
2026-01-20T23:14:15+00:00,SAT-66163,33.0770269942797,52.85444391195347,499876.3726565766,160.86663085187243,-5634229.877606396,10.5,10494365770.122393,47.655,-122.3035,60.0,14.25
2026-01-20T23:14:16+00:00,SAT-66163,29.738118709543425,52.872938023872614,500036.8103097462,166.5684273612252,-5833930.90993925,10.5,10494166069.090061,47.655,-122.3035,60.0,14.266666666666667
2026-01-20T23:14:17+00:00,SAT-66163,26.404784738114884,52.79763289921294,500202.93455463444,172.0636449948276,-6026396.67621555,10.5,10493973603.323784,47.655,-122.3035,60.0,14.283333333333333
2026-01-20T23:14:18+00:00,SAT-66163,23.09132426697555,52.62920952164321,500374.5393632426,177.34568259289168,-6211395.975896641,10.5,10493788604.024103,47.655,-122.3035,60.0,14.3
2026-01-20T23:14:19+00:00,SAT-66163,19.81143964393716,52.3690486936998,500551.4121240153,182.4082272194362,-6388707.703260767,10.5,10493611292.29674,47.655,-122.3035,60.0,14.316666666666666
2026-01-20T23:14:20+00:00,SAT-66163,16.57784974849504,52.01918182778709,500733.3339292955,187.24526188436482,-6558121.117862914,10.5,10493441878.882137,47.655,-122.3035,60.0,14.333333333333334
2026-01-20T23:14:21+00:00,SAT-66163,13.401972394580078,51.582220933338164,500920.0798704815,191.8510713805289,-6719436.048973432,10.5,10493280563.951027,47.655,-122.3035,60.0,14.35
2026-01-20T23:14:22+00:00,SAT-66163,10.293692450580778,51.06127327995087,501111.419339005,196.22024988604457,-6872463.161843345,10.5,10493127536.838156,47.655,-122.3035,60.0,14.366666666666667
2026-01-20T23:14:23+00:00,SAT-66163,7.261222357982582,50.45984688553719,501307.1163348913,200.34770519840578,-7017024.106000895,10.5,10492982975.894,47.655,-122.3035,60.0,14.383333333333333
2026-01-20T23:14:24+00:00,SAT-66163,4.3110524003609045,49.781752928429924,501506.92977954255,204.22866439375952,-7152951.713463301,10.5,10492847048.286537,47.655,-122.3035,60.0,14.4
2026-01-20T23:14:25+00:00,SAT-66163,1.447980446171338,49.03101049607073,501710.61383416463,207.85867748120916,-7280090.126725924,10.5,10492719909.873274,47.655,-122.3035,60.0,14.416666666666666
2026-01-20T23:14:26+00:00,SAT-66163,358.6752060067215,48.21175800466917,501917.9182218392,211.23362381975184,-7398295.0235105455,10.5,10492601704.97649,47.655,-122.3035,60.0,14.433333333333334
2026-01-20T23:14:27+00:00,SAT-66163,355.994471164801,47.32817433081802,502128.58855599543,214.34971260564893,-7507433.633835157,10.5,10492492566.366165,47.655,-122.3035,60.0,14.45
2026-01-20T23:14:28+00:00,SAT-66163,353.4062311735679,46.38441146054701,502342.3666693674,217.20348845864766,-7607384.935667062,10.5,10492392615.064333,47.655,-122.3035,60.0,14.466666666666667
2026-01-20T23:14:29+00:00,SAT-66163,350.909839197256,45.38453930033104,502558.9909485235,219.79183140923095,-7698039.654476315,10.5,10492301960.345524,47.655,-122.3035,60.0,14.483333333333333
2026-01-20T23:14:30+00:00,SAT-66163,348.5037326146395,44.33250244884819,502778.1966683823,222.111962135574,-7779300.446656089,10.5,10492220699.553345,47.655,-122.3035,60.0,14.5
2026-01-20T23:14:31+00:00,SAT-66163,346.1856113387046,43.23208804858605,502999.7163319522,224.1614407029642,-7851081.855371838,10.5,10492148918.144629,47.655,-122.3035,60.0,14.516666666666667
2026-01-20T23:14:32+00:00,SAT-66163,343.9526018016302,42.08690349756579,503223.2800088133,225.9381682709642,-7913310.37035336,10.5,10492086689.629646,47.655,-122.3035,60.0,14.533333333333333
2026-01-20T23:14:33+00:00,SAT-66163,341.8014028020518,40.90036256903188,503448.6156753022,227.44038928794538,-7965924.5047566425,10.5,10492034075.495243,47.655,-122.3035,60.0,14.55
