satellites_20260120_184412/SAT-56319.csv

timestamp,satellite,azimuth_deg,elevation_deg,distance_km,relative_velocity_kms,doppler_shift_hz,tx_freq_ghz,rx_freq_hz,ue_lat,ue_lon,ue_alt_m,time_minutes
2026-01-20T23:02:00+00:00,SAT-56319,311.7022117177368,40.001340537727636,2737.730518373552,3.6736229067825343,-128665.81360501274,10.5,10499871334.186396,47.655,-122.3035,60.0,2.0
2026-01-20T23:02:01+00:00,SAT-56319,311.51494995224266,40.00839641739389,2741.394344952583,3.6875415801812284,-129153.3044233651,10.5,10499870846.695576,47.655,-122.3035,60.0,2.0166666666666666
2026-01-20T23:02:02+00:00,SAT-56319,311.3280933295835,40.01498143760401,2745.072053088551,3.701400102674771,-129638.68850258099,10.5,10499870361.311497,47.655,-122.3035,60.0,2.033333333333333
2026-01-20T23:02:03+00:00,SAT-56319,311.1416450918443,40.02109822139459,2748.7635827909517,3.7151985735098427,-130121.96931869898,10.5,10499869878.030682,47.655,-122.3035,60.0,2.05
2026-01-20T23:02:04+00:00,SAT-56319,310.9556084287962,40.02674940098344,2752.4688741682658,3.728937065595653,-130603.14942530796,10.5,10499869396.850574,47.655,-122.3035,60.0,2.066666666666667
2026-01-20T23:02:05+00:00,SAT-56319,310.7699864791657,40.03193761729884,2756.1878674016866,3.7426156860186803,-131082.23257302938,10.5,10499868917.767427,47.655,-122.3035,60.0,2.0833333333333335
2026-01-20T23:02:06+00:00,SAT-56319,310.58478232913876,40.03666551957436,2759.920502779209,3.7562345314347008,-131559.22214715742,10.5,10499868440.777853,47.655,-122.3035,60.0,2.1
2026-01-20T23:02:07+00:00,SAT-56319,310.3999990129223,40.04093576490014,2763.6667206852267,3.7697936945485924,-132034.12139460898,10.5,10499867965.878605,47.655,-122.3035,60.0,2.1166666666666667
2026-01-20T23:02:08+00:00,SAT-56319,310.2156395130541,40.044751017784876,2767.4264615965894,3.783293273199773,-132506.93374213442,10.5,10499867493.066257,47.655,-122.3035,60.0,2.1333333333333333
2026-01-20T23:02:09+00:00,SAT-56319,310.03170676024024,40.048113949737285,2771.1996660877276,3.7967333903753966,-132977.66349726403,10.5,10499867022.336502,47.655,-122.3035,60.0,2.15
2026-01-20T23:02:10+00:00,SAT-56319,309.84820363237924,40.051027238846444,2774.986274855729,3.8101141354713164,-133446.3137910188,10.5,10499866553.686209,47.655,-122.3035,60.0,2.1666666666666665
2026-01-20T23:02:11+00:00,SAT-56319,309.6651329561844,40.05349356935042,2778.786228686839,3.823435606542951,-133912.88805771418,10.5,10499866087.111942,47.655,-122.3035,60.0,2.183333333333333
2026-01-20T23:02:12+00:00,SAT-56319,309.48249750696135,40.05551563122602,2782.5994684650977,3.836697942714441,-134377.39117006617,10.5,10499865622.60883,47.655,-122.3035,60.0,2.2
2026-01-20T23:02:13+00:00,SAT-56319,309.30030000689163,40.05709611978481,2786.425935213298,3.8499012332047875,-134839.8262529015,10.5,10499865160.173748,47.655,-122.3035,60.0,2.216666666666667
2026-01-20T23:02:14+00:00,SAT-56319,309.11854312746686,40.058237735255815,2790.2655700432147,3.86304559181964,-135300.19729217543,10.5,10499864699.802708,47.655,-122.3035,60.0,2.2333333333333334
2026-01-20T23:02:15+00:00,SAT-56319,308.9372294885258,40.0589431823923,2794.1183141801225,3.8761311543827666,-135758.5090450109,10.5,10499864241.490955,47.655,-122.3035,60.0,2.25
2026-01-20T23:02:16+00:00,SAT-56319,308.7563616575014,40.05921517006396,2797.9841089847605,3.8891580123503453,-136214.76471459007,10.5,10499863785.235285,47.655,-122.3035,60.0,2.2666666666666666
2026-01-20T23:02:17+00:00,SAT-56319,308.5759421515429,40.05905641087688,2801.8628959090775,3.9021263088711153,-136668.96931458733,10.5,10499863331.030685,47.655,-122.3035,60.0,2.283333333333333
2026-01-20T23:02:18+00:00,SAT-56319,308.3959734354841,40.0584696207666,2805.7546165477916,3.91503615884086,-137121.12686913903,10.5,10499862878.87313,47.655,-122.3035,60.0,2.3
2026-01-20T23:02:19+00:00,SAT-56319,308.2164579232444,40.05745751862872,2809.6592126102087,3.9278876693343703,-137571.24112845724,10.5,10499862428.758871,47.655,-122.3035,60.0,2.316666666666667
2026-01-20T23:02:20+00:00,SAT-56319,308.037397978432,40.05602282594218,2813.5766259124252,3.940680988984583,-138019.31729829617,10.5,10499861980.682701,47.655,-122.3035,60.0,2.3333333333333335
2026-01-20T23:02:21+00:00,SAT-56319,307.85879591274653,40.054168266372706,2817.5067984187726,3.9534162349732536,-138465.35948285653,10.5,10499861534.640516,47.655,-122.3035,60.0,2.35
2026-01-20T23:02:22+00:00,SAT-56319,307.68065398759626,40.05189656542148,2821.4496722104527,3.9660935225920717,-138909.37172014097,10.5,10499861090.62828,47.655,-122.3035,60.0,2.3666666666666667
2026-01-20T23:02:23+00:00,SAT-56319,307.50297441439164,40.049210450068976,2825.405189483651,3.9787130129812596,-139351.35965396176,10.5,10499860648.640347,47.655,-122.3035,60.0,2.3833333333333333
2026-01-20T23:02:24+00:00,SAT-56319,307.3257593528999,40.04611264836603,2829.3732925952645,3.9912748145745898,-139791.32708212823,10.5,10499860208.672918,47.655,-122.3035,60.0,2.4
2026-01-20T23:02:25+00:00,SAT-56319,307.14901091369074,40.042605889136716,2833.3539240103337,4.003779068155543,-140229.27893547344,10.5,10499859770.721064,47.655,-122.3035,60.0,2.4166666666666665
2026-01-20T23:02:26+00:00,SAT-56319,306.9727311570809,40.038692901591915,2837.347026334307,4.016225905668137,-140665.21983523495,10.5,10499859334.780165,47.655,-122.3035,60.0,2.433333333333333
2026-01-20T23:02:27+00:00,SAT-56319,306.7969220937462,40.0343764149979,2841.3525423042265,4.028615474546418,-141099.15494517676,10.5,10499858900.845055,47.655,-122.3035,60.0,2.45
2026-01-20T23:02:28+00:00,SAT-56319,306.6215856844105,40.02965915831232,2845.3704148041747,4.040947896095839,-141531.0885139289,10.5,10499858468.911486,47.655,-122.3035,60.0,2.466666666666667
2026-01-20T23:02:29+00:00,SAT-56319,306.44672384116336,40.024543859890976,2849.400586839214,4.053223334702115,-141961.0262989745,10.5,10499858038.973701,47.655,-122.3035,60.0,2.4833333333333334
2026-01-20T23:02:30+00:00,SAT-56319,306.27233842606324,40.01903324708638,2853.443001578357,4.065441911032882,-142388.97252660457,10.5,10499857611.027473,47.655,-122.3035,60.0,2.5
2026-01-20T23:02:31+00:00,SAT-56319,306.0984312531508,40.013130045999795,2857.4976023109607,4.077603771601802,-142814.93232834738,10.5,10499857185.06767,47.655,-122.3035,60.0,2.5166666666666666
2026-01-20T23:02:32+00:00,SAT-56319,305.92500408776743,40.00683698111581,2861.5643324725047,4.0897090711501045,-143238.91112389523,10.5,10499856761.088877,47.655,-122.3035,60.0,2.533333333333333
2026-01-20T23:02:33+00:00,SAT-56319,305.75205864652133,40.00015677497307,2865.6431356527983,4.101757948600679,-143660.91377891542,10.5,10499856339.086222,47.655,-122.3035,60.0,2.55
