satellites_20260120_184412/SAT-55405.csv

timestamp,satellite,azimuth_deg,elevation_deg,distance_km,relative_velocity_kms,doppler_shift_hz,tx_freq_ghz,rx_freq_hz,ue_lat,ue_lon,ue_alt_m,time_minutes
2026-01-20T23:08:48+00:00,SAT-55405,237.5006698155517,40.01929058801673,2095.3481887802423,-6.676800076015522,233849.7814983824,10.5,10500233849.781498,47.655,-122.3035,60.0,8.8
2026-01-20T23:08:49+00:00,SAT-55405,237.4064503187498,40.075259046105,2088.6891935044296,-6.67490903898661,233783.54938255117,10.5,10500233783.549383,47.655,-122.3035,60.0,8.816666666666666
2026-01-20T23:08:50+00:00,SAT-55405,237.31160773938012,40.13133009698724,2082.0320842228803,-6.672992029168664,233716.40758978322,10.5,10500233716.407589,47.655,-122.3035,60.0,8.833333333333334
2026-01-20T23:08:51+00:00,SAT-55405,237.21613542804903,40.187503952335604,2075.3768868391226,-6.67104870978655,233648.34432478878,10.5,10500233648.344324,47.655,-122.3035,60.0,8.85
2026-01-20T23:08:52+00:00,SAT-55405,237.1200266458629,40.24378081410476,2068.723627592562,-6.6690788255414075,233579.35064592178,10.5,10500233579.350645,47.655,-122.3035,60.0,8.866666666666667
2026-01-20T23:08:53+00:00,SAT-55405,237.02327456192228,40.300160874927975,2062.0723329772222,-6.667082047302742,233509.41502564013,10.5,10500233509.415026,47.655,-122.3035,60.0,8.883333333333333
2026-01-20T23:08:54+00:00,SAT-55405,236.92587225274008,40.35664431712269,2055.423029815379,-6.665058030750897,233438.52540441303,10.5,10500233438.525404,47.655,-122.3035,60.0,8.9
2026-01-20T23:08:55+00:00,SAT-55405,236.82781270097593,40.41323131221932,2048.77574527271,-6.66300648831836,233366.6717104097,10.5,10500233366.671711,47.655,-122.3035,60.0,8.916666666666666
2026-01-20T23:08:56+00:00,SAT-55405,236.72908879308164,40.469922021087314,2042.1305068016939,-6.6609270883518334,233293.8423277288,10.5,10500233293.842327,47.655,-122.3035,60.0,8.933333333333334
2026-01-20T23:08:57+00:00,SAT-55405,236.62969331834472,40.52671659318631,2035.4873421855775,-6.658819482213831,233220.02504561082,10.5,10500233220.025045,47.655,-122.3035,60.0,8.95
2026-01-20T23:08:58+00:00,SAT-55405,236.529618967487,40.583615166022895,2028.8462795553166,-6.656683356547219,233145.20888896345,10.5,10500233145.208889,47.655,-122.3035,60.0,8.966666666666667
2026-01-20T23:08:59+00:00,SAT-55405,236.42885833057767,40.64061786507715,2022.2073473543867,-6.654518352219774,233069.3812794571,10.5,10500233069.381279,47.655,-122.3035,60.0,8.983333333333333
2026-01-20T23:09:00+00:00,SAT-55405,236.3274038959682,40.69772480297655,2015.5705743844394,-6.652324128553485,232992.53028510674,10.5,10500232992.530285,47.655,-122.3035,60.0,9.0
2026-01-20T23:09:01+00:00,SAT-55405,236.2252480483954,40.754936079254605,2008.9359897868956,-6.650100332476138,232914.64353983,10.5,10500232914.64354,47.655,-122.3035,60.0,9.016666666666667
2026-01-20T23:09:02+00:00,SAT-55405,236.12238306737476,40.8122517797853,2002.303623055306,-6.647846606392106,232835.70851911532,10.5,10500232835.708519,47.655,-122.3035,60.0,9.033333333333333
2026-01-20T23:09:03+00:00,SAT-55405,236.0188011255685,40.869671976309796,1995.6735040398644,-6.645562580916082,232755.71228552674,10.5,10500232755.712286,47.655,-122.3035,60.0,9.05
2026-01-20T23:09:04+00:00,SAT-55405,235.91449428713975,40.92719672586018,1989.045662959164,-6.643247904046921,232674.64251049527,10.5,10500232674.642511,47.655,-122.3035,60.0,9.066666666666666
2026-01-20T23:09:05+00:00,SAT-55405,235.80945450572864,40.98482607044451,1982.420130382861,-6.64090218887539,232592.48564282293,10.5,10500232592.485643,47.655,-122.3035,60.0,9.083333333333334
2026-01-20T23:09:06+00:00,SAT-55405,235.70367362306655,41.04256003622922,1975.7969372664895,-6.638525055078527,232509.2283619908,10.5,10500232509.228361,47.655,-122.3035,60.0,9.1
2026-01-20T23:09:07+00:00,SAT-55405,235.59714336707444,41.10039863310856,1969.176114944891,-6.636116092089723,232424.8562882195,10.5,10500232424.856289,47.655,-122.3035,60.0,9.116666666666667
2026-01-20T23:09:08+00:00,SAT-55405,235.4898553503361,41.15834185387923,1962.5576951623802,-6.633674963970121,232339.35765550938,10.5,10500232339.357655,47.655,-122.3035,60.0,9.133333333333333
2026-01-20T23:09:09+00:00,SAT-55405,235.38180106712895,41.2163896744041,1955.941709998314,-6.63120119701214,232252.71587261703,10.5,10500232252.715872,47.655,-122.3035,60.0,9.15
2026-01-20T23:09:10+00:00,SAT-55405,235.27297189343437,41.27454205177865,1949.328192004494,-6.62869446520525,232164.91952127469,10.5,10500232164.919521,47.655,-122.3035,60.0,9.166666666666666
2026-01-20T23:09:11+00:00,SAT-55405,235.1633590828024,41.33279892512198,1942.7171740578624,-6.626154293371591,232075.95195874374,10.5,10500232075.95196,47.655,-122.3035,60.0,9.183333333333334
2026-01-20T23:09:12+00:00,SAT-55405,235.0529537664861,41.39116021360195,1936.1086895092733,-6.623580302455449,231985.79990888966,10.5,10500231985.79991,47.655,-122.3035,60.0,9.2
2026-01-20T23:09:13+00:00,SAT-55405,234.94174694998227,41.449625816717145,1929.5027720876246,-6.620972032618815,231894.4472662403,10.5,10500231894.447266,47.655,-122.3035,60.0,9.216666666666667
2026-01-20T23:09:14+00:00,SAT-55405,234.82972951211744,41.5081956129139,1922.899455980426,-6.618329073935944,231801.87967346198,10.5,10500231801.879673,47.655,-122.3035,60.0,9.233333333333333
2026-01-20T23:09:15+00:00,SAT-55405,234.7168922021744,41.56686945939782,1916.2987757840206,-6.6156509753163055,231708.08133145634,10.5,10500231708.081331,47.655,-122.3035,60.0,9.25
2026-01-20T23:09:16+00:00,SAT-55405,234.6032256383321,41.62564719107773,1909.7007665446383,-6.612937312839307,231613.03739273097,10.5,10500231613.037394,47.655,-122.3035,60.0,9.266666666666667
2026-01-20T23:09:17+00:00,SAT-55405,234.48872030504322,41.68452862013174,1903.1054637312998,-6.610187598590846,231516.73076847012,10.5,10500231516.730768,47.655,-122.3035,60.0,9.283333333333333
2026-01-20T23:09:18+00:00,SAT-55405,234.37336655180093,41.74351353469292,1896.5129032996388,-6.607401387871765,231419.14588342822,10.5,10500231419.145884,47.655,-122.3035,60.0,9.3
2026-01-20T23:09:19+00:00,SAT-55405,234.25715459014805,41.80260169850887,1889.9231216488013,-6.60457822367179,231320.26673117236,10.5,10500231320.266731,47.655,-122.3035,60.0,9.316666666666666
2026-01-20T23:09:20+00:00,SAT-55405,234.14007449159988,41.86179285008284,1883.3361556337259,-6.601717623163846,231220.07640105602,10.5,10500231220.0764,47.655,-122.3035,60.0,9.333333333333334
2026-01-20T23:09:21+00:00,SAT-55405,234.0221161856317,41.92108670162819,1876.7520425908906,-6.598819079636558,231118.55714590344,10.5,10500231118.557146,47.655,-122.3035,60.0,9.35
2026-01-20T23:09:22+00:00,SAT-55405,233.90326945772983,41.98048293804722,1870.1708203621329,-6.595882111847482,231015.69211056855,10.5,10500231015.69211,47.655,-122.3035,60.0,9.366666666666667
2026-01-20T23:09:23+00:00,SAT-55405,233.78352394651375,42.03998121632825,1863.5925272692505,-6.592906253490495,230911.4649630385,10.5,10500230911.464964,47.655,-122.3035,60.0,9.383333333333333
2026-01-20T23:09:24+00:00,SAT-55405,233.66286914102548,42.09958116483815,1857.0172020991026,-6.589890939142392,230805.85589980092,10.5,10500230805.8559,47.655,-122.3035,60.0,9.4
2026-01-20T23:09:25+00:00,SAT-55405,233.54129437984153,42.15928238148495,1850.4448842024644,-6.586835685422136,230698.8479908071,10.5,10500230698.84799,47.655,-122.3035,60.0,9.416666666666666
2026-01-20T23:09:26+00:00,SAT-55405,233.4187888471679,42.21908443358331,1843.8756134122034,-6.583739978076628,230590.42322473833,10.5,10500230590.423225,47.655,-122.3035,60.0,9.433333333333334
2026-01-20T23:09:27+00:00,SAT-55405,233.29534157074778,42.27898685662584,1837.3094300740686,-6.580603260217703,230480.56209701544,10.5,10500230480.562098,47.655,-122.3035,60.0,9.45
2026-01-20T23:09:28+00:00,SAT-55405,233.17094141996773,42.338989152900055,1830.7463750892114,-6.577424970234569,230369.24493765272,10.5,10500230369.244938,47.655,-122.3035,60.0,9.466666666666667
2026-01-20T23:09:29+00:00,SAT-55405,233.0455771032259,42.39909079042389,1824.1864899188975,-6.574204603438309,230256.4540703097,10.5,10500230256.454071,47.655,-122.3035,60.0,9.483333333333333
2026-01-20T23:09:30+00:00,SAT-55405,232.91923716429267,42.45929120248498,1817.6298165277349,-6.570941573043465,230142.16894327736,10.5,10500230142.168943,47.655,-122.3035,60.0,9.5
2026-01-20T23:09:31+00:00,SAT-55405,232.79190998089544,42.51958978575632,1811.0763974655529,-6.567635308988559,230026.3695905915,10.5,10500230026.36959,47.655,-122.3035,60.0,9.516666666666667
2026-01-20T23:09:32+00:00,SAT-55405,232.6635837616875,42.579985899380866,1804.5262758507217,-6.5642852076988385,229909.03487251105,10.5,10500229909.034872,47.655,-122.3035,60.0,9.533333333333333
2026-01-20T23:09:33+00:00,SAT-55405,232.53424654396483,42.64047886349424,1797.9794954035767,-6.560890746308146,229790.14647605154,10.5,10500229790.146477,47.655,-122.3035,60.0,9.55
2026-01-20T23:09:34+00:00,SAT-55405,232.403886189345,42.701067958851404,1791.4361003659253,-6.55745122840573,229669.68000996264,10.5,10500229669.68001,47.655,-122.3035,60.0,9.566666666666666
2026-01-20T23:09:35+00:00,SAT-55405,232.27249038393416,42.76175242392067,1784.8961356741288,-6.553966127820228,229547.61704549752,10.5,10500229547.617046,47.655,-122.3035,60.0,9.583333333333334
2026-01-20T23:09:36+00:00,SAT-55405,232.14004663230355,42.822531455310035,1778.359646789316,-6.550434772589817,229423.9340477107,10.5,10500229423.934048,47.655,-122.3035,60.0,9.6
2026-01-20T23:09:37+00:00,SAT-55405,232.0065422570803,42.883404205050475,1771.8266798427865,-6.546856553751848,229298.60968815436,10.5,10500229298.609688,47.655,-122.3035,60.0,9.616666666666667
2026-01-20T23:09:38+00:00,SAT-55405,231.87196439477367,42.94436977990024,1765.2972815731778,-6.54323082328622,229171.62127042338,10.5,10500229171.621271,47.655,-122.3035,60.0,9.633333333333333
2026-01-20T23:09:39+00:00,SAT-55405,231.7362999933537,43.0054272395948,1758.7714993654206,-6.539556938876331,229042.9462978734,10.5,10500229042.946299,47.655,-122.3035,60.0,9.65
2026-01-20T23:09:40+00:00,SAT-55405,231.59953580900284,43.06657559549482,1752.2493812450477,-6.535834202068382,228912.56030769798,10.5,10500228912.560308,47.655,-122.3035,60.0,9.666666666666666
2026-01-20T23:09:41+00:00,SAT-55405,231.46165840397103,43.127813808580335,1745.730975934185,-6.5320619707528715,228780.44081050614,10.5,10500228780.440811,47.655,-122.3035,60.0,9.683333333333334
2026-01-20T23:09:42+00:00,SAT-55405,231.3226541422789,43.189140788522096,1739.216332795354,-6.528239562562681,228646.56390691508,10.5,10500228646.563908,47.655,-122.3035,60.0,9.7
2026-01-20T23:09:43+00:00,SAT-55405,231.1825091871636,43.25055539173427,1732.705501871625,-6.524366222131279,228510.90314079358,10.5,10500228510.903141,47.655,-122.3035,60.0,9.716666666666667
2026-01-20T23:09:44+00:00,SAT-55405,231.04120949921352,43.31205641906486,1726.1985339594191,-6.520441310387551,228373.43612916803,10.5,10500228373.436129,47.655,-122.3035,60.0,9.733333333333333
2026-01-20T23:09:45+00:00,SAT-55405,230.89874083066397,43.37364261531186,1719.695480492526,-6.516464053293988,228234.1357619706,10.5,10500228234.135761,47.655,-122.3035,60.0,9.75
2026-01-20T23:09:46+00:00,SAT-55405,230.7550887246849,43.43531266619783,1713.1963936767074,-6.512433758722857,228092.97779796046,10.5,10500228092.977798,47.655,-122.3035,60.0,9.766666666666667
2026-01-20T23:09:47+00:00,SAT-55405,230.6102385102258,43.4970651974371,1706.7013264080078,-6.508349604766156,227949.9334504427,10.5,10500227949.93345,47.655,-122.3035,60.0,9.783333333333333
2026-01-20T23:09:48+00:00,SAT-55405,230.4641753011762,43.55889877164484,1700.2103324021878,-6.504210901351651,227804.97855016866,10.5,10500227804.97855,47.655,-122.3035,60.0,9.8
2026-01-20T23:09:49+00:00,SAT-55405,230.31688399009212,43.62081188780823,1693.7234660632398,-6.500016834168715,227658.08457653565,10.5,10500227658.084576,47.655,-122.3035,60.0,9.816666666666666
2026-01-20T23:09:50+00:00,SAT-55405,230.1683492471762,43.68280297814407,1687.2407826072956,-6.495766640970283,227509.22483242713,10.5,10500227509.224833,47.655,-122.3035,60.0,9.833333333333334
2026-01-20T23:09:51+00:00,SAT-55405,230.01855551550062,43.7448704066323,1680.7623380107011,-6.491459485850453,227358.3700408826,10.5,10500227358.37004,47.655,-122.3035,60.0,9.85
2026-01-20T23:09:52+00:00,SAT-55405,229.86748700894006,43.80701246627597,1674.2881890834797,-6.487094573147982,227205.49233447964,10.5,10500227205.492334,47.655,-122.3035,60.0,9.866666666666667
2026-01-20T23:09:53+00:00,SAT-55405,229.71512770752295,43.869227377390295,1667.8183934291935,-6.482671076922144,227050.56278528032,10.5,10500227050.562786,47.655,-122.3035,60.0,9.883333333333333
2026-01-20T23:09:54+00:00,SAT-55405,229.5614613543538,43.93151328516509,1661.353009475143,-6.478188122666222,226893.55076436023,10.5,10500226893.550764,47.655,-122.3035,60.0,9.9
2026-01-20T23:09:55+00:00,SAT-55405,229.4064714528173,43.99386825693555,1654.8920965208038,-6.473644854715243,226734.42630271259,10.5,10500226734.426302,47.655,-122.3035,60.0,9.916666666666666
2026-01-20T23:09:56+00:00,SAT-55405,229.25014126236997,44.056290280097585,1648.4357147190344,-6.46904044611077,226573.16043675484,10.5,10500226573.160437,47.655,-122.3035,60.0,9.933333333333334
2026-01-20T23:09:57+00:00,SAT-55405,229.0924537939494,44.11877726004075,1641.9839250474467,-6.464373938037766,226409.71958472865,10.5,10500226409.719585,47.655,-122.3035,60.0,9.95
2026-01-20T23:09:58+00:00,SAT-55405,228.93339180902203,44.181327016368606,1635.5367894399105,-6.45964445533086,226244.0730946408,10.5,10500226244.073095,47.655,-122.3035,60.0,9.966666666666667
2026-01-20T23:09:59+00:00,SAT-55405,228.7729378137249,44.243937281248705,1629.0943707031272,-6.454851068263229,226076.18840352516,10.5,10500226076.188404,47.655,-122.3035,60.0,9.983333333333333
2026-01-20T23:10:00+00:00,SAT-55405,228.61107405612205,44.3066056962799,1622.656732571046,-6.449992835559262,225906.03254392828,10.5,10500225906.032543,47.655,-122.3035,60.0,10.0
2026-01-20T23:10:01+00:00,SAT-55405,228.4477825224004,44.369329809703515,1616.2239397163814,-6.445068799613226,225733.5719764467,10.5,10500225733.571976,47.655,-122.3035,60.0,10.016666666666667
2026-01-20T23:10:02+00:00,SAT-55405,228.28304493321951,44.43210707350546,1609.7960577669007,-6.440077985047966,225558.77253924662,10.5,10500225558.77254,47.655,-122.3035,60.0,10.033333333333333
2026-01-20T23:10:03+00:00,SAT-55405,228.1168427399871,44.49493484039579,1603.373153323146,-6.435019394158705,225381.59928848644,10.5,10500225381.599289,47.655,-122.3035,60.0,10.05
2026-01-20T23:10:04+00:00,SAT-55405,227.94915712131345,44.55781036068314,1596.9552939807052,-6.429892032596693,225202.01739786688,10.5,10500225202.017397,47.655,-122.3035,60.0,10.066666666666666
2026-01-20T23:10:05+00:00,SAT-55405,227.7799689787151,44.620730779295236,1590.542548326862,-6.424694860812371,225019.9904579651,10.5,10500225019.990458,47.655,-122.3035,60.0,10.083333333333334
2026-01-20T23:10:06+00:00,SAT-55405,227.6092589335698,44.683693132232605,1584.1349859856784,-6.419426825691284,224835.48158425812,10.5,10500224835.481585,47.655,-122.3035,60.0,10.1
2026-01-20T23:10:07+00:00,SAT-55405,227.43700732322026,44.746694343233195,1577.7326776315224,-6.4140868611705555,224648.4534387147,10.5,10500224648.453438,47.655,-122.3035,60.0,10.116666666666667
2026-01-20T23:10:08+00:00,SAT-55405,227.2631941971053,44.80973122037015,1571.3356950019818,-6.408673897571071,224458.86855664745,10.5,10500224458.868557,47.655,-122.3035,60.0,10.133333333333333
2026-01-20T23:10:09+00:00,SAT-55405,227.08779931256439,44.87280045261974,1564.9441109014708,-6.40318681329754,224266.68765504492,10.5,10500224266.687654,47.655,-122.3035,60.0,10.15
2026-01-20T23:10:10+00:00,SAT-55405,226.91080213193746,44.935898605858306,1558.5579992530088,-6.397624477114255,224071.87111324756,10.5,10500224071.871113,47.655,-122.3035,60.0,10.166666666666666
2026-01-20T23:10:11+00:00,SAT-55405,226.73218181852005,44.999022119161694,1552.1774351078334,-6.391985775785379,223874.37994102732,10.5,10500223874.379942,47.655,-122.3035,60.0,10.183333333333334
2026-01-20T23:10:12+00:00,SAT-55405,226.55191723184268,45.06216730131135,1545.8024946274502,-6.386269508786805,223674.17209095185,10.5,10500223674.17209,47.655,-122.3035,60.0,10.2
2026-01-20T23:10:13+00:00,SAT-55405,226.36998692561275,45.12533032605651,1539.4332551706866,-6.380474510098739,223471.2067240756,10.5,10500223471.206724,47.655,-122.3035,60.0,10.216666666666667
2026-01-20T23:10:14+00:00,SAT-55405,226.18636914262103,45.188507228592115,1533.0697952592816,-6.374599524806376,223265.43988797395,10.5,10500223265.439888,47.655,-122.3035,60.0,10.233333333333333
2026-01-20T23:10:15+00:00,SAT-55405,226.00104181274472,45.25169390054537,1526.7121946665413,-6.368643392042765,223056.83092417568,10.5,10500223056.830925,47.655,-122.3035,60.0,10.25
2026-01-20T23:10:16+00:00,SAT-55405,225.81398254625165,45.314886086864725,1520.360534323544,-6.362604790425579,222845.3335522823,10.5,10500222845.333551,47.655,-122.3035,60.0,10.266666666666667
2026-01-20T23:10:17+00:00,SAT-55405,225.62516863381137,45.37807937980543,1514.014896479226,-6.3564824907770285,222630.90472128824,10.5,10500222630.904722,47.655,-122.3035,60.0,10.283333333333333
2026-01-20T23:10:18+00:00,SAT-55405,225.43457703980877,45.441269215527704,1507.6753646084246,-6.350275141620809,222413.49709677653,10.5,10500222413.497097,47.655,-122.3035,60.0,10.3
2026-01-20T23:10:19+00:00,SAT-55405,225.24218440147973,45.50445086824812,1501.342023533848,-6.343981471453572,222193.06614532144,10.5,10500222193.066145,47.655,-122.3035,60.0,10.316666666666666
2026-01-20T23:10:20+00:00,SAT-55405,225.0479670225484,45.56761944644344,1495.0149593463184,-6.33760010175054,221969.5635851542,10.5,10500221969.563585,47.655,-122.3035,60.0,10.333333333333334
2026-01-20T23:10:21+00:00,SAT-55405,224.8519008720348,45.63076988688768,1488.694259511506,-6.331129640766615,221742.94067147432,10.5,10500221742.940672,47.655,-122.3035,60.0,10.35
2026-01-20T23:10:22+00:00,SAT-55405,224.65396158063967,45.69389694958868,1482.3800128831147,-6.324568703034486,221513.14887935607,10.5,10500221513.14888,47.655,-122.3035,60.0,10.366666666666667
2026-01-20T23:10:23+00:00,SAT-55405,224.45412443646308,45.75699521275079,1476.0723096966215,-6.317915871958125,221280.1385936144,10.5,10500221280.138594,47.655,-122.3035,60.0,10.383333333333333
2026-01-20T23:10:24+00:00,SAT-55405,224.2523643819473,45.82005906722071,1469.7712416003221,-6.311169671360106,221043.8581122715,10.5,10500221043.858112,47.655,-122.3035,60.0,10.4
2026-01-20T23:10:25+00:00,SAT-55405,224.0486560116912,45.88308271044881,1463.476901714752,-6.304328636425781,220804.25613132236,10.5,10500220804.256132,47.655,-122.3035,60.0,10.416666666666666
2026-01-20T23:10:26+00:00,SAT-55405,223.8429735683047,45.946060141086875,1457.1893846213568,-6.29739125240994,220561.27959798233,10.5,10500220561.279598,47.655,-122.3035,60.0,10.433333333333334
2026-01-20T23:10:27+00:00,SAT-55405,223.6352909401133,46.008985152736535,1450.9087864122869,-6.290355998469502,220314.87524589352,10.5,10500220314.875246,47.655,-122.3035,60.0,10.45
2026-01-20T23:10:28+00:00,SAT-55405,223.42558165770234,46.07185132803728,1444.6352046964798,-6.283221259520922,220064.9865079984,10.5,10500220064.986507,47.655,-122.3035,60.0,10.466666666666667
2026-01-20T23:10:29+00:00,SAT-55405,223.21381889323243,46.13465203159887,1438.368738693651,-6.275985494437049,219811.55940750524,10.5,10500219811.559408,47.655,-122.3035,60.0,10.483333333333333
2026-01-20T23:10:30+00:00,SAT-55405,222.99997545474102,46.19738040462708,1432.1094891605323,-6.268647045023835,219554.5358674442,10.5,10500219554.535868,47.655,-122.3035,60.0,10.5
2026-01-20T23:10:31+00:00,SAT-55405,222.78402378642193,46.26002935726005,1425.8575585076285,-6.26120428247402,219293.85884009534,10.5,10500219293.85884,47.655,-122.3035,60.0,10.516666666666667
2026-01-20T23:10:32+00:00,SAT-55405,222.56593596455724,46.32259156235486,1419.6130507699079,-6.253655486949041,219029.46808943717,10.5,10500219029.46809,47.655,-122.3035,60.0,10.533333333333333
2026-01-20T23:10:33+00:00,SAT-55405,222.34568369736294,46.38505944774626,1413.3760716975905,-6.2459989612939575,218761.3041739247,10.5,10500218761.304174,47.655,-122.3035,60.0,10.55
2026-01-20T23:10:34+00:00,SAT-55405,222.12323832142033,46.447425189591264,1407.1467287335267,-6.238232953524286,218489.30573165056,10.5,10500218489.30573,47.655,-122.3035,60.0,10.566666666666666
2026-01-20T23:10:35+00:00,SAT-55405,221.89857080070564,46.50968070463579,1400.9251310678785,-6.230355669152617,218213.40991207486,10.5,10500218213.409912,47.655,-122.3035,60.0,10.583333333333334
2026-01-20T23:10:36+00:00,SAT-55405,221.67165172557677,46.571817642485925,1394.7113896805104,-6.222365283956111,217933.55282319733,10.5,10500217933.552824,47.655,-122.3035,60.0,10.6
2026-01-20T23:10:37+00:00,SAT-55405,221.44245131138663,46.63382737773385,1388.5056173706448,-6.2142599724716145,217649.6705295767,10.5,10500217649.67053,47.655,-122.3035,60.0,10.616666666666667
2026-01-20T23:10:38+00:00,SAT-55405,221.2109393964924,46.69570100227432,1382.3079287581,-6.20603783070637,217361.6963453326,10.5,10500217361.696346,47.655,-122.3035,60.0,10.633333333333333
2026-01-20T23:10:39+00:00,SAT-55405,220.9770854430431,46.757429316510404,1376.1184403616087,-6.197696924807667,217069.5625387631,10.5,10500217069.562538,47.655,-122.3035,60.0,10.65
2026-01-20T23:10:40+00:00,SAT-55405,220.74085853649788,46.81900282092124,1369.9372706286006,-6.1892353213776605,216773.20139409724,10.5,10500216773.201395,47.655,-122.3035,60.0,10.666666666666666
2026-01-20T23:10:41+00:00,SAT-55405,220.50222738422633,46.88041170771556,1363.7645399347464,-6.180650991630223,216472.54185466314,10.5,10500216472.541855,47.655,-122.3035,60.0,10.683333333333334
2026-01-20T23:10:42+00:00,SAT-55405,220.2611603179312,46.94164585124656,1357.6003706790939,-6.171941916470472,216167.51320321727,10.5,10500216167.513203,47.655,-122.3035,60.0,10.7
2026-01-20T23:10:43+00:00,SAT-55405,220.0176252925633,47.00269479932808,1351.4448872744008,-6.163106027930063,215858.04301076065,10.5,10500215858.04301,47.655,-122.3035,60.0,10.716666666666667
2026-01-20T23:10:44+00:00,SAT-55405,219.7715898877374,47.06354776371322,1345.2982161958785,-6.154141212875667,215544.05726642566,10.5,10500215544.057266,47.655,-122.3035,60.0,10.733333333333333
2026-01-20T23:10:45+00:00,SAT-55405,219.52302130934106,47.12419361035236,1339.1604860262373,-6.14504530796947,215225.480200971,10.5,10500215225.480202,47.655,-122.3035,60.0,10.75
2026-01-20T23:10:46+00:00,SAT-55405,219.2718863918211,47.18462084940034,1333.0318275057557,-6.135816129712064,214902.23533901133,10.5,10500214902.235338,47.655,-122.3035,60.0,10.766666666666667
2026-01-20T23:10:47+00:00,SAT-55405,219.01815159966648,47.244817625279765,1326.9123735523895,-6.126451432155528,214574.24401795006,10.5,10500214574.244019,47.655,-122.3035,60.0,10.783333333333333
2026-01-20T23:10:48+00:00,SAT-55405,218.76178303104075,47.304771706079244,1320.802259324053,-6.11694893730258,214241.42645268643,10.5,10500214241.426453,47.655,-122.3035,60.0,10.8
2026-01-20T23:10:49+00:00,SAT-55405,218.50274642065662,47.36447047301756,1314.7016222505833,-6.107306323963869,213903.70134535083,10.5,10500213903.701345,47.655,-122.3035,60.0,10.816666666666666
2026-01-20T23:10:50+00:00,SAT-55405,218.24100714363416,47.42390090955682,1308.6106020768166,-6.097521263511738,213560.9871375525,10.5,10500213560.987137,47.655,-122.3035,60.0,10.833333333333334
2026-01-20T23:10:51+00:00,SAT-55405,217.9765302183791,47.48304959064892,1302.5293408700077,-6.087591282639287,213213.19720362182,10.5,10500213213.197203,47.655,-122.3035,60.0,10.85
2026-01-20T23:10:52+00:00,SAT-55405,217.70928031565043,47.54190267025152,1296.4579831641222,-6.077513967378087,212860.24699617331,10.5,10500212860.246996,47.655,-122.3035,60.0,10.866666666666667
2026-01-20T23:10:53+00:00,SAT-55405,217.43922175992742,47.60044587080756,1290.3966759006569,-6.0672868099964665,212502.04868383612,10.5,10500212502.048683,47.655,-122.3035,60.0,10.883333333333333
2026-01-20T23:10:54+00:00,SAT-55405,217.1663185376319,47.65866447081785,1284.3455685221536,-6.0569072551448455,212138.51276745886,10.5,10500212138.512768,47.655,-122.3035,60.0,10.9
2026-01-20T23:10:55+00:00,SAT-55405,216.8905343041216,47.71654329265152,1278.3048130196894,-6.046372683701214,211769.54751430984,10.5,10500211769.547514,47.655,-122.3035,60.0,10.916666666666666
2026-01-20T23:10:56+00:00,SAT-55405,216.61183239214776,47.77406668994224,1272.274563996478,-6.03568049490605,211395.06183478946,10.5,10500211395.061834,47.655,-122.3035,60.0,10.933333333333334
2026-01-20T23:10:57+00:00,SAT-55405,216.3301758174112,47.831218535605124,1266.2549786495583,-6.0248279600059504,211014.96015641087,10.5,10500211014.960155,47.655,-122.3035,60.0,10.95
2026-01-20T23:10:58+00:00,SAT-55405,216.04552729129557,47.88798220804614,1260.2462168974457,-6.013812319823194,210629.14584109897,10.5,10500210629.145842,47.655,-122.3035,60.0,10.966666666666667
2026-01-20T23:10:59+00:00,SAT-55405,215.75784923016738,47.94434057814418,1254.2484414104754,-6.002630805152627,210237.52189957557,10.5,10500210237.5219,47.655,-122.3035,60.0,10.983333333333333
2026-01-20T23:11:00+00:00,SAT-55405,215.467103764616,48.00027599623146,1248.2618176208032,-5.991280541791147,209839.9876650901,10.5,10500209839.987665,47.655,-122.3035,60.0,11.0
2026-01-20T23:11:01+00:00,SAT-55405,215.17325275379113,48.055770277782415,1242.2865138271234,-5.979758633384129,209436.44169505205,10.5,10500209436.441694,47.655,-122.3035,60.0,11.016666666666667
2026-01-20T23:11:02+00:00,SAT-55405,214.8762577970316,48.11080468977866,1236.3227012167617,-5.968062101971082,209026.77968868837,10.5,10500209026.779688,47.655,-122.3035,60.0,11.033333333333333
2026-01-20T23:11:03+00:00,SAT-55405,214.57608024909985,48.165359936135,1230.3705539470625,-5.956187951514397,208610.89671208864,10.5,10500208610.896711,47.655,-122.3035,60.0,11.05
2026-01-20T23:11:04+00:00,SAT-55405,214.27268123364385,48.21941614366216,1224.4302491634187,-5.944133082050855,208188.68419142812,10.5,10500208188.68419,47.655,-122.3035,60.0,11.066666666666666
2026-01-20T23:11:05+00:00,SAT-55405,213.96602166163458,48.27295284679824,1218.5019671029202,-5.931894398366551,207760.03371922314,10.5,10500207760.03372,47.655,-122.3035,60.0,11.083333333333334
2026-01-20T23:11:06+00:00,SAT-55405,213.6560622458553,48.32594897331799,1212.5858910896159,-5.9194686743583755,207324.83230369637,10.5,10500207324.832304,47.655,-122.3035,60.0,11.1
2026-01-20T23:11:07+00:00,SAT-55405,213.34276352303752,48.37838282836136,1206.6822076650558,-5.9068526819439535,206882.96688374833,10.5,10500206882.966885,47.655,-122.3035,60.0,11.116666666666667
2026-01-20T23:11:08+00:00,SAT-55405,213.02608587108793,48.4302320796623,1200.7911065902638,-5.894043115735354,206434.3216907118,10.5,10500206434.321692,47.655,-122.3035,60.0,11.133333333333333
2026-01-20T23:11:09+00:00,SAT-55405,212.70598953106426,48.481473741685534,1194.9127809228369,-5.881036569773278,205978.77743348508,10.5,10500205978.777433,47.655,-122.3035,60.0,11.15
2026-01-20T23:11:10+00:00,SAT-55405,212.3824346319841,48.53208415946662,1189.0474271172498,-5.867829656235788,205516.21545621328,10.5,10500205516.215456,47.655,-122.3035,60.0,11.166666666666666
2026-01-20T23:11:11+00:00,SAT-55405,212.05538121072465,48.582038993381104,1183.1952450067638,-5.854418863424402,205046.5127643612,10.5,10500205046.512764,47.655,-122.3035,60.0,11.183333333333334
2026-01-20T23:11:12+00:00,SAT-55405,211.72478924077058,48.631313202358726,1177.3564379269753,-5.840800610549432,204569.5439435272,10.5,10500204569.543943,47.655,-122.3035,60.0,11.2
2026-01-20T23:11:13+00:00,SAT-55405,211.3906186596778,48.67988102749814,1171.5312127847205,-5.826971291815509,204085.18270350498,10.5,10500204085.182703,47.655,-122.3035,60.0,11.216666666666667
2026-01-20T23:11:14+00:00,SAT-55405,211.0528293956999,48.72771597596316,1165.7197800830168,-5.812927204989258,203593.29937642132,10.5,10500203593.299376,47.655,-122.3035,60.0,11.233333333333333
2026-01-20T23:11:15+00:00,SAT-55405,210.71138139982284,48.77479080406558,1159.9223540172407,-5.798664616308875,203093.76319014397,10.5,10500203093.76319,47.655,-122.3035,60.0,11.25
2026-01-20T23:11:16+00:00,SAT-55405,210.36623467598733,48.82107750089993,1154.1391525065756,-5.784179648274536,202586.4383382274,10.5,10500202586.438337,47.655,-122.3035,60.0,11.266666666666667
2026-01-20T23:11:17+00:00,SAT-55405,210.0173493192261,48.86654727078005,1148.3703973373629,-5.769468455154221,202071.19012686875,10.5,10500202071.190126,47.655,-122.3035,60.0,11.283333333333333
2026-01-20T23:11:18+00:00,SAT-55405,209.6646855458008,48.91117051735396,1142.6163141314225,-5.754527040759732,201547.87859265355,10.5,10500201547.878593,47.655,-122.3035,60.0,11.3
2026-01-20T23:11:19+00:00,SAT-55405,209.30820373537392,48.954916825891,1136.8771324961049,-5.739351393667079,201016.36323854528,10.5,10500201016.36324,47.655,-122.3035,60.0,11.316666666666666
2026-01-20T23:11:20+00:00,SAT-55405,208.94786446744814,48.99775494691271,1131.1530860394876,-5.723937380269506,200476.49928815025,10.5,10500200476.499289,47.655,-122.3035,60.0,11.333333333333334
2026-01-20T23:11:21+00:00,SAT-55405,208.58362856586749,49.03965277877248,1125.444412492232,-5.708280825060205,199928.14049755767,10.5,10500199928.140497,47.655,-122.3035,60.0,11.35
2026-01-20T23:11:22+00:00,SAT-55405,208.21545714072772,49.080577351115515,1119.751353749372,-5.692377488332777,199371.13837431546,10.5,10500199371.138374,47.655,-122.3035,60.0,11.366666666666667
2026-01-20T23:11:23+00:00,SAT-55405,207.84331163346178,49.12049480814928,1114.0741559343412,-5.67622302724486,198805.34081371393,10.5,10500198805.340815,47.655,-122.3035,60.0,11.383333333333333
2026-01-20T23:11:24+00:00,SAT-55405,207.46715386655416,49.15937039175502,1108.413069501836,-5.659813047453645,198230.59390727995,10.5,10500198230.593906,47.655,-122.3035,60.0,11.4
2026-01-20T23:11:25+00:00,SAT-55405,207.08694609206287,49.1971684251349,1102.7683492891754,-5.643143046312531,197646.7399532832,10.5,10500197646.739954,47.655,-122.3035,60.0,11.416666666666666
2026-01-20T23:11:26+00:00,SAT-55405,206.70265104613904,49.23385229631882,1097.1402546243198,-5.626208506551397,197053.62073781612,10.5,10500197053.620737,47.655,-122.3035,60.0,11.433333333333334
2026-01-20T23:11:27+00:00,SAT-55405,206.31423199948068,49.26938444253845,1091.5290493404523,-5.6090047805908,196451.07348298735,10.5,10500196451.073483,47.655,-122.3035,60.0,11.45
2026-01-20T23:11:28+00:00,SAT-55405,205.92165281764733,49.303726334040036,1085.9350019059432,-5.591527138471917,195838.93252563121,10.5,10500195838.932526,47.655,-122.3035,60.0,11.466666666666667
2026-01-20T23:11:29+00:00,SAT-55405,205.52487802065974,49.33683845863417,1080.3583855065071,-5.573770810052009,195217.0307951713,10.5,10500195217.030796,47.655,-122.3035,60.0,11.483333333333333
2026-01-20T23:11:30+00:00,SAT-55405,205.1238728419626,49.36868030693876,1074.799478085282,-5.555730922322112,194585.19761822085,10.5,10500194585.197618,47.655,-122.3035,60.0,11.5
2026-01-20T23:11:31+00:00,SAT-55405,204.71860329399684,49.39921035762308,1069.2585624454193,-5.537402527022303,193943.25968578632,10.5,10500193943.259686,47.655,-122.3035,60.0,11.516666666666667
2026-01-20T23:11:32+00:00,SAT-55405,204.30903623419667,49.428386063329356,1063.7359263251358,-5.518780591698055,193291.04074002279,10.5,10500193291.040741,47.655,-122.3035,60.0,11.533333333333333
2026-01-20T23:11:33+00:00,SAT-55405,203.8951394340873,49.456163837173605,1058.2318624816824,-5.499860026463714,192628.3625116046,10.5,10500192628.36251,47.655,-122.3035,60.0,11.55
2026-01-20T23:11:34+00:00,SAT-55405,203.47688164868697,49.48249903998486,1052.7466687486226,-5.480635613723719,191955.0422582647,10.5,10500191955.04226,47.655,-122.3035,60.0,11.566666666666666
2026-01-20T23:11:35+00:00,SAT-55405,203.054232693471,49.507345967857255,1047.280648163202,-5.4611021013461825,191270.89602812796,10.5,10500191270.896029,47.655,-122.3035,60.0,11.583333333333334
2026-01-20T23:11:36+00:00,SAT-55405,202.62716351682553,49.530657841021934,1041.8341090007928,-5.4412541430097,190575.73657040382,10.5,10500190575.73657,47.655,-122.3035,60.0,11.6
2026-01-20T23:11:37+00:00,SAT-55405,202.195646279288,49.552386793303064,1036.407364868831,-5.421086271580262,189869.37240293337,10.5,10500189869.372402,47.655,-122.3035,60.0,11.616666666666667
2026-01-20T23:11:38+00:00,SAT-55405,201.7596544369585,49.57248386218146,1031.0007348273084,-5.400593024881545,189151.61221719667,10.5,10500189151.612217,47.655,-122.3035,60.0,11.633333333333333
2026-01-20T23:11:39+00:00,SAT-55405,201.31916281784427,49.59089898083301,1025.6145433838265,-5.37976875441509,188422.25817888466,10.5,10500188422.258179,47.655,-122.3035,60.0,11.65
2026-01-20T23:11:40+00:00,SAT-55405,200.87414771477827,49.60758096994042,1020.2491206794232,-5.358607820482136,187681.11276189086,10.5,10500187681.112762,47.655,-122.3035,60.0,11.666666666666666
2026-01-20T23:11:41+00:00,SAT-55405,200.4245869656467,49.62247753198626,1014.9048024797956,-5.3371044363938065,186927.97329189305,10.5,10500186927.973291,47.655,-122.3035,60.0,11.683333333333334
2026-01-20T23:11:42+00:00,SAT-55405,199.97046004767043,49.635535245856275,1009.5819303218989,-5.315252800236357,186162.63656132988,10.5,10500186162.63656,47.655,-122.3035,60.0,11.7
2026-01-20T23:11:43+00:00,SAT-55405,199.5117481632579,49.64669956357943,1004.2808515291299,-5.293046950671442,185384.89377891604,10.5,10500185384.89378,47.655,-122.3035,60.0,11.716666666666667
2026-01-20T23:11:44+00:00,SAT-55405,199.048434339329,49.65591480777735,999.001919370327,-5.270480917162319,184594.5358311994,10.5,10500184594.535831,47.655,-122.3035,60.0,11.733333333333333
2026-01-20T23:11:45+00:00,SAT-55405,198.58050351623015,49.663124171508045,993.7454930689437,-5.247548593838527,183791.34886476878,10.5,10500183791.348866,47.655,-122.3035,60.0,11.75
2026-01-20T23:11:46+00:00,SAT-55405,198.10794264849153,49.668269719079504,988.5119379380221,-5.224243870963076,182975.11889079044,10.5,10500182975.11889,47.655,-122.3035,60.0,11.766666666666667
2026-01-20T23:11:47+00:00,SAT-55405,197.6307407960971,49.671292389325934,983.3016253840482,-5.200560470436813,182145.6260236758,10.5,10500182145.626024,47.655,-122.3035,60.0,11.783333333333333
2026-01-20T23:11:48+00:00,SAT-55405,197.1488892310443,49.67213200010212,978.1149330748658,-5.17649210698313,181302.65012645134,10.5,10500181302.650126,47.655,-122.3035,60.0,11.8
2026-01-20T23:11:49+00:00,SAT-55405,196.66238153118263,49.67072725540231,972.9522449468348,-5.152032388928716,180445.96733568102,10.5,10500180445.967335,47.655,-122.3035,60.0,11.816666666666666
2026-01-20T23:11:50+00:00,SAT-55405,196.1712136834751,49.6670157542303,967.8139513109431,-5.1271748923812925,179575.3526594841,10.5,10500179575.35266,47.655,-122.3035,60.0,11.833333333333334
2026-01-20T23:11:51+00:00,SAT-55405,195.67538418137121,49.66093400195044,962.7004488849415,-5.101913024303637,178690.57518180856,10.5,10500178690.575182,47.655,-122.3035,60.0,11.85
2026-01-20T23:11:52+00:00,SAT-55405,195.17489413521741,49.65241742373026,957.612140962036,-5.076240247432086,177791.40594002837,10.5,10500177791.40594,47.655,-122.3035,60.0,11.866666666666667
2026-01-20T23:11:53+00:00,SAT-55405,194.66974736207635,49.64140038085431,952.5494373552638,-5.050149890316192,176877.6112717286,10.5,10500176877.61127,47.655,-122.3035,60.0,11.883333333333333
2026-01-20T23:11:54+00:00,SAT-55405,194.15995049295958,49.627816189282484,947.5127545313218,-5.023635195833117,175948.95451388482,10.5,10500175948.954514,47.655,-122.3035,60.0,11.9
2026-01-20T23:11:55+00:00,SAT-55405,193.64551307552503,49.611597141136485,942.5025156960108,-4.996689418843468,175005.19942318366,10.5,10500175005.199423,47.655,-122.3035,60.0,11.916666666666666
2026-01-20T23:11:56+00:00,SAT-55405,193.12644766638056,49.59267452892786,937.5191507822843,-4.969305672622777,174046.1047974034,10.5,10500174046.104797,47.655,-122.3035,60.0,11.933333333333334
2026-01-20T23:11:57+00:00,SAT-55405,192.60276993755585,49.57097867283187,932.5630965914552,-4.941477100662275,173071.43049260395,10.5,10500173071.430492,47.655,-122.3035,60.0,11.95
2026-01-20T23:11:58+00:00,SAT-55405,192.07449876446148,49.54643895085746,927.6347967630613,-4.913196678004259,172080.930465051,10.5,10500172080.930466,47.655,-122.3035,60.0,11.966666666666667
2026-01-20T23:11:59+00:00,SAT-55405,191.54165633240945,49.51898383253976,922.7347019428652,-4.884457459141024,171074.36145368524,10.5,10500171074.361454,47.655,-122.3035,60.0,11.983333333333333
2026-01-20T23:12:00+00:00,SAT-55405,191.00426821559046,49.48854091543194,917.8632697036151,-4.855252363919021,170051.47548158042,10.5,10500170051.475481,47.655,-122.3035,60.0,12.0
2026-01-20T23:12:01+00:00,SAT-55405,190.46236347572236,49.45503696547872,913.0209646793332,-4.825574321912287,169012.02491251135,10.5,10500169012.024912,47.655,-122.3035,60.0,12.016666666666667
2026-01-20T23:12:02+00:00,SAT-55405,189.91597474277097,49.41839796049073,908.2082585556126,-4.795416176254168,167955.75908273438,10.5,10500167955.759083,47.655,-122.3035,60.0,12.033333333333333
2026-01-20T23:12:03+00:00,SAT-55405,189.36513830277545,49.378549137620816,903.4256301558286,-4.7647708012921095,166882.42842175553,10.5,10500166882.428421,47.655,-122.3035,60.0,12.05
2026-01-20T23:12:04+00:00,SAT-55405,188.80989416914716,49.335415043995134,898.6735654100065,-4.733630982929974,165791.78026141244,10.5,10500165791.780262,47.655,-122.3035,60.0,12.066666666666666
2026-01-20T23:12:05+00:00,SAT-55405,188.2502861631276,49.28891959174468,893.9525574430311,-4.701989535363456,164683.5629244425,10.5,10500164683.562925,47.655,-122.3035,60.0,12.083333333333334
2026-01-20T23:12:06+00:00,SAT-55405,187.68636197665526,49.23898611620357,889.2631065464285,-4.669839222304241,163557.5229654194,10.5,10500163557.522964,47.655,-122.3035,60.0,12.1
2026-01-20T23:12:07+00:00,SAT-55405,187.11817323938158,49.18553743868728,884.6057202287171,-4.637172830419794,162413.4077429254,10.5,10500162413.407743,47.655,-122.3035,60.0,12.116666666666667
2026-01-20T23:12:08+00:00,SAT-55405,186.54577557166886,49.128495932563474,879.9809131925118,-4.603983117078453,161250.9635893634,10.5,10500161250.963589,47.655,-122.3035,60.0,12.133333333333333
2026-01-20T23:12:09+00:00,SAT-55405,185.96922863811696,49.067783593962524,875.3892073637455,-4.570262860773475,160069.93757702032,10.5,10500160069.937576,47.655,-122.3035,60.0,12.15
2026-01-20T23:12:10+00:00,SAT-55405,185.38859618885397,49.0033221160857,870.8311318706009,-4.536004845467834,158870.0769697557,10.5,10500158870.07697,47.655,-122.3035,60.0,12.166666666666666
2026-01-20T23:12:11+00:00,SAT-55405,184.80394609618702,48.93503296786518,866.3072230380542,-4.501201890911428,157651.13028483858,10.5,10500157651.130285,47.655,-122.3035,60.0,12.183333333333334
2026-01-20T23:12:12+00:00,SAT-55405,184.21535038042558,48.862837476354386,861.8180243521851,-4.465846823064609,156412.84625705428,10.5,10500156412.846256,47.655,-122.3035,60.0,12.2
2026-01-20T23:12:13+00:00,SAT-55405,183.62288523218544,48.78665691375735,857.3640864539822,-4.429932517292658,155154.97535155772,10.5,10500155154.975351,47.655,-122.3035,60.0,12.216666666666667
2026-01-20T23:12:14+00:00,SAT-55405,183.0266310215181,48.7064125880483,852.9459670900688,-4.393451915788956,153877.27037410674,10.5,10500153877.270374,47.655,-122.3035,60.0,12.233333333333333
2026-01-20T23:12:15+00:00,SAT-55405,182.4266722967323,48.62202593751522,848.5642310460554,-4.356397956226913,152579.48397215045,10.5,10500152579.483973,47.655,-122.3035,60.0,12.25
2026-01-20T23:12:16+00:00,SAT-55405,181.82309778425653,48.53341863047105,844.2194501510451,-4.318763742974239,151261.37463147758,10.5,10500151261.374632,47.655,-122.3035,60.0,12.266666666666667
2026-01-20T23:12:17+00:00,SAT-55405,181.21600035732232,48.4405126664526,839.9122031113855,-4.280542343814824,149922.69955655673,10.5,10500149922.699556,47.655,-122.3035,60.0,12.283333333333333
2026-01-20T23:12:18+00:00,SAT-55405,180.60547702285248,48.34323048459043,835.643075547154,-4.241727014499294,148563.2225352467,10.5,10500148563.222536,47.655,-122.3035,60.0,12.3
2026-01-20T23:12:19+00:00,SAT-55405,179.99162886923546,48.24149507231568,831.4126598046936,-4.202311054346942,147182.70888136516,10.5,10500147182.708881,47.655,-122.3035,60.0,12.316666666666666
2026-01-20T23:12:20+00:00,SAT-55405,179.37456102436042,48.13523008022476,827.2215549131582,-4.162287888065034,145780.92830034724,10.5,10500145780.9283,47.655,-122.3035,60.0,12.333333333333334
2026-01-20T23:12:21+00:00,SAT-55405,178.75438259341982,48.024359939416875,823.0703664594613,-4.12165106823008,144357.65497614967,10.5,10500144357.654976,47.655,-122.3035,60.0,12.35
2026-01-20T23:12:22+00:00,SAT-55405,178.13120658674526,47.90880998210094,818.9597064607465,-4.080394294963807,142912.6682603869,10.5,10500142912.66826,47.655,-122.3035,60.0,12.366666666666667
2026-01-20T23:12:23+00:00,SAT-55405,177.50514983573038,47.788506565491765,814.8901932172358,-4.0385114118231895,141445.75252838247,10.5,10500141445.75253,47.655,-122.3035,60.0,12.383333333333333
2026-01-20T23:12:24+00:00,SAT-55405,176.87633289978803,47.663377198765765,810.8624511691776,-3.995996426414857,139956.69790117268,10.5,10500139956.6979,47.655,-122.3035,60.0,12.4
2026-01-20T23:12:25+00:00,SAT-55405,176.24487996145217,47.53335067293307,806.8771107332332,-3.9528435166929565,138445.3004660846,10.5,10500138445.300467,47.655,-122.3035,60.0,12.416666666666666
2026-01-20T23:12:26+00:00,SAT-55405,175.61091871148002,47.39835719334646,802.9348081325846,-3.909047105897046,136911.36490137782,10.5,10500136911.3649,47.655,-122.3035,60.0,12.433333333333334
2026-01-20T23:12:27+00:00,SAT-55405,174.9745802137237,47.258328512863805,799.0361851523035,-3.864601755686561,135354.70073336165,10.5,10500135354.700733,47.655,-122.3035,60.0,12.45
2026-01-20T23:12:28+00:00,SAT-55405,174.3359987780456,47.11319807044934,795.1818890012987,-3.819502322120071,133775.12779944832,10.5,10500133775.1278,47.655,-122.3035,60.0,12.466666666666667
2026-01-20T23:12:29+00:00,SAT-55405,173.69531180098912,46.9629011276021,791.3725720187042,-3.7737438630190114,132172.47300363914,10.5,10500132172.473003,47.655,-122.3035,60.0,12.483333333333333
2026-01-20T23:12:30+00:00,SAT-55405,173.05265961308572,46.807374909219035,787.6088914726532,-3.727321715592287,130546.57303526634,10.5,10500130546.573036,47.655,-122.3035,60.0,12.5
2026-01-20T23:12:31+00:00,SAT-55405,172.40818530687352,46.646558743999144,783.8915092816359,-3.680231494871961,128897.27431420438,10.5,10500128897.274315,47.655,-122.3035,60.0,12.516666666666667
2026-01-20T23:12:32+00:00,SAT-55405,171.76203455824273,46.48039420600557,780.2210917374169,-3.6324690993960513,127224.43318990547,10.5,10500127224.43319,47.655,-122.3035,60.0,12.533333333333333
2026-01-20T23:12:33+00:00,SAT-55405,171.1143554409872,46.30882525725861,776.5983092222859,-3.584030760908735,125527.917682111,10.5,10500125527.917683,47.655,-122.3035,60.0,12.55
2026-01-20T23:12:34+00:00,SAT-55405,170.46529822743142,46.13179838907647,773.0238358767396,-3.5349130310625223,123807.60701510537,10.5,10500123807.607016,47.655,-122.3035,60.0,12.566666666666666
2026-01-20T23:12:35+00:00,SAT-55405,169.81501518669586,45.9492627644235,769.4983492804266,-3.4851128156473705,122063.39281656442,10.5,10500122063.392817,47.655,-122.3035,60.0,12.583333333333334
2026-01-20T23:12:36+00:00,SAT-55405,169.16366037306486,45.76117035889133,766.0225300989543,-3.434627396541328,120295.17988635974,10.5,10500120295.179886,47.655,-122.3035,60.0,12.6
2026-01-20T23:12:37+00:00,SAT-55405,168.51138940729317,45.56747610042304,762.5970617088037,-3.3834544172006082,118502.88568835972,10.5,10500118502.885689,47.655,-122.3035,60.0,12.616666666666667
2026-01-20T23:12:38+00:00,SAT-55405,167.85835925834166,45.36813800915761,759.2226298367157,-3.331591981003794,116686.44379485969,10.5,10500116686.443794,47.655,-122.3035,60.0,12.633333333333333
2026-01-20T23:12:39+00:00,SAT-55405,167.20472800561708,45.16311733147245,755.8999221009947,-3.279038570112653,114845.80104474428,10.5,10500114845.801044,47.655,-122.3035,60.0,12.65
2026-01-20T23:12:40+00:00,SAT-55405,166.55065461552638,44.9523786765779,752.6296276337355,-3.2257931292080744,112980.92047627423,10.5,10500112980.920477,47.655,-122.3035,60.0,12.666666666666666
2026-01-20T23:12:41+00:00,SAT-55405,165.89629870303352,44.73589014725284,749.4124366195387,-3.1718550806708463,111091.78185878141,10.5,10500111091.781858,47.655,-122.3035,60.0,12.683333333333334
2026-01-20T23:12:42+00:00,SAT-55405,165.2418202912926,44.5136234673758,746.2490398190829,-3.117224320627965,109178.38155419384,10.5,10500109178.381554,47.655,-122.3035,60.0,12.7
2026-01-20T23:12:43+00:00,SAT-55405,164.58737957429065,44.28555410710136,743.1401280966434,-3.061901252461844,107240.73369066998,10.5,10500107240.73369,47.655,-122.3035,60.0,12.716666666666667
2026-01-20T23:12:44+00:00,SAT-55405,163.93313667603172,44.05166140312001,740.0863919141881,-3.0058868008984283,105278.87065602397,10.5,10500105278.870657,47.655,-122.3035,60.0,12.733333333333333
2026-01-20T23:12:45+00:00,SAT-55405,163.2792514110652,43.811928674768296,737.0885208114254,-2.949182442931344,103292.84418082029,10.5,10500103292.844181,47.655,-122.3035,60.0,12.75
2026-01-20T23:12:46+00:00,SAT-55405,162.62588304344882,43.56634333414892,734.1472028550086,-2.891790200441154,101282.72507986882,10.5,10500101282.72508,47.655,-122.3035,60.0,12.766666666666667
2026-01-20T23:12:47+00:00,SAT-55405,161.97319005327228,43.31489699279351,731.2631240951018,-2.833712683710403,99248.60477630573,10.5,10500099248.604776,47.655,-122.3035,60.0,12.783333333333333
2026-01-20T23:12:48+00:00,SAT-55405,161.3213299006194,43.05758556053818,728.4369679785481,-2.77495310181163,97190.59566542569,10.5,10500097190.595665,47.655,-122.3035,60.0,12.8
2026-01-20T23:12:49+00:00,SAT-55405,160.67045879482328,42.79440933877149,725.6694147516745,-2.7155152524686383,95108.8307595807,10.5,10500095108.83076,47.655,-122.3035,60.0,12.816666666666666
2026-01-20T23:12:50+00:00,SAT-55405,160.0207314741856,42.52537310895952,722.9611408732125,-2.655403607515174,93003.46668130431,10.5,10500093003.46668,47.655,-122.3035,60.0,12.833333333333334
2026-01-20T23:12:51+00:00,SAT-55405,159.37230097568602,42.250486208662444,720.3128183419841,-2.5946232248505527,90874.68057962552,10.5,10500090874.68058,47.655,-122.3035,60.0,12.85
2026-01-20T23:12:52+00:00,SAT-55405,158.7253184341112,41.96976260856438,717.7251141123998,-2.5331798743184524,88722.67453887632,10.5,10500088722.67454,47.655,-122.3035,60.0,12.866666666666667
2026-01-20T23:12:53+00:00,SAT-55405,158.07993286263348,41.68322097223448,715.1986893844129,-2.4710799669378214,86547.67310005886,10.5,10500086547.6731,47.655,-122.3035,60.0,12.883333333333333
2026-01-20T23:12:54+00:00,SAT-55405,157.4362909601929,41.390884714881715,712.7341989640536,-2.408330581443384,84349.9241904062,10.5,10500084349.92419,47.655,-122.3035,60.0,12.9
2026-01-20T23:12:55+00:00,SAT-55405,156.79453692456482,41.0927820531415,710.332290597494,-2.3449395495238763,82129.70210878589,10.5,10500082129.702108,47.655,-122.3035,60.0,12.916666666666666
2026-01-20T23:12:56+00:00,SAT-55405,156.15481225503942,40.78894603757848,707.9936042201022,-2.2809153383778,79887.30341230566,10.5,10500079887.303411,47.655,-122.3035,60.0,12.933333333333334
2026-01-20T23:12:57+00:00,SAT-55405,155.51725559682768,40.47941459014355,705.7187713226267,-2.216267183357252,77623.05156206146,10.5,10500077623.051561,47.655,-122.3035,60.0,12.95
2026-01-20T23:12:58+00:00,SAT-55405,154.8820025632935,40.164230518321325,703.5084141850917,-2.151004993171089,75337.29360295125,10.5,10500075337.293604,47.655,-122.3035,60.0,12.966666666666667
