satellites_20260120_184412/SAT-57935.csv

timestamp,satellite,azimuth_deg,elevation_deg,distance_km,relative_velocity_kms,doppler_shift_hz,tx_freq_ghz,rx_freq_hz,ue_lat,ue_lon,ue_alt_m,time_minutes
2026-01-20T23:00:00+00:00,SAT-57935,224.46991005073232,58.95554441944823,918.7781073321853,-3.6132263057520095,126550.46915955472,10.5,10500126550.46916,47.655,-122.3035,60.0,0.0
2026-01-20T23:00:01+00:00,SAT-57935,224.77921762624823,59.3205904868141,915.1745162965819,-3.5735032620985216,125159.2001425015,10.5,10500125159.200142,47.655,-122.3035,60.0,0.016666666666666666
2026-01-20T23:00:02+00:00,SAT-57935,225.09833025476746,59.68742842225626,911.6105423765157,-3.533308345720779,123751.40414662527,10.5,10500123751.404146,47.655,-122.3035,60.0,0.03333333333333333
2026-01-20T23:00:03+00:00,SAT-57935,225.42766761660963,60.056006733993,908.0866561863835,-3.49263957255282,122327.0116815434,10.5,10500122327.01168,47.655,-122.3035,60.0,0.05
2026-01-20T23:00:04+00:00,SAT-57935,225.7676720405742,60.426269787533876,904.6033303193575,-3.4514951091670536,120885.95853286631,10.5,10500120885.958532,47.655,-122.3035,60.0,0.06666666666666667
2026-01-20T23:00:05+00:00,SAT-57935,226.11880990918286,60.79815755034354,901.1610391971482,-3.4098733289820986,119428.18773083355,10.5,10500119428.18773,47.655,-122.3035,60.0,0.08333333333333333
2026-01-20T23:00:06+00:00,SAT-57935,226.48157315973612,61.171605323870246,897.7602588637101,-3.3677727944243934,117953.64892553812,10.5,10500117953.648926,47.655,-122.3035,60.0,0.1
2026-01-20T23:00:07+00:00,SAT-57935,226.85648087917028,61.54654345373037,894.4014667967374,-3.3251922383999046,116462.29773798712,10.5,10500116462.297737,47.655,-122.3035,60.0,0.11666666666666667
2026-01-20T23:00:08+00:00,SAT-57935,227.24408099660548,61.92289701602998,891.0851417376399,-3.2821306304006823,114954.09807543311,10.5,10500114954.098076,47.655,-122.3035,60.0,0.13333333333333333
2026-01-20T23:00:09+00:00,SAT-57935,227.6449520880089,62.300585487531734,887.811763455587,-3.238587124012875,113429.0202928827,10.5,10500113429.020292,47.655,-122.3035,60.0,0.15
2026-01-20T23:00:10+00:00,SAT-57935,228.05970528381027,62.67952238452023,884.5818125639048,-3.194561124382016,111887.04355601623,10.5,10500111887.043556,47.655,-122.3035,60.0,0.16666666666666666
2026-01-20T23:00:11+00:00,SAT-57935,228.4889862977301,63.05961488188364,881.3957702691879,-3.150052237329041,110328.15405901549,10.5,10500110328.154058,47.655,-122.3035,60.0,0.18333333333333332
2026-01-20T23:00:12+00:00,SAT-57935,228.93347756531244,63.44076339653059,878.2541181711583,-3.105060324678397,108752.34696238814,10.5,10500108752.346962,47.655,-122.3035,60.0,0.2
2026-01-20T23:00:13+00:00,SAT-57935,229.39390050816095,63.822861145094365,875.1573380073457,-3.0595854687529194,107159.62514942806,10.5,10500107159.625149,47.655,-122.3035,60.0,0.21666666666666667
2026-01-20T23:00:14+00:00,SAT-57935,229.87101791257348,64.20579366252315,872.1059114331762,-3.013628036237365,105550.00146298655,10.5,10500105550.001463,47.655,-122.3035,60.0,0.23333333333333334
2026-01-20T23:00:15+00:00,SAT-57935,230.3656364366183,64.58943829091001,869.1003197383687,-2.967188640028764,103923.49736931015,10.5,10500103923.49737,47.655,-122.3035,60.0,0.25
2026-01-20T23:00:16+00:00,SAT-57935,230.87860922785208,64.97366362308502,866.14104360138,-2.9202681316381582,102280.14269191743,10.5,10500102280.142693,47.655,-122.3035,60.0,0.26666666666666666
2026-01-20T23:00:17+00:00,SAT-57935,231.41083864932753,65.35832890120263,863.2285628514263,-2.8728677050099867,100619.97924779303,10.5,10500100619.979248,47.655,-122.3035,60.0,0.2833333333333333
2026-01-20T23:00:18+00:00,SAT-57935,231.96327912581924,65.74328338182127,860.363356126963,-2.8249887675712295,98943.05633098318,10.5,10500098943.056332,47.655,-122.3035,60.0,0.3
2026-01-20T23:00:19+00:00,SAT-57935,232.53694005490607,66.12836563350561,857.545900662772,-2.776633063313343,97249.4350234458,10.5,10500097249.435024,47.655,-122.3035,60.0,0.31666666666666665
2026-01-20T23:00:20+00:00,SAT-57935,233.1328888098064,66.5134027964721,854.7766719542941,-2.7278025977851197,95539.18556798303,10.5,10500095539.185568,47.655,-122.3035,60.0,0.3333333333333333
2026-01-20T23:00:21+00:00,SAT-57935,233.7522537708381,66.8982097742915,852.0561434967697,-2.678499722065844,93812.39030933646,10.5,10500093812.39031,47.655,-122.3035,60.0,0.35
2026-01-20T23:00:22+00:00,SAT-57935,234.39622738397225,67.28258837567886,849.3847864406293,-2.628727056517072,92069.14102365196,10.5,10500092069.141024,47.655,-122.3035,60.0,0.36666666666666664
2026-01-20T23:00:23+00:00,SAT-57935,235.06606916704496,67.66632638048772,846.7630693229297,-2.5784875674618237,90309.54160410917,10.5,10500090309.541605,47.655,-122.3035,60.0,0.38333333333333336
2026-01-20T23:00:24+00:00,SAT-57935,235.76310864131943,68.04919654806113,844.1914577223146,-2.527784526065278,88533.70662074967,10.5,10500088533.706621,47.655,-122.3035,60.0,0.4
2026-01-20T23:00:25+00:00,SAT-57935,236.48874808885517,68.43095554820113,841.6704139549853,-2.4766215384860546,86741.76237650239,10.5,10500086741.762377,47.655,-122.3035,60.0,0.4166666666666667
2026-01-20T23:00:26+00:00,SAT-57935,237.24446506279259,68.81134282256748,839.200396740602,-2.4250025507069717,84933.84707637709,10.5,10500084933.847076,47.655,-122.3035,60.0,0.43333333333333335
2026-01-20T23:00:27+00:00,SAT-57935,238.03181453335105,69.19007937136318,836.7818608633635,-2.3729318343134027,83110.11032936236,10.5,10500083110.110329,47.655,-122.3035,60.0,0.45
2026-01-20T23:00:28+00:00,SAT-57935,238.85243052543575,69.56686646181551,834.4152568472749,-2.320414010422934,81270.71398654334,10.5,10500081270.713987,47.655,-122.3035,60.0,0.4666666666666667
2026-01-20T23:00:29+00:00,SAT-57935,239.70802709248912,69.94138426551841,832.1010306075465,-2.2674540545133235,79415.83231019741,10.5,10500079415.83231,47.655,-122.3035,60.0,0.48333333333333334
2026-01-20T23:00:30+00:00,SAT-57935,240.6003984195834,70.31329042508625,829.8396230971786,-2.2140572713958537,77545.65109725496,10.5,10500077545.651096,47.655,-122.3035,60.0,0.5
2026-01-20T23:00:31+00:00,SAT-57935,241.53141780111386,70.68221855112883,827.6314699785064,-2.1602293459022492,75660.36945456985,10.5,10500075660.369455,47.655,-122.3035,60.0,0.5166666666666667
2026-01-20T23:00:32+00:00,SAT-57935,242.50303523557886,71.0477766715058,825.4770012441932,-2.1059762982835664,73760.1982367997,10.5,10500073760.198236,47.655,-122.3035,60.0,0.5333333333333333
2026-01-20T23:00:33+00:00,SAT-57935,243.51727326182188,71.40954563112963,823.3766408827051,-2.0513045161476082,71845.3611649893,10.5,10500071845.361164,47.655,-122.3035,60.0,0.55
2026-01-20T23:00:34+00:00,SAT-57935,244.57622067512546,71.76707747441613,821.3308065119338,-1.9962207461876518,69916.09453687572,10.5,10500069916.094538,47.655,-122.3035,60.0,0.5666666666666667
2026-01-20T23:00:35+00:00,SAT-57935,245.68202365633147,72.11989382994327,819.3399090210694,-1.9407320857743313,67972.64693240041,10.5,10500067972.646933,47.655,-122.3035,60.0,0.5833333333333334
2026-01-20T23:00:36+00:00,SAT-57935,246.83687380237347,72.46748433152831,817.404352220857,-1.8848460154109345,66015.280350431,10.5,10500066015.28035,47.655,-122.3035,60.0,0.6
2026-01-20T23:00:37+00:00,SAT-57935,248.04299251656903,72.80930512713442,815.5245324614872,-1.828570348028316,64044.2684328547,10.5,10500064044.268433,47.655,-122.3035,60.0,0.6166666666666667
2026-01-20T23:00:38+00:00,SAT-57935,249.30261109494853,73.14477751618298,813.7008383010538,-1.7719132807264966,62059.89827678792,10.5,10500062059.898277,47.655,-122.3035,60.0,0.6333333333333333
2026-01-20T23:00:39+00:00,SAT-57935,250.61794592177648,73.47328680218877,811.9336501224091,-1.7148833361994165,60062.4683830234,10.5,10500060062.468384,47.655,-122.3035,60.0,0.65
2026-01-20T23:00:40+00:00,SAT-57935,251.99116804211747,73.79418142359785,810.2233398084396,-1.6574894305414842,58052.2910309024,10.5,10500058052.29103,47.655,-122.3035,60.0,0.6666666666666666
2026-01-20T23:00:41+00:00,SAT-57935,253.42436656854534,74.10677248500507,808.5702703497129,-1.5997408008384628,56029.68974224114,10.5,10500056029.689743,47.655,-122.3035,60.0,0.6833333333333333
2026-01-20T23:00:42+00:00,SAT-57935,254.9195052584251,74.41033377776192,806.9747955243432,-1.541647053859111,53995.000986718165,10.5,10500053995.000986,47.655,-122.3035,60.0,0.7
2026-01-20T23:00:43+00:00,SAT-57935,256.4783719415355,74.70410244384875,805.4372595292945,-1.4832181182862136,51948.572508802885,10.5,10500051948.572508,47.655,-122.3035,60.0,0.7166666666666667
2026-01-20T23:00:44+00:00,SAT-57935,258.10252052895,74.98728041047494,803.9579966593237,-1.424464273098748,49890.76432181911,10.5,10500049890.764322,47.655,-122.3035,60.0,0.7333333333333333
2026-01-20T23:00:45+00:00,SAT-57935,259.79320581855734,75.25903676646179,802.5373309576199,-1.3653961345902992,47821.94825327507,10.5,10500047821.948254,47.655,-122.3035,60.0,0.75
2026-01-20T23:00:46+00:00,SAT-57935,261.55131165960677,75.51851123416192,801.1755758793885,-1.306024628549365,45742.50697050002,10.5,10500045742.506971,47.655,-122.3035,60.0,0.7666666666666667
2026-01-20T23:00:47+00:00,SAT-57935,263.3772736247244,75.76481889191061,799.8730339831819,-1.246361010372915,43652.83468510608,10.5,10500043652.834684,47.655,-122.3035,60.0,0.7833333333333333
2026-01-20T23:00:48+00:00,SAT-57935,265.270998122072,75.99705629852542,798.6299966021701,-1.1864168439884835,41553.33641475089,10.5,10500041553.336414,47.655,-122.3035,60.0,0.8
2026-01-20T23:00:49+00:00,SAT-57935,267.23178056905743,76.2143091232687,797.4467435364321,-1.126203985545271,39444.42741193091,10.5,10500039444.427412,47.655,-122.3035,60.0,0.8166666666666667
2026-01-20T23:00:50+00:00,SAT-57935,269.25822614423083,76.41566134466099,796.323542761515,-1.065734587471517,37326.5333060878,10.5,10500037326.533306,47.655,-122.3035,60.0,0.8333333333333334
2026-01-20T23:00:51+00:00,SAT-57935,271.34817749346416,76.60020601547029,795.2606501329434,-1.0050210865643672,35200.08968646521,10.5,10500035200.089687,47.655,-122.3035,60.0,0.85
2026-01-20T23:00:52+00:00,SAT-57935,273.4986544059618,76.76705749526522,794.2583091026098,-0.9440761821794983,33065.54133821716,10.5,10500033065.541338,47.655,-122.3035,60.0,0.8666666666666667
2026-01-20T23:00:53+00:00,SAT-57935,275.7058109063828,76.91536494713476,793.3167504569162,-0.8829128288931853,30923.3419854026,10.5,10500030923.341986,47.655,-122.3035,60.0,0.8833333333333333
2026-01-20T23:00:54+00:00,SAT-57935,277.9649152970836,77.04432678169142,792.4361920622334,-0.8215442383318923,28773.954355065427,10.5,10500028773.954355,47.655,-122.3035,60.0,0.9
2026-01-20T23:00:55+00:00,SAT-57935,280.27035820629453,77.1532056096468,791.6168386085371,-0.7599838407866888,26617.84883280897,10.5,10500026617.848833,47.655,-122.3035,60.0,0.9166666666666666
2026-01-20T23:00:56+00:00,SAT-57935,282.6156924651027,77.24134314770124,790.8588813913259,-0.6982452931128894,24455.50373947479,10.5,10500024455.50374,47.655,-122.3035,60.0,0.9333333333333333
2026-01-20T23:00:57+00:00,SAT-57935,284.9937071403364,77.30817445119439,790.1624980856612,-0.6363424566404094,22287.404557469883,10.5,10500022287.404558,47.655,-122.3035,60.0,0.95
2026-01-20T23:00:58+00:00,SAT-57935,287.39653560401575,77.3532407909008,789.5278525422385,-0.5742893729544245,20114.043082502954,10.5,10500020114.043083,47.655,-122.3035,60.0,0.9666666666666667
2026-01-20T23:00:59+00:00,SAT-57935,289.8157949610282,77.37620050490078,788.955094607612,-0.5121002715171428,17935.917690531092,10.5,10500017935.91769,47.655,-122.3035,60.0,0.9833333333333333
2026-01-20T23:01:00+00:00,SAT-57935,292.24275165569145,77.37683722459727,788.4443599368188,-0.44978953059180277,15753.531969152902,10.5,10500015753.53197,47.655,-122.3035,60.0,1.0
2026-01-20T23:01:01+00:00,SAT-57935,294.66850537627664,77.3550649942638,787.9957698449754,-0.38737167504335257,13567.39464057899,10.5,10500013567.39464,47.655,-122.3035,60.0,1.0166666666666666
2026-01-20T23:01:02+00:00,SAT-57935,297.0841819507884,77.31092998414901,787.6094311610655,-0.32486135316401005,11378.018749965036,10.5,10500011378.01875,47.655,-122.3035,60.0,1.0333333333333334
2026-01-20T23:01:03+00:00,SAT-57935,299.4811247983491,77.24460870145435,787.2854361048431,-0.2622733248875188,9185.9212526252,10.5,10500009185.921253,47.655,-122.3035,60.0,1.05
2026-01-20T23:01:04+00:00,SAT-57935,301.85107480478575,77.1564028209433,787.0238621754887,-0.19962244212358426,6991.622325260881,10.5,10500006991.622326,47.655,-122.3035,60.0,1.0666666666666667
2026-01-20T23:01:05+00:00,SAT-57935,304.1863295205379,77.04673096083347,786.8247720598774,-0.1369236285992098,4795.64465991904,10.5,10500004795.644659,47.655,-122.3035,60.0,1.0833333333333333
2026-01-20T23:01:06+00:00,SAT-57935,306.47987454581863,76.91611789996189,786.6882135609544,-0.07419186829440981,2598.513058961954,10.5,10500002598.51306,47.655,-122.3035,60.0,1.1
2026-01-20T23:01:07+00:00,SAT-57935,308.725482612263,76.76518184043715,786.6142195376422,-0.01144218208976551,400.753617165839,10.5,10500000400.753616,47.655,-122.3035,60.0,1.1166666666666667
2026-01-20T23:01:08+00:00,SAT-57935,310.917778272771,76.59462039092206,786.602807868038,0.0513103869034657,-1797.106792080773,10.5,10499998202.893208,47.655,-122.3035,60.0,1.1333333333333333
2026-01-20T23:01:09+00:00,SAT-57935,313.0522689478612,76.40519592994806,786.6539814272431,0.11405079155832791,-3994.5411547426024,10.5,10499996005.458845,47.655,-122.3035,60.0,1.15
2026-01-20T23:01:10+00:00,SAT-57935,315.12534493194755,76.19772097447563,786.7677280833573,0.17676400108687668,-6191.023029045664,10.5,10499993808.97697,47.655,-122.3035,60.0,1.1666666666666667
2026-01-20T23:01:11+00:00,SAT-57935,317.13425277928303,75.97304407164748,786.9440207137745,0.239435015132732,-8386.027039058088,10.5,10499991613.972961,47.655,-122.3035,60.0,1.1833333333333333
2026-01-20T23:01:12+00:00,SAT-57935,319.0770471218293,75.73203664723526,787.1828172355337,0.3020488854491926,-10579.029633949373,10.5,10499989420.970366,47.655,-122.3035,60.0,1.2
2026-01-20T23:01:13+00:00,SAT-57935,320.9525266091244,75.47558109766598,787.4840606572883,0.3645907303147624,-12769.509592883105,10.5,10499987230.490408,47.655,-122.3035,60.0,1.2166666666666666
2026-01-20T23:01:14+00:00,SAT-57935,322.760159255315,75.20456032218311,787.8476791456554,0.4270457537486863,-14956.948698026306,10.5,10499985043.051302,47.655,-122.3035,60.0,1.2333333333333334
2026-01-20T23:01:15+00:00,SAT-57935,324.50000211651417,74.91984877318862,788.2735861107275,0.4893992649893613,-17140.83241676578,10.5,10499982859.167583,47.655,-122.3035,60.0,1.25
2026-01-20T23:01:16+00:00,SAT-57935,326.1726194094794,74.62230502559147,788.7616803110102,0.5516366862542186,-19320.650173492006,10.5,10499980679.349827,47.655,-122.3035,60.0,1.2666666666666666
2026-01-20T23:01:17+00:00,SAT-57935,327.77900232763034,74.31276580597533,789.3118459661011,0.6137435840051477,-21495.89644464655,10.5,10499978504.103556,47.655,-122.3035,60.0,1.2833333333333334
2026-01-20T23:01:18+00:00,SAT-57935,329.32049307787327,73.9920413571904,789.9239529005489,0.6757056754399893,-23666.0709860816,10.5,10499976333.929014,47.655,-122.3035,60.0,1.3
2026-01-20T23:01:19+00:00,SAT-57935,330.79871472662427,73.66091201375316,790.5978566941877,0.7375088393854623,-25830.679214576354,10.5,10499974169.320786,47.655,-122.3035,60.0,1.3166666666666667
2026-01-20T23:01:20+00:00,SAT-57935,332.2155078927792,73.32012583093766,791.3333988433349,0.7991391492854562,-27989.233363226533,10.5,10499972010.766636,47.655,-122.3035,60.0,1.3333333333333333
2026-01-20T23:01:21+00:00,SAT-57935,333.57287478912684,72.97039710208841,792.1304069548888,0.8605828671837076,-30141.252270692312,10.5,10499969858.74773,47.655,-122.3035,60.0,1.35
2026-01-20T23:01:22+00:00,SAT-57935,334.8729305789094,72.61240563199112,792.9886949344268,0.9218264755867666,-32286.262497174124,10.5,10499967713.737503,47.655,-122.3035,60.0,1.3666666666666667
2026-01-20T23:01:23+00:00,SAT-57935,336.11786186394585,72.24679660967261,793.9080632060786,0.982856680734518,-34423.79843896019,10.5,10499965576.201561,47.655,-122.3035,60.0,1.3833333333333333
2026-01-20T23:01:24+00:00,SAT-57935,337.3098917910834,71.87418096798595,794.8882989356645,1.0436604286722502,-36553.40289133834,10.5,10499963446.597109,47.655,-122.3035,60.0,1.4
2026-01-20T23:01:25+00:00,SAT-57935,338.4512512166517,71.49513611436784,795.9291762698604,1.10422492318573,-38674.62767675818,10.5,10499961325.372324,47.655,-122.3035,60.0,1.4166666666666667
2026-01-20T23:01:26+00:00,SAT-57935,339.5441552821127,71.11020693850026,797.0304565932508,1.164537622383172,-40787.03352511726,10.5,10499959212.966475,47.655,-122.3035,60.0,1.4333333333333333
2026-01-20T23:01:27+00:00,SAT-57935,340.59078472086884,70.71990702499804,798.1918887819743,1.2245862740416689,-42890.191311742485,10.5,10499957109.80869,47.655,-122.3035,60.0,1.45
2026-01-20T23:01:28+00:00,SAT-57935,341.5932712928467,70.32471999261662,799.4132094926185,1.284358903129887,-44983.68162038224,10.5,10499955016.31838,47.655,-122.3035,60.0,1.4666666666666666
2026-01-20T23:01:29+00:00,SAT-57935,342.55368669813714,69.92510092334297,800.6941434386734,1.3438438307234988,-47067.09540570476,10.5,10499952932.904594,47.655,-122.3035,60.0,1.4833333333333334
2026-01-20T23:01:30+00:00,SAT-57935,343.4740344503819,69.52147782836879,802.0344036858484,1.4030296966519638,-49140.034786484255,10.5,10499950859.965214,47.655,-122.3035,60.0,1.5
2026-01-20T23:01:31+00:00,SAT-57935,344.35624421390503,69.11425311769064,803.4336919699759,1.4619054341340425,-51202.11215722927,10.5,10499948797.887842,47.655,-122.3035,60.0,1.5166666666666666
2026-01-20T23:01:32+00:00,SAT-57935,345.20216813953385,68.70380506209005,804.8916989896189,1.5204603176139813,-53252.951863608265,10.5,10499946747.048136,47.655,-122.3035,60.0,1.5333333333333334
2026-01-20T23:01:33+00:00,SAT-57935,346.01357886980423,68.29048920735214,806.4081047463859,1.5786839455004638,-55292.18959789465,10.5,10499944707.810402,47.655,-122.3035,60.0,1.55
2026-01-20T23:01:34+00:00,SAT-57935,346.7921688472941,67.87463974625177,807.9825788680317,1.6365662490487685,-57319.47271005753,10.5,10499942680.52729,47.655,-122.3035,60.0,1.5666666666666667
2026-01-20T23:01:35+00:00,SAT-57935,347.53955067025805,67.45657083102009,809.6147809404164,1.6940974933117732,-59334.4602410699,10.5,10499940665.539759,47.655,-122.3035,60.0,1.5833333333333333
2026-01-20T23:01:36+00:00,SAT-57935,348.25725826061097,67.03657782248077,811.3043608404126,1.7512683108852412,-61336.824104811305,10.5,10499938663.175896,47.655,-122.3035,60.0,1.6
2026-01-20T23:01:37+00:00,SAT-57935,348.94674866522826,66.61493846453698,813.0509591024689,1.808069666244006,-63326.247838970194,10.5,10499936673.752161,47.655,-122.3035,60.0,1.6166666666666667
2026-01-20T23:01:38+00:00,SAT-57935,349.6094043023219,66.19191399983066,814.8542072496028,1.8644928813241042,-65302.42750103838,10.5,10499934697.572498,47.655,-122.3035,60.0,1.6333333333333333
2026-01-20T23:01:39+00:00,SAT-57935,350.24653555040715,65.76775021130496,816.7137281499101,1.920529636146359,-67265.07169015163,10.5,10499932734.92831,47.655,-122.3035,60.0,1.65
2026-01-20T23:01:40+00:00,SAT-57935,350.8593835627152,65.34267839739272,818.6291363736934,1.976171972121208,-69213.90166283865,10.5,10499930786.098337,47.655,-122.3035,60.0,1.6666666666666667
2026-01-20T23:01:41+00:00,SAT-57935,351.4491232236316,64.91691628217855,820.600038553889,2.0314122841043387,-71148.6510547759,10.5,10499928851.348946,47.655,-122.3035,60.0,1.6833333333333333
2026-01-20T23:01:42+00:00,SAT-57935,352.01686617636506,64.49066886560077,822.626033738569,2.086243339306911,-73069.06654310352,10.5,10499926930.933456,47.655,-122.3035,60.0,1.7
2026-01-20T23:01:43+00:00,SAT-57935,352.56366387669317,64.06412921092382,824.7067137623045,2.140658240520391,-74974.90655840348,10.5,10499925025.093441,47.655,-122.3035,60.0,1.7166666666666666
2026-01-20T23:01:44+00:00,SAT-57935,353.0905106162152,63.637479184218485,826.8416635808501,2.1946504806490434,-76865.9431946582,10.5,10499923134.056805,47.655,-122.3035,60.0,1.7333333333333334
2026-01-20T23:01:45+00:00,SAT-57935,353.59834650756636,63.21089013055993,829.0304616602175,2.2482138879102465,-78741.9602899336,10.5,10499921258.039711,47.655,-122.3035,60.0,1.75
2026-01-20T23:01:46+00:00,SAT-57935,354.08806037970135,62.7845235123483,831.2726803110933,2.301342663609065,-80602.7547494046,10.5,10499919397.24525,47.655,-122.3035,60.0,1.7666666666666666
2026-01-20T23:01:47+00:00,SAT-57935,354.5604925893505,62.358531494476225,833.5678860609328,2.354031346591204,-82448.13530034716,10.5,10499917551.8647,47.655,-122.3035,60.0,1.7833333333333334
2026-01-20T23:01:48+00:00,SAT-57935,355.0164377194151,61.93305749377992,835.9156399905997,2.406274851016189,-84277.92381511473,10.5,10499915722.076185,47.655,-122.3035,60.0,1.8
2026-01-20T23:01:49+00:00,SAT-57935,355.45664717202925,61.508236682062176,838.3154981086798,2.4580684153568733,-86091.95352488544,10.5,10499913908.046474,47.655,-122.3035,60.0,1.8166666666666667
2026-01-20T23:01:50+00:00,SAT-57935,355.8818316339892,61.08419646173006,840.7670116749291,2.509407627583891,-87890.069901728,10.5,10499912109.930098,47.655,-122.3035,60.0,1.8333333333333333
2026-01-20T23:01:51+00:00,SAT-57935,356.2926634277637,60.661056902834524,843.2697275488395,2.5602884317892842,-89672.13089058925,10.5,10499910327.86911,47.655,-122.3035,60.0,1.85
2026-01-20T23:01:52+00:00,SAT-57935,356.6897787432606,60.23893114792656,845.8231885448106,2.6107070915940427,-91438.00562767142,10.5,10499908561.994371,47.655,-122.3035,60.0,1.8666666666666667
2026-01-20T23:01:53+00:00,SAT-57935,357.07377974545346,59.817925793987165,848.4269337508271,2.6606602105120922,-93187.57515366504,10.5,10499906812.424847,47.655,-122.3035,60.0,1.8833333333333333
2026-01-20T23:01:54+00:00,SAT-57935,357.4452365697049,59.398141244243064,851.0804988674445,2.71014469785548,-94920.7312196044,10.5,10499905079.26878,47.655,-122.3035,60.0,1.9
2026-01-20T23:01:55+00:00,SAT-57935,357.8046892001999,58.9796720405623,853.7834165127723,2.7591578098869607,-96637.37772820519,10.5,10499903362.622272,47.655,-122.3035,60.0,1.9166666666666667
2026-01-20T23:01:56+00:00,SAT-57935,358.1526492459528,58.562607166675406,856.5352165684995,2.8076970993692774,-98337.42896686685,10.5,10499901662.571033,47.655,-122.3035,60.0,1.9333333333333333
2026-01-20T23:01:57+00:00,SAT-57935,358.489601606359,58.147030338122,859.3354264756039,2.855760423265324,-100020.80987736491,10.5,10499899979.190123,47.655,-122.3035,60.0,1.95
2026-01-20T23:01:58+00:00,SAT-57935,358.81600603928257,57.73302027138553,862.1835715377405,2.903345949824764,-101687.45630405426,10.5,10499898312.543695,47.655,-122.3035,60.0,1.9666666666666666
2026-01-20T23:01:59+00:00,SAT-57935,359.1322986359959,57.32065093400313,865.079175231699,2.9504521102036643,-103337.31329938417,10.5,10499896662.6867,47.655,-122.3035,60.0,1.9833333333333334
2026-01-20T23:02:00+00:00,SAT-57935,359.43889320178044,56.90999178485224,868.0217594696088,2.9970776842761366,-104970.33812938494,10.5,10499895029.661871,47.655,-122.3035,60.0,2.0
2026-01-20T23:02:01+00:00,SAT-57935,359.73618256130527,56.50110798711904,871.0108449467269,3.0432216516086728,-106586.49505415864,10.5,10499893413.504946,47.655,-122.3035,60.0,2.0166666666666666
2026-01-20T23:02:02+00:00,SAT-57935,0.024539769285703172,56.094060627505236,874.045951340598,3.0888833235238455,-108185.75995330868,10.5,10499891814.240047,47.655,-122.3035,60.0,2.033333333333333
2026-01-20T23:02:03+00:00,SAT-57935,0.3043192598226908,55.68890690405168,877.1265976419256,3.134062241255354,-109768.11675889863,10.5,10499890231.883242,47.655,-122.3035,60.0,2.05
2026-01-20T23:02:04+00:00,SAT-57935,0.5758579153765433,55.28570031546988,880.2523023838711,3.1787582141813973,-111333.5587945467,10.5,10499888666.441206,47.655,-122.3035,60.0,2.066666666666667
2026-01-20T23:02:05+00:00,SAT-57935,0.8394760734842117,54.8844908338491,883.4225839094813,3.2229712966767914,-112882.08796468894,10.5,10499887117.912035,47.655,-122.3035,60.0,2.0833333333333335
2026-01-20T23:02:06+00:00,SAT-57935,1.095478469451781,54.4853250697788,886.6369606160337,3.2667017825939517,-114413.71456127989,10.5,10499885586.285439,47.655,-122.3035,60.0,2.1
2026-01-20T23:02:07+00:00,SAT-57935,1.3441551205826212,54.08824642821547,889.894951193874,3.3099501977658914,-115928.45700121603,10.5,10499884071.543,47.655,-122.3035,60.0,2.1166666666666667
2026-01-20T23:02:08+00:00,SAT-57935,1.5857821554668223,53.69329525605165,893.1960748577792,3.35271729126713,-117426.34152025555,10.5,10499882573.65848,47.655,-122.3035,60.0,2.1333333333333333
2026-01-20T23:02:09+00:00,SAT-57935,1.8206225917576693,53.30050898208108,896.539851569603,3.3950040283227536,-118907.40192466388,10.5,10499881092.598076,47.655,-122.3035,60.0,2.15
2026-01-20T23:02:10+00:00,SAT-57935,2.0489270658398047,52.90992224976705,899.9258022538502,3.436811581363878,-120371.67927793806,10.5,10499879628.320723,47.655,-122.3035,60.0,2.1666666666666665
2026-01-20T23:02:11+00:00,SAT-57935,2.270934517369672,52.521567043468934,903.3534490043304,3.4781413199693407,-121819.22154852234,10.5,10499878180.778452,47.655,-122.3035,60.0,2.183333333333333
2026-01-20T23:02:12+00:00,SAT-57935,2.486872831559818,52.13547280875132,906.8223152807799,3.5189948231685593,-123250.08404070618,10.5,10499876749.915958,47.655,-122.3035,60.0,2.2
2026-01-20T23:02:13+00:00,SAT-57935,2.696959443254302,51.75166656472148,910.3319261177533,3.559373808918164,-124664.32692459768,10.5,10499875335.673075,47.655,-122.3035,60.0,2.216666666666667
2026-01-20T23:02:14+00:00,SAT-57935,2.901401900459894,51.37017301778098,913.881808263181,3.5992802314710532,-126062.01864639991,10.5,10499873937.981354,47.655,-122.3035,60.0,2.2333333333333334
2026-01-20T23:02:15+00:00,SAT-57935,3.100398399635068,50.99101465899151,917.4714904140349,3.638716171364865,-127443.23207534156,10.5,10499872556.767925,47.655,-122.3035,60.0,2.25
2026-01-20T23:02:16+00:00,SAT-57935,3.294138282752944,50.614211867755074,921.1005033422759,3.67768387842829,-128808.04600994014,10.5,10499871191.95399,47.655,-122.3035,60.0,2.2666666666666666
2026-01-20T23:02:17+00:00,SAT-57935,3.4828025073096813,50.23978300555994,924.7683800636952,3.716185752689797,-130156.54450934475,10.5,10499869843.45549,47.655,-122.3035,60.0,2.283333333333333
2026-01-20T23:02:18+00:00,SAT-57935,3.666564087511784,49.86774450680156,928.4746559877111,3.754224367922819,-131488.8177179881,10.5,10499868511.182281,47.655,-122.3035,60.0,2.3
2026-01-20T23:02:19+00:00,SAT-57935,3.845588510629913,49.49811096264668,932.2188690906528,3.7918024089419826,-132804.9596694351,10.5,10499867195.04033,47.655,-122.3035,60.0,2.316666666666667
2026-01-20T23:02:20+00:00,SAT-57935,4.020034125965014,49.130895206759625,936.0005600265043,3.828922677525263,-134105.06849380198,10.5,10499865894.931507,47.655,-122.3035,60.0,2.3333333333333335
2026-01-20T23:02:21+00:00,SAT-57935,4.190052511661038,48.766108396010026,939.8192722435562,3.865588132321177,-135389.24781547493,10.5,10499864610.752184,47.655,-122.3035,60.0,2.35
2026-01-20T23:02:22+00:00,SAT-57935,4.355788822051941,48.40376008346412,943.6745521408578,3.9018018396202097,-136657.60502891705,10.5,10499863342.394972,47.655,-122.3035,60.0,2.3666666666666667
2026-01-20T23:02:23+00:00,SAT-57935,4.517382112851645,48.04385829235611,947.5659491755724,3.9375669700418476,-137910.25118263447,10.5,10499862089.748817,47.655,-122.3035,60.0,2.3833333333333333
2026-01-20T23:02:24+00:00,SAT-57935,4.674965647700154,47.686409586707796,951.4930159670274,3.9728868005574243,-139147.30105002492,10.5,10499860852.69895,47.655,-122.3035,60.0,2.4
2026-01-20T23:02:25+00:00,SAT-57935,4.828667187460344,47.331419138282826,955.4553084027833,4.007764709857829,-140368.87296713516,10.5,10499859631.127033,47.655,-122.3035,60.0,2.4166666666666665
2026-01-20T23:02:26+00:00,SAT-57935,4.978609262980637,46.97889079076328,959.4523857400816,4.042204153383265,-141575.0879580976,10.5,10499858424.912043,47.655,-122.3035,60.0,2.433333333333333
2026-01-20T23:02:27+00:00,SAT-57935,5.124909431698753,46.62882712294727,963.4838106823892,4.076208696344068,-142766.07089165904,10.5,10499857233.929108,47.655,-122.3035,60.0,2.45
2026-01-20T23:02:28+00:00,SAT-57935,5.267680521158653,46.281229506153466,967.5491494888763,4.10978195818995,-143941.94853625863,10.5,10499856058.051464,47.655,-122.3035,60.0,2.466666666666667
2026-01-20T23:02:29+00:00,SAT-57935,5.407030857114967,45.9360981635357,971.6479720285112,4.142927635923052,-145102.85037654967,10.5,10499854897.149624,47.655,-122.3035,60.0,2.4833333333333334
2026-01-20T23:02:30+00:00,SAT-57935,5.543064479958003,45.593432224657754,975.779851857405,4.175649535784434,-146248.9097231944,10.5,10499853751.090277,47.655,-122.3035,60.0,2.5
2026-01-20T23:02:31+00:00,SAT-57935,5.675881350321368,45.253229774941374,979.9443663277606,4.207951448903235,-147380.25935757186,10.5,10499852619.740643,47.655,-122.3035,60.0,2.5166666666666666
2026-01-20T23:02:32+00:00,SAT-57935,5.805577539624055,44.915487912767695,984.1410965728002,4.239837283527595,-148497.0361630637,10.5,10499851502.963837,47.655,-122.3035,60.0,2.533333333333333
2026-01-20T23:02:33+00:00,SAT-57935,5.9322454145174754,44.58020279338624,988.3696276235717,4.2713109897731725,-149599.37848942922,10.5,10499850400.621511,47.655,-122.3035,60.0,2.55
2026-01-20T23:02:34+00:00,SAT-57935,6.055973809114868,44.24736967673909,992.6295484507054,4.302376545851923,-150687.42567047902,10.5,10499849312.57433,47.655,-122.3035,60.0,2.566666666666667
2026-01-20T23:02:35+00:00,SAT-57935,6.1768481877596555,43.916982974048985,996.9204519924351,4.333037984259899,-151761.3189412822,10.5,10499848238.681059,47.655,-122.3035,60.0,2.5833333333333335
2026-01-20T23:02:36+00:00,SAT-57935,6.294950799931102,43.58903629029184,1001.241935208737,4.36329938098025,-152821.20106001003,10.5,10499847178.79894,47.655,-122.3035,60.0,2.6
2026-01-20T23:02:37+00:00,SAT-57935,6.410360826769921,43.263522465474395,1005.5935991247012,4.393164839797519,-153867.21575855638,10.5,10499846132.78424,47.655,-122.3035,60.0,2.6166666666666667
2026-01-20T23:02:38+00:00,SAT-57935,6.523154519515093,42.940433615223775,1009.9750488582594,4.422638488028992,-154899.50759303098,10.5,10499845100.492407,47.655,-122.3035,60.0,2.6333333333333333
2026-01-20T23:02:39+00:00,SAT-57935,6.63340533074995,42.6197611697282,1014.3858936436536,4.451724471817301,-155918.221778887,10.5,10499844081.778221,47.655,-122.3035,60.0,2.65
2026-01-20T23:02:40+00:00,SAT-57935,6.741184038775161,42.30149591126056,1018.8257468502127,4.480426990963303,-156923.50541091556,10.5,10499843076.494589,47.655,-122.3035,60.0,2.6666666666666665
2026-01-20T23:02:41+00:00,SAT-57935,6.846558866504471,41.98562800749644,1023.2942260358668,4.508750214719906,-157915.5045139895,10.5,10499842084.495485,47.655,-122.3035,60.0,2.683333333333333
2026-01-20T23:02:42+00:00,SAT-57935,6.949595592308881,41.67214704917705,1027.7909529166807,4.536698397896023,-158894.36810951476,10.5,10499841105.631891,47.655,-122.3035,60.0,2.7
2026-01-20T23:02:43+00:00,SAT-57935,7.050357658003553,41.36104207806547,1032.3155534521825,4.564275693189561,-159860.24164253788,10.5,10499840139.758358,47.655,-122.3035,60.0,2.716666666666667
2026-01-20T23:02:44+00:00,SAT-57935,7.148906267256195,41.05230162625101,1036.8676577435235,4.591486389779445,-160813.2753382481,10.5,10499839186.72466,47.655,-122.3035,60.0,2.7333333333333334
2026-01-20T23:02:45+00:00,SAT-57935,7.245300484280261,40.745913737800265,1041.4469001695968,4.618334677958501,-161753.615958425,10.5,10499838246.38404,47.655,-122.3035,60.0,2.75
2026-01-20T23:02:46+00:00,SAT-57935,7.339597322678503,40.44186600484453,1046.0529192884142,4.6448247923556325,-162681.41181768535,10.5,10499837318.588182,47.655,-122.3035,60.0,2.7666666666666666
2026-01-20T23:02:47+00:00,SAT-57935,7.431851832949923,40.14014559269198,1050.6853578813234,4.670960981359032,-163596.81171255428,10.5,10499836403.188288,47.655,-122.3035,60.0,2.783333333333333
