satellites_20260120_184412/SAT-52833.csv

timestamp,satellite,azimuth_deg,elevation_deg,distance_km,relative_velocity_kms,doppler_shift_hz,tx_freq_ghz,rx_freq_hz,ue_lat,ue_lon,ue_alt_m,time_minutes
2026-01-20T23:00:00+00:00,SAT-52833,213.90013826085186,48.3532960702477,1119.1414556416287,-4.523792557101777,158442.35097324784,10.5,10500158442.350973,47.655,-122.3035,60.0,0.0
2026-01-20T23:00:01+00:00,SAT-52833,213.99610868639837,48.63958000188801,1114.6297265313458,-4.49890563676429,157570.70575146037,10.5,10500157570.705751,47.655,-122.3035,60.0,0.016666666666666666
2026-01-20T23:00:02+00:00,SAT-52833,214.09435432912184,48.9278521258421,1110.1428179762797,-4.473710727882059,156688.27346804578,10.5,10500156688.273468,47.655,-122.3035,60.0,0.03333333333333333
2026-01-20T23:00:03+00:00,SAT-52833,214.19494195457895,49.21812063421379,1105.6810371436718,-4.448204588853432,155794.94058840213,10.5,10500155794.940588,47.655,-122.3035,60.0,0.05
2026-01-20T23:00:04+00:00,SAT-52833,214.29794092417066,49.51039330039731,1101.2446944337219,-4.422384008839934,154890.59465538425,10.5,10500154890.594656,47.655,-122.3035,60.0,0.06666666666666667
2026-01-20T23:00:05+00:00,SAT-52833,214.40342332087275,49.80467745604991,1096.8341034489058,-4.39624574146239,153975.12196706128,10.5,10500153975.121967,47.655,-122.3035,60.0,0.08333333333333333
2026-01-20T23:00:06+00:00,SAT-52833,214.51146408050838,50.100979962487706,1092.4495810294204,-4.3697866091323485,153048.41123084442,10.5,10500153048.41123,47.655,-122.3035,60.0,0.1
2026-01-20T23:00:07+00:00,SAT-52833,214.62214113313846,50.39930718770134,1088.0914471845792,-4.343003393042194,152110.3497104755,10.5,10500152110.34971,47.655,-122.3035,60.0,0.11666666666666667
2026-01-20T23:00:08+00:00,SAT-52833,214.7355355498137,50.69966497469463,1083.7600251339186,-4.315892916872881,151160.82615782565,10.5,10500151160.826159,47.655,-122.3035,60.0,0.13333333333333333
2026-01-20T23:00:09+00:00,SAT-52833,214.85173170005928,51.002058613993135,1079.455641264824,-4.28845202880181,150199.7301827353,10.5,10500150199.730183,47.655,-122.3035,60.0,0.15
2026-01-20T23:00:10+00:00,SAT-52833,214.97081741814398,51.3064928135264,1075.178625108099,-4.260677568127149,149226.95108405652,10.5,10500149226.951084,47.655,-122.3035,60.0,0.16666666666666666
2026-01-20T23:00:11+00:00,SAT-52833,215.09288417826065,51.612971664566174,1070.92930934682,-4.23256644486178,148242.38063736976,10.5,10500148242.380638,47.655,-122.3035,60.0,0.18333333333333332
2026-01-20T23:00:12+00:00,SAT-52833,215.21802728246416,51.921498611667744,1066.708029745811,-4.204115525543939,147245.9090955896,10.5,10500147245.909096,47.655,-122.3035,60.0,0.2
2026-01-20T23:00:13+00:00,SAT-52833,215.34634605650552,52.23207641267994,1062.5151251950022,-4.175321778495071,146237.430276509,10.5,10500146237.430277,47.655,-122.3035,60.0,0.21666666666666667
2026-01-20T23:00:14+00:00,SAT-52833,215.47794406201422,52.54470710742714,1058.3509376079162,-4.146182163961644,145216.83771510108,10.5,10500145216.837715,47.655,-122.3035,60.0,0.23333333333333334
2026-01-20T23:00:15+00:00,SAT-52833,215.61292931826097,52.85939197652271,1054.2158119297253,-4.116693684046977,144184.02641234308,10.5,10500144184.026413,47.655,-122.3035,60.0,0.25
2026-01-20T23:00:16+00:00,SAT-52833,215.7514145391621,53.176131501759464,1050.1100960955023,-4.086853362185009,143138.89211630062,10.5,10500143138.892117,47.655,-122.3035,60.0,0.26666666666666666
2026-01-20T23:00:17+00:00,SAT-52833,215.8935173843435,53.49492532277257,1046.0341410089497,-4.056658301751378,142081.3333749359,10.5,10500142081.333374,47.655,-122.3035,60.0,0.2833333333333333
2026-01-20T23:00:18+00:00,SAT-52833,216.03936072802622,53.81577219596836,1041.9883004626697,-4.026105626743121,141011.24945845958,10.5,10500141011.249458,47.655,-122.3035,60.0,0.3
2026-01-20T23:00:19+00:00,SAT-52833,216.18907294285984,54.138669946512216,1037.9729311175981,-3.9951925059545603,139928.5412060729,10.5,10500139928.541206,47.655,-122.3035,60.0,0.31666666666666665
2026-01-20T23:00:20+00:00,SAT-52833,216.34278820267065,54.46361541957332,1033.988392458326,-3.9639161645864407,138833.11143256855,10.5,10500138833.111433,47.655,-122.3035,60.0,0.3333333333333333
2026-01-20T23:00:21+00:00,SAT-52833,216.500646805171,54.79060442979123,1030.035046736845,-3.932273903409116,137724.86559950656,10.5,10500137724.865599,47.655,-122.3035,60.0,0.35
2026-01-20T23:00:22+00:00,SAT-52833,216.66279551641762,55.11963170950539,1026.1132588971784,-3.9002630532893394,136603.71022255023,10.5,10500136603.710222,47.655,-122.3035,60.0,0.36666666666666664
2026-01-20T23:00:23+00:00,SAT-52833,216.82938793591467,55.45069085018052,1022.2233965453645,-3.8678810317265246,135469.55485160506,10.5,10500135469.554852,47.655,-122.3035,60.0,0.38333333333333336
2026-01-20T23:00:24+00:00,SAT-52833,217.00058488820224,55.78377424526267,1018.365829863056,-3.835125291040638,134322.31025613958,10.5,10500134322.310257,47.655,-122.3035,60.0,0.4
2026-01-20T23:00:25+00:00,SAT-52833,217.17655483816773,56.118873025179475,1014.5409315727915,-3.8019934118279672,133161.89169840174,10.5,10500133161.891699,47.655,-122.3035,60.0,0.4166666666666667
2026-01-20T23:00:26+00:00,SAT-52833,217.35747433854849,56.45597699672246,1010.7490768100618,-3.768482988172953,131988.21491305163,10.5,10500131988.214912,47.655,-122.3035,60.0,0.43333333333333335
2026-01-20T23:00:27+00:00,SAT-52833,217.54352850225345,56.795074568533444,1006.9906431098573,-3.734591746940074,130801.20028526793,10.5,10500130801.200285,47.655,-122.3035,60.0,0.45
2026-01-20T23:00:28+00:00,SAT-52833,217.73491151266433,57.136152682828,1003.2660102742423,-3.700317467375637,129600.77003486254,10.5,10500129600.770035,47.655,-122.3035,60.0,0.4666666666666667
2026-01-20T23:00:29+00:00,SAT-52833,217.93182716500104,57.479196735528866,999.575560320113,-3.6656580215264998,128386.84963191519,10.5,10500128386.849632,47.655,-122.3035,60.0,0.48333333333333334
2026-01-20T23:00:30+00:00,SAT-52833,218.13448944715327,57.824190495112504,995.9196773866438,-3.630611397866951,127159.36862428668,10.5,10500127159.368624,47.655,-122.3035,60.0,0.5
2026-01-20T23:00:31+00:00,SAT-52833,218.34312316245413,58.17111601856015,992.2987476191713,-3.5951756450211216,125918.25866653981,10.5,10500125918.258667,47.655,-122.3035,60.0,0.5166666666666667
2026-01-20T23:00:32+00:00,SAT-52833,218.55796459294368,58.51995355643047,988.7131591092035,-3.559348956556656,124663.4564897723,10.5,10500124663.45649,47.655,-122.3035,60.0,0.5333333333333333
2026-01-20T23:00:33+00:00,SAT-52833,218.77926221461442,58.87068145998086,985.1633017498643,-3.523129608753844,123394.9017220285,10.5,10500123394.901722,47.655,-122.3035,60.0,0.55
2026-01-20T23:00:34+00:00,SAT-52833,219.00727745994217,59.223276075942955,981.6495671534005,-3.4865160030264604,122112.53837405688,10.5,10500122112.538374,47.655,-122.3035,60.0,0.5666666666666667
2026-01-20T23:00:35+00:00,SAT-52833,219.24228553778568,59.57771163841932,978.1723485263822,-3.449506632579126,120816.31367150944,10.5,10500120816.313671,47.655,-122.3035,60.0,0.5833333333333334
2026-01-20T23:00:36+00:00,SAT-52833,219.48457631028765,59.933960149893956,974.7320405781566,-3.412100160615464,119506.1807941225,10.5,10500119506.180794,47.655,-122.3035,60.0,0.6
2026-01-20T23:00:37+00:00,SAT-52833,219.7344552391026,60.291991262105824,971.3290393513026,-3.3742953370679465,118182.09595924336,10.5,10500118182.095959,47.655,-122.3035,60.0,0.6166666666666667
2026-01-20T23:00:38+00:00,SAT-52833,219.9922443949231,60.65177213962981,967.9637421351335,-3.336091065406682,116844.02076175698,10.5,10500116844.020761,47.655,-122.3035,60.0,0.6333333333333333
2026-01-20T23:00:39+00:00,SAT-52833,220.2582835462261,61.01326732077098,964.636547312568,-3.297486373158227,115491.9211415298,10.5,10500115491.92114,47.655,-122.3035,60.0,0.65
2026-01-20T23:00:40+00:00,SAT-52833,220.53293132633317,61.37643856502769,961.3478542364048,-3.258480450817429,114125.76874626715,10.5,10500114125.768745,47.655,-122.3035,60.0,0.6666666666666666
2026-01-20T23:00:41+00:00,SAT-52833,220.81656649049359,61.74124469351816,958.0980630667897,-3.2190726209457603,112745.53984920622,10.5,10500112745.539848,47.655,-122.3035,60.0,0.6833333333333333
2026-01-20T23:00:42+00:00,SAT-52833,221.10958926428367,62.10764141382205,954.8875746394998,-3.1792623536125566,111351.21588993358,10.5,10500111351.21589,47.655,-122.3035,60.0,0.7
2026-01-20T23:00:43+00:00,SAT-52833,221.4124227942586,62.47558113308335,951.7167903188301,-3.139049311429519,109942.78505168382,10.5,10500109942.785051,47.655,-122.3035,60.0,0.7166666666666667
2026-01-20T23:00:44+00:00,SAT-52833,221.72551471220615,62.84501276183022,948.5861118055644,-3.0984332873087808,108520.24008136387,10.5,10500108520.240082,47.655,-122.3035,60.0,0.7333333333333333
2026-01-20T23:00:45+00:00,SAT-52833,222.04933881119675,63.21588149479745,945.4959410070218,-3.0574142522486536,107083.57996321196,10.5,10500107083.579964,47.655,-122.3035,60.0,0.75
2026-01-20T23:00:46+00:00,SAT-52833,222.38439685280088,63.58812857986174,942.4466798594458,-3.015992353752556,105632.80986342172,10.5,10500105632.809864,47.655,-122.3035,60.0,0.7666666666666667
2026-01-20T23:00:47+00:00,SAT-52833,222.7312205106933,63.96169106791716,939.4387301519699,-2.974167923978317,104167.94141556532,10.5,10500104167.941416,47.655,-122.3035,60.0,0.7833333333333333
2026-01-20T23:00:48+00:00,SAT-52833,223.09037346188344,64.33650154304932,936.4724933424556,-2.931941471453306,102688.99243042235,10.5,10500102688.99243,47.655,-122.3035,60.0,0.8
2026-01-20T23:00:49+00:00,SAT-52833,223.4624536343152,64.71248782897658,933.5483703815928,-2.8893136988631376,101195.98751901538,10.5,10500101195.987518,47.655,-122.3035,60.0,0.8166666666666667
2026-01-20T23:00:50+00:00,SAT-52833,223.84809562515517,65.08957267281224,930.66676151926,-2.8462854905935573,99688.95765627417,10.5,10500099688.957657,47.655,-122.3035,60.0,0.8333333333333334
2026-01-20T23:00:51+00:00,SAT-52833,224.24797329753432,65.46767339989376,927.8280661233081,-2.8028579620290275,98167.94190768064,10.5,10500098167.941908,47.655,-122.3035,60.0,0.85
2026-01-20T23:00:52+00:00,SAT-52833,224.6628025763593,65.84670154518524,925.0326824491777,-2.7590323757469064,96632.9844940346,10.5,10500096632.984493,47.655,-122.3035,60.0,0.8666666666666667
2026-01-20T23:00:53+00:00,SAT-52833,225.09334443609404,66.2265624405871,922.2810074930994,-2.714810272685922,95084.13938552844,10.5,10500095084.139385,47.655,-122.3035,60.0,0.8833333333333333
2026-01-20T23:00:54+00:00,SAT-52833,225.54040812413766,66.60715478384363,919.573436714474,-2.6701933391315897,93521.46564301391,10.5,10500093521.465643,47.655,-122.3035,60.0,0.9
2026-01-20T23:00:55+00:00,SAT-52833,226.00485459137315,66.98837014966381,916.9103638909135,-2.625183537039771,91945.03198248436,10.5,10500091945.031982,47.655,-122.3035,60.0,0.9166666666666666
2026-01-20T23:00:56+00:00,SAT-52833,226.48760018198598,67.37009247537519,914.2921808433058,-2.5797829957114082,90354.91298106567,10.5,10500090354.912981,47.655,-122.3035,60.0,0.9333333333333333
2026-01-20T23:00:57+00:00,SAT-52833,226.98962055244954,67.75219748348829,911.7192772689162,-2.5339941109867303,88751.19255121711,10.5,10500088751.19255,47.655,-122.3035,60.0,0.95
2026-01-20T23:00:58+00:00,SAT-52833,227.51195486297593,68.13455206603271,909.1920404755589,-2.4878194859897533,87133.9618653529,10.5,10500087133.961864,47.655,-122.3035,60.0,0.9666666666666667
2026-01-20T23:00:59+00:00,SAT-52833,228.05571021738382,68.5170136028568,906.7108551748651,-2.4412619612104405,85503.32040944681,10.5,10500085503.32041,47.655,-122.3035,60.0,0.9833333333333333
2026-01-20T23:01:00+00:00,SAT-52833,228.62206636785302,68.89942922132609,904.2761032455512,-2.3943246158582205,83859.37603043808,10.5,10500083859.37603,47.655,-122.3035,60.0,1.0
2026-01-20T23:01:01+00:00,SAT-52833,229.2122806740654,69.28163498740638,901.8881634953352,-2.347010751996764,82202.24438056418,10.5,10500082202.24438,47.655,-122.3035,60.0,1.0166666666666666
2026-01-20T23:01:02+00:00,SAT-52833,229.8276932991826,69.66345501898078,899.5474114386772,-2.299323940972526,80532.05054348473,10.5,10500080532.050543,47.655,-122.3035,60.0,1.0333333333333334
2026-01-20T23:01:03+00:00,SAT-52833,230.46973263576206,70.04470052470721,897.2542190282139,-2.2512679661335513,78848.92702805181,10.5,10500078848.927029,47.655,-122.3035,60.0,1.05
2026-01-20T23:01:04+00:00,SAT-52833,231.13992089963068,70.42516874465876,895.0089544433233,-2.202846886618552,77153.01600247328,10.5,10500077153.016003,47.655,-122.3035,60.0,1.0666666666666667
2026-01-20T23:01:05+00:00,SAT-52833,231.8398798722419,70.80464180520303,892.8119818150691,-2.1540649864031725,75444.46750969737,10.5,10500075444.46751,47.655,-122.3035,60.0,1.0833333333333333
2026-01-20T23:01:06+00:00,SAT-52833,232.57133668724933,71.18288546179085,890.6636610019631,-2.104926814562941,73723.44087759165,10.5,10500073723.440878,47.655,-122.3035,60.0,1.1
2026-01-20T23:01:07+00:00,SAT-52833,233.3361295891971,71.55964773763469,888.5643473255723,-2.0554371660183444,71990.1040445541,10.5,10500071990.104044,47.655,-122.3035,60.0,1.1166666666666667
2026-01-20T23:01:08+00:00,SAT-52833,234.13621351521766,71.93465744130418,886.5143913253299,-2.0056010823224453,70244.6335870987,10.5,10500070244.633587,47.655,-122.3035,60.0,1.1333333333333333
2026-01-20T23:01:09+00:00,SAT-52833,234.97366533268735,72.30762256032656,884.5141385125604,-1.9554238724266115,68487.2154471592,10.5,10500068487.215446,47.655,-122.3035,60.0,1.15
2026-01-20T23:01:10+00:00,SAT-52833,235.8506885197881,72.67822852971388,882.5639291037936,-1.9049110746734297,66718.04360092011,10.5,10500066718.0436,47.655,-122.3035,60.0,1.1666666666666667
2026-01-20T23:01:11+00:00,SAT-52833,236.76961698026994,73.04613636145366,880.6640977919859,-1.8540685206677314,64937.322295850354,10.5,10500064937.322296,47.655,-122.3035,60.0,1.1833333333333333
2026-01-20T23:01:12+00:00,SAT-52833,237.7329176808912,73.41098065413584,878.81497345404,-1.8029022425320766,63145.2628023978,10.5,10500063145.262802,47.655,-122.3035,60.0,1.2
2026-01-20T23:01:13+00:00,SAT-52833,238.7431915908098,73.77236745639354,877.0168789508214,-1.7514185685877668,61342.086765143205,10.5,10500061342.086765,47.655,-122.3035,60.0,1.2166666666666666
2026-01-20T23:01:14+00:00,SAT-52833,239.80317246509185,74.12987202994361,875.2701308317497,-1.6996240640843447,59528.024126896555,10.5,10500059528.024126,47.655,-122.3035,60.0,1.2333333333333334
2026-01-20T23:01:15+00:00,SAT-52833,240.91572272490782,74.48303649857093,873.575039098503,-1.6475255308681143,57703.31311708715,10.5,10500057703.313118,47.655,-122.3035,60.0,1.25
2026-01-20T23:01:16+00:00,SAT-52833,242.08382565093788,74.83136742008432,871.9319069690505,-1.5951300301737579,55868.2010500226,10.5,10500055868.20105,47.655,-122.3035,60.0,1.2666666666666666
2026-01-20T23:01:17+00:00,SAT-52833,243.31057294745636,75.17433332434645,870.3410306189572,-1.542444872063663,54022.94395500924,10.5,10500054022.943954,47.655,-122.3035,60.0,1.2833333333333334
2026-01-20T23:01:18+00:00,SAT-52833,244.5991465364478,75.51136226397995,868.8026989332191,-1.489477601152151,52167.80607635428,10.5,10500052167.806076,47.655,-122.3035,60.0,1.3
2026-01-20T23:01:19+00:00,SAT-52833,245.952793289898,75.84183944897002,867.3171932723366,-1.4362359987036653,50303.059946853245,10.5,10500050303.059946,47.655,-122.3035,60.0,1.3166666666666667
2026-01-20T23:01:20+00:00,SAT-52833,247.37479127454398,76.16510506384522,865.8847872362962,-1.3827280896507763,48428.986633590204,10.5,10500048428.986633,47.655,-122.3035,60.0,1.3333333333333333
2026-01-20T23:01:21+00:00,SAT-52833,248.8684059607383,76.48045239106983,864.5057464215512,-1.3289621210224138,46545.87498240315,10.5,10500046545.874983,47.655,-122.3035,60.0,1.35
2026-01-20T23:01:22+00:00,SAT-52833,250.43683475300924,76.78712638767531,863.1803281995182,-1.2749465698295308,44654.021894073376,10.5,10500044654.021894,47.655,-122.3035,60.0,1.3666666666666667
2026-01-20T23:01:23+00:00,SAT-52833,252.08313829811536,77.08432290979842,861.9087814872082,-1.220690137364022,42753.73212464948,10.5,10500042753.732124,47.655,-122.3035,60.0,1.3833333333333333
2026-01-20T23:01:24+00:00,SAT-52833,253.8101571799857,77.37118880649213,860.6913465235439,-1.1662017339095663,40845.31774995635,10.5,10500040845.317749,47.655,-122.3035,60.0,1.4
2026-01-20T23:01:25+00:00,SAT-52833,255.62041300873256,77.64682314051917,859.5282546609246,-1.1114904849004892,38929.09838130463,10.5,10500038929.098381,47.655,-122.3035,60.0,1.4166666666666667
2026-01-20T23:01:26+00:00,SAT-52833,257.51599363302876,77.91027983218511,858.4197281506505,-1.0565657142858238,37005.40058282971,10.5,10500037005.400583,47.655,-122.3035,60.0,1.4333333333333333
2026-01-20T23:01:27+00:00,SAT-52833,259.49842315965134,78.16057203252821,857.3659799449362,-1.0014369467000432,35074.55794752,10.5,10500035074.557947,47.655,-122.3035,60.0,1.45
2026-01-20T23:01:28+00:00,SAT-52833,261.568518926558,78.39667854519497,856.3672134967607,-0.946113899205889,33136.91080801584,10.5,10500033136.910809,47.655,-122.3035,60.0,1.4666666666666666
2026-01-20T23:01:29+00:00,SAT-52833,263.7262393297619,78.61755258628413,855.4236225679526,-0.8906064608718118,31192.805521325103,10.5,10500031192.805521,47.655,-122.3035,60.0,1.4833333333333334
2026-01-20T23:01:30+00:00,SAT-52833,265.97052852364556,78.82213311231109,854.5353910576431,-0.8349247053399934,29242.594909008458,10.5,10500029242.59491,47.655,-122.3035,60.0,1.5
2026-01-20T23:01:31+00:00,SAT-52833,268.29916646037634,79.00935885415348,853.702692818184,-0.7790788623191566,27286.637258736988,10.5,10500027286.637259,47.655,-122.3035,60.0,1.5166666666666666
2026-01-20T23:01:32+00:00,SAT-52833,270.7086348480945,79.1781850243495,852.9256914994977,-0.723079328500108,25325.29670660072,10.5,10500025325.296707,47.655,-122.3035,60.0,1.5333333333333334
2026-01-20T23:01:33+00:00,SAT-52833,273.19401166164494,79.32760248080157,852.2045403825404,-0.6669366404722,23358.942288528484,10.5,10500023358.94229,47.655,-122.3035,60.0,1.55
2026-01-20T23:01:34+00:00,SAT-52833,275.748907596976,79.45665886777324,851.539382239776,-0.6106614796727547,21387.948113637747,10.5,10500021387.948114,47.655,-122.3035,60.0,1.5666666666666667
2026-01-20T23:01:35+00:00,SAT-52833,278.3654576490668,79.56448100428771,850.9303491907157,-0.5542646496824739,19412.692569023788,10.5,10500019412.69257,47.655,-122.3035,60.0,1.5833333333333333
2026-01-20T23:01:36+00:00,SAT-52833,281.0343785986876,79.65029751978484,850.3775625800992,-0.49775708262443324,17433.558543879542,10.5,10500017433.558544,47.655,-122.3035,60.0,1.6
2026-01-20T23:01:37+00:00,SAT-52833,283.74509924684,79.71346053914446,849.8811328496951,-0.4411498096875905,15450.9323971042,10.5,10500015450.932398,47.655,-122.3035,60.0,1.6166666666666667
2026-01-20T23:01:38+00:00,SAT-52833,286.48596399828733,79.75346509031034,849.4411594395,-0.38445396740825455,13465.204177306796,10.5,10500013465.204178,47.655,-122.3035,60.0,1.6333333333333333
2026-01-20T23:01:39+00:00,SAT-52833,289.24450359428994,79.76996493044092,849.0577306826714,-0.32768077744166785,11476.76691432148,10.5,10500011476.766914,47.655,-122.3035,60.0,1.65
2026-01-20T23:01:40+00:00,SAT-52833,292.00775915546006,79.76278363626844,848.7309237206363,-0.2708415388195329,9486.016348033329,10.5,10500009486.016348,47.655,-122.3035,60.0,1.6666666666666667
2026-01-20T23:01:41+00:00,SAT-52833,294.762639570754,79.73192011515141,848.4608044259203,-0.213947616450523,7493.350525617597,10.5,10500007493.350525,47.655,-122.3035,60.0,1.6833333333333333
2026-01-20T23:01:42+00:00,SAT-52833,297.49628804208896,79.67754810966234,848.2474273364469,-0.15701042982370056,5499.16940588564,10.5,10500005499.169405,47.655,-122.3035,60.0,1.7
2026-01-20T23:01:43+00:00,SAT-52833,300.196432444733,79.60000974743538,848.0908356011028,-0.10004144216323435,3503.87447943724,10.5,10500003503.87448,47.655,-122.3035,60.0,1.7166666666666666
2026-01-20T23:01:44+00:00,SAT-52833,302.85169623105907,79.49980365756494,847.9910609361186,-0.04305214789226939,1507.868329592296,10.5,10500001507.86833,47.655,-122.3035,60.0,1.7333333333333334
2026-01-20T23:01:45+00:00,SAT-52833,305.451851410126,79.377568573026,847.948123593954,0.013945937735645649,-488.4457307604426,10.5,10499999511.55427,47.655,-122.3035,60.0,1.75
2026-01-20T23:01:46+00:00,SAT-52833,307.9880019477741,79.23406360942697,847.9620323425224,0.07094129070538034,-2484.664081864573,10.5,10499997515.335918,47.655,-122.3035,60.0,1.7666666666666666
2026-01-20T23:01:47+00:00,SAT-52833,310.4526932438312,79.07014653827346,848.0327844564525,0.12792238971112385,-4480.383198855524,10.5,10499995519.6168,47.655,-122.3035,60.0,1.7833333333333334
2026-01-20T23:01:48+00:00,SAT-52833,312.8399502851203,78.88675135163363,848.1603657197911,0.18487772830042334,-6475.200077096152,10.5,10499993524.799923,47.655,-122.3035,60.0,1.8
2026-01-20T23:01:49+00:00,SAT-52833,315.14525256056083,78.68486627452879,848.344750440816,0.24179582544782335,-8468.712602510317,10.5,10499991531.287397,47.655,-122.3035,60.0,1.8166666666666667
2026-01-20T23:01:50+00:00,SAT-52833,317.3654574039598,78.46551316295688,848.5859014773961,0.29866523662668737,-10460.519939364909,10.5,10499989539.48006,47.655,-122.3035,60.0,1.8333333333333333
2026-01-20T23:01:51+00:00,SAT-52833,319.4986851549453,78.22972896134951,848.8837702733917,0.35547456868085214,-12450.22305113809,10.5,10499987549.776949,47.655,-122.3035,60.0,1.85
2026-01-20T23:01:52+00:00,SAT-52833,321.54417949287364,77.9785496318057,849.2382969098894,0.4122124853510091,-14437.424894076541,10.5,10499985562.575106,47.655,-122.3035,60.0,1.8666666666666667
2026-01-20T23:01:53+00:00,SAT-52833,323.5021549670299,77.71299674156852,849.6494101619462,0.4688677254759602,-16421.73105468044,10.5,10499983578.268946,47.655,-122.3035,60.0,1.8833333333333333
2026-01-20T23:01:54+00:00,SAT-52833,325.37364186197266,77.43406668931308,850.1170275734875,0.5254291034416297,-18402.749765429762,10.5,10499981597.250235,47.655,-122.3035,60.0,1.9
2026-01-20T23:01:55+00:00,SAT-52833,327.16033603860666,77.14272243032035,850.6410555326534,0.5818855346353795,-20380.092796302048,10.5,10499979619.907204,47.655,-122.3035,60.0,1.9166666666666667
2026-01-20T23:01:56+00:00,SAT-52833,328.86445927919254,76.83988744284427,851.2213893725296,0.6382260341062131,-22353.37540784711,10.5,10499977646.624592,47.655,-122.3035,60.0,1.9333333333333333
2026-01-20T23:01:57+00:00,SAT-52833,330.4886334019294,76.52644165807718,851.857913470545,0.6944397274729522,-24322.216733237492,10.5,10499975677.783266,47.655,-122.3035,60.0,1.95
2026-01-20T23:01:58+00:00,SAT-52833,332.03576988841576,76.20321903601014,852.5505013587446,0.7505158716683686,-26286.240504815734,10.5,10499973713.759495,47.655,-122.3035,60.0,1.9666666666666666
2026-01-20T23:01:59+00:00,SAT-52833,333.50897543036535,75.87100648041634,853.2990158547552,0.8064438517412126,-28245.07494208788,10.5,10499971754.925058,47.655,-122.3035,60.0,1.9833333333333334
2026-01-20T23:02:00+00:00,SAT-52833,334.91147281848964,75.53054382404348,854.1033091895584,0.8622131968321006,-30198.353311266612,10.5,10499969801.646688,47.655,-122.3035,60.0,2.0
2026-01-20T23:02:01+00:00,SAT-52833,336.2465361067729,75.18252462616206,854.9632231511989,0.9178135883023633,-32145.714209977938,10.5,10499967854.28579,47.655,-122.3035,60.0,2.0166666666666666
2026-01-20T23:02:02+00:00,SAT-52833,337.5174385797529,74.8275975729128,855.8785892365992,0.9732348737386772,-34086.80205776261,10.5,10499965913.197943,47.655,-122.3035,60.0,2.033333333333333
2026-01-20T23:02:03+00:00,SAT-52833,338.72741193423064,74.46636830023104,856.8492288173412,1.0284670624914025,-36021.26693980982,10.5,10499963978.73306,47.655,-122.3035,60.0,2.05
2026-01-20T23:02:04+00:00,SAT-52833,339.8796150456715,74.09940150142073,857.8749533009993,1.083500350337854,-37948.76547076934,10.5,10499962051.23453,47.655,-122.3035,60.0,2.066666666666667
2026-01-20T23:02:05+00:00,SAT-52833,340.97711082960956,73.72722319346333,858.9555643170696,1.138325108596106,-39868.96041347082,10.5,10499960131.039587,47.655,-122.3035,60.0,2.0833333333333335
2026-01-20T23:02:06+00:00,SAT-52833,342.0228497585444,73.35032306567464,860.0908538920428,1.192931909774336,-41781.52157727239,10.5,10499958218.478422,47.655,-122.3035,60.0,2.1
2026-01-20T23:02:07+00:00,SAT-52833,343.0196588346566,72.96915683032834,861.2806046500577,1.2473115260475631,-43686.12576470957,10.5,10499956313.874235,47.655,-122.3035,60.0,2.1166666666666667
2026-01-20T23:02:08+00:00,SAT-52833,343.9702349120911,72.58414853509973,862.5245900120359,1.3014549316883355,-45582.4568566282,10.5,10499954417.543144,47.655,-122.3035,60.0,2.1333333333333333
2026-01-20T23:02:09+00:00,SAT-52833,344.87714146002173,72.19569280013809,863.8225743972397,1.35535331332032,-47470.20617130855,10.5,10499952529.793829,47.655,-122.3035,60.0,2.15
2026-01-20T23:02:10+00:00,SAT-52833,345.74280800384764,71.8041569534564,865.1743134350579,1.4089980815071081,-49349.07287035431,10.5,10499950650.92713,47.655,-122.3035,60.0,2.1666666666666665
2026-01-20T23:02:11+00:00,SAT-52833,346.56953160777516,71.4098830493853,866.5795541883475,1.4623808673819583,-51218.76384065193,10.5,10499948781.23616,47.655,-122.3035,60.0,2.183333333333333
2026-01-20T23:02:12+00:00,SAT-52833,347.3594798697542,71.01318976608043,868.0380353734165,1.5154935248487684,-53078.99377145795,10.5,10499946921.00623,47.655,-122.3035,60.0,2.2
2026-01-20T23:02:13+00:00,SAT-52833,348.11469501469304,70.61437417677261,869.549487582199,1.5683281539350276,-54929.48597231819,10.5,10499945070.514029,47.655,-122.3035,60.0,2.216666666666667
2026-01-20T23:02:14+00:00,SAT-52833,348.8370987599268,70.21371338986198,871.1136335277236,1.6208770781361421,-56769.97157957019,10.5,10499943230.02842,47.655,-122.3035,60.0,2.2333333333333334
2026-01-20T23:02:15+00:00,SAT-52833,349.5284976647318,69.81146607284539,872.7301882669847,1.673132866503936,-58600.19032997597,10.5,10499941399.80967,47.655,-122.3035,60.0,2.25
2026-01-20T23:02:16+00:00,SAT-52833,350.1905887796328,69.40787385313783,874.3988594458446,1.7250883374993395,-60419.890695659415,10.5,10499939580.109304,47.655,-122.3035,60.0,2.2666666666666666
2026-01-20T23:02:17+00:00,SAT-52833,350.824965425267,69.00316260675822,876.1193475477772,1.7767365393827284,-62228.829197293046,10.5,10499937771.170803,47.655,-122.3035,60.0,2.283333333333333
2026-01-20T23:02:18+00:00,SAT-52833,351.4331229718379,68.59754364679156,877.891346123055,1.828070791102618,-64026.77183619305,10.5,10499935973.228165,47.655,-122.3035,60.0,2.3
2026-01-20T23:02:19+00:00,SAT-52833,352.01646455069164,68.19121480452135,879.7145420587146,1.8790846373522652,-65813.49252021138,10.5,10499934186.50748,47.655,-122.3035,60.0,2.316666666666667
2026-01-20T23:02:20+00:00,SAT-52833,352.5763066014154,67.78436143003908,881.5886158037007,1.929771897917046,-67588.7747920896,10.5,10499932411.225208,47.655,-122.3035,60.0,2.3333333333333335
2026-01-20T23:02:21+00:00,SAT-52833,353.1138842398333,67.37715729794944,883.5132416432232,1.980126629285438,-69352.4104849132,10.5,10499930647.589516,47.655,-122.3035,60.0,2.35
2026-01-20T23:02:22+00:00,SAT-52833,353.63035638710187,66.9697654443428,885.4880879348306,2.0301431439472717,-71104.20039801786,10.5,10499928895.799603,47.655,-122.3035,60.0,2.3666666666666667
2026-01-20T23:02:23+00:00,SAT-52833,354.1268106587621,66.56233892863298,887.5128173637273,2.079816009687428,-72843.9542722519,10.5,10499927156.045729,47.655,-122.3035,60.0,2.3833333333333333
2026-01-20T23:02:24+00:00,SAT-52833,354.60426799649446,66.15502153079761,889.587087197389,2.129140050875832,-74571.49083515715,10.5,10499925428.509165,47.655,-122.3035,60.0,2.4
2026-01-20T23:02:25+00:00,SAT-52833,355.0636870396088,65.74794838916127,891.7105495414625,2.1781103396437365,-76286.63749192528,10.5,10499923713.362509,47.655,-122.3035,60.0,2.4166666666666665
2026-01-20T23:02:26+00:00,SAT-52833,355.50596823560323,65.34124658585898,893.8828515868671,2.2267222014351367,-77989.23051983162,10.5,10499922010.76948,47.655,-122.3035,60.0,2.433333333333333
2026-01-20T23:02:27+00:00,SAT-52833,355.9319576985365,64.93503568190198,896.1036358624317,2.274971210633792,-79679.11491507507,10.5,10499920320.885084,47.655,-122.3035,60.0,2.45
2026-01-20T23:02:28+00:00,SAT-52833,356.3424508208415,64.52942820822615,898.3725404831705,2.3228532004028697,-81356.14473740407,10.5,10499918643.855263,47.655,-122.3035,60.0,2.466666666666667
2026-01-20T23:02:29+00:00,SAT-52833,356.7381956510297,64.12453011418475,900.6891994083722,2.3703642296346503,-83020.18195255542,10.5,10499916979.818047,47.655,-122.3035,60.0,2.4833333333333334
2026-01-20T23:02:30+00:00,SAT-52833,357.11989604087546,63.72044118467823,903.053242666728,2.417500634151763,-84671.09822553814,10.5,10499915328.901775,47.655,-122.3035,60.0,2.5
2026-01-20T23:02:31+00:00,SAT-52833,357.48821458819015,63.3172554146265,905.4642966325221,2.464258951515184,-86308.77228709147,10.5,10499913691.227713,47.655,-122.3035,60.0,2.5166666666666666
2026-01-20T23:02:32+00:00,SAT-52833,357.84377536642126,62.91506136545092,907.921984226833,2.510636003211628,-87933.0928122351,10.5,10499912066.907188,47.655,-122.3035,60.0,2.533333333333333
2026-01-20T23:02:33+00:00,SAT-52833,358.1871664779619,62.51394247987178,910.4259252007029,2.5566288184260495,-89543.95575045959,10.5,10499910456.04425,47.655,-122.3035,60.0,2.55
2026-01-20T23:02:34+00:00,SAT-52833,358.5189424188515,62.113977383814486,912.9757363422797,2.602234663551548,-91141.26535928818,10.5,10499908858.73464,47.655,-122.3035,60.0,2.566666666666667
2026-01-20T23:02:35+00:00,SAT-52833,358.8396262826554,61.715240160112685,915.5710317133952,2.647451049685232,-92724.9344668135,10.5,10499907275.065533,47.655,-122.3035,60.0,2.5833333333333335
2026-01-20T23:02:36+00:00,SAT-52833,359.1497118104722,61.317800600093015,918.2114228936147,2.692275693059367,-94294.88308582918,10.5,10499905705.116915,47.655,-122.3035,60.0,2.6
2026-01-20T23:02:37+00:00,SAT-52833,359.44966529243857,60.921724441786665,920.8965191848258,2.7367065618851383,-95851.04005449648,10.5,10499904148.959946,47.655,-122.3035,60.0,2.6166666666666667
2026-01-20T23:02:38+00:00,SAT-52833,359.73992734084806,60.52707358364001,923.625927862546,2.7807418117337765,-97393.34077311796,10.5,10499902606.659227,47.655,-122.3035,60.0,2.6333333333333333
2026-01-20T23:02:39+00:00,SAT-52833,0.0209145319010035,60.133906291524376,926.3992543627818,2.8243798301455487,-98921.72876653308,10.5,10499901078.271233,47.655,-122.3035,60.0,2.65
2026-01-20T23:02:40+00:00,SAT-52833,0.29302093710879423,59.74227738454465,929.2161025133802,2.867619214098087,-100436.15489496375,10.5,10499899563.845104,47.655,-122.3035,60.0,2.6666666666666665
2026-01-20T23:02:41+00:00,SAT-52833,0.5566195453185931,59.35223841062341,932.0760747429074,2.910458770424149,-101936.57736864602,10.5,10499898063.422632,47.655,-122.3035,60.0,2.683333333333333
2026-01-20T23:02:42+00:00,SAT-52833,0.8120635855548367,58.96383780975949,934.9787722899438,2.9528974935930075,-103422.96096964047,10.5,10499896577.03903,47.655,-122.3035,60.0,2.7
2026-01-20T23:02:43+00:00,SAT-52833,1.0596877562211202,58.57712106882103,937.9237953902204,2.994934587397715,-104895.27781141181,10.5,10499895104.722189,47.655,-122.3035,60.0,2.716666666666667
2026-01-20T23:02:44+00:00,SAT-52833,1.299809371125402,58.19213086306123,940.9107434853851,3.0365694350392567,-106353.5062910495,10.5,10499893646.49371,47.655,-122.3035,60.0,2.7333333333333334
2026-01-20T23:02:45+00:00,SAT-52833,1.532729424199825,57.8089071919783,943.9392154019309,3.0778016241817814,-107797.63196680786,10.5,10499892202.368032,47.655,-122.3035,60.0,2.75
2026-01-20T23:02:46+00:00,SAT-52833,1.7587335832952231,57.42748750312191,947.0088095551149,3.1186309091028095,-109227.64623244626,10.5,10499890772.353767,47.655,-122.3035,60.0,2.7666666666666666
2026-01-20T23:02:47+00:00,SAT-52833,1.9780931134688908,57.04790681257556,950.1191241151267,3.159057211938754,-110643.54636085246,10.5,10499889356.45364,47.655,-122.3035,60.0,2.783333333333333
2026-01-20T23:02:48+00:00,SAT-52833,2.1910657380478624,56.67019781757027,953.2697571745003,3.1990806683286412,-112045.337102679,10.5,10499887954.662897,47.655,-122.3035,60.0,2.8
2026-01-20T23:02:49+00:00,SAT-52833,2.3978964446930378,56.29439099682921,956.4603069610467,3.2387015445266494,-113433.02778327337,10.5,10499886566.972218,47.655,-122.3035,60.0,2.816666666666667
2026-01-20T23:02:50+00:00,SAT-52833,2.598818232173796,55.92051471434154,959.6903719681214,3.2779202570031227,-114806.63298918876,10.5,10499885193.36701,47.655,-122.3035,60.0,2.8333333333333335
2026-01-20T23:02:51+00:00,SAT-52833,2.794052809025224,55.54859531459806,962.9595511044392,3.316737417626965,-116166.17415066237,10.5,10499883833.82585,47.655,-122.3035,60.0,2.85
2026-01-20T23:02:52+00:00,SAT-52833,2.983811248761002,55.178657207198135,966.2674438889525,3.3551537645511784,-117511.67712093469,10.5,10499882488.32288,47.655,-122.3035,60.0,2.8666666666666667
2026-01-20T23:02:53+00:00,SAT-52833,3.1682945981088144,54.81072295419625,969.6136505767981,3.393170190099521,-118843.17315295826,10.5,10499881156.826847,47.655,-122.3035,60.0,2.8833333333333333
2026-01-20T23:02:54+00:00,SAT-52833,3.347694447350325,54.444813349398,972.9977723130575,3.430787716030175,-120160.69803302668,10.5,10499879839.301968,47.655,-122.3035,60.0,2.9
2026-01-20T23:02:55+00:00,SAT-52833,3.5221934625622375,54.08094749584793,976.4194112618447,3.468007517223367,-121464.29291041521,10.5,10499878535.70709,47.655,-122.3035,60.0,2.9166666666666665
2026-01-20T23:02:56+00:00,SAT-52833,3.6919658849671952,53.71914287656916,979.8781707590223,3.504830893893178,-122754.00332412087,10.5,10499877245.996675,47.655,-122.3035,60.0,2.933333333333333
2026-01-20T23:02:57+00:00,SAT-52833,3.8571779971158366,53.35941542435585,983.3736554371985,3.541259246822377,-124029.87833548154,10.5,10499875970.121664,47.655,-122.3035,60.0,2.95
2026-01-20T23:02:58+00:00,SAT-52833,4.0179885586167154,53.00177959026806,986.9054713260293,3.5772941468321275,-125291.9729612989,10.5,10499874708.027039,47.655,-122.3035,60.0,2.966666666666667
2026-01-20T23:02:59+00:00,SAT-52833,4.174549217685304,52.64624840166771,990.4732260218033,3.612937240139387,-126540.34485905434,10.5,10499873459.655142,47.655,-122.3035,60.0,2.9833333333333334
2026-01-20T23:03:00+00:00,SAT-52833,4.327004892916745,52.2928335265245,994.0765287626356,3.6481902933107366,-127775.05590138206,10.5,10499872224.9441,47.655,-122.3035,60.0,3.0
2026-01-20T23:03:01+00:00,SAT-52833,4.475494133554777,51.94154533005145,997.7149905484974,3.6830551810475627,-128996.17174825461,10.5,10499871003.82825,47.655,-122.3035,60.0,3.0166666666666666
2026-01-20T23:03:02+00:00,SAT-52833,4.620149457198325,51.59239292964177,1001.3882242490622,3.7175338863855387,-130203.76185396951,10.5,10499869796.238146,47.655,-122.3035,60.0,3.033333333333333
2026-01-20T23:03:03+00:00,SAT-52833,4.761097667001695,51.24538424709889,1005.0958447117507,3.7516284754499516,-131397.898582974,10.5,10499868602.101418,47.655,-122.3035,60.0,3.05
2026-01-20T23:03:04+00:00,SAT-52833,4.898460148826805,50.900526060584056,1008.8374688445995,3.785341129286648,-132578.65832471944,10.5,10499867421.341675,47.655,-122.3035,60.0,3.066666666666667
2026-01-20T23:03:05+00:00,SAT-52833,5.032353151831579,50.557824051188014,1012.6127157308747,3.818674069762319,-133746.11889837586,10.5,10499866253.881102,47.655,-122.3035,60.0,3.0833333333333335
2026-01-20T23:03:06+00:00,SAT-52833,5.162888049829925,50.21728285382375,1016.4212066697843,3.8516296548624465,-134900.3628905691,10.5,10499865099.63711,47.655,-122.3035,60.0,3.1
2026-01-20T23:03:07+00:00,SAT-52833,5.2901715905667555,49.87890609734795,1020.2625653122337,3.884210294069658,-136041.4746915728,10.5,10499863958.525309,47.655,-122.3035,60.0,3.1166666666666667
2026-01-20T23:03:08+00:00,SAT-52833,5.414306127598214,49.54269645014573,1024.136417712186,3.916418464323351,-137169.54105428225,10.5,10499862830.458946,47.655,-122.3035,60.0,3.1333333333333333
2026-01-20T23:03:09+00:00,SAT-52833,5.535389839337393,49.20865566218935,1028.0423923939377,3.9482567395174093,-138284.6521273487,10.5,10499861715.347872,47.655,-122.3035,60.0,3.15
2026-01-20T23:03:10+00:00,SAT-52833,5.653516936408826,48.87678460268727,1031.9801204488165,3.9797277151502635,-139386.8988161062,10.5,10499860613.101185,47.655,-122.3035,60.0,3.1666666666666665
2026-01-20T23:03:11+00:00,SAT-52833,5.768777854969884,48.54708330224342,1035.9492355567263,4.010834110216607,-140476.37635125022,10.5,10499859523.62365,47.655,-122.3035,60.0,3.183333333333333
2026-01-20T23:03:12+00:00,SAT-52833,5.881259442052564,48.2195509847745,1039.9493741093156,4.04157863977103,-141553.1798254772,10.5,10499858446.820175,47.655,-122.3035,60.0,3.2
2026-01-20T23:03:13+00:00,SAT-52833,5.991045126921961,47.89418610827302,1043.9801752060473,4.071964117944042,-142617.4078015413,10.5,10499857382.5922,47.655,-122.3035,60.0,3.216666666666667
2026-01-20T23:03:14+00:00,SAT-52833,6.098215085760691,47.5709863955084,1048.0412807530101,4.101993378199977,-143669.15951934908,10.5,10499856330.84048,47.655,-122.3035,60.0,3.2333333333333334
2026-01-20T23:03:15+00:00,SAT-52833,6.202846395123422,47.249948869644314,1052.1323354822016,4.131669328362838,-144708.53682319715,10.5,10499855291.463177,47.655,-122.3035,60.0,3.25
2026-01-20T23:03:16+00:00,SAT-52833,6.305013178444709,46.93106988398958,1056.252987025689,4.16099489191716,-145735.6421058804,10.5,10499854264.357895,47.655,-122.3035,60.0,3.2666666666666666
2026-01-20T23:03:17+00:00,SAT-52833,6.404786743094122,46.61434515493429,1060.4028859312275,4.189973060699106,-146750.58015415657,10.5,10499853249.419846,47.655,-122.3035,60.0,3.283333333333333
2026-01-20T23:03:18+00:00,SAT-52833,6.5022357113352935,46.299769789457656,1064.5816857304314,4.21860683454002,-147753.45603480862,10.5,10499852246.543964,47.655,-122.3035,60.0,3.3
2026-01-20T23:03:19+00:00,SAT-52833,6.597426142881022,45.987338315912254,1068.7890429467461,4.246899279207044,-148744.37712397007,10.5,10499851255.622875,47.655,-122.3035,60.0,3.316666666666667
2026-01-20T23:03:20+00:00,SAT-52833,6.690421652243572,45.67704470921938,1073.0246171612084,4.2748534437301196,-149723.4502115669,10.5,10499850276.549788,47.655,-122.3035,60.0,3.3333333333333335
2026-01-20T23:03:21+00:00,SAT-52833,6.781283518109074,45.36888242092764,1077.2880709957553,4.302472474160758,-150690.78548563074,10.5,10499849309.214514,47.655,-122.3035,60.0,3.35
2026-01-20T23:03:22+00:00,SAT-52833,6.870070789412677,45.0628443998783,1081.5790702099848,4.329759452408684,-151646.49088767666,10.5,10499848353.509111,47.655,-122.3035,60.0,3.3666666666666667
2026-01-20T23:03:23+00:00,SAT-52833,6.956840382574204,44.75892312328252,1085.8972836371872,4.35671758665718,-152590.6787818538,10.5,10499847409.321218,47.655,-122.3035,60.0,3.3833333333333333
2026-01-20T23:03:24+00:00,SAT-52833,7.041647177571631,44.45711061327048,1090.24238331028,4.383349995388104,-153523.458390588,10.5,10499846476.541609,47.655,-122.3035,60.0,3.4
2026-01-20T23:03:25+00:00,SAT-52833,7.12454410485477,44.15739846749081,1094.6140443723473,4.409659896224412,-154444.94240864564,10.5,10499845555.05759,47.655,-122.3035,60.0,3.4166666666666665
2026-01-20T23:03:26+00:00,SAT-52833,7.205582231510092,43.859777875609964,1099.011945175515,4.435650487423217,-155355.24285251956,10.5,10499844644.757147,47.655,-122.3035,60.0,3.433333333333333
2026-01-20T23:03:27+00:00,SAT-52833,7.284810840821307,43.56423964306011,1103.4357672616384,4.461324974252015,-156254.47198423572,10.5,10499843745.528015,47.655,-122.3035,60.0,3.45
2026-01-20T23:03:28+00:00,SAT-52833,7.3622775083727445,43.27077421196859,1107.8851953692922,4.486686575620197,-157142.74254361686,10.5,10499842857.257456,47.655,-122.3035,60.0,3.466666666666667
2026-01-20T23:03:29+00:00,SAT-52833,7.438028174509041,42.97937168077309,1112.3599174473775,4.511738544415831,-158020.16846056288,10.5,10499841979.83154,47.655,-122.3035,60.0,3.4833333333333334
2026-01-20T23:03:30+00:00,SAT-52833,7.512107213527821,42.69002182170831,1116.8596246890083,4.536484096194434,-158886.86235742984,10.5,10499841113.137642,47.655,-122.3035,60.0,3.5
2026-01-20T23:03:31+00:00,SAT-52833,7.584557498338402,42.40271410203945,1121.3840114942795,4.560926460130676,-159742.93733357394,10.5,10499840257.062666,47.655,-122.3035,60.0,3.5166666666666666
2026-01-20T23:03:32+00:00,SAT-52833,7.655420462828833,42.11743770115494,1125.93277548385,4.585068899410679,-160588.50767957652,10.5,10499839411.492321,47.655,-122.3035,60.0,3.533333333333333
2026-01-20T23:03:33+00:00,SAT-52833,7.724736161494513,41.834181525735666,1130.505617532862,4.608914631030129,-161423.68606823444,10.5,10499838576.313932,47.655,-122.3035,60.0,3.55
2026-01-20T23:03:34+00:00,SAT-52833,7.792543325044934,41.55293422908653,1135.1022417248762,4.632466907009188,-162248.58639904967,10.5,10499837751.4136,47.655,-122.3035,60.0,3.566666666666667
2026-01-20T23:03:35+00:00,SAT-52833,7.8588794145260366,41.273684224804136,1139.7223553867998,4.655728941250259,-163063.32123647927,10.5,10499836936.678764,47.655,-122.3035,60.0,3.5833333333333335
2026-01-20T23:03:36+00:00,SAT-52833,7.923780671877083,40.99641970413908,1144.3656690508735,4.678703971581337,-163868.00398295556,10.5,10499836131.996017,47.655,-122.3035,60.0,3.6
2026-01-20T23:03:37+00:00,SAT-52833,7.987282168963797,40.721128649015775,1149.0318964785308,4.701395214266273,-164662.74728564342,10.5,10499835337.252714,47.655,-122.3035,60.0,3.6166666666666667
2026-01-20T23:03:38+00:00,SAT-52833,8.049417853726208,40.44779884707772,1153.7207546388925,4.723805870483044,-165447.66326333655,10.5,10499834552.336737,47.655,-122.3035,60.0,3.6333333333333333
2026-01-20T23:03:39+00:00,SAT-52833,8.110220594262122,40.17641790574792,1158.4319636937207,4.745939137365983,-166222.86389320318,10.5,10499833777.136106,47.655,-122.3035,60.0,3.65
