satellites_20260121_005943/SAT-65532.csv

timestamp,satellite,azimuth_deg,elevation_deg,distance_km,relative_velocity_kms,doppler_shift_hz,tx_freq_ghz,rx_freq_hz,ue_lat,ue_lon,ue_alt_m,time_minutes
2026-01-20T23:10:11+00:00,SAT-65532,298.2138897850021,30.032866870177262,4289.760267545895,-3.141877444171577,110041.83822330034,10.5,10500110041.838223,47.655,-122.3035,60.0,10.183333333333334
2026-01-20T23:10:12+00:00,SAT-65532,298.1095635165901,30.067401860244182,4286.626768441574,-3.1332541359156583,109739.81349162031,10.5,10500109739.813492,47.655,-122.3035,60.0,10.2
2026-01-20T23:10:13+00:00,SAT-65532,298.00499358172993,30.10180601592628,4283.501869650021,-3.124607996441624,109436.9891141059,10.5,10500109436.989115,47.655,-122.3035,60.0,10.216666666666667
2026-01-20T23:10:14+00:00,SAT-65532,297.900180057371,30.13607850336433,4280.38559394157,-3.115939036196945,109133.36545667177,10.5,10500109133.365458,47.655,-122.3035,60.0,10.233333333333333
2026-01-20T23:10:15+00:00,SAT-65532,297.79512302799196,30.17021848697819,4277.277964076136,-3.1072472402714717,108828.94199710138,10.5,10500108828.941998,47.655,-122.3035,60.0,10.25
2026-01-20T23:10:16+00:00,SAT-65532,297.6898225865192,30.204225129213985,4274.179002828506,-3.0985326199171883,108523.71912948682,10.5,10500108523.71913,47.655,-122.3035,60.0,10.266666666666667
2026-01-20T23:10:17+00:00,SAT-65532,297.5842788335405,30.238097590857162,4271.088732962241,-3.0897951740210945,108217.69681484615,10.5,10500108217.696815,47.655,-122.3035,60.0,10.283333333333333
2026-01-20T23:10:18+00:00,SAT-65532,297.4784918777982,30.2718350309221,4268.007177242017,-3.081034907062131,107910.87521005073,10.5,10500107910.87521,47.655,-122.3035,60.0,10.3
2026-01-20T23:10:19+00:00,SAT-65532,297.3724618360694,30.305436606740567,4264.934358428041,-3.0722518163960304,107603.25422248722,10.5,10500107603.254223,47.655,-122.3035,60.0,10.316666666666666
2026-01-20T23:10:20+00:00,SAT-65532,297.2661888335013,30.33890147391002,4261.870299283155,-3.0634459075471407,107294.8340456416,10.5,10500107294.834045,47.655,-122.3035,60.0,10.333333333333334
2026-01-20T23:10:21+00:00,SAT-65532,297.1596730033996,30.37222878641043,4258.815022564695,-3.0546171837355436,106985.61479229477,10.5,10500106985.614792,47.655,-122.3035,60.0,10.35
2026-01-20T23:10:22+00:00,SAT-65532,297.05291448739945,30.4054176966077,4255.768551026783,-3.0457656489507636,106675.59660217675,10.5,10500106675.596601,47.655,-122.3035,60.0,10.366666666666667
2026-01-20T23:10:23+00:00,SAT-65532,296.9459134355037,30.438467355289074,4252.730907419563,-3.0368913075106363,106364.77962651642,10.5,10500106364.779627,47.655,-122.3035,60.0,10.383333333333333
2026-01-20T23:10:24+00:00,SAT-65532,296.8386700061672,30.471376911695984,4249.702114488872,-3.0279941667975607,106053.16412387663,10.5,10500106053.164124,47.655,-122.3035,60.0,10.4
2026-01-20T23:10:25+00:00,SAT-65532,296.7311843662574,30.50414551358652,4246.682194973186,-3.019074227165768,105740.750106664,10.5,10500105740.750107,47.655,-122.3035,60.0,10.416666666666666
2026-01-20T23:10:26+00:00,SAT-65532,296.6234566913804,30.536772307188205,4243.671171610626,-3.010131497022228,105427.53786932625,10.5,10500105427.537868,47.655,-122.3035,60.0,10.433333333333334
2026-01-20T23:10:27+00:00,SAT-65532,296.5154871656831,30.569256437316042,4240.669067130929,-3.0011659826612433,105113.52763231641,10.5,10500105113.527632,47.655,-122.3035,60.0,10.45
2026-01-20T23:10:28+00:00,SAT-65532,296.4072759820082,30.601597047379816,4237.675904257555,-2.9921776910235716,104798.71963872922,10.5,10500104798.719639,47.655,-122.3035,60.0,10.466666666666667
2026-01-20T23:10:29+00:00,SAT-65532,296.29882334193843,30.63379327942194,4234.6917057070405,-2.983166634297847,104483.11431546218,10.5,10500104483.114315,47.655,-122.3035,60.0,10.483333333333333
2026-01-20T23:10:30+00:00,SAT-65532,296.19012945570745,30.66584427420533,4231.716494183767,-2.974132805847227,104166.71143006501,10.5,10500104166.71143,47.655,-122.3035,60.0,10.5
2026-01-20T23:10:31+00:00,SAT-65532,296.08119454292716,30.697749171042545,4228.750292398736,-2.965076231048142,103849.51187132763,10.5,10500103849.511871,47.655,-122.3035,60.0,10.516666666666667
2026-01-20T23:10:32+00:00,SAT-65532,295.9720188315483,30.729507108173166,4225.793123037637,-2.9559969067745326,103531.51552976224,10.5,10500103531.51553,47.655,-122.3035,60.0,10.533333333333333
2026-01-20T23:10:33+00:00,SAT-65532,295.8626025589408,30.761117222489155,4222.845008789282,-2.946894856873086,103212.72324058066,10.5,10500103212.72324,47.655,-122.3035,60.0,10.55
2026-01-20T23:10:34+00:00,SAT-65532,295.7529459710079,30.792578649858427,4219.905972318693,-2.937770069810262,102893.13459982957,10.5,10500102893.1346,47.655,-122.3035,60.0,10.566666666666666
2026-01-20T23:10:35+00:00,SAT-65532,295.64304932354474,30.823890524778335,4216.976036302402,-2.928622572741261,102572.75055859891,10.5,10500102572.750559,47.655,-122.3035,60.0,10.583333333333334
2026-01-20T23:10:36+00:00,SAT-65532,295.5329128809171,30.855051980825685,4214.055223389854,-2.919452372088455,102251.57134182734,10.5,10500102251.571342,47.655,-122.3035,60.0,10.6
2026-01-20T23:10:37+00:00,SAT-65532,295.4225369168821,30.88606215046776,4211.143556224092,-2.9102594840671046,101929.59751744187,10.5,10500101929.597517,47.655,-122.3035,60.0,10.616666666666667
2026-01-20T23:10:38+00:00,SAT-65532,295.3119217143217,30.916920165202974,4208.241057431982,-2.901043908989256,101606.82909637169,10.5,10500101606.829096,47.655,-122.3035,60.0,10.633333333333333
2026-01-20T23:10:39+00:00,SAT-65532,295.2010675658914,30.947625155426437,4205.347749640084,-2.8918056642609287,101283.2666882492,10.5,10500101283.266687,47.655,-122.3035,60.0,10.65
2026-01-20T23:10:40+00:00,SAT-65532,295.089974773487,30.978176250648733,4202.4636554575945,-2.8825447772827917,100958.91125276178,10.5,10500100958.911253,47.655,-122.3035,60.0,10.666666666666666
2026-01-20T23:10:41+00:00,SAT-65532,294.97864364792395,31.008572579637033,4199.588797466385,-2.8732612428572804,100633.76260786867,10.5,10500100633.762608,47.655,-122.3035,60.0,10.683333333333334
2026-01-20T23:10:42+00:00,SAT-65532,294.86707451025075,31.03881327010714,4196.723198253508,-2.8639550824556634,100307.82150558461,10.5,10500100307.821507,47.655,-122.3035,60.0,10.7
2026-01-20T23:10:43+00:00,SAT-65532,294.7552676908188,31.068897449043245,4193.866880384606,-2.8546263108686634,99981.08846394316,10.5,10500099981.088465,47.655,-122.3035,60.0,10.716666666666667
2026-01-20T23:10:44+00:00,SAT-65532,294.6432235296117,31.098824242665227,4191.019866410566,-2.8452749435812255,99653.5640252927,10.5,10500099653.564026,47.655,-122.3035,60.0,10.733333333333333
2026-01-20T23:10:45+00:00,SAT-65532,294.5309423762951,31.12859277647362,4188.182178866834,-2.835900994205,99325.24866637074,10.5,10500099325.248667,47.655,-122.3035,60.0,10.75
2026-01-20T23:10:46+00:00,SAT-65532,294.41842459036985,31.158202175269484,4185.35384027528,-2.8265044885783905,98996.14329214746,10.5,10500098996.143291,47.655,-122.3035,60.0,10.766666666666667
2026-01-20T23:10:47+00:00,SAT-65532,294.30567054076323,31.187651563321094,4182.534873132005,-2.817085429897589,98666.24801456709,10.5,10500098666.248014,47.655,-122.3035,60.0,10.783333333333333
2026-01-20T23:10:48+00:00,SAT-65532,294.1926806067974,31.216940064166714,4179.72529992992,-2.8076438496849274,98335.56393767498,10.5,10500098335.563938,47.655,-122.3035,60.0,10.8
2026-01-20T23:10:49+00:00,SAT-65532,294.0794551771474,31.24606680095097,4176.925143130501,-2.798179750084584,98004.09113656933,10.5,10500098004.091137,47.655,-122.3035,60.0,10.816666666666666
2026-01-20T23:10:50+00:00,SAT-65532,293.96599465108005,31.275030896159212,4174.134425193083,-2.788693166018881,97671.8308343776,10.5,10500097671.830833,47.655,-122.3035,60.0,10.833333333333334
2026-01-20T23:10:51+00:00,SAT-65532,293.85229943723266,31.303831471999164,4171.353168542174,-2.7791841099646137,97338.78346808993,10.5,10500097338.783468,47.655,-122.3035,60.0,10.85
2026-01-20T23:10:52+00:00,SAT-65532,293.73836995457077,31.332467650209253,4168.581395589836,-2.7696525996495045,97004.94965860614,10.5,10500097004.94966,47.655,-122.3035,60.0,10.866666666666667
2026-01-20T23:10:53+00:00,SAT-65532,293.62420663225697,31.360938552155478,4165.819128730453,-2.760098655644764,96670.33012641706,10.5,10500096670.330126,47.655,-122.3035,60.0,10.883333333333333
2026-01-20T23:10:54+00:00,SAT-65532,293.50980990961943,31.389243298903157,4163.066390337889,-2.7505223036312456,96334.92577097479,10.5,10500096334.925772,47.655,-122.3035,60.0,10.9
2026-01-20T23:10:55+00:00,SAT-65532,293.3951802360033,31.417381011312184,4160.323202760401,-2.7409235697751524,95998.73750873047,10.5,10500095998.737509,47.655,-122.3035,60.0,10.916666666666666
2026-01-20T23:10:56+00:00,SAT-65532,293.28031807083806,31.445350810084875,4157.589588320145,-2.7313024562689447,95661.76541647328,10.5,10500095661.765417,47.655,-122.3035,60.0,10.933333333333334
2026-01-20T23:10:57+00:00,SAT-65532,293.16522388466984,31.473151815564677,4154.865569337093,-2.7216590039562125,95324.01092471856,10.5,10500095324.010925,47.655,-122.3035,60.0,10.95
2026-01-20T23:10:58+00:00,SAT-65532,293.0498981576797,31.500783148176158,4152.1511680904805,-2.7119932407783693,94985.4750120928,10.5,10500094985.475012,47.655,-122.3035,60.0,10.966666666666667
2026-01-20T23:10:59+00:00,SAT-65532,292.9343413802529,31.528243928336106,4149.446406831677,-2.7023051774319184,94646.15805323275,10.5,10500094646.158052,47.655,-122.3035,60.0,10.983333333333333
2026-01-20T23:11:00+00:00,SAT-65532,292.81855405378076,31.55553327632415,4146.751307801385,-2.6925948365321295,94306.06084022087,10.5,10500094306.06084,47.655,-122.3035,60.0,11.0
2026-01-20T23:11:01+00:00,SAT-65532,292.7025366902348,31.582650312450163,4144.065893217751,-2.682862256570553,93965.18472119403,10.5,10500093965.184721,47.655,-122.3035,60.0,11.016666666666667
2026-01-20T23:11:02+00:00,SAT-65532,292.5862898115747,31.60959415726015,4141.390185260531,-2.6731074547854936,93623.53029991062,10.5,10500093623.5303,47.655,-122.3035,60.0,11.033333333333333
2026-01-20T23:11:03+00:00,SAT-65532,292.4698139507054,31.636363931367704,4138.724206092292,-2.663330461990317,93281.09865558502,10.5,10500093281.098656,47.655,-122.3035,60.0,11.05
2026-01-20T23:11:04+00:00,SAT-65532,292.35310965097904,31.66295875563797,4136.067977844867,-2.65353129884873,92937.89051194765,10.5,10500092937.890512,47.655,-122.3035,60.0,11.066666666666666
2026-01-20T23:11:05+00:00,SAT-65532,292.2361774666834,31.689377751133296,4133.421522629481,-2.643709999636091,92593.90706946656,10.5,10500092593.90707,47.655,-122.3035,60.0,11.083333333333334
2026-01-20T23:11:06+00:00,SAT-65532,292.1190179625487,31.715620039297015,4130.784862523177,-2.6338665906283785,92249.14924843765,10.5,10500092249.149248,47.655,-122.3035,60.0,11.1
2026-01-20T23:11:07+00:00,SAT-65532,292.00163171413567,31.741684741921212,4128.158019576791,-2.6240011049955716,91903.61821061389,10.5,10500091903.61821,47.655,-122.3035,60.0,11.116666666666667
2026-01-20T23:11:08+00:00,SAT-65532,291.8840193076203,31.767570981264416,4125.541015808075,-2.614113561757795,91557.31462216053,10.5,10500091557.314623,47.655,-122.3035,60.0,11.133333333333333
2026-01-20T23:11:09+00:00,SAT-65532,291.766181340466,31.793277879960062,4122.933873215816,-2.6042040039500827,91210.23999034648,10.5,10500091210.23999,47.655,-122.3035,60.0,11.15
2026-01-20T23:11:10+00:00,SAT-65532,291.6481184204473,31.818804561303267,4120.336613755876,-2.594272447548323,90862.39487471493,10.5,10500090862.394875,47.655,-122.3035,60.0,11.166666666666666
2026-01-20T23:11:11+00:00,SAT-65532,291.52983116689757,31.844150149034643,4117.749259368188,-2.584318936865214,90513.780827284,10.5,10500090513.780827,47.655,-122.3035,60.0,11.183333333333334
2026-01-20T23:11:12+00:00,SAT-65532,291.4113202095348,31.86931376766858,4115.171831948487,-2.574343499745608,90164.39882329822,10.5,10500090164.398823,47.655,-122.3035,60.0,11.2
2026-01-20T23:11:13+00:00,SAT-65532,291.29258618923416,31.894294542382102,4112.604353364742,-2.5643461710894653,89814.25008510183,10.5,10500089814.250086,47.655,-122.3035,60.0,11.216666666666667
2026-01-20T23:11:14+00:00,SAT-65532,291.17362975779844,31.91909159913511,4110.046845450108,-2.554326982213796,89463.33570954898,10.5,10500089463.335709,47.655,-122.3035,60.0,11.233333333333333
2026-01-20T23:11:15+00:00,SAT-65532,291.05445157815984,31.943704064686642,4107.499330006513,-2.5442859587913222,89111.65659580697,10.5,10500089111.656595,47.655,-122.3035,60.0,11.25
2026-01-20T23:11:16+00:00,SAT-65532,290.9350523247215,31.968131066593543,4104.961828810279,-2.5342231585344637,88759.2147652089,10.5,10500088759.214766,47.655,-122.3035,60.0,11.266666666666667
2026-01-20T23:11:17+00:00,SAT-65532,290.81543268194184,31.99237173357003,4102.434363580167,-2.524138591696555,88406.01057686991,10.5,10500088406.010576,47.655,-122.3035,60.0,11.283333333333333
2026-01-20T23:11:18+00:00,SAT-65532,290.6955933465712,32.016425195084736,4099.916956024716,-2.5140323068379944,88052.04573158055,10.5,10500088052.045732,47.655,-122.3035,60.0,11.3
2026-01-20T23:11:19+00:00,SAT-65532,290.5755350259555,32.04029058178144,4097.409627804029,-2.5039043384516573,87697.32143742724,10.5,10500087697.321438,47.655,-122.3035,60.0,11.316666666666666
2026-01-20T23:11:20+00:00,SAT-65532,290.45525843873975,32.06396702539763,4094.912400543813,-2.493754721835949,87341.83893070939,10.5,10500087341.83893,47.655,-122.3035,60.0,11.333333333333334
2026-01-20T23:11:21+00:00,SAT-65532,290.3347643148907,32.08745365882621,4092.4252958345687,-2.4835835010337015,86985.59975399336,10.5,10500086985.599754,47.655,-122.3035,60.0,11.35
2026-01-20T23:11:22+00:00,SAT-65532,290.2140533953495,32.11074961625199,4089.9483352228713,-2.473390710557611,86628.60511605971,10.5,10500086628.605116,47.655,-122.3035,60.0,11.366666666666667
2026-01-20T23:11:23+00:00,SAT-65532,290.0931264325196,32.1338540331162,4087.4815402208746,-2.46317638556124,86270.8562481349,10.5,10500086270.856249,47.655,-122.3035,60.0,11.383333333333333
2026-01-20T23:11:24+00:00,SAT-65532,289.9719841903153,32.15676604617864,4085.024932305675,-2.452940574174017,85912.35483591512,10.5,10500085912.354836,47.655,-122.3035,60.0,11.4
2026-01-20T23:11:25+00:00,SAT-65532,289.8506274435814,32.179484793693284,4082.5785329063656,-2.4426833127656717,85553.10215322213,10.5,10500085553.102154,47.655,-122.3035,60.0,11.416666666666666
2026-01-20T23:11:26+00:00,SAT-65532,289.7290569787208,32.202009415354446,4080.1423634157672,-2.432404640665301,85193.09957752726,10.5,10500085193.099577,47.655,-122.3035,60.0,11.433333333333334
2026-01-20T23:11:27+00:00,SAT-65532,289.6072735935993,32.22433905238059,4077.7164451874773,-2.4221045977905167,84832.34850691416,10.5,10500084832.348507,47.655,-122.3035,60.0,11.45
2026-01-20T23:11:28+00:00,SAT-65532,289.4852780975708,32.24647284757695,4075.3007995352805,-2.4117832386514477,84470.8508505581,10.5,10500084470.850851,47.655,-122.3035,60.0,11.466666666666667
2026-01-20T23:11:29+00:00,SAT-65532,289.363071310829,32.268409945524375,4072.895447718599,-2.401440592559669,84108.60763507441,10.5,10500084108.607635,47.655,-122.3035,60.0,11.483333333333333
2026-01-20T23:11:30+00:00,SAT-65532,289.24065406566586,32.290149492407224,4070.5004109676197,-2.3910767093928844,83745.62060739128,10.5,10500083745.620607,47.655,-122.3035,60.0,11.5
2026-01-20T23:11:31+00:00,SAT-65532,289.1180272055409,32.311690636257815,4068.115710462785,-2.3806916415917514,83381.89160420235,10.5,10500083381.891603,47.655,-122.3035,60.0,11.516666666666667
2026-01-20T23:11:32+00:00,SAT-65532,288.99519158497304,32.33303252703619,4065.7413673322376,-2.370285418637082,83017.42165805039,10.5,10500083017.421658,47.655,-122.3035,60.0,11.533333333333333
2026-01-20T23:11:33+00:00,SAT-65532,288.8721480707496,32.35417431648242,4063.377402674717,-2.3598580982895774,82652.21279195943,10.5,10500082652.212791,47.655,-122.3035,60.0,11.55
2026-01-20T23:11:34+00:00,SAT-65532,288.74889754055414,32.375115158427995,4061.023837531356,-2.349409719304553,82286.26636330459,10.5,10500082286.266363,47.655,-122.3035,60.0,11.566666666666666
2026-01-20T23:11:35+00:00,SAT-65532,288.62544088396686,32.395854208685414,4058.680692904636,-2.338940334876354,81919.58423517687,10.5,10500081919.584234,47.655,-122.3035,60.0,11.583333333333334
2026-01-20T23:11:36+00:00,SAT-65532,288.5017790017807,32.41639062523499,4056.347989743986,-2.3284499928584483,81552.16808360704,10.5,10500081552.168083,47.655,-122.3035,60.0,11.6
2026-01-20T23:11:37+00:00,SAT-65532,288.37791280631825,32.43672356823614,4054.0257489511087,-2.317938740031447,81184.01954705009,10.5,10500081184.019547,47.655,-122.3035,60.0,11.616666666666667
2026-01-20T23:11:38+00:00,SAT-65532,288.25384322151626,32.45685220007796,4051.7139913810506,-2.3074066218606903,80815.14021789451,10.5,10500080815.140219,47.655,-122.3035,60.0,11.633333333333333
2026-01-20T23:11:39+00:00,SAT-65532,288.12957118305866,32.476775685428066,4049.412737843515,-2.2968536941563347,80445.53205084804,10.5,10500080445.532051,47.655,-122.3035,60.0,11.65
2026-01-20T23:11:40+00:00,SAT-65532,288.0050976378608,32.496493191382214,4047.122009092543,-2.286280009440857,80075.19688547001,10.5,10500080075.196886,47.655,-122.3035,60.0,11.666666666666666
2026-01-20T23:11:41+00:00,SAT-65532,287.8804235442934,32.51600388749541,4044.8418258297943,-2.275685607821947,79704.13612650137,10.5,10500079704.136126,47.655,-122.3035,60.0,11.683333333333334
2026-01-20T23:11:42+00:00,SAT-65532,287.75554987286364,32.53530694573688,4042.572208716926,-2.2650705526868067,79332.35199403006,10.5,10500079332.351994,47.655,-122.3035,60.0,11.7
2026-01-20T23:11:43+00:00,SAT-65532,287.6304776050346,32.55440154074969,4040.31317835238,-2.254434894894005,78959.84626933829,10.5,10500078959.84627,47.655,-122.3035,60.0,11.716666666666667
2026-01-20T23:11:44+00:00,SAT-65532,287.50520773391315,32.57328684980468,4038.0647552838727,-2.2437786878620125,78586.62082336686,10.5,10500078586.620823,47.655,-122.3035,60.0,11.733333333333333
2026-01-20T23:11:45+00:00,SAT-65532,287.379741264161,32.59196205288256,4035.8269600058443,-2.2331019746995557,78212.67716596571,10.5,10500078212.677166,47.655,-122.3035,60.0,11.75
2026-01-20T23:11:46+00:00,SAT-65532,287.2540792125711,32.610426332652004,4033.599812969744,-2.22240482872445,77838.01786503491,10.5,10500077838.017864,47.655,-122.3035,60.0,11.766666666666667
2026-01-20T23:11:47+00:00,SAT-65532,287.12822260648915,32.62867887478051,4031.3833345538965,-2.211687288927318,77462.64428619095,10.5,10500077462.644287,47.655,-122.3035,60.0,11.783333333333333
2026-01-20T23:11:48+00:00,SAT-65532,287.00217248568424,32.6467188677132,4029.1775450977393,-2.20094942617229,77086.55891139543,10.5,10500077086.558912,47.655,-122.3035,60.0,11.8
2026-01-20T23:11:49+00:00,SAT-65532,286.8759299006623,32.66454550299662,4026.982464870037,-2.1901912882792884,76709.76341550438,10.5,10500076709.763416,47.655,-122.3035,60.0,11.816666666666666
2026-01-20T23:11:50+00:00,SAT-65532,286.7494959139367,32.682157975152236,4024.79811409186,-2.1794129311001416,76332.25975468499,10.5,10500076332.259754,47.655,-122.3035,60.0,11.833333333333334
2026-01-20T23:11:51+00:00,SAT-65532,286.62287159964075,32.69955548180631,4022.624512928576,-2.1686144148344977,75954.05003738361,10.5,10500075954.050037,47.655,-122.3035,60.0,11.85
2026-01-20T23:11:52+00:00,SAT-65532,286.4960580432997,32.716737223786794,4020.4616814855144,-2.157795812811862,75575.13683190972,10.5,10500075575.136831,47.655,-122.3035,60.0,11.866666666666667
2026-01-20T23:11:53+00:00,SAT-65532,286.3690563411154,32.73370240528907,4018.3096397948702,-2.1469571579597937,75195.52129152573,10.5,10500075195.521292,47.655,-122.3035,60.0,11.883333333333333
2026-01-20T23:11:54+00:00,SAT-65532,286.24186760227303,32.75045023362111,4016.1684078559983,-2.1360985321530057,74815.2062838304,10.5,10500074815.206284,47.655,-122.3035,60.0,11.9
2026-01-20T23:11:55+00:00,SAT-65532,286.1144929462045,32.766979919651654,4014.0380055865976,-2.125219989392389,74434.19370016333,10.5,10500074434.1937,47.655,-122.3035,60.0,11.916666666666666
2026-01-20T23:11:56+00:00,SAT-65532,285.98693350417227,32.78329067765467,4011.91845285051,-2.114321586288544,74052.48552326727,10.5,10500074052.485523,47.655,-122.3035,60.0,11.933333333333334
2026-01-20T23:11:57+00:00,SAT-65532,285.8591904191729,32.7993817253947,4009.8097694551184,-2.1034033976753066,73670.08437413965,10.5,10500073670.084373,47.655,-122.3035,60.0,11.95
2026-01-20T23:11:58+00:00,SAT-65532,285.73126484487653,32.81525228432928,4007.71197513317,-2.0924654745626956,73286.99203936713,10.5,10500073286.992039,47.655,-122.3035,60.0,11.966666666666667
2026-01-20T23:11:59+00:00,SAT-65532,285.60315794705116,32.830901579491524,4005.62508956654,-2.081507891366282,72903.21112529776,10.5,10500072903.211124,47.655,-122.3035,60.0,11.983333333333333
2026-01-20T23:12:00+00:00,SAT-65532,285.4748709021975,32.846328839730795,4003.549132362884,-2.070530698951241,72518.74341344515,10.5,10500072518.743414,47.655,-122.3035,60.0,12.0
2026-01-20T23:12:01+00:00,SAT-65532,285.3464048989631,32.861533297601405,4001.48412307913,-2.0595339816164944,72133.5918563141,10.5,10500072133.591856,47.655,-122.3035,60.0,12.016666666666667
2026-01-20T23:12:02+00:00,SAT-65532,285.21776113616767,32.876514189673244,3999.430081188131,-2.048517788300556,71747.75816793842,10.5,10500071747.758167,47.655,-122.3035,60.0,12.033333333333333
2026-01-20T23:12:03+00:00,SAT-65532,285.08894082493174,32.891270756336525,3997.3870261139323,-2.037482196052592,71361.24504690581,10.5,10500071361.245047,47.655,-122.3035,60.0,12.05
2026-01-20T23:12:04+00:00,SAT-65532,284.95994518699416,32.90580224207127,3995.354977203736,-2.0264272656023246,70974.054620228,10.5,10500070974.05462,47.655,-122.3035,60.0,12.066666666666666
2026-01-20T23:12:05+00:00,SAT-65532,284.830775455727,32.920107895393535,3993.3339537441752,-2.0153530702523224,70586.18945527103,10.5,10500070586.189455,47.655,-122.3035,60.0,12.083333333333334
2026-01-20T23:12:06+00:00,SAT-65532,284.7014328753571,32.93418696901037,3991.323974948777,-2.0042596772237986,70197.65190640614,10.5,10500070197.651907,47.655,-122.3035,60.0,12.1
2026-01-20T23:12:07+00:00,SAT-65532,284.5719187013735,32.94803871983972,3989.325059964026,-1.9931471594523884,69808.4445281478,10.5,10500069808.444529,47.655,-122.3035,60.0,12.116666666666667
2026-01-20T23:12:08+00:00,SAT-65532,284.4422342001508,32.96166240911541,3987.3372278636652,-1.9820155806500468,69418.56955195815,10.5,10500069418.569551,47.655,-122.3035,60.0,12.133333333333333
2026-01-20T23:12:09+00:00,SAT-65532,284.3123806495572,32.97505730238801,3985.3604976578968,-1.9708650119345075,69028.02946868105,10.5,10500069028.029469,47.655,-122.3035,60.0,12.15
2026-01-20T23:12:10+00:00,SAT-65532,284.18235933848615,32.98822266964134,3983.394888285994,-1.9596955348821572,68636.82713546666,10.5,10500068636.827135,47.655,-122.3035,60.0,12.166666666666666
2026-01-20T23:12:11+00:00,SAT-65532,284.05217156620273,33.001157785426,3981.440418605872,-1.9485072137538284,68244.96480300114,10.5,10500068244.964804,47.655,-122.3035,60.0,12.183333333333334
2026-01-20T23:12:12+00:00,SAT-65532,283.9218186434323,33.01386192880757,3979.4971074113546,-1.9373001201536217,67852.44497916297,10.5,10500067852.444979,47.655,-122.3035,60.0,12.2
2026-01-20T23:12:13+00:00,SAT-65532,283.7913018919148,33.02633438348172,3977.5649734248545,-1.9260743296309462,67459.27031001204,10.5,10500067459.27031,47.655,-122.3035,60.0,12.216666666666667
2026-01-20T23:12:14+00:00,SAT-65532,283.66062264413404,33.03857443786455,3975.644035293436,-1.9148299279585594,67065.44379967316,10.5,10500067065.4438,47.655,-122.3035,60.0,12.233333333333333
2026-01-20T23:12:15+00:00,SAT-65532,283.529782242665,33.05058138521983,3973.734311578619,-1.9035669728377027,66670.96746908783,10.5,10500066670.967468,47.655,-122.3035,60.0,12.25
2026-01-20T23:12:16+00:00,SAT-65532,283.3987820419795,33.06235452354677,3971.8358207843758,-1.8922855467504103,66275.84420712582,10.5,10500066275.844208,47.655,-122.3035,60.0,12.266666666666667
2026-01-20T23:12:17+00:00,SAT-65532,283.26762340685315,33.07389315580191,3969.9485813324163,-1.8809857342659773,65880.07697576155,10.5,10500065880.076975,47.655,-122.3035,60.0,12.283333333333333
2026-01-20T23:12:18+00:00,SAT-65532,283.13630771219067,33.08519658997335,3968.0726115601083,-1.8696676033516815,65483.66815549661,10.5,10500065483.668156,47.655,-122.3035,60.0,12.3
2026-01-20T23:12:19+00:00,SAT-65532,283.00483634413007,33.09626413904377,3966.2079297370324,-1.8583312352993087,65086.6205935132,10.5,10500065086.620594,47.655,-122.3035,60.0,12.316666666666666
2026-01-20T23:12:20+00:00,SAT-65532,282.8732106991465,33.10709512113651,3964.354554051694,-1.846976708967287,64688.93705176705,10.5,10500064688.937052,47.655,-122.3035,60.0,12.333333333333334
2026-01-20T23:12:21+00:00,SAT-65532,282.7414321842154,33.11768885956423,3962.5125026139503,-1.8356041038843869,64290.620315692075,10.5,10500064290.620316,47.655,-122.3035,60.0,12.35
2026-01-20T23:12:22+00:00,SAT-65532,282.609502216732,33.12804468289664,3960.681793454343,-1.8242135033666327,63891.673303367905,10.5,10500063891.673304,47.655,-122.3035,60.0,12.366666666666667
2026-01-20T23:12:23+00:00,SAT-65532,282.4774222242684,33.138161925045665,3958.862444520319,-1.8128049777231803,63492.09847731857,10.5,10500063492.098476,47.655,-122.3035,60.0,12.383333333333333
2026-01-20T23:12:24+00:00,SAT-65532,282.3451936454305,33.14803992525694,3957.0544736892025,-1.8013786253021773,63091.89928211224,10.5,10500063091.899282,47.655,-122.3035,60.0,12.4
2026-01-20T23:12:25+00:00,SAT-65532,282.2128179279253,33.15767802832809,3955.257898740235,-1.7899345133411,62691.07807268971,10.5,10500062691.078074,47.655,-122.3035,60.0,12.416666666666666
2026-01-20T23:12:26+00:00,SAT-65532,282.0802965306836,33.16707558450172,3953.472737385596,-1.7784727309959254,62289.63797167044,10.5,10500062289.637972,47.655,-122.3035,60.0,12.433333333333334
2026-01-20T23:12:27+00:00,SAT-65532,281.94763092233967,33.17623194964824,3951.699007248549,-1.7669933664209299,61887.58206659009,10.5,10500061887.582067,47.655,-122.3035,60.0,12.45
2026-01-20T23:12:28+00:00,SAT-65532,281.81482258125027,33.18514648532136,3949.936725864439,-1.7554964952524286,61484.91300655235,10.5,10500061484.913006,47.655,-122.3035,60.0,12.466666666666667
2026-01-20T23:12:29+00:00,SAT-65532,281.6818729963878,33.193818558757194,3948.185910693174,-1.7439822099930264,61081.63403138973,10.5,10500061081.634031,47.655,-122.3035,60.0,12.483333333333333
2026-01-20T23:12:30+00:00,SAT-65532,281.5487836660944,33.2022475430224,3946.446579102407,-1.7324505921195004,60677.74799476361,10.5,10500060677.747995,47.655,-122.3035,60.0,12.5
2026-01-20T23:12:31+00:00,SAT-65532,281.4155560988686,33.21043281702186,3944.7187483785333,-1.7209017296702525,60273.25798015123,10.5,10500060273.25798,47.655,-122.3035,60.0,12.516666666666667
2026-01-20T23:12:32+00:00,SAT-65532,281.28219181284936,33.21837376559285,3943.0024357201423,-1.7093357099172897,59868.16704418742,10.5,10500059868.167044,47.655,-122.3035,60.0,12.533333333333333
2026-01-20T23:12:33+00:00,SAT-65532,281.14869233586694,33.22606977956337,3941.297658238785,-1.6977526222127624,59462.47831636246,10.5,10500059462.478317,47.655,-122.3035,60.0,12.55
2026-01-20T23:12:34+00:00,SAT-65532,281.01505920523465,33.23352025582317,3939.604432956898,-1.6861525523721193,59056.19480229638,10.5,10500059056.194803,47.655,-122.3035,60.0,12.566666666666666
2026-01-20T23:12:35+00:00,SAT-65532,280.88129396801025,33.2407245973693,3937.9227768113324,-1.6745355897668233,58649.319632155806,10.5,10500058649.319632,47.655,-122.3035,60.0,12.583333333333334
2026-01-20T23:12:36+00:00,SAT-65532,280.74739818068684,33.24768221338423,3936.252706649805,-1.6629018286396235,58241.856106720494,10.5,10500058241.856106,47.655,-122.3035,60.0,12.6
2026-01-20T23:12:37+00:00,SAT-65532,280.61337340879663,33.25439251931634,3934.5942392260413,-1.6512513568581604,57833.80730348688,10.5,10500057833.807304,47.655,-122.3035,60.0,12.616666666666667
2026-01-20T23:12:38+00:00,SAT-65532,280.4792212273549,33.26085493691359,3932.947391206135,-1.6395842631184727,57425.176328965434,10.5,10500057425.176329,47.655,-122.3035,60.0,12.633333333333333
2026-01-20T23:12:39+00:00,SAT-65532,280.3449432207848,33.267068894288535,3931.312179167718,-1.6279006450140021,57015.966601291286,10.5,10500057015.9666,47.655,-122.3035,60.0,12.65
2026-01-20T23:12:40+00:00,SAT-65532,280.21054098217,33.273033826013425,3929.6886195910906,-1.6162005898360683,56606.18117777572,10.5,10500056606.181177,47.655,-122.3035,60.0,12.666666666666666
2026-01-20T23:12:41+00:00,SAT-65532,280.0760161140436,33.2787491731397,3928.0767288694947,-1.6044841965055832,56195.823523047475,10.5,10500056195.823523,47.655,-122.3035,60.0,12.683333333333334
2026-01-20T23:12:42+00:00,SAT-65532,279.9413702274186,33.28421438330119,3926.476523297513,-1.592751555088746,55784.89679160586,10.5,10500055784.896791,47.655,-122.3035,60.0,12.7
2026-01-20T23:12:43+00:00,SAT-65532,279.80660494246706,33.28942891074046,3924.888019079904,-1.5810027604203822,55373.40430496758,10.5,10500055373.404305,47.655,-122.3035,60.0,12.716666666666667
2026-01-20T23:12:44+00:00,SAT-65532,279.67172188808297,33.29439221638567,3923.311232326845,-1.5692379133277354,54961.34959452924,10.5,10500054961.349594,47.655,-122.3035,60.0,12.733333333333333
2026-01-20T23:12:45+00:00,SAT-65532,279.53672270137866,33.2991037679269,3921.746179047953,-1.557457101995068,54548.735748876694,10.5,10500054548.735748,47.655,-122.3035,60.0,12.75
2026-01-20T23:12:46+00:00,SAT-65532,279.40160902864505,33.303563039834735,3920.192875164896,-1.5456604286009803,54135.566346736756,10.5,10500054135.566347,47.655,-122.3035,60.0,12.766666666666667
2026-01-20T23:12:47+00:00,SAT-65532,279.2663825241891,33.30776951346131,3918.651336497438,-1.533847990575776,53721.8448005308,10.5,10500053721.8448,47.655,-122.3035,60.0,12.783333333333333
2026-01-20T23:12:48+00:00,SAT-65532,279.131044850656,33.31172267708213,3917.121578768171,-1.5220198835908099,53307.57446107435,10.5,10500053307.574461,47.655,-122.3035,60.0,12.8
2026-01-20T23:12:49+00:00,SAT-65532,278.9955976791574,33.31542202594885,3915.60361760427,-1.5101762076891436,52892.758832298605,10.5,10500052892.758833,47.655,-122.3035,60.0,12.816666666666666
2026-01-20T23:12:50+00:00,SAT-65532,278.86004268882164,33.31886706235696,3914.097468533134,-1.4983170637508763,52477.40144745136,10.5,10500052477.401447,47.655,-122.3035,60.0,12.833333333333334
2026-01-20T23:12:51+00:00,SAT-65532,278.7243815667192,33.322057295704155,3912.603146981553,-1.486442548055194,52061.505678636975,10.5,10500052061.505678,47.655,-122.3035,60.0,12.85
2026-01-20T23:12:52+00:00,SAT-65532,278.5886160081577,33.324992242534165,3911.1206682802926,-1.474552766558295,51645.07523688971,10.5,10500051645.075237,47.655,-122.3035,60.0,12.866666666666667
2026-01-20T23:12:53+00:00,SAT-65532,278.4527477158477,33.32767142661442,3909.6500476544456,-1.4626478169171486,51228.11354256971,10.5,10500051228.113543,47.655,-122.3035,60.0,12.883333333333333
2026-01-20T23:12:54+00:00,SAT-65532,278.3167784005295,33.33009437897171,3908.191300231707,-1.450727801370326,50810.624176504214,10.5,10500050810.624176,47.655,-122.3035,60.0,12.9
2026-01-20T23:12:55+00:00,SAT-65532,278.1807097805516,33.3322606379574,3906.7444410378066,-1.4387928275506428,50392.6109084497,10.5,10500050392.610909,47.655,-122.3035,60.0,12.916666666666666
2026-01-20T23:12:56+00:00,SAT-65532,278.0445435813168,33.3341697493077,3905.3094849911295,-1.4268429927933646,49974.077147498916,10.5,10500049974.077148,47.655,-122.3035,60.0,12.933333333333334
2026-01-20T23:12:57+00:00,SAT-65532,277.9082815361576,33.33582126618156,3903.886446912984,-1.414878402437712,49555.026583076935,10.5,10500049555.026583,47.655,-122.3035,60.0,12.95
2026-01-20T23:12:58+00:00,SAT-65532,277.7719253855531,33.3372147492258,3902.475341519619,-1.4028991636474129,49135.46296851082,10.5,10500049135.462969,47.655,-122.3035,60.0,12.966666666666667
2026-01-20T23:12:59+00:00,SAT-65532,277.63547687692846,33.338349766629015,3901.076183420408,-1.3909053828721474,48715.390032118645,10.5,10500048715.390032,47.655,-122.3035,60.0,12.983333333333333
2026-01-20T23:13:00+00:00,SAT-65532,277.4989377646209,33.33922589417005,3899.688987118557,-1.3788971603186237,48294.811283563206,10.5,10500048294.811283,47.655,-122.3035,60.0,13.0
2026-01-20T23:13:01+00:00,SAT-65532,277.3623098104425,33.3398427152658,3898.3137670173323,-1.366874604974571,47873.730540055796,10.5,10500047873.73054,47.655,-122.3035,60.0,13.016666666666667
2026-01-20T23:13:02+00:00,SAT-65532,277.225594782772,33.340199821029046,3896.9505374113046,-1.3548378310171507,47452.15180056358,10.5,10500047452.1518,47.655,-122.3035,60.0,13.033333333333333
2026-01-20T23:13:03+00:00,SAT-65532,277.0887944560207,33.340296810318186,3895.5993124811703,-1.3427869359737363,47030.078480907716,10.5,10500047030.078482,47.655,-122.3035,60.0,13.05
2026-01-20T23:13:04+00:00,SAT-65532,276.95191061213086,33.34013328978019,3894.2601063103593,-1.3307220352661193,46607.51462364758,10.5,10500046607.514624,47.655,-122.3035,60.0,13.066666666666666
2026-01-20T23:13:05+00:00,SAT-65532,276.8149450388263,33.339708873906645,3892.932932867187,-1.31864323460452,46184.463931202234,10.5,10500046184.463932,47.655,-122.3035,60.0,13.083333333333334
2026-01-20T23:13:06+00:00,SAT-65532,276.6778995304641,33.33902318507776,3891.6178060145417,-1.306550644910952,45760.930288529795,10.5,10500045760.930288,47.655,-122.3035,60.0,13.1
2026-01-20T23:13:07+00:00,SAT-65532,276.54077588748123,33.33807585361211,3890.314739504683,-1.2944443765509288,45336.91756109739,10.5,10500045336.91756,47.655,-122.3035,60.0,13.116666666666667
2026-01-20T23:13:08+00:00,SAT-65532,276.40357591636325,33.33686651781217,3889.0237469798035,-1.2823245405740267,44912.429638330934,10.5,10500044912.429638,47.655,-122.3035,60.0,13.133333333333333
2026-01-20T23:13:09+00:00,SAT-65532,276.2663014295372,33.33539482401085,3887.7448419713373,-1.2701912484623181,44487.470424804145,10.5,10500044487.470425,47.655,-122.3035,60.0,13.15
2026-01-20T23:13:10+00:00,SAT-65532,276.1289542452175,33.33366042661559,3886.478037899538,-1.2580446146953548,44062.043930075204,10.5,10500044062.04393,47.655,-122.3035,60.0,13.166666666666666
2026-01-20T23:13:11+00:00,SAT-65532,275.99153618708476,33.33166298815204,3885.2233480704817,-1.2458847465928888,43636.15391293578,10.5,10500043636.153913,47.655,-122.3035,60.0,13.183333333333334
2026-01-20T23:13:12+00:00,SAT-65532,275.85404908489926,33.329402179314904,3883.9807856832126,-1.233711760856918,43209.80446078345,10.5,10500043209.80446,47.655,-122.3035,60.0,13.2
2026-01-20T23:13:13+00:00,SAT-65532,275.7164947735049,33.32687767900285,3882.7503638203852,-1.221525773567886,42782.99963924643,10.5,10500042782.99964,47.655,-122.3035,60.0,13.216666666666667
2026-01-20T23:13:14+00:00,SAT-65532,275.5788750928016,33.32408917435889,3881.5320954488798,-1.2093268972248128,42355.74338851624,10.5,10500042355.74339,47.655,-122.3035,60.0,13.233333333333333
2026-01-20T23:13:15+00:00,SAT-65532,275.44119188805735,33.32103636081939,3880.325993423381,-1.1971152468861128,41928.03973842525,10.5,10500041928.039738,47.655,-122.3035,60.0,13.25
2026-01-20T23:13:16+00:00,SAT-65532,275.3034470095355,33.31771894215043,3879.13207048382,-1.184890933330482,41499.892568912,10.5,10500041499.892569,47.655,-122.3035,60.0,13.266666666666667
2026-01-20T23:13:17+00:00,SAT-65532,275.1656423129356,33.31413663050282,3877.950339259645,-1.1726540860441859,41071.3064151332,10.5,10500041071.306416,47.655,-122.3035,60.0,13.283333333333333
2026-01-20T23:13:18+00:00,SAT-65532,275.0277796572495,33.310289146401466,3876.7808122511638,-1.1604048098043525,40642.284946827116,10.5,10500040642.284946,47.655,-122.3035,60.0,13.3
2026-01-20T23:13:19+00:00,SAT-65532,274.88986090740104,33.30617621885098,3875.6235018541856,-1.1481432260907536,40212.8324187292,10.5,10500040212.832418,47.655,-122.3035,60.0,13.316666666666666
2026-01-20T23:13:20+00:00,SAT-65532,274.75188793232064,33.301797585329375,3874.478420343364,-1.1358694500522666,39782.95286384022,10.5,10500039782.952864,47.655,-122.3035,60.0,13.333333333333334
2026-01-20T23:13:21+00:00,SAT-65532,274.613862605599,33.29715299184691,3873.345579878512,-1.1235836080897545,39352.650709253074,10.5,10500039352.65071,47.655,-122.3035,60.0,13.35
2026-01-20T23:13:22+00:00,SAT-65532,274.47578680411937,33.292242192941366,3872.2249924933776,-1.1112858134838794,38921.92992253572,10.5,10500038921.929922,47.655,-122.3035,60.0,13.366666666666667
2026-01-20T23:13:23+00:00,SAT-65532,274.3376624094723,33.28706495176224,3871.1166701087295,-1.0989761859417417,38490.79469633719,10.5,10500038490.794697,47.655,-122.3035,60.0,13.383333333333333
2026-01-20T23:13:24+00:00,SAT-65532,274.1994913071358,33.28162104008431,3870.02062452595,-1.086654847637849,38059.249309725514,10.5,10500038059.24931,47.655,-122.3035,60.0,13.4
2026-01-20T23:13:25+00:00,SAT-65532,274.06127538613356,33.27591023833167,3868.936867424573,-1.074321916576258,37627.29789570193,10.5,10500037627.297895,47.655,-122.3035,60.0,13.416666666666666
2026-01-20T23:13:26+00:00,SAT-65532,273.92301653942144,33.269932335631694,3867.8654103664408,-1.0619775160124594,37194.944771195085,10.5,10500037194.94477,47.655,-122.3035,60.0,13.433333333333334
2026-01-20T23:13:27+00:00,SAT-65532,273.78471666321406,33.2636871298244,3866.806264790471,-1.0496217704984128,36762.19429854147,10.5,10500036762.194298,47.655,-122.3035,60.0,13.45
2026-01-20T23:13:28+00:00,SAT-65532,273.64637765670665,33.25717442748469,3865.7594420113605,-1.0372547978963818,36329.05060577611,10.5,10500036329.050606,47.655,-122.3035,60.0,13.466666666666667
2026-01-20T23:13:29+00:00,SAT-65532,273.5080014228348,33.25039404399259,3864.7249532262585,-1.024876723812881,35895.51809217045,10.5,10500035895.518093,47.655,-122.3035,60.0,13.483333333333333
2026-01-20T23:13:30+00:00,SAT-65532,273.3695898672295,33.24334580352093,3863.7028095070427,-1.0124876691076545,35461.60099074398,10.5,10500035461.60099,47.655,-122.3035,60.0,13.5
2026-01-20T23:13:31+00:00,SAT-65532,273.23114489874126,33.23602953909559,3862.693021805052,-1.000087759443122,35027.303702726174,10.5,10500035027.303703,47.655,-122.3035,60.0,13.516666666666667
2026-01-20T23:13:32+00:00,SAT-65532,273.09266842873546,33.22844509259377,3861.695600946301,-0.9876771220582011,34592.63068456216,10.5,10500034592.630684,47.655,-122.3035,60.0,13.533333333333333
2026-01-20T23:13:33+00:00,SAT-65532,272.9541623708475,33.22059231476343,3860.710557629902,-0.9752558765425934,34157.58612478914,10.5,10500034157.586124,47.655,-122.3035,60.0,13.55
2026-01-20T23:13:34+00:00,SAT-65532,272.81562864180523,33.212471065299574,3859.7379024356965,-0.962824152783042,33722.17457259029,10.5,10500033722.174572,47.655,-122.3035,60.0,13.566666666666666
2026-01-20T23:13:35+00:00,SAT-65532,272.6770691600918,33.20408121280333,3858.7776458139874,-0.9503820733453836,33286.400320739645,10.5,10500033286.40032,47.655,-122.3035,60.0,13.583333333333334
2026-01-20T23:13:36+00:00,SAT-65532,272.5384858467676,33.195422634860364,3857.829798092838,-0.9379297680924743,32850.26791758377,10.5,10500032850.267918,47.655,-122.3035,60.0,13.6
2026-01-20T23:13:37+00:00,SAT-65532,272.3998806244594,33.18649521801064,3856.8943694707937,-0.9254673622267954,32413.781748243153,10.5,10500032413.781748,47.655,-122.3035,60.0,13.616666666666667
2026-01-20T23:13:38+00:00,SAT-65532,272.2612554178512,33.17729885780781,3855.971370021533,-0.9129949824465188,31976.946250223704,10.5,10500031976.94625,47.655,-122.3035,60.0,13.633333333333333
2026-01-20T23:13:39+00:00,SAT-65532,272.12261215344023,33.16783345883459,3855.0608096923725,-0.9005127567005449,31539.765904837142,10.5,10500031539.765905,47.655,-122.3035,60.0,13.65
2026-01-20T23:13:40+00:00,SAT-65532,271.98395275927345,33.15809893471439,3854.1626983030233,-0.8880208157040145,31102.245290280625,10.5,10500031102.24529,47.655,-122.3035,60.0,13.666666666666666
2026-01-20T23:13:41+00:00,SAT-65532,271.8452791644522,33.148095208104955,3853.2770455428276,-0.8755192852128602,30664.388811058852,10.5,10500030664.388811,47.655,-122.3035,60.0,13.683333333333334
2026-01-20T23:13:42+00:00,SAT-65532,271.70659329977696,33.13782221077021,3852.403860975709,-0.8630082983562666,30226.201129919016,10.5,10500030226.20113,47.655,-122.3035,60.0,13.7
2026-01-20T23:13:43+00:00,SAT-65532,271.56789709657625,33.1272798835232,3851.543154032815,-0.8504879788328925,29787.686579311383,10.5,10500029787.686579,47.655,-122.3035,60.0,13.716666666666667
2026-01-20T23:13:44+00:00,SAT-65532,271.42919248801684,33.11646817634935,3850.6949340219257,-0.8379584651844633,29348.85001155321,10.5,10500029348.850012,47.655,-122.3035,60.0,13.733333333333333
2026-01-20T23:13:45+00:00,SAT-65532,271.29048140683255,33.10538704825991,3849.8592101126487,-0.8254198819578564,28909.695788802972,10.5,10500028909.69579,47.655,-122.3035,60.0,13.75
2026-01-20T23:13:46+00:00,SAT-65532,271.15176578728244,33.09403646746515,3849.0359913503758,-0.8128723596232508,28470.228480678234,10.5,10500028470.228481,47.655,-122.3035,60.0,13.766666666666667
2026-01-20T23:13:47+00:00,SAT-65532,271.01304756422115,33.08241641132966,3848.225286650378,-0.8003160334072541,28030.452823386797,10.5,10500028030.452824,47.655,-122.3035,60.0,13.783333333333333
2026-01-20T23:13:48+00:00,SAT-65532,270.8743286722912,33.07052686632823,3847.42710479306,-0.7877510351131057,27590.373433235636,10.5,10500027590.373434,47.655,-122.3035,60.0,13.8
2026-01-20T23:13:49+00:00,SAT-65532,270.73561104630693,33.058367828097545,3846.641454427374,-0.7751774936797188,27149.994826210896,10.5,10500027149.994825,47.655,-122.3035,60.0,13.816666666666666
2026-01-20T23:13:50+00:00,SAT-65532,270.59689662167807,33.04593930149553,3845.8683440736772,-0.7625955452916947,26709.32177207338,10.5,10500026709.321772,47.655,-122.3035,60.0,13.833333333333334
2026-01-20T23:13:51+00:00,SAT-65532,270.4581873331276,33.03324130051221,3845.1077821165063,-0.7500053205447433,26268.358844837265,10.5,10500026268.358845,47.655,-122.3035,60.0,13.85
2026-01-20T23:13:52+00:00,SAT-65532,270.31948511556004,33.020273848365704,3844.3597768101495,-0.7374069549394022,25827.11079030455,10.5,10500025827.11079,47.655,-122.3035,60.0,13.866666666666667
2026-01-20T23:13:53+00:00,SAT-65532,270.1807919031086,33.007036977436194,3843.624336273757,-0.7248005825481125,25385.582304259242,10.5,10500025385.582304,47.655,-122.3035,60.0,13.883333333333333
2026-01-20T23:13:54+00:00,SAT-65532,270.04210962933996,32.99353072930156,3842.901468492762,-0.7121863376313561,24943.778089071333,10.5,10500024943.77809,47.655,-122.3035,60.0,13.9
2026-01-20T23:13:55+00:00,SAT-65532,269.90344022708325,32.97975515473964,3842.191181318698,-0.6995643518571855,24501.702756312992,10.5,10500024501.702757,47.655,-122.3035,60.0,13.916666666666666
2026-01-20T23:13:56+00:00,SAT-65532,269.76478562884665,32.9657103137885,3841.493482471779,-0.6869347635538742,24059.361150825476,10.5,10500024059.36115,47.655,-122.3035,60.0,13.933333333333334
2026-01-20T23:13:57+00:00,SAT-65532,269.62614776554204,32.95139627563719,3840.8083795342613,-0.6742977095021657,23616.75806324901,10.5,10500023616.758062,47.655,-122.3035,60.0,13.95
2026-01-20T23:13:58+00:00,SAT-65532,269.48752856668756,32.93681311865748,3840.135879951984,-0.6616533224053568,23173.89814141437,10.5,10500023173.898142,47.655,-122.3035,60.0,13.966666666666667
2026-01-20T23:13:59+00:00,SAT-65532,269.3489299610067,32.92196093048325,3839.4759910384387,-0.649001740438746,22730.786224805008,10.5,10500022730.786224,47.655,-122.3035,60.0,13.983333333333333
2026-01-20T23:14:00+00:00,SAT-65532,269.21035387541735,32.90683980791866,3838.828719969308,-0.6363430983446081,22287.42703266533,10.5,10500022287.427032,47.655,-122.3035,60.0,14.0
2026-01-20T23:14:01+00:00,SAT-65532,269.07180223551984,32.89144985700506,3838.194073785892,-0.6236775343881966,21843.82540762938,10.5,10500021843.825407,47.655,-122.3035,60.0,14.016666666666667
2026-01-20T23:14:02+00:00,SAT-65532,268.9332769649168,32.87579119295941,3837.5720593915958,-0.6110051863016426,21399.986173659003,10.5,10500021399.986174,47.655,-122.3035,60.0,14.033333333333333
2026-01-20T23:14:03+00:00,SAT-65532,268.7947799851563,32.85986394017817,3836.9626835524573,-0.5983261935445163,20955.914215218254,10.5,10500020955.914215,47.655,-122.3035,60.0,14.05
2026-01-20T23:14:04+00:00,SAT-65532,268.65631321537353,32.84366823220823,3836.365952895429,-0.5856406871089385,20511.614120205297,10.5,10500020511.61412,47.655,-122.3035,60.0,14.066666666666666
2026-01-20T23:14:05+00:00,SAT-65532,268.5178785737996,32.827204211931665,3835.781873916819,-0.5729488134313202,20067.091017442683,10.5,10500020067.091017,47.655,-122.3035,60.0,14.083333333333334
2026-01-20T23:14:06+00:00,SAT-65532,268.37947797471196,32.81047203122168,3835.2104529668904,-0.5602507058492164,19622.34957697559,10.5,10500019622.349577,47.655,-122.3035,60.0,14.1
2026-01-20T23:14:07+00:00,SAT-65532,268.2411133308666,32.793471851235594,3834.6516962629235,-0.5475465065945362,19177.394780367118,10.5,10500019177.394781,47.655,-122.3035,60.0,14.116666666666667
2026-01-20T23:14:08+00:00,SAT-65532,268.1027865516806,32.776203842205504,3834.1056098803465,-0.5348363522218652,18732.231410336495,10.5,10500018732.231411,47.655,-122.3035,60.0,14.133333333333333
2026-01-20T23:14:09+00:00,SAT-65532,267.96449954428454,32.758668183575196,3833.572199758397,-0.5221203828585746,18286.864374736986,10.5,10500018286.864374,47.655,-122.3035,60.0,14.15
2026-01-20T23:14:10+00:00,SAT-65532,267.8262542127353,32.740865063909325,3833.0514716965595,-0.5093987397328398,17841.298619976682,10.5,10500017841.29862,47.655,-122.3035,60.0,14.166666666666666
2026-01-20T23:14:11+00:00,SAT-65532,267.6880524576287,32.72279468084925,3832.543431353466,-0.49667156155308156,17395.539004211227,10.5,10500017395.539003,47.655,-122.3035,60.0,14.183333333333334
2026-01-20T23:14:12+00:00,SAT-65532,267.54989617663614,32.704457241186006,3832.0480842494103,-0.4839389894173709,16949.590469291907,10.5,10500016949.59047,47.655,-122.3035,60.0,14.2
2026-01-20T23:14:13+00:00,SAT-65532,267.41178726378894,32.685852960770966,3831.565435763965,-0.4712011628421986,16503.457901676382,10.5,10500016503.457901,47.655,-122.3035,60.0,14.216666666666667
2026-01-20T23:14:14+00:00,SAT-65532,267.27372760990556,32.66698206457828,3831.0954911375566,-0.45845822385872687,16057.146275896746,10.5,10500016057.146276,47.655,-122.3035,60.0,14.233333333333333
2026-01-20T23:14:15+00:00,SAT-65532,267.135719101763,32.647844786593886,3830.6382554689617,-0.4457103137251155,15610.660539411278,10.5,10500015610.66054,47.655,-122.3035,60.0,14.25
2026-01-20T23:14:16+00:00,SAT-65532,266.9977636223103,32.62844136984516,3830.193733716073,-0.4329575725585713,15164.005599717251,10.5,10500015164.0056,47.655,-122.3035,60.0,14.266666666666667
2026-01-20T23:14:17+00:00,SAT-65532,266.8598630508352,32.60877206642852,3829.7619306970414,-0.420200143727891,14717.186478196378,10.5,10500014717.186478,47.655,-122.3035,60.0,14.283333333333333
2026-01-20T23:14:18+00:00,SAT-65532,266.72201926207106,32.58883713737994,3829.34285108703,-0.40743816804044336,14270.208106518328,10.5,10500014270.208107,47.655,-122.3035,60.0,14.3
2026-01-20T23:14:19+00:00,SAT-65532,266.58423412669515,32.568636852746266,3828.936499420771,-0.39467178706440253,13823.075442999392,10.5,10500013823.075443,47.655,-122.3035,60.0,14.316666666666666
2026-01-20T23:14:20+00:00,SAT-65532,266.44650951121304,32.548171491568894,3828.5428800918053,-0.3819011442051569,13375.793510302878,10.5,10500013375.79351,47.655,-122.3035,60.0,14.333333333333334
2026-01-20T23:14:21+00:00,SAT-65532,266.308847277251,32.52744134177654,3828.1619973506517,-0.3691263819909077,12928.36730036928,10.5,10500012928.3673,47.655,-122.3035,60.0,14.35
2026-01-20T23:14:22+00:00,SAT-65532,266.1712492817571,32.50644670021063,3827.7938553056792,-0.35634764254175555,12480.801790845697,10.5,10500012480.80179,47.655,-122.3035,60.0,14.366666666666667
2026-01-20T23:14:23+00:00,SAT-65532,266.03371737708227,32.485187872635215,3827.4384579235175,-0.34356506873047477,12033.101985741032,10.5,10500012033.101986,47.655,-122.3035,60.0,14.383333333333333
2026-01-20T23:14:24+00:00,SAT-65532,265.89625341062737,32.46366517367709,3827.095809028304,-0.3307788044061295,11585.272923257995,10.5,10500011585.272923,47.655,-122.3035,60.0,14.4
2026-01-20T23:14:25+00:00,SAT-65532,265.75885922447674,32.441878926764666,3826.7659123007097,-0.317988993937693,11137.319659808707,10.5,10500011137.31966,47.655,-122.3035,60.0,14.416666666666666
2026-01-20T23:14:26+00:00,SAT-65532,265.6215366551746,32.41982946408146,3826.448771277422,-0.30519577678016135,10689.24707969703,10.5,10500010689.24708,47.655,-122.3035,60.0,14.433333333333334
2026-01-20T23:14:27+00:00,SAT-65532,265.48428753521426,32.3975171268027,3826.1443893560468,-0.29239930132455916,10241.060380204332,10.5,10500010241.06038,47.655,-122.3035,60.0,14.45
2026-01-20T23:14:28+00:00,SAT-65532,265.3471136900772,32.37494226460659,3825.8527697861928,-0.27959970850276916,9792.764497361291,10.5,10500009792.764498,47.655,-122.3035,60.0,14.466666666666667
2026-01-20T23:14:29+00:00,SAT-65532,265.2100169406025,32.35210523605218,3825.5739156769123,-0.2667971441377813,9344.364538505848,10.5,10500009344.364538,47.655,-122.3035,60.0,14.483333333333333
2026-01-20T23:14:30+00:00,SAT-65532,265.072999101232,32.329006408277486,3825.3078299918257,-0.25399175060482254,8895.865490220694,10.5,10500008895.86549,47.655,-122.3035,60.0,14.5
2026-01-20T23:14:31+00:00,SAT-65532,264.93606198117936,32.30564615718736,3825.0545155525556,-0.2411836734905607,8447.272451566767,10.5,10500008447.272451,47.655,-122.3035,60.0,14.516666666666667
2026-01-20T23:14:32+00:00,SAT-65532,264.79920738322335,32.28202486723701,3824.8139750355276,-0.2283730565835819,7998.5904586285815,10.5,10500007998.590458,47.655,-122.3035,60.0,14.533333333333333
2026-01-20T23:14:33+00:00,SAT-65532,264.6624371042178,32.258142931507486,3824.586210973762,-0.21556004584257069,7549.824623496673,10.5,10500007549.824623,47.655,-122.3035,60.0,14.55
2026-01-20T23:14:34+00:00,SAT-65532,264.5257529342251,32.2340007515385,3824.371225754708,-0.20274478376371044,7100.979936990142,10.5,10500007100.979937,47.655,-122.3035,60.0,14.566666666666666
2026-01-20T23:14:35+00:00,SAT-65532,264.3891566577864,32.209598737540404,3824.169021623701,-0.18992741675088623,6652.0615267923295,10.5,10500006652.061527,47.655,-122.3035,60.0,14.583333333333334
2026-01-20T23:14:36+00:00,SAT-65532,264.252650052405,32.18493730811179,3823.9796006800616,-0.17710808888541887,6203.074439240557,10.5,10500006203.07444,47.655,-122.3035,60.0,14.6
2026-01-20T23:14:37+00:00,SAT-65532,264.11623488916075,32.160016890330986,3823.802964879413,-0.16428694662455648,5754.023803887166,10.5,10500005754.023804,47.655,-122.3035,60.0,14.616666666666667
2026-01-20T23:14:38+00:00,SAT-65532,263.97991293185305,32.13483791958375,3823.639116031313,-0.15146413288681307,5304.914626343059,10.5,10500005304.914627,47.655,-122.3035,60.0,14.633333333333333
2026-01-20T23:14:39+00:00,SAT-65532,263.8436859383861,32.10940083980102,3823.4880558027808,-0.1386397947215128,4855.75205689759,10.5,10500004855.752056,47.655,-122.3035,60.0,14.65
2026-01-20T23:14:40+00:00,SAT-65532,263.70755565880927,32.08370610307843,3823.3497857141783,-0.1258140765016946,4406.541152105278,10.5,10500004406.541153,47.655,-122.3035,60.0,14.666666666666666
2026-01-20T23:14:41+00:00,SAT-65532,263.5715238365028,32.057754169877136,3823.2243071418807,-0.11298712397208255,3957.2870165628606,10.5,10500003957.287016,47.655,-122.3035,60.0,14.683333333333334
2026-01-20T23:14:42+00:00,SAT-65532,263.4355922075257,32.03154550888167,3823.1116213169057,-0.10015908236460694,3507.994736906867,10.5,10500003507.994738,47.655,-122.3035,60.0,14.7
2026-01-20T23:14:43+00:00,SAT-65532,263.2997625005937,32.00508059697499,3823.0117293254275,-0.08733009730506845,3058.669413568832,10.5,10500003058.669415,47.655,-122.3035,60.0,14.716666666666667
2026-01-20T23:14:44+00:00,SAT-65532,263.1640364369869,31.978359919197157,3822.924632108382,-0.07450031435472382,2609.3161447196912,10.5,10500002609.316145,47.655,-122.3035,60.0,14.733333333333333
2026-01-20T23:14:45+00:00,SAT-65532,263.02841573030923,31.95138396867775,3822.8503304615324,-0.061669878914232285,2159.940022905576,10.5,10500002159.940023,47.655,-122.3035,60.0,14.75
2026-01-20T23:14:46+00:00,SAT-65532,262.892902086723,31.924153246657042,3822.788825035628,-0.04883893636290794,1710.546139925019,10.5,10500001710.54614,47.655,-122.3035,60.0,14.766666666666667
2026-01-20T23:14:47+00:00,SAT-65532,262.75749720471396,31.896668262417325,3822.740116336429,-0.03600763322610041,1261.1396277155657,10.5,10500001261.139627,47.655,-122.3035,60.0,14.783333333333333
2026-01-20T23:14:48+00:00,SAT-65532,262.62220277434744,31.868929533107448,3822.704204723558,-0.023176114673228998,811.7255707243459,10.5,10500000811.72557,47.655,-122.3035,60.0,14.8
2026-01-20T23:14:49+00:00,SAT-65532,262.4870204778026,31.840937583820036,3822.6810904118574,-0.01034452591335412,362.3090547868895,10.5,10500000362.309055,47.655,-122.3035,60.0,14.816666666666666
2026-01-20T23:14:50+00:00,SAT-65532,262.35195198992596,31.812692947685797,3822.6707734713464,0.0024869868935845974,-87.10480095746195,10.5,10499999912.895199,47.655,-122.3035,60.0,14.833333333333334
2026-01-20T23:14:51+00:00,SAT-65532,262.2169989767066,31.784196165529046,3822.673253826275,0.015318277856495793,-536.5108867855702,10.5,10499999463.489113,47.655,-122.3035,60.0,14.85
2026-01-20T23:14:52+00:00,SAT-65532,262.08216309562937,31.755447785907133,3822.6885312553904,0.02814920169313538,-985.9041142987043,10.5,10499999014.095886,47.655,-122.3035,60.0,14.866666666666667
2026-01-20T23:14:53+00:00,SAT-65532,261.94744599619924,31.726448365196987,3822.7166053925457,0.040979612686731386,-1435.279379879128,10.5,10499998564.72062,47.655,-122.3035,60.0,14.883333333333333
2026-01-20T23:14:54+00:00,SAT-65532,261.8128493195399,31.69719846747863,3822.7574757262655,0.05380936507680493,-1884.6315783783052,10.5,10499998115.368422,47.655,-122.3035,60.0,14.9
2026-01-20T23:14:55+00:00,SAT-65532,261.6783746978431,31.667698664386638,3822.8111415997023,0.0666383131409936,-2333.955605982699,10.5,10499997666.044394,47.655,-122.3035,60.0,14.916666666666666
2026-01-20T23:14:56+00:00,SAT-65532,261.54402375461973,31.637949535129696,3822.877602210675,0.07946631167786027,-2783.246377123779,10.5,10499997216.753622,47.655,-122.3035,60.0,14.933333333333334
2026-01-20T23:14:57+00:00,SAT-65532,261.40979810479956,31.607951666481057,3822.9568566121884,0.09229321475260667,-3232.4987805476085,10.5,10499996767.501219,47.655,-122.3035,60.0,14.95
2026-01-20T23:14:58+00:00,SAT-65532,261.27569935443717,31.577705652683964,3823.0489037117013,0.10511887723850397,-3681.7077333022557,10.5,10499996318.292267,47.655,-122.3035,60.0,14.966666666666667
2026-01-20T23:14:59+00:00,SAT-65532,261.14172910039616,31.547212095340694,3823.153742271934,0.11794315346401177,-4130.868133354187,10.5,10499995869.131866,47.655,-122.3035,60.0,14.983333333333333
