satellites_20260121_005943/SAT-47563.csv

timestamp,satellite,azimuth_deg,elevation_deg,distance_km,relative_velocity_kms,doppler_shift_hz,tx_freq_ghz,rx_freq_hz,ue_lat,ue_lon,ue_alt_m,time_minutes
2026-01-20T23:10:50+00:00,SAT-47563,209.84578603105797,30.110263187746106,1679.1661049019206,-6.303691057963516,220781.9254366196,10.5,10500220781.925436,47.655,-122.3035,60.0,10.833333333333334
2026-01-20T23:10:51+00:00,SAT-47563,209.81931891489032,30.234559459594077,1672.8792236867782,-6.299155871955549,220623.08403880286,10.5,10500220623.08404,47.655,-122.3035,60.0,10.85
2026-01-20T23:10:52+00:00,SAT-47563,209.7927822406815,30.35959729006051,1666.5968655638146,-6.2945621243744805,220462.1915669808,10.5,10500220462.191566,47.655,-122.3035,60.0,10.866666666666667
2026-01-20T23:10:53+00:00,SAT-47563,209.7661749681828,30.485384548799587,1660.3190889384384,-6.289909022871895,220299.2202697604,10.5,10500220299.22027,47.655,-122.3035,60.0,10.883333333333333
2026-01-20T23:10:54+00:00,SAT-47563,209.73949603610265,30.6119292079593,1654.045953006294,-6.285195717272607,220134.14037041043,10.5,10500220134.140371,47.655,-122.3035,60.0,10.9
2026-01-20T23:10:55+00:00,SAT-47563,209.7127443617131,30.739239342755766,1647.7775178109341,-6.280421375992619,219966.92274334165,10.5,10500219966.922743,47.655,-122.3035,60.0,10.916666666666666
2026-01-20T23:10:56+00:00,SAT-47563,209.6859188402012,30.867323133599587,1641.5138442252776,-6.275585120084644,219797.53660410215,10.5,10500219797.536604,47.655,-122.3035,60.0,10.933333333333334
2026-01-20T23:10:57+00:00,SAT-47563,209.659018344199,30.99618886691464,1635.2549939988464,-6.270686067257312,219625.95105111608,10.5,10500219625.951052,47.655,-122.3035,60.0,10.95
2026-01-20T23:10:58+00:00,SAT-47563,209.63204172317816,31.125844936868273,1629.0010297611018,-6.265723357534927,219452.13596439685,10.5,10500219452.135965,47.655,-122.3035,60.0,10.966666666666667
2026-01-20T23:10:59+00:00,SAT-47563,209.60498780269043,31.256299847671777,1622.7520149991872,-6.260696045680052,219276.05823773105,10.5,10500219276.058237,47.655,-122.3035,60.0,10.983333333333333
2026-01-20T23:11:00+00:00,SAT-47563,209.57785538401794,31.3875622136754,1616.508014142962,-6.255603230055419,219097.6862919677,10.5,10500219097.686293,47.655,-122.3035,60.0,11.0
2026-01-20T23:11:01+00:00,SAT-47563,209.55064324330166,31.5196407621591,1610.2690925215202,-6.250443955919627,218916.9866880243,10.5,10500218916.986689,47.655,-122.3035,60.0,11.016666666666667
2026-01-20T23:11:02+00:00,SAT-47563,209.52335013102189,31.652544334136092,1604.0353164161497,-6.245217299541065,218733.92707291248,10.5,10500218733.927073,47.655,-122.3035,60.0,11.033333333333333
2026-01-20T23:11:03+00:00,SAT-47563,209.49597477113699,31.786281886959106,1597.8067530294074,-6.239922252173626,218548.47211607662,10.5,10500218548.472116,47.655,-122.3035,60.0,11.05
2026-01-20T23:11:04+00:00,SAT-47563,209.46851586063832,31.92086249448144,1591.5834705699062,-6.234557851846228,218360.58812522024,10.5,10500218360.588125,47.655,-122.3035,60.0,11.066666666666666
2026-01-20T23:11:05+00:00,SAT-47563,209.44097206857123,32.05629535005932,1585.3655382056647,-6.229123060816031,218170.2387541995,10.5,10500218170.238754,47.655,-122.3035,60.0,11.083333333333334
2026-01-20T23:11:06+00:00,SAT-47563,209.4133420355213,32.19258976694316,1579.1530261396776,-6.223616898631813,217977.38966346523,10.5,10500217977.389664,47.655,-122.3035,60.0,11.1
2026-01-20T23:11:07+00:00,SAT-47563,209.38562437253853,32.329755181588496,1572.9460055527757,-6.218038298216286,217782.00347945714,10.5,10500217782.003479,47.655,-122.3035,60.0,11.116666666666667
2026-01-20T23:11:08+00:00,SAT-47563,209.35781766061172,32.46780115385603,1566.7445486900212,-6.212386204903152,217584.04326330012,10.5,10500217584.043262,47.655,-122.3035,60.0,11.133333333333333
2026-01-20T23:11:09+00:00,SAT-47563,209.32992044971013,32.60673736939529,1560.5487288483312,-6.206659541877633,217383.4713003859,10.5,10500217383.4713,47.655,-122.3035,60.0,11.15
2026-01-20T23:11:10+00:00,SAT-47563,209.30193125795103,32.746573641304394,1554.358620398565,-6.2008572070026515,217180.24898921186,10.5,10500217180.24899,47.655,-122.3035,60.0,11.166666666666666
2026-01-20T23:11:11+00:00,SAT-47563,209.2738485707349,32.88731991174189,1548.1742988107812,-6.194978101030103,216974.33782945963,10.5,10500216974.33783,47.655,-122.3035,60.0,11.183333333333334
2026-01-20T23:11:12+00:00,SAT-47563,209.24567083975558,33.02898625420461,1541.9958406513538,-6.189021072925561,216765.69750703467,10.5,10500216765.697508,47.655,-122.3035,60.0,11.2
2026-01-20T23:11:13+00:00,SAT-47563,209.21739648216337,33.17158287459402,1535.8233236346227,-6.182984967595194,216554.28756566494,10.5,10500216554.287565,47.655,-122.3035,60.0,11.216666666666667
2026-01-20T23:11:14+00:00,SAT-47563,209.18902387954842,33.315120113385305,1529.656826626941,-6.176868614976062,216340.06702479703,10.5,10500216340.067024,47.655,-122.3035,60.0,11.233333333333333
2026-01-20T23:11:15+00:00,SAT-47563,209.16055137688838,33.459608447587904,1523.4964296616051,-6.1706708301291275,216122.99438285347,10.5,10500216122.994383,47.655,-122.3035,60.0,11.25
2026-01-20T23:11:16+00:00,SAT-47563,209.13197728150374,33.605058492739175,1517.3422139536897,-6.164390369049542,215903.02606952237,10.5,10500215903.02607,47.655,-122.3035,60.0,11.266666666666667
2026-01-20T23:11:17+00:00,SAT-47563,209.10329986210155,33.75148100387743,1511.1942619589574,-6.158026025627866,215680.11984174929,10.5,10500215680.119843,47.655,-122.3035,60.0,11.283333333333333
2026-01-20T23:11:18+00:00,SAT-47563,209.07451734744856,33.89888687883503,1505.0526573360646,-6.151576512495905,215454.23061045448,10.5,10500215454.23061,47.655,-122.3035,60.0,11.3
2026-01-20T23:11:19+00:00,SAT-47563,209.04562792543,34.04728715873175,1498.9174850276022,-6.145040574251728,215225.3144061521,10.5,10500215225.314405,47.655,-122.3035,60.0,11.316666666666666
2026-01-20T23:11:20+00:00,SAT-47563,209.0166297416475,34.19669303120065,1492.788831228215,-6.138416867834646,214993.3241891755,10.5,10500214993.324188,47.655,-122.3035,60.0,11.333333333333334
2026-01-20T23:11:21+00:00,SAT-47563,208.98752089843097,34.34711583075172,1486.6667834720279,-6.131704097180061,214758.21456586025,10.5,10500214758.214565,47.655,-122.3035,60.0,11.35
2026-01-20T23:11:22+00:00,SAT-47563,208.95829945328674,34.49856704243331,1480.5514305857737,-6.124900894090733,214519.93761615144,10.5,10500214519.937616,47.655,-122.3035,60.0,11.366666666666667
2026-01-20T23:11:23+00:00,SAT-47563,208.92896341774426,34.65105830261949,1474.4428627607338,-6.118005893694446,214278.44553645072,10.5,10500214278.445536,47.655,-122.3035,60.0,11.383333333333333
2026-01-20T23:11:24+00:00,SAT-47563,208.89951075589136,34.804601401671356,1468.3411715494226,-6.111017699967654,214033.68943210828,10.5,10500214033.689432,47.655,-122.3035,60.0,11.4
2026-01-20T23:11:25+00:00,SAT-47563,208.86993938294935,34.959208285778004,1462.246449896655,-6.103934857139735,213785.6183158791,10.5,10500213785.618317,47.655,-122.3035,60.0,11.416666666666666
2026-01-20T23:11:26+00:00,SAT-47563,208.84024716396127,35.114891058085306,1456.158792199134,-6.096755945451754,213534.18246179968,10.5,10500213534.182463,47.655,-122.3035,60.0,11.433333333333334
2026-01-20T23:11:27+00:00,SAT-47563,208.8104319119915,35.271661982280555,1450.0782942695369,-6.0894794780005626,213279.32979223217,10.5,10500213279.329792,47.655,-122.3035,60.0,11.45
2026-01-20T23:11:28+00:00,SAT-47563,208.7804913867073,35.42953348358867,1444.0050534034776,-6.082103957480768,213021.00786520806,10.5,10500213021.007866,47.655,-122.3035,60.0,11.466666666666667
2026-01-20T23:11:29+00:00,SAT-47563,208.75042329267757,35.588518151237146,1437.9391683898837,-6.074627817205065,212759.16180871098,10.5,10500212759.161808,47.655,-122.3035,60.0,11.483333333333333
2026-01-20T23:11:30+00:00,SAT-47563,208.72022527782252,35.74862873939327,1431.880739580191,-6.067049579370241,212493.73986382113,10.5,10500212493.739864,47.655,-122.3035,60.0,11.5
2026-01-20T23:11:31+00:00,SAT-47563,208.68989493117553,35.90987817231242,1425.8298687996992,-6.0593675853390705,212224.68393804703,10.5,10500212224.683939,47.655,-122.3035,60.0,11.516666666666667
2026-01-20T23:11:32+00:00,SAT-47563,208.6594297816612,36.07227954237722,1419.7866595279208,-6.051580254107706,211951.9386579462,10.5,10500211951.938658,47.655,-122.3035,60.0,11.533333333333333
2026-01-20T23:11:33+00:00,SAT-47563,208.62882729576236,36.23584611499479,1413.7512168211576,-6.043685932801633,211675.4461328615,10.5,10500211675.446133,47.655,-122.3035,60.0,11.55
2026-01-20T23:11:34+00:00,SAT-47563,208.59808487570353,36.400591329547645,1407.7236473841767,-6.0356829663691265,211395.1483958807,10.5,10500211395.148396,47.655,-122.3035,60.0,11.566666666666666
2026-01-20T23:11:35+00:00,SAT-47563,208.56719985728304,36.5665288022443,1401.7040595723847,-6.027569631941359,211110.98510484968,10.5,10500211110.985106,47.655,-122.3035,60.0,11.583333333333334
2026-01-20T23:11:36+00:00,SAT-47563,208.5361695078912,36.73367232718418,1395.6925634594618,-6.019344214598062,210822.89619600656,10.5,10500210822.896196,47.655,-122.3035,60.0,11.6
2026-01-20T23:11:37+00:00,SAT-47563,208.50499102413582,36.90203587953412,1389.6892708294358,-6.011004945471693,210530.81971612765,10.5,10500210530.819715,47.655,-122.3035,60.0,11.616666666666667
2026-01-20T23:11:38+00:00,SAT-47563,208.47366152961087,37.0716336170047,1383.6942952304855,-6.002550026218213,210234.69267959782,10.5,10500210234.69268,47.655,-122.3035,60.0,11.633333333333333
2026-01-20T23:11:39+00:00,SAT-47563,208.4421780725143,37.24247988202393,1377.7077520043372,-5.993977645278351,209934.4516379484,10.5,10500209934.451637,47.655,-122.3035,60.0,11.65
2026-01-20T23:11:40+00:00,SAT-47563,208.41053762304287,37.414589204389024,1371.7297582994463,-5.9852859232925,209630.03076805637,10.5,10500209630.030767,47.655,-122.3035,60.0,11.666666666666666
2026-01-20T23:11:41+00:00,SAT-47563,208.37873707097532,37.58797630237513,1365.760433138616,-5.976472972870425,209321.363965532,10.5,10500209321.363966,47.655,-122.3035,60.0,11.683333333333334
2026-01-20T23:11:42+00:00,SAT-47563,208.34677322284597,37.76265608555624,1359.7998974270065,-5.967536888711459,209008.3844986865,10.5,10500209008.384499,47.655,-122.3035,60.0,11.7
2026-01-20T23:11:43+00:00,SAT-47563,208.31464279907138,37.93864365738948,1353.8482739699982,-5.958475699259599,208691.02331528894,10.5,10500208691.023315,47.655,-122.3035,60.0,11.716666666666667
2026-01-20T23:11:44+00:00,SAT-47563,208.28234243116415,38.11595431637561,1347.9056875392698,-5.949287378629126,208369.20946025208,10.5,10500208369.20946,47.655,-122.3035,60.0,11.733333333333333
2026-01-20T23:11:45+00:00,SAT-47563,208.24986865879106,38.29460355754579,1341.9722649269838,-5.939969935604065,208042.8731927695,10.5,10500208042.873192,47.655,-122.3035,60.0,11.75
2026-01-20T23:11:46+00:00,SAT-47563,208.21721792626275,38.47460707663168,1336.0481349112079,-5.930521292377187,207711.94173924302,10.5,10500207711.94174,47.655,-122.3035,60.0,11.766666666666667
2026-01-20T23:11:47+00:00,SAT-47563,208.18438657948587,38.65598077062358,1330.1334283422773,-5.92093933366438,207376.3410134754,10.5,10500207376.341013,47.655,-122.3035,60.0,11.783333333333333
2026-01-20T23:11:48+00:00,SAT-47563,208.15137086250448,38.83874073977018,1324.2282781801691,-5.911221922357558,207035.99616490136,10.5,10500207035.996164,47.655,-122.3035,60.0,11.8
2026-01-20T23:11:49+00:00,SAT-47563,208.11816691386673,39.02290329006953,1318.3328195162715,-5.901366872319399,206690.83062574474,10.5,10500206690.830626,47.655,-122.3035,60.0,11.816666666666666
2026-01-20T23:11:50+00:00,SAT-47563,208.08477076291558,39.20848493491785,1312.447189622278,-5.891371974355928,206340.7670206875,10.5,10500206340.767021,47.655,-122.3035,60.0,11.833333333333334
2026-01-20T23:11:51+00:00,SAT-47563,208.05117832583895,39.395502397569174,1306.5715279731871,-5.88123496402688,205985.72603945306,10.5,10500205985.72604,47.655,-122.3035,60.0,11.85
2026-01-20T23:11:52+00:00,SAT-47563,208.01738540166548,39.58397261256726,1300.7059763023976,-5.8709535318446635,205625.6267940168,10.5,10500205625.626795,47.655,-122.3035,60.0,11.866666666666667
2026-01-20T23:11:53+00:00,SAT-47563,207.98338766805497,39.773912727476144,1294.8506786466378,-5.860525362604465,205260.38819611294,10.5,10500205260.388197,47.655,-122.3035,60.0,11.883333333333333
2026-01-20T23:11:54+00:00,SAT-47563,207.94918067669812,39.96534010587602,1289.005781351667,-5.84994805437911,204889.92612009155,10.5,10500204889.92612,47.655,-122.3035,60.0,11.9
2026-01-20T23:11:55+00:00,SAT-47563,207.91475984892398,40.158272327715764,1283.1714331587661,-5.83921918271051,204514.15565117504,10.5,10500204514.155651,47.655,-122.3035,60.0,11.916666666666666
2026-01-20T23:11:56+00:00,SAT-47563,207.8801204707617,40.352727191711104,1277.34778522721,-5.828336295905341,204132.99092069248,10.5,10500204132.990921,47.655,-122.3035,60.0,11.933333333333334
2026-01-20T23:11:57+00:00,SAT-47563,207.8452576878443,40.548722717595645,1271.5349911614267,-5.817296862757256,203746.3432750906,10.5,10500203746.343275,47.655,-122.3035,60.0,11.95
2026-01-20T23:11:58+00:00,SAT-47563,207.8101665002938,40.74627714657967,1265.7332070903035,-5.806098348591056,203354.12393932234,10.5,10500203354.12394,47.655,-122.3035,60.0,11.966666666666667
2026-01-20T23:11:59+00:00,SAT-47563,207.77484175703313,40.94540894433797,1259.942591670642,-5.79473813292499,202956.2411330321,10.5,10500202956.241133,47.655,-122.3035,60.0,11.983333333333333
2026-01-20T23:12:00+00:00,SAT-47563,207.7392781502151,41.14613680115664,1254.163306172738,-5.783213585275285,202552.60272555123,10.5,10500202552.602726,47.655,-122.3035,60.0,12.0
2026-01-20T23:12:01+00:00,SAT-47563,207.70347020902625,41.34847963463675,1248.3955144903568,-5.7715220030951455,202143.11406225915,10.5,10500202143.114061,47.655,-122.3035,60.0,12.016666666666667
2026-01-20T23:12:02+00:00,SAT-47563,207.66741229350853,41.55245659020109,1242.6393832126034,-5.7596606571908024,201727.6795552456,10.5,10500201727.679556,47.655,-122.3035,60.0,12.033333333333333
2026-01-20T23:12:03+00:00,SAT-47563,207.63109858786285,41.758087043136236,1236.8950816504985,-5.74762676513017,201306.20175196932,10.5,10500201306.201752,47.655,-122.3035,60.0,12.05
2026-01-20T23:12:04+00:00,SAT-47563,207.59452309355015,41.965390599645296,1231.1627818900752,-5.735417446892303,200878.57978191425,10.5,10500200878.579782,47.655,-122.3035,60.0,12.066666666666666
2026-01-20T23:12:05+00:00,SAT-47563,207.55767962234032,42.17438709619398,1225.4426588897081,-5.723029891117247,200444.71517936283,10.5,10500200444.71518,47.655,-122.3035,60.0,12.083333333333334
2026-01-20T23:12:06+00:00,SAT-47563,207.5205617880627,42.38509660485262,1219.7348904116338,-5.710461104286892,200004.50309864822,10.5,10500200004.5031,47.655,-122.3035,60.0,12.1
2026-01-20T23:12:07+00:00,SAT-47563,207.4831629994021,42.59753942940797,1214.039657203625,-5.697708129735411,199557.8399848265,10.5,10500199557.839985,47.655,-122.3035,60.0,12.116666666666667
2026-01-20T23:12:08+00:00,SAT-47563,207.44547645105158,42.81173610939412,1208.3571429622355,-5.684767906318684,199104.61862368195,10.5,10500199104.618624,47.655,-122.3035,60.0,12.133333333333333
2026-01-20T23:12:09+00:00,SAT-47563,207.4074951152873,43.0277074188156,1202.6875344370003,-5.6716373743311035,198644.73185138163,10.5,10500198644.731852,47.655,-122.3035,60.0,12.15
2026-01-20T23:12:10+00:00,SAT-47563,207.36921173246853,43.24547436875001,1197.031021429001,-5.658313367979235,198178.0687884482,10.5,10500198178.068789,47.655,-122.3035,60.0,12.166666666666666
2026-01-20T23:12:11+00:00,SAT-47563,207.33061880171277,43.465058205755106,1191.3877968966694,-5.644792711265867,197704.51819802486,10.5,10500197704.518198,47.655,-122.3035,60.0,12.183333333333334
2026-01-20T23:12:12+00:00,SAT-47563,207.29170857051676,43.686480413823325,1185.758056965967,-5.631072135858888,197223.96560929605,10.5,10500197223.965609,47.655,-122.3035,60.0,12.2
2026-01-20T23:12:13+00:00,SAT-47563,207.25247302435272,43.909762713034226,1180.1420010224704,-5.617148347382725,196736.29563929394,10.5,10500196736.295639,47.655,-122.3035,60.0,12.216666666666667
2026-01-20T23:12:14+00:00,SAT-47563,207.21290387530485,44.13492706064906,1174.5398317373474,-5.603017996335203,196241.39097428406,10.5,10500196241.390974,47.655,-122.3035,60.0,12.233333333333333
2026-01-20T23:12:15+00:00,SAT-47563,207.17299255032742,44.361995650950526,1168.951755122336,-5.588677643290759,195739.13115103438,10.5,10500195739.131151,47.655,-122.3035,60.0,12.25
2026-01-20T23:12:16+00:00,SAT-47563,207.13273017906067,44.59099091347952,1163.377980619427,-5.574123850148251,195229.39575269978,10.5,10500195229.395752,47.655,-122.3035,60.0,12.266666666666667
2026-01-20T23:12:17+00:00,SAT-47563,207.09210758047954,44.82193551483866,1157.8187210995459,-5.559353053619555,194712.0599778575,10.5,10500194712.059978,47.655,-122.3035,60.0,12.283333333333333
2026-01-20T23:12:18+00:00,SAT-47563,207.0511152495824,45.054852355108444,1152.2741929874026,-5.54436168129807,194186.99870571707,10.5,10500194186.998705,47.655,-122.3035,60.0,12.3
2026-01-20T23:12:19+00:00,SAT-47563,207.00974334266448,45.28976456886643,1146.744616270588,-5.529146096843656,193654.08457626504,10.5,10500193654.084576,47.655,-122.3035,60.0,12.316666666666666
2026-01-20T23:12:20+00:00,SAT-47563,206.96798166212176,45.526695523752714,1141.230214563336,-5.513702582000673,193113.18736046075,10.5,10500193113.18736,47.655,-122.3035,60.0,12.333333333333334
2026-01-20T23:12:21+00:00,SAT-47563,206.92581964056583,45.7656688180268,1135.7312151882206,-5.4980273718967725,192564.1751965492,10.5,10500192564.175196,47.655,-122.3035,60.0,12.35
2026-01-20T23:12:22+00:00,SAT-47563,206.8832463237877,46.006708279373164,1130.247849222649,-5.482116652825908,192006.9145124126,10.5,10500192006.914513,47.655,-122.3035,60.0,12.366666666666667
2026-01-20T23:12:23+00:00,SAT-47563,206.84025035285734,46.2498379634198,1124.780351547564,-5.465966529992525,191441.26889583564,10.5,10500191441.268896,47.655,-122.3035,60.0,12.383333333333333
2026-01-20T23:12:24+00:00,SAT-47563,206.79681994535582,46.495082150543276,1119.328960928318,-5.449573077021176,190867.10082854168,10.5,10500190867.100828,47.655,-122.3035,60.0,12.4
2026-01-20T23:12:25+00:00,SAT-47563,206.7529428752846,46.742465344624634,1113.893920046169,-5.432932253732162,190284.26880634768,10.5,10500190284.268806,47.655,-122.3035,60.0,12.416666666666666
2026-01-20T23:12:26+00:00,SAT-47563,206.70860645233023,46.992012267766036,1108.47547561178,-5.416040015220354,189692.6311595661,10.5,10500189692.631159,47.655,-122.3035,60.0,12.433333333333334
2026-01-20T23:12:27+00:00,SAT-47563,206.66379749922925,47.24374785966926,1103.0738783699337,-5.3988922348433865,189092.04335572562,10.5,10500189092.043356,47.655,-122.3035,60.0,12.45
2026-01-20T23:12:28+00:00,SAT-47563,206.61850232830741,47.49769727319184,1097.6893831810498,-5.381484701392521,188482.35790048284,10.5,10500188482.3579,47.655,-122.3035,60.0,12.466666666666667
2026-01-20T23:12:29+00:00,SAT-47563,206.57270671671264,47.75388586936391,1092.3222491055276,-5.363813176733153,187863.4263564366,10.5,10500187863.426357,47.655,-122.3035,60.0,12.483333333333333
2026-01-20T23:12:30+00:00,SAT-47563,206.52639587971083,48.012339214752686,1086.9727394305992,-5.345873319345185,187235.09666518844,10.5,10500187235.096664,47.655,-122.3035,60.0,12.5
2026-01-20T23:12:31+00:00,SAT-47563,206.47955444299973,48.273083074798414,1081.6411217734387,-5.327660774936956,186597.2163210258,10.5,10500186597.216322,47.655,-122.3035,60.0,12.516666666666667
2026-01-20T23:12:32+00:00,SAT-47563,206.43216641261836,48.53614341111666,1076.3276680939018,-5.30917108477891,185949.6291603792,10.5,10500185949.62916,47.655,-122.3035,60.0,12.533333333333333
2026-01-20T23:12:33+00:00,SAT-47563,206.38421514377112,48.801546373902646,1071.0326547986824,-5.290399726750735,185292.17679946678,10.5,10500185292.1768,47.655,-122.3035,60.0,12.55
2026-01-20T23:12:34+00:00,SAT-47563,206.3356833073586,49.06931829582675,1065.7563628045361,-5.271342152558418,184624.69993779293,10.5,10500184624.699938,47.655,-122.3035,60.0,12.566666666666666
2026-01-20T23:12:35+00:00,SAT-47563,206.2865528541883,49.3394856873742,1060.4990775643846,-5.251993713919265,183947.03577283546,10.5,10500183947.035772,47.655,-122.3035,60.0,12.583333333333334
2026-01-20T23:12:36+00:00,SAT-47563,206.23680497747503,49.612075227931726,1055.2610891670356,-5.232349731572932,183259.02041710395,10.5,10500183259.020416,47.655,-122.3035,60.0,12.6
2026-01-20T23:12:37+00:00,SAT-47563,206.18642007242912,49.887113759862345,1050.0426923680805,-5.212405413489816,182560.48603345142,10.5,10500182560.486034,47.655,-122.3035,60.0,12.616666666666667
2026-01-20T23:12:38+00:00,SAT-47563,206.13537769391226,50.16462827772486,1044.8441867023598,-5.192155973387765,181851.26498603087,10.5,10500181851.264986,47.655,-122.3035,60.0,12.633333333333333
2026-01-20T23:12:39+00:00,SAT-47563,206.0836565103681,50.444645923171535,1039.6658764782344,-5.171596486070127,181131.18477362208,10.5,10500181131.184774,47.655,-122.3035,60.0,12.65
2026-01-20T23:12:40+00:00,SAT-47563,206.0312342559368,50.72719397147635,1034.5080709161273,-5.150722045627314,180400.07357051922,10.5,10500180400.07357,47.655,-122.3035,60.0,12.666666666666666
2026-01-20T23:12:41+00:00,SAT-47563,205.97808767806146,51.012299825956184,1029.3710841292882,-5.129527618190165,179657.75506933112,10.5,10500179657.75507,47.655,-122.3035,60.0,12.683333333333334
2026-01-20T23:12:42+00:00,SAT-47563,205.92419248284364,51.299991003670264,1024.2552352514133,-5.108008154006638,178904.05240638077,10.5,10500178904.052406,47.655,-122.3035,60.0,12.7
2026-01-20T23:12:43+00:00,SAT-47563,205.8695232757346,51.590295126541605,1019.1608484524838,-5.08615851696608,178138.78569334737,10.5,10500178138.785694,47.655,-122.3035,60.0,12.716666666666667
2026-01-20T23:12:44+00:00,SAT-47563,205.81405349875533,51.883239907795584,1014.0882530248964,-5.06397349985065,177361.77255143563,10.5,10500177361.77255,47.655,-122.3035,60.0,12.733333333333333
2026-01-20T23:12:45+00:00,SAT-47563,205.75775536329763,52.178853138362626,1009.0377834543788,-5.041447907209572,176572.8310139827,10.5,10500176572.831015,47.655,-122.3035,60.0,12.75
2026-01-20T23:12:46+00:00,SAT-47563,205.70059977734235,52.477162677345085,1004.009779408255,-5.018576404447726,175771.7742409021,10.5,10500175771.77424,47.655,-122.3035,60.0,12.766666666666667
2026-01-20T23:12:47+00:00,SAT-47563,205.64255626905427,52.77819643273857,999.0045858742192,-4.995353644921118,174958.41497010487,10.5,10500174958.41497,47.655,-122.3035,60.0,12.783333333333333
2026-01-20T23:12:48+00:00,SAT-47563,205.58359290359337,53.08198234865029,994.0225531723512,-4.9717742160660885,174132.56363071658,10.5,10500174132.563631,47.655,-122.3035,60.0,12.8
2026-01-20T23:12:49+00:00,SAT-47563,205.52367619448228,53.3885483883855,989.0640370208613,-4.947832660179156,173294.02907087523,10.5,10500173294.029072,47.655,-122.3035,60.0,12.816666666666666
2026-01-20T23:12:50+00:00,SAT-47563,205.46277100816474,53.69792251773301,984.1293985811093,-4.923523470479833,172442.61841983447,10.5,10500172442.61842,47.655,-122.3035,60.0,12.833333333333334
2026-01-20T23:12:51+00:00,SAT-47563,205.40084046161894,54.01013268698301,979.2190045065507,-4.898841085467993,171578.13689033472,10.5,10500171578.13689,47.655,-122.3035,60.0,12.85
2026-01-20T23:12:52+00:00,SAT-47563,205.33784581220368,54.32520681141037,974.3332269973106,-4.873779889914766,170700.38781330863,10.5,10500170700.387814,47.655,-122.3035,60.0,12.866666666666667
2026-01-20T23:12:53+00:00,SAT-47563,205.27374633922122,54.643172750632594,969.4724438537689,-4.848334227398675,169809.17307694943,10.5,10500169809.173077,47.655,-122.3035,60.0,12.883333333333333
2026-01-20T23:12:54+00:00,SAT-47563,205.2084992160941,54.964058287490744,964.6370385176433,-4.822498429215078,168904.2941392419,10.5,10500168904.29414,47.655,-122.3035,60.0,12.9
2026-01-20T23:12:55+00:00,SAT-47563,205.14205937226973,55.287891107628965,959.8274000842396,-4.796266731899092,167985.5491392664,10.5,10500167985.549139,47.655,-122.3035,60.0,12.916666666666666
2026-01-20T23:12:56+00:00,SAT-47563,205.07437934513283,55.614698772143164,955.0439233969588,-4.769633377601403,167052.73641278438,10.5,10500167052.736412,47.655,-122.3035,60.0,12.933333333333334
2026-01-20T23:12:57+00:00,SAT-47563,205.00540911885022,55.94450869552942,950.2870090416977,-4.742592561349801,166105.65264511394,10.5,10500166105.652645,47.655,-122.3035,60.0,12.95
2026-01-20T23:12:58+00:00,SAT-47563,204.93509595070338,56.27734811859849,945.5570633938447,-4.7151384640739336,165144.0940277967,10.5,10500165144.094028,47.655,-122.3035,60.0,12.966666666666667
2026-01-20T23:12:59+00:00,SAT-47563,204.86338418273806,56.613244082122954,940.8544986323417,-4.687265185902856,164167.85392239582,10.5,10500164167.853922,47.655,-122.3035,60.0,12.983333333333333
2026-01-20T23:13:00+00:00,SAT-47563,204.79021503850086,56.95222339400894,936.1797328202679,-4.658966865066097,163176.72702491406,10.5,10500163176.727024,47.655,-122.3035,60.0,13.0
2026-01-20T23:13:01+00:00,SAT-47563,204.71552640100109,57.29431260326493,931.533189866842,-4.630237598278112,162170.5065773208,10.5,10500162170.506577,47.655,-122.3035,60.0,13.016666666666667
2026-01-20T23:13:02+00:00,SAT-47563,204.63925257257992,57.63953796647715,926.915299568826,-4.601071442988423,161148.98444636134,10.5,10500161148.984446,47.655,-122.3035,60.0,13.033333333333333
2026-01-20T23:13:03+00:00,SAT-47563,204.5613240139232,57.987925412402625,922.3264976496855,-4.571462488947474,160111.95363009593,10.5,10500160111.95363,47.655,-122.3035,60.0,13.05
2026-01-20T23:13:04+00:00,SAT-47563,204.4816670588377,58.33950050997134,917.7672257273753,-4.541404779174017,159059.20548984318,10.5,10500159059.20549,47.655,-122.3035,60.0,13.066666666666666
2026-01-20T23:13:05+00:00,SAT-47563,204.40020360465843,58.694288428169386,913.2379313609457,-4.510892370424233,157990.53186806466,10.5,10500157990.531868,47.655,-122.3035,60.0,13.083333333333334
2026-01-20T23:13:06+00:00,SAT-47563,204.31685077346006,59.052313898270704,908.7390680368426,-4.479919334239055,156905.72512504656,10.5,10500156905.725124,47.655,-122.3035,60.0,13.1
2026-01-20T23:13:07+00:00,SAT-47563,204.23152054190686,59.41360117390675,904.2710951541616,-4.448479719589878,155804.5768305943,10.5,10500155804.57683,47.655,-122.3035,60.0,13.116666666666667
2026-01-20T23:13:08+00:00,SAT-47563,204.14411933691153,59.77817398560429,899.8344780471572,-4.416567636044167,154686.88067684398,10.5,10500154686.880676,47.655,-122.3035,60.0,13.133333333333333
2026-01-20T23:13:09+00:00,SAT-47563,204.05454759127522,60.1460554994986,895.4296879248092,-4.384177159096676,153552.42916256117,10.5,10500153552.429163,47.655,-122.3035,60.0,13.15
2026-01-20T23:13:10+00:00,SAT-47563,203.96269925784466,60.51726826544289,891.0572019048034,-4.351302433861276,152401.0172248676,10.5,10500152401.017225,47.655,-122.3035,60.0,13.166666666666666
2026-01-20T23:13:11+00:00,SAT-47563,203.8684612739546,60.89183417084014,886.7175029440991,-4.317937607405058,151232.4398692949,10.5,10500151232.439869,47.655,-122.3035,60.0,13.183333333333334
2026-01-20T23:13:12+00:00,SAT-47563,203.7717129733607,61.269774385609075,882.4110798369804,-4.2840769158490675,150046.49522042082,10.5,10500150046.49522,47.655,-122.3035,60.0,13.2
2026-01-20T23:13:13+00:00,SAT-47563,203.67232543655643,61.6511093114847,878.1384271262403,-4.2497145757271735,148842.9807167975,10.5,10500148842.980717,47.655,-122.3035,60.0,13.216666666666667
2026-01-20T23:13:14+00:00,SAT-47563,203.57016077596455,62.035858518151635,873.900045122715,-4.214844892562403,147621.69691375367,10.5,10500147621.696915,47.655,-122.3035,60.0,13.233333333333333
2026-01-20T23:13:15+00:00,SAT-47563,203.4650713434645,62.42404068515048,869.6964398165329,-4.17946225929463,146382.44742832592,10.5,10500146382.447428,47.655,-122.3035,60.0,13.25
2026-01-20T23:13:16+00:00,SAT-47563,203.35689885273982,62.815673539863475,865.5281227899296,-4.14356109365253,145125.0367457595,10.5,10500145125.036745,47.655,-122.3035,60.0,13.266666666666667
2026-01-20T23:13:17+00:00,SAT-47563,203.24547340730373,63.21077378529941,861.3956111925269,-4.107135932153401,143849.27351177964,10.5,10500143849.273512,47.655,-122.3035,60.0,13.283333333333333
2026-01-20T23:13:18+00:00,SAT-47563,203.13061241796575,63.60935703196907,857.2994276228593,-4.070181361697922,142554.96813675071,10.5,10500142554.968136,47.655,-122.3035,60.0,13.3
2026-01-20T23:13:19+00:00,SAT-47563,203.01211939942522,64.01143771819238,853.2401000781258,-4.032692098586131,141241.9355631501,10.5,10500141241.935564,47.655,-122.3035,60.0,13.316666666666666
2026-01-20T23:13:20+00:00,SAT-47563,202.88978262564785,64.41702903253143,849.2181618251359,-3.994662963346321,139909.99438396934,10.5,10500139909.994385,47.655,-122.3035,60.0,13.333333333333334
2026-01-20T23:13:21+00:00,SAT-47563,202.76337362765148,64.82614282791559,845.2341512963585,-3.9560888734150157,138558.9665863364,10.5,10500138558.966587,47.655,-122.3035,60.0,13.35
2026-01-20T23:13:22+00:00,SAT-47563,202.63264551106883,65.23878952833293,841.2886119932726,-3.9169648952707927,137188.67937746225,10.5,10500137188.679377,47.655,-122.3035,60.0,13.366666666666667
2026-01-20T23:13:23+00:00,SAT-47563,202.49733106613215,65.65497803368011,837.3820923377225,-3.877286233458265,135798.96480021448,10.5,10500135798.9648,47.655,-122.3035,60.0,13.383333333333333
2026-01-20T23:13:24+00:00,SAT-47563,202.35714064161107,66.07471561560938,833.5151455342201,-3.8370482289018004,134389.6596740566,10.5,10500134389.659674,47.655,-122.3035,60.0,13.4
2026-01-20T23:13:25+00:00,SAT-47563,202.21175974757935,66.49800780428863,829.6883294339289,-3.7962463806986277,132960.6063583347,10.5,10500132960.606358,47.655,-122.3035,60.0,13.416666666666666
2026-01-20T23:13:26+00:00,SAT-47563,202.06084634497793,66.92485826756996,825.902206376912,-3.7548763802887315,131511.65394905192,10.5,10500131511.65395,47.655,-122.3035,60.0,13.433333333333334
2026-01-20T23:13:27+00:00,SAT-47563,201.90402777298223,67.35526868297094,822.1573430003041,-3.712934106206217,130042.65809503879,10.5,10500130042.658094,47.655,-122.3035,60.0,13.45
2026-01-20T23:13:28+00:00,SAT-47563,201.7408972581515,67.78923859674951,818.4543100517144,-3.6704156020187586,128553.48022529963,10.5,10500128553.480225,47.655,-122.3035,60.0,13.466666666666667
2026-01-20T23:13:29+00:00,SAT-47563,201.57100993867846,68.22676526610721,814.7936822246344,-3.6273171461698337,127043.9899951828,10.5,10500127043.989996,47.655,-122.3035,60.0,13.483333333333333
2026-01-20T23:13:30+00:00,SAT-47563,201.39387831932834,68.66784349339677,811.1760379241877,-3.5836352270018734,125514.06441158593,10.5,10500125514.064411,47.655,-122.3035,60.0,13.5
2026-01-20T23:13:31+00:00,SAT-47563,201.20896706483413,69.11246543893814,807.6019590577911,-3.539366586038039,123963.58934886685,10.5,10500123963.58935,47.655,-122.3035,60.0,13.516666666666667
2026-01-20T23:13:32+00:00,SAT-47563,201.01568701362865,69.56062041780564,804.0720307826492,-3.494508204216459,122392.45906670815,10.5,10500122392.459066,47.655,-122.3035,60.0,13.533333333333333
2026-01-20T23:13:33+00:00,SAT-47563,200.81338827627573,70.01229467023559,800.5868412669772,-3.4490572910666666,120800.57583103041,10.5,10500120800.57583,47.655,-122.3035,60.0,13.55
2026-01-20T23:13:34+00:00,SAT-47563,200.60135225174253,70.46747110133475,797.1469814620201,-3.403011400885592,119187.85398296684,10.5,10500119187.853983,47.655,-122.3035,60.0,13.566666666666666
2026-01-20T23:13:35+00:00,SAT-47563,200.37878235202103,70.92612900228215,793.7530447582036,-3.3563683088960965,117554.21560141121,10.5,10500117554.215601,47.655,-122.3035,60.0,13.583333333333334
2026-01-20T23:13:36+00:00,SAT-47563,200.14479320155016,71.38824371494637,790.4056267647978,-3.3091261436684563,115899.59514097846,10.5,10500115899.59514,47.655,-122.3035,60.0,13.6
2026-01-20T23:13:37+00:00,SAT-47563,199.8983979953654,71.85378626663002,787.1053249575126,-3.2612833162760535,114223.9369507373,10.5,10500114223.93695,47.655,-122.3035,60.0,13.616666666666667
2026-01-20T23:13:38+00:00,SAT-47563,199.63849365674204,72.32272293809608,783.8527383967465,-3.2128385952422933,112527.19789916823,10.5,10500112527.197899,47.655,-122.3035,60.0,13.633333333333333
2026-01-20T23:13:39+00:00,SAT-47563,199.3638433266095,72.7950147735263,780.6484673710916,-3.163791074984219,110809.34626892548,10.5,10500110809.34627,47.655,-122.3035,60.0,13.65
2026-01-20T23:13:40+00:00,SAT-47563,199.07305562184018,73.27061700287348,777.4931130723073,-3.114140215744739,109070.36315543254,10.5,10500109070.363155,47.655,-122.3035,60.0,13.666666666666666
2026-01-20T23:13:41+00:00,SAT-47563,198.76455994518437,73.74947836871208,774.3872772304711,-3.0638858650660534,107310.24321897238,10.5,10500107310.24322,47.655,-122.3035,60.0,13.683333333333334
2026-01-20T23:13:42+00:00,SAT-47563,198.43657695227722,74.23154033232687,771.3315617277119,-3.0130282447465784,105528.99422786372,10.5,10500105528.994228,47.655,-122.3035,60.0,13.7
2026-01-20T23:13:43+00:00,SAT-47563,198.08708304645873,74.71673612430644,768.3265682249514,-2.9615679738080285,103726.63786286543,10.5,10500103726.637863,47.655,-122.3035,60.0,13.716666666666667
2026-01-20T23:13:44+00:00,SAT-47563,197.7137674570196,75.20498960773494,765.3728977657402,-2.909506104802258,101903.21098879582,10.5,10500101903.210989,47.655,-122.3035,60.0,13.733333333333333
2026-01-20T23:13:45+00:00,SAT-47563,197.31398005074936,75.69621390822681,762.471150343884,-2.8568440990110258,100058.76478592324,10.5,10500100058.764786,47.655,-122.3035,60.0,13.75
2026-01-20T23:13:46+00:00,SAT-47563,196.884667499334,76.19030973790488,759.6219244958038,-2.8035838729723723,98193.36637951682,10.5,10500098193.366379,47.655,-122.3035,60.0,13.766666666666667
2026-01-20T23:13:47+00:00,SAT-47563,196.42229469351687,76.68716334294616,756.8258168464926,-2.7497278096905466,96307.09923246548,10.5,10500096307.099232,47.655,-122.3035,60.0,13.783333333333333
2026-01-20T23:13:48+00:00,SAT-47563,195.9227473445247,77.1866439604117,754.0834216442946,-2.6952787219979393,94400.06186205779,10.5,10500094400.061863,47.655,-122.3035,60.0,13.8
2026-01-20T23:13:49+00:00,SAT-47563,195.38121041664908,77.6886006299499,751.3953303322219,-2.6402399404734145,92472.37091925392,10.5,10500092472.37092,47.655,-122.3035,60.0,13.816666666666666
2026-01-20T23:13:50+00:00,SAT-47563,194.7920152247586,78.19285818794587,748.7621310315898,-2.584615272280704,90524.15974703204,10.5,10500090524.159746,47.655,-122.3035,60.0,13.833333333333334
2026-01-20T23:13:51+00:00,SAT-47563,194.14844562177694,78.69921215442879,746.1844080667018,-2.5284090290554415,88555.57935711023,10.5,10500088555.579357,47.655,-122.3035,60.0,13.85
2026-01-20T23:13:52+00:00,SAT-47563,193.44249026546441,79.20742215948079,743.662741461724,-2.4716260178272123,86566.7981119983,10.5,10500086566.798113,47.655,-122.3035,60.0,13.866666666666667
2026-01-20T23:13:53+00:00,SAT-47563,192.66452320868885,79.7172033926155,741.1977064466108,-2.4142716041620504,84558.00393651507,10.5,10500084558.003937,47.655,-122.3035,60.0,13.883333333333333
2026-01-20T23:13:54+00:00,SAT-47563,191.80288830799262,80.22821537376282,738.7898729000599,-2.3563516484531517,82529.4020864197,10.5,10500082529.402086,47.655,-122.3035,60.0,13.9
2026-01-20T23:13:55+00:00,SAT-47563,190.84335346722642,80.74004699779401,736.4398048560026,-2.297872565584601,80481.2172380878,10.5,10500080481.217237,47.655,-122.3035,60.0,13.916666666666666
2026-01-20T23:13:56+00:00,SAT-47563,189.76838707376857,81.25219640384753,734.1480599505929,-2.2388413241909,78413.69346257688,10.5,10500078413.693462,47.655,-122.3035,60.0,13.933333333333334
2026-01-20T23:13:57+00:00,SAT-47563,188.5561896640001,81.76404350050956,731.9151888699332,-2.1792654337230264,76327.09377262511,10.5,10500076327.093773,47.655,-122.3035,60.0,13.95
2026-01-20T23:13:58+00:00,SAT-47563,187.17938639920783,82.27481194860437,729.7417348107002,-2.1191529673528815,74221.70092486202,10.5,10500074221.700924,47.655,-122.3035,60.0,13.966666666666667
2026-01-20T23:13:59+00:00,SAT-47563,185.60324768836398,82.7835158172115,727.6282329179269,-2.0585125534395203,72097.81712091957,10.5,10500072097.817122,47.655,-122.3035,60.0,13.983333333333333
2026-01-20T23:14:00+00:00,SAT-47563,183.7832542704717,83.28888364046358,725.5752097312965,-1.997353396432482,69955.76473955547,10.5,10500069955.76474,47.655,-122.3035,60.0,14.0
2026-01-20T23:14:01+00:00,SAT-47563,181.66176112965462,83.7892487866466,723.5831826105878,-1.9356852546453083,67795.88555818753,10.5,10500067795.88556,47.655,-122.3035,60.0,14.016666666666667
2026-01-20T23:14:02+00:00,SAT-47563,179.16345809488683,84.28238917023243,721.6526591832883,-1.8735184822639743,65618.54222420676,10.5,10500065618.542225,47.655,-122.3035,60.0,14.033333333333333
2026-01-20T23:14:03+00:00,SAT-47563,176.1893315524536,84.76529071057892,719.7841367503103,-1.8108639606896972,63424.11585031208,10.5,10500063424.11585,47.655,-122.3035,60.0,14.05
2026-01-20T23:14:04+00:00,SAT-47563,172.60907246209968,85.23379728485051,717.9781017601825,-1.7477331681315056,61213.00845193647,10.5,10500061213.008451,47.655,-122.3035,60.0,14.066666666666666
2026-01-20T23:14:05+00:00,SAT-47563,168.25280081860697,85.68209833500838,716.2350292138327,-1.6841381346389535,58985.64137230234,10.5,10500058985.641373,47.655,-122.3035,60.0,14.083333333333334
2026-01-20T23:14:06+00:00,SAT-47563,162.90565020601167,86.10200718989755,714.5553821142194,-1.6200914489174743,56742.45552112415,10.5,10500056742.45552,47.655,-122.3035,60.0,14.1
2026-01-20T23:14:07+00:00,SAT-47563,156.31520813648427,86.482042760481,712.9396109091657,-1.5556062565672715,54483.91131292686,10.5,10500054483.911312,47.655,-122.3035,60.0,14.116666666666667
2026-01-20T23:14:08+00:00,SAT-47563,148.2339466242073,86.8065527772923,711.3881529359493,-1.4906962431731963,52210.488074781926,10.5,10500052210.488075,47.655,-122.3035,60.0,14.133333333333333
2026-01-20T23:14:09+00:00,SAT-47563,138.53021437204194,87.05567158183116,709.901431882758,-1.42537563859768,49922.68419666394,10.5,10500049922.684196,47.655,-122.3035,60.0,14.15
2026-01-20T23:14:10+00:00,SAT-47563,127.37604748432925,87.2076809334887,708.4798572458632,-1.3596591871268875,47621.01608584269,10.5,10500047621.016087,47.655,-122.3035,60.0,14.166666666666666
2026-01-20T23:14:11+00:00,SAT-47563,115.4009317235025,87.24504146015518,707.1238238165686,-1.2935621601718927,45306.01861173196,10.5,10500045306.018612,47.655,-122.3035,60.0,14.183333333333334
2026-01-20T23:14:12+00:00,SAT-47563,103.57848988538386,87.16191908398258,705.8337111554905,-1.2271003209993683,42978.24387060921,10.5,10500042978.24387,47.655,-122.3035,60.0,14.2
2026-01-20T23:14:13+00:00,SAT-47563,92.81352032969671,86.9670562859197,704.6098831020138,-1.1602899366144028,40638.26160180197,10.5,10500040638.261602,47.655,-122.3035,60.0,14.216666666666667
2026-01-20T23:14:14+00:00,SAT-47563,83.59428900321554,86.67908218590019,703.4526872718969,-1.0931477247192503,38286.657329959,10.5,10500038286.65733,47.655,-122.3035,60.0,14.233333333333333
2026-01-20T23:14:15+00:00,SAT-47563,75.98045461492356,86.31895668270404,702.3624546077771,-1.0256908661776776,35924.03280160442,10.5,10500035924.0328,47.655,-122.3035,60.0,14.25
2026-01-20T23:14:16+00:00,SAT-47563,69.78892675824775,85.90497998510179,701.3394989172425,-0.9579369811384186,33551.005148880016,10.5,10500033551.005148,47.655,-122.3035,60.0,14.266666666666667
2026-01-20T23:14:17+00:00,SAT-47563,64.76286498878162,85.4512586514423,700.3841164347205,-0.8899041015536963,31168.205927027724,10.5,10500031168.205927,47.655,-122.3035,60.0,14.283333333333333
2026-01-20T23:14:18+00:00,SAT-47563,60.65880158567808,84.96806126951861,699.4965854107709,-0.82161065023968,28776.280380998243,10.5,10500028776.28038,47.655,-122.3035,60.0,14.3
2026-01-20T23:14:19+00:00,SAT-47563,57.27540807346129,84.46271452702022,698.6771657222652,-0.7530754234738979,26375.886835938774,10.5,10500026375.886835,47.655,-122.3035,60.0,14.316666666666666
2026-01-20T23:14:20+00:00,SAT-47563,54.45543718955755,83.94044719758736,697.9260984999206,-0.6843175661692084,23967.69582768052,10.5,10500023967.695827,47.655,-122.3035,60.0,14.333333333333334
2026-01-20T23:14:21+00:00,SAT-47563,52.07879875774742,83.4050315113589,697.2436057805944,-0.6153565415424821,21552.38904040762,10.5,10500021552.38904,47.655,-122.3035,60.0,14.35
2026-01-20T23:14:22+00:00,SAT-47563,50.054289110042184,82.8592332148873,696.6298901898294,-0.5462121102920765,19130.658577364222,10.5,10500019130.658577,47.655,-122.3035,60.0,14.366666666666667
2026-01-20T23:14:23+00:00,SAT-47563,48.312434897351814,82.30511819966479,696.0851346451648,-0.47690430393700706,16703.206027079486,10.5,10500016703.206028,47.655,-122.3035,60.0,14.383333333333333
2026-01-20T23:14:24+00:00,SAT-47563,46.79992679202042,81.74426003376632,695.6095020860382,-0.40745339179549517,14270.741306816662,10.5,10500014270.741306,47.655,-122.3035,60.0,14.4
2026-01-20T23:14:25+00:00,SAT-47563,45.47547311791237,81.17788107796868,695.2031352366209,-0.3378798560152419,11833.981788027637,10.5,10500011833.981789,47.655,-122.3035,60.0,14.416666666666666
2026-01-20T23:14:26+00:00,SAT-47563,44.306762499076115,80.60694941486346,694.866156393555,-0.26820436114630997,9393.651230666565,10.5,10500009393.65123,47.655,-122.3035,60.0,14.433333333333334
2026-01-20T23:14:27+00:00,SAT-47563,43.26824755237238,80.03224628386506,694.5986672440384,-0.19844772362417865,6950.478714357369,10.5,10500006950.478714,47.655,-122.3035,60.0,14.45
2026-01-20T23:14:28+00:00,SAT-47563,42.33952313747213,79.45441364546497,694.4007487143439,-0.12863088173979986,4505.197586618067,10.5,10500004505.197586,47.655,-122.3035,60.0,14.466666666666667
2026-01-20T23:14:29+00:00,SAT-47563,41.504132077051814,78.87398819457702,694.2724608482887,-0.05877486327235175,2058.5443292228965,10.5,10500002058.544329,47.655,-122.3035,60.0,14.483333333333333
2026-01-20T23:14:30+00:00,SAT-47563,40.74867841508374,78.29142602082818,694.2138427179851,0.011099244790114024,-388.7425023087047,10.5,10499999611.257498,47.655,-122.3035,60.0,14.5
2026-01-20T23:14:31+00:00,SAT-47563,40.062162963085726,77.70712070457803,694.2249123647891,0.08097032837448141,-2835.9234038237705,10.5,10499997164.076595,47.655,-122.3035,60.0,14.516666666666667
2026-01-20T23:14:32+00:00,SAT-47563,39.43548070969067,77.12141677587937,694.305666772288,0.15081727911977047,-5282.259071232505,10.5,10499994717.740929,47.655,-122.3035,60.0,14.533333333333333
2026-01-20T23:14:33+00:00,SAT-47563,38.861037022209665,76.53461981393184,694.4560818719967,0.220619022360226,-7727.011380594415,10.5,10499992272.988619,47.655,-122.3035,60.0,14.55
2026-01-20T23:14:34+00:00,SAT-47563,38.33245187109534,75.94700413214309,694.676112576964,0.2903545555868814,-10169.444735204963,10.5,10499989830.555265,47.655,-122.3035,60.0,14.566666666666666
2026-01-20T23:14:35+00:00,SAT-47563,37.84432980481775,75.3588186484681,694.965692853736,0.36000297196974834,-12608.826889442153,10.5,10499987391.173111,47.655,-122.3035,60.0,14.583333333333334
2026-01-20T23:14:36+00:00,SAT-47563,37.392079553641366,74.77029144346787,695.3247358177805,0.42954349946901255,-15044.430318606053,10.5,10499984955.569681,47.655,-122.3035,60.0,14.6
2026-01-20T23:14:37+00:00,SAT-47563,36.97177136188271,74.18163329645658,695.7531338679175,0.49895552144423455,-17475.532940740166,10.5,10499982524.46706,47.655,-122.3035,60.0,14.616666666666667
2026-01-20T23:14:38+00:00,SAT-47563,36.58002329988678,73.5930404753904,696.2507588413047,0.568218616574759,-19901.419514813042,10.5,10499980098.580484,47.655,-122.3035,60.0,14.633333333333333
2026-01-20T23:14:39+00:00,SAT-47563,36.21390997743824,73.00469692727094,696.8174622082352,0.6373125843421071,-22321.382533219446,10.5,10499977678.617466,47.655,-122.3035,60.0,14.65
2026-01-20T23:14:40+00:00,SAT-47563,35.870888742579716,72.41677602404795,697.4530752923523,0.7062174695802953,-24734.723081636366,10.5,10499975265.276918,47.655,-122.3035,60.0,14.666666666666666
2026-01-20T23:14:41+00:00,SAT-47563,35.548739616566266,71.82944195880279,698.1574095153471,0.7749135982851278,-27140.752093215906,10.5,10499972859.247908,47.655,-122.3035,60.0,14.683333333333334
2026-01-20T23:14:42+00:00,SAT-47563,35.24551609498305,71.24285085918434,698.9302566773702,0.8433815958251072,-29538.79098640842,10.5,10499970461.209013,47.655,-122.3035,60.0,14.7
2026-01-20T23:14:43+00:00,SAT-47563,34.95950461552023,70.65715168973935,699.7713892556064,0.9116024251997116,-31928.1730049292,10.5,10499968071.826996,47.655,-122.3035,60.0,14.716666666666667
2026-01-20T23:14:44+00:00,SAT-47563,34.689190969093076,70.07248697304803,700.6805607410056,0.9795573887439626,-34308.24327745966,10.5,10499965691.756723,47.655,-122.3035,60.0,14.733333333333333
2026-01-20T23:14:45+00:00,SAT-47563,34.4332323258336,69.48899338719892,701.657505976713,1.0472281842780713,-36678.36078424544,10.5,10499963321.639215,47.655,-122.3035,60.0,14.75
2026-01-20T23:14:46+00:00,SAT-47563,34.19043380357415,68.90680223294797,702.7019415524995,1.1145968956462906,-39037.89802572703,10.5,10499960962.101974,47.655,-122.3035,60.0,14.766666666666667
2026-01-20T23:14:47+00:00,SAT-47563,33.95972876231588,68.32603983081798,703.8135661897575,1.1816460365714554,-41386.2425585112,10.5,10499958613.75744,47.655,-122.3035,60.0,14.783333333333333
2026-01-20T23:14:48+00:00,SAT-47563,33.74016214317401,67.74682783379741,704.9920611702314,1.248358558423118,-43722.79726744406,10.5,10499956277.202732,47.655,-122.3035,60.0,14.8
2026-01-20T23:14:49+00:00,SAT-47563,33.5308763272767,67.16928348846338,706.2370907724987,1.3147178675098563,-46046.98097126076,10.5,10499953953.01903,47.655,-122.3035,60.0,14.816666666666666
2026-01-20T23:14:50+00:00,SAT-47563,33.331099080864924,66.59351984955288,707.5483027256952,1.3807078575839922,-48358.22956103825,10.5,10499951641.77044,47.655,-122.3035,60.0,14.833333333333334
2026-01-20T23:14:51+00:00,SAT-47563,33.14013323584982,66.01964594993936,708.9253286956589,1.4463129029331065,-50655.99575823091,10.5,10499949344.004242,47.655,-122.3035,60.0,14.85
2026-01-20T23:14:52+00:00,SAT-47563,32.95734782782387,65.44776694984225,710.3677847641843,1.5115178879196771,-52939.750149273634,10.5,10499947060.249851,47.655,-122.3035,60.0,14.866666666666667
2026-01-20T23:14:53+00:00,SAT-47563,32.78217045291208,64.87798425455041,711.8752719377362,1.5763082184968318,-55208.981588912204,10.5,10499944791.018412,47.655,-122.3035,60.0,14.883333333333333
2026-01-20T23:14:54+00:00,SAT-47563,32.61408065539719,64.310395613321,713.4473766676502,1.6406698262199801,-57463.19734070759,10.5,10499942536.80266,47.655,-122.3035,60.0,14.9
2026-01-20T23:14:55+00:00,SAT-47563,32.452604188668644,63.74509520500583,715.0836713743337,1.70458918366023,-59701.92361687903,10.5,10499940298.076384,47.655,-122.3035,60.0,14.916666666666666
2026-01-20T23:14:56+00:00,SAT-47563,32.2973080170572,63.18217370911958,716.7837149868376,1.7680533088617287,-61924.70573441895,10.5,10499938075.294266,47.655,-122.3035,60.0,14.933333333333334
2026-01-20T23:14:57+00:00,SAT-47563,32.1477959506989,62.621718368254285,718.5470534868756,1.8310497783658113,-64131.10857125372,10.5,10499935868.891428,47.655,-122.3035,60.0,14.95
2026-01-20T23:14:58+00:00,SAT-47563,32.00370482117432,62.06381304121782,720.3732204658326,1.8935667330881816,-66320.7167720874,10.5,10499933679.283228,47.655,-122.3035,60.0,14.966666666666667
2026-01-20T23:14:59+00:00,SAT-47563,31.864701122341916,61.508538250332606,722.2617376876325,1.9555928533580782,-68493.13387416778,10.5,10499931506.866125,47.655,-122.3035,60.0,14.983333333333333
