satellites_20260121_005943/SAT-55422.csv

timestamp,satellite,azimuth_deg,elevation_deg,distance_km,relative_velocity_kms,doppler_shift_hz,tx_freq_ghz,rx_freq_hz,ue_lat,ue_lon,ue_alt_m,time_minutes
2026-01-20T23:01:19+00:00,SAT-55422,254.036006851617,30.022295423485378,3677.4939462805687,-6.402115325897747,224229.15963391698,10.5,10500224229.159634,47.655,-122.3035,60.0,1.3166666666666667
2026-01-20T23:01:20+00:00,SAT-55422,254.05181511283132,30.078061214830843,3671.1089032622067,-6.4018626346755125,224220.3093184315,10.5,10500224220.309319,47.655,-122.3035,60.0,1.3333333333333333
2026-01-20T23:01:21+00:00,SAT-55422,254.06774633503352,30.133910538398705,3664.7241122612236,-6.401601272570966,224211.15531196966,10.5,10500224211.155312,47.655,-122.3035,60.0,1.35
2026-01-20T23:01:22+00:00,SAT-55422,254.08380133705683,30.189843773738545,3658.3395819253797,-6.401331147504851,224201.69438952644,10.5,10500224201.69439,47.655,-122.3035,60.0,1.3666666666666667
2026-01-20T23:01:23+00:00,SAT-55422,254.09998094473417,30.245861302003842,3651.9553209942683,-6.4010522328937185,224191.92562003693,10.5,10500224191.92562,47.655,-122.3035,60.0,1.3833333333333333
2026-01-20T23:01:24+00:00,SAT-55422,254.11628599118944,30.301963506536467,3645.5713382339954,-6.40076447408971,224181.84708950203,10.5,10500224181.84709,47.655,-122.3035,60.0,1.4
2026-01-20T23:01:25+00:00,SAT-55422,254.13271731681237,30.358150772633685,3639.18764246517,-6.400467821770607,224171.45707044896,10.5,10500224171.457071,47.655,-122.3035,60.0,1.4166666666666667
2026-01-20T23:01:26+00:00,SAT-55422,254.1492757693739,30.414423487608154,3632.804242557591,-6.400162231550018,224160.75400827857,10.5,10500224160.754007,47.655,-122.3035,60.0,1.4333333333333333
2026-01-20T23:01:27+00:00,SAT-55422,254.16596220410207,30.470782040843552,3626.4211474253248,-6.399847636642276,224149.73556387433,10.5,10500224149.735563,47.655,-122.3035,60.0,1.45
2026-01-20T23:01:28+00:00,SAT-55422,254.18277748370954,30.527226823610057,3620.038366049047,-6.399523997285285,224138.40034459936,10.5,10500224138.400345,47.655,-122.3035,60.0,1.4666666666666666
2026-01-20T23:01:29+00:00,SAT-55422,254.1997224785448,30.58375822931502,3613.6559074490874,-6.39919127885911,224126.74713791718,10.5,10500224126.747137,47.655,-122.3035,60.0,1.4833333333333334
2026-01-20T23:01:30+00:00,SAT-55422,254.21679806671253,30.640376653562285,3607.2737806803057,-6.398849402273576,224114.77317375524,10.5,10500224114.773174,47.655,-122.3035,60.0,1.5
2026-01-20T23:01:31+00:00,SAT-55422,254.23400513399355,30.697082493771095,3600.8919948764383,-6.398498321104841,224102.47682615428,10.5,10500224102.476826,47.655,-122.3035,60.0,1.5166666666666666
2026-01-20T23:01:32+00:00,SAT-55422,254.25134457405193,30.75387614947758,3594.5105592175228,-6.398137999238808,224089.85683024582,10.5,10500224089.85683,47.655,-122.3035,60.0,1.5333333333333334
2026-01-20T23:01:33+00:00,SAT-55422,254.26881728854184,30.81075802243969,3588.1294829196154,-6.39776836196158,224076.91056923318,10.5,10500224076.91057,47.655,-122.3035,60.0,1.55
2026-01-20T23:01:34+00:00,SAT-55422,254.28642418708313,30.86772851630698,3581.748775273286,-6.39738937213754,224063.6367424699,10.5,10500224063.636742,47.655,-122.3035,60.0,1.5666666666666667
2026-01-20T23:01:35+00:00,SAT-55422,254.3041661874569,30.92478803696767,3575.3684456061405,-6.3970009761281545,224050.03347130775,10.5,10500224050.033472,47.655,-122.3035,60.0,1.5833333333333333
2026-01-20T23:01:36+00:00,SAT-55422,254.32204421566124,30.981936992414727,3568.988503299282,-6.396603097643539,224036.0980837522,10.5,10500224036.098083,47.655,-122.3035,60.0,1.6
2026-01-20T23:01:37+00:00,SAT-55422,254.34005920590096,31.039175792555938,3562.608957809899,-6.396195725692935,224021.83019486038,10.5,10500224021.830194,47.655,-122.3035,60.0,1.6166666666666667
2026-01-20T23:01:38+00:00,SAT-55422,254.35821210092857,31.096504849811303,3556.229818606141,-6.395778744832185,224007.22576128965,10.5,10500224007.225761,47.655,-122.3035,60.0,1.6333333333333333
2026-01-20T23:01:39+00:00,SAT-55422,254.3765038517551,31.153924578189738,3549.851095271295,-6.395352154272026,223992.2847553966,10.5,10500223992.284756,47.655,-122.3035,60.0,1.65
2026-01-20T23:01:40+00:00,SAT-55422,254.39493541815744,31.211435394330383,3543.4727973894346,-6.394915864721296,223977.00404982702,10.5,10500223977.00405,47.655,-122.3035,60.0,1.6666666666666667
2026-01-20T23:01:41+00:00,SAT-55422,254.41350776845618,31.269037716720902,3537.0949346336856,-6.394469852491867,223961.3828149226,10.5,10500223961.382814,47.655,-122.3035,60.0,1.6833333333333333
2026-01-20T23:01:42+00:00,SAT-55422,254.43222187985563,31.326731966300937,3530.7175167008004,-6.394014011078159,223945.4173204073,10.5,10500223945.41732,47.655,-122.3035,60.0,1.7
2026-01-20T23:01:43+00:00,SAT-55422,254.45107873822684,31.38451856572703,3524.3405533937516,-6.393548321176967,223929.10689020122,10.5,10500223929.10689,47.655,-122.3035,60.0,1.7166666666666666
2026-01-20T23:01:44+00:00,SAT-55422,254.47007933854366,31.44239794017355,3517.964054534765,-6.393072713566219,223912.44909985457,10.5,10500223912.4491,47.655,-122.3035,60.0,1.7333333333333334
2026-01-20T23:01:45+00:00,SAT-55422,254.48922468478145,31.50037051689377,3511.5880300151016,-6.392587135322954,223895.44209578153,10.5,10500223895.442097,47.655,-122.3035,60.0,1.75
2026-01-20T23:01:46+00:00,SAT-55422,254.50851579010038,31.558436725381505,3505.212489778806,-6.39209151048814,223878.0832175754,10.5,10500223878.083218,47.655,-122.3035,60.0,1.7666666666666666
2026-01-20T23:01:47+00:00,SAT-55422,254.52795367684075,31.616596997172778,3498.837443845679,-6.391585801451991,223860.37114798234,10.5,10500223860.371147,47.655,-122.3035,60.0,1.7833333333333334
2026-01-20T23:01:48+00:00,SAT-55422,254.54753937679214,31.67485176620867,3492.462902273031,-6.391069926017071,223842.3030081005,10.5,10500223842.303009,47.655,-122.3035,60.0,1.8
2026-01-20T23:01:49+00:00,SAT-55422,254.56727393111595,31.733201468441287,3486.08887520015,-6.39054383988339,223823.87724635683,10.5,10500223823.877247,47.655,-122.3035,60.0,1.8166666666666667
2026-01-20T23:01:50+00:00,SAT-55422,254.58715839060915,31.791646542192378,3479.7153728105063,-6.390007476042169,223805.09151582053,10.5,10500223805.091516,47.655,-122.3035,60.0,1.8333333333333333
2026-01-20T23:01:51+00:00,SAT-55422,254.60719381571124,31.850187427958147,3473.3424053544,-6.389460773163482,223785.943668458,10.5,10500223785.943668,47.655,-122.3035,60.0,1.85
2026-01-20T23:01:52+00:00,SAT-55422,254.6273812766578,31.908824568474973,3466.9699831432986,-6.388903679334204,223766.43188605213,10.5,10500223766.431887,47.655,-122.3035,60.0,1.8666666666666667
2026-01-20T23:01:53+00:00,SAT-55422,254.6477218536059,31.96755840881737,3460.598116540443,-6.388336099125907,223746.55282629566,10.5,10500223746.552826,47.655,-122.3035,60.0,1.8833333333333333
2026-01-20T23:01:54+00:00,SAT-55422,254.6682166366003,32.02638939601031,3454.2268160042477,-6.387758001625617,223726.3054064855,10.5,10500223726.305407,47.655,-122.3035,60.0,1.9
2026-01-20T23:01:55+00:00,SAT-55422,254.6888667259179,32.08531797963608,3447.8560920239597,-6.387169306600171,223705.6868165169,10.5,10500223705.686817,47.655,-122.3035,60.0,1.9166666666666667
2026-01-20T23:01:56+00:00,SAT-55422,254.70967323201234,32.14434461139168,3441.4859551688437,-6.3865699710257156,223684.69554951251,10.5,10500223684.695549,47.655,-122.3035,60.0,1.9333333333333333
2026-01-20T23:01:57+00:00,SAT-55422,254.73063727576408,32.203469745446384,3435.1164160510743,-6.385959897296612,223663.32818690996,10.5,10500223663.328186,47.655,-122.3035,60.0,1.95
2026-01-20T23:01:58+00:00,SAT-55422,254.75175998838944,32.26269383794701,3428.7474853801705,-6.385339041213494,223641.58318066056,10.5,10500223641.583181,47.655,-122.3035,60.0,1.9666666666666666
2026-01-20T23:01:59+00:00,SAT-55422,254.77304251177196,32.32201734752618,3422.3791739097337,-6.384707336498915,223619.45820944768,10.5,10500223619.45821,47.655,-122.3035,60.0,1.9833333333333334
2026-01-20T23:02:00+00:00,SAT-55422,254.7944859985038,32.38144073510953,3416.0114924594654,-6.384064705272769,223596.95054558065,10.5,10500223596.950546,47.655,-122.3035,60.0,2.0
2026-01-20T23:02:01+00:00,SAT-55422,254.81609161194868,32.44096446382008,3409.6444519267397,-6.383411080123259,223574.0578280132,10.5,10500223574.057829,47.655,-122.3035,60.0,2.0166666666666666
2026-01-20T23:02:02+00:00,SAT-55422,254.83786052642967,32.50058899908691,3403.2780632761633,-6.382746398188686,223550.77785506265,10.5,10500223550.777855,47.655,-122.3035,60.0,2.033333333333333
2026-01-20T23:02:03+00:00,SAT-55422,254.85979392735408,32.56031480870013,3396.912337535037,-6.382070607186955,223527.10879558892,10.5,10500223527.108795,47.655,-122.3035,60.0,2.05
2026-01-20T23:02:04+00:00,SAT-55422,254.88189301141105,32.62014236292315,3390.547285782802,-6.381383605027895,223503.0470739624,10.5,10500223503.047073,47.655,-122.3035,60.0,2.066666666666667
2026-01-20T23:02:05+00:00,SAT-55422,254.90415898647157,32.680072134036045,3384.1829192007212,-6.380685348981915,223478.59119361205,10.5,10500223478.591194,47.655,-122.3035,60.0,2.0833333333333335
2026-01-20T23:02:06+00:00,SAT-55422,254.92659307199074,32.74010459690542,3377.8192490126694,-6.379975746534719,223453.73791429587,10.5,10500223453.737915,47.655,-122.3035,60.0,2.1
2026-01-20T23:02:07+00:00,SAT-55422,254.9491964989161,32.8002402285271,3371.456286534792,-6.3792547538162685,223428.48569949955,10.5,10500223428.485699,47.655,-122.3035,60.0,2.1166666666666667
2026-01-20T23:02:08+00:00,SAT-55422,254.97197051004645,32.86047950849757,3365.0940431269864,-6.378522260660783,223402.83069075146,10.5,10500223402.83069,47.655,-122.3035,60.0,2.1333333333333333
2026-01-20T23:02:09+00:00,SAT-55422,254.99491635986777,32.92082291839735,3358.7325302590207,-6.377778221900737,223376.7713060938,10.5,10500223376.771307,47.655,-122.3035,60.0,2.15
2026-01-20T23:02:10+00:00,SAT-55422,255.01803531499473,32.98127094241855,3352.3717594457116,-6.3770225696150975,223350.30516664474,10.5,10500223350.305166,47.655,-122.3035,60.0,2.1666666666666665
2026-01-20T23:02:11+00:00,SAT-55422,255.04132865419422,33.0418240671606,3346.0117422696158,-6.376255219213738,223323.42930970015,10.5,10500223323.42931,47.655,-122.3035,60.0,2.183333333333333
2026-01-20T23:02:12+00:00,SAT-55422,255.0647976684788,33.10248278148372,3339.652490397653,-6.37547608512871,223296.14073830855,10.5,10500223296.140738,47.655,-122.3035,60.0,2.2
2026-01-20T23:02:13+00:00,SAT-55422,255.08844366122452,33.163247576508844,3333.2940155820847,-6.374685108613873,223268.43739493162,10.5,10500223268.437395,47.655,-122.3035,60.0,2.216666666666667
2026-01-20T23:02:14+00:00,SAT-55422,255.11226794845942,33.22411894588524,3326.93632963376,-6.373882202759583,223240.316235626,10.5,10500223240.316236,47.655,-122.3035,60.0,2.2333333333333334
2026-01-20T23:02:15+00:00,SAT-55422,255.13627185887322,33.285097385531856,3320.5794444502085,-6.373067323719178,223211.7757246961,10.5,10500223211.775724,47.655,-122.3035,60.0,2.25
2026-01-20T23:02:16+00:00,SAT-55422,255.16045673417256,33.346183394061846,3314.2233719726855,-6.372240323438585,223182.810676662,10.5,10500223182.810677,47.655,-122.3035,60.0,2.2666666666666666
2026-01-20T23:02:17+00:00,SAT-55422,255.18482392875683,33.4073774717907,3307.86812429011,-6.371401194830677,223153.42084330256,10.5,10500223153.420843,47.655,-122.3035,60.0,2.283333333333333
2026-01-20T23:02:18+00:00,SAT-55422,255.20937481052619,33.4686801221029,3301.513713498465,-6.370549826191292,223123.60231226552,10.5,10500223123.602312,47.655,-122.3035,60.0,2.3
2026-01-20T23:02:19+00:00,SAT-55422,255.23411076054504,33.53009185045457,3295.160151805144,-6.369686143876843,223093.35250424096,10.5,10500223093.352505,47.655,-122.3035,60.0,2.316666666666667
2026-01-20T23:02:20+00:00,SAT-55422,255.25903317340033,33.591613164751216,3288.807451490984,-6.368810072996575,223062.6687962378,10.5,10500223062.668797,47.655,-122.3035,60.0,2.3333333333333335
2026-01-20T23:02:21+00:00,SAT-55422,255.28414345733677,33.65324457534488,3282.455624911515,-6.367921516410375,223031.54778599847,10.5,10500223031.547787,47.655,-122.3035,60.0,2.35
2026-01-20T23:02:22+00:00,SAT-55422,255.30944303433674,33.71498659482785,3276.1046845191486,-6.3670204195811815,222999.9875634043,10.5,10500222999.987564,47.655,-122.3035,60.0,2.3666666666666667
2026-01-20T23:02:23+00:00,SAT-55422,255.3349333404763,33.776839738456616,3269.754642820686,-6.36610666234958,222967.98391996435,10.5,10500222967.98392,47.655,-122.3035,60.0,2.3833333333333333
2026-01-20T23:02:24+00:00,SAT-55422,255.3606158257901,33.83880452352223,3263.4055124427696,-6.365180188445475,222935.53488486187,10.5,10500222935.534885,47.655,-122.3035,60.0,2.4
2026-01-20T23:02:25+00:00,SAT-55422,255.38649195474352,33.90088146998107,3257.05730606816,-6.364240925025727,222902.63790682197,10.5,10500222902.637907,47.655,-122.3035,60.0,2.4166666666666665
2026-01-20T23:02:26+00:00,SAT-55422,255.41256320634005,33.963071100304674,3250.7100364522676,-6.363288760099538,222869.28906345318,10.5,10500222869.289062,47.655,-122.3035,60.0,2.433333333333333
2026-01-20T23:02:27+00:00,SAT-55422,255.43883107409073,34.02537393910306,3244.363716462195,-6.362323608367809,222835.48536722027,10.5,10500222835.485367,47.655,-122.3035,60.0,2.45
2026-01-20T23:02:28+00:00,SAT-55422,255.46529706634414,34.08779051339496,3238.0183590501165,-6.361345415902832,222801.22492934676,10.5,10500222801.22493,47.655,-122.3035,60.0,2.466666666666667
2026-01-20T23:02:29+00:00,SAT-55422,255.4919627066023,34.15032135292459,3231.673977221989,-6.360354052664384,222766.50319527395,10.5,10500222766.503195,47.655,-122.3035,60.0,2.4833333333333334
2026-01-20T23:02:30+00:00,SAT-55422,255.51882953335246,34.21296698942133,3225.330584113465,-6.359349479141425,222731.31878115813,10.5,10500222731.31878,47.655,-122.3035,60.0,2.5
2026-01-20T23:02:31+00:00,SAT-55422,255.5458991006809,34.275727957498916,3218.9881928996015,-6.358331552641599,222695.6666893094,10.5,10500222695.666689,47.655,-122.3035,60.0,2.5166666666666666
2026-01-20T23:02:32+00:00,SAT-55422,255.57317297796783,34.338604793643725,3212.646816897767,-6.357300221539435,222659.5451115854,10.5,10500222659.54511,47.655,-122.3035,60.0,2.533333333333333
2026-01-20T23:02:33+00:00,SAT-55422,255.60065275052318,34.40159803712283,3206.306469476818,-6.356255384777465,222622.9505085261,10.5,10500222622.950508,47.655,-122.3035,60.0,2.55
2026-01-20T23:02:34+00:00,SAT-55422,255.62834001954158,34.46470822950202,3199.9671641064,-6.355196956329835,222585.8798671422,10.5,10500222585.879868,47.655,-122.3035,60.0,2.566666666666667
2026-01-20T23:02:35+00:00,SAT-55422,255.6562364023711,34.52793591480084,3193.628914341954,-6.354124828328427,222548.3294094359,10.5,10500222548.329409,47.655,-122.3035,60.0,2.5833333333333335
2026-01-20T23:02:36+00:00,SAT-55422,255.6843435326131,34.59128163928182,3187.291733846501,-6.353038923580245,222510.29643178204,10.5,10500222510.296432,47.655,-122.3035,60.0,2.6
2026-01-20T23:02:37+00:00,SAT-55422,255.7126630604642,34.65474595176118,3180.95563636005,-6.351939154231882,222471.77785718263,10.5,10500222471.777857,47.655,-122.3035,60.0,2.6166666666666667
2026-01-20T23:02:38+00:00,SAT-55422,255.74119665289615,34.71832940351077,3174.6206357102296,-6.350825392643941,222432.76921516613,10.5,10500222432.769215,47.655,-122.3035,60.0,2.6333333333333333
2026-01-20T23:02:39+00:00,SAT-55422,255.76994599362655,34.782032547860744,3168.286745851966,-6.3496975762586345,222393.2683146941,10.5,10500222393.268314,47.655,-122.3035,60.0,2.65
2026-01-20T23:02:40+00:00,SAT-55422,255.7989127837035,34.84585594086132,3161.9539808025775,-6.348555591837992,222353.2711896939,10.5,10500222353.27119,47.655,-122.3035,60.0,2.6666666666666665
2026-01-20T23:02:41+00:00,SAT-55422,255.82809874143015,34.90980014077493,3155.622354692318,-6.347399369653754,222312.77539798687,10.5,10500222312.775398,47.655,-122.3035,60.0,2.683333333333333
2026-01-20T23:02:42+00:00,SAT-55422,255.8575056028348,34.97386570852334,3149.2918817209834,-6.34622876239791,222271.77578022346,10.5,10500222271.77578,47.655,-122.3035,60.0,2.7
2026-01-20T23:02:43+00:00,SAT-55422,255.88713512146322,35.038053206902745,3142.962576235285,-6.345043703170952,222230.26999329982,10.5,10500222230.269993,47.655,-122.3035,60.0,2.716666666666667
2026-01-20T23:02:44+00:00,SAT-55422,255.91698906903628,35.102363201402696,3136.634452648656,-6.343844097586306,222188.25473139892,10.5,10500222188.254732,47.655,-122.3035,60.0,2.7333333333333334
2026-01-20T23:02:45+00:00,SAT-55422,255.94706923555037,35.16679625993274,3130.3075254686632,-6.342629844287668,222145.72644459424,10.5,10500222145.726444,47.655,-122.3035,60.0,2.75
2026-01-20T23:02:46+00:00,SAT-55422,255.97737742944662,35.23135295275325,3123.9818093039603,-6.341400792682915,222102.67985851268,10.5,10500222102.67986,47.655,-122.3035,60.0,2.7666666666666666
2026-01-20T23:02:47+00:00,SAT-55422,256.00791547758985,35.29603385197297,3117.6573189133915,-6.340156904501575,222059.11363276036,10.5,10500222059.113632,47.655,-122.3035,60.0,2.783333333333333
2026-01-20T23:02:48+00:00,SAT-55422,256.0386852261237,35.360839532700375,3111.334069093968,-6.338898048964978,222015.02318691512,10.5,10500222015.023188,47.655,-122.3035,60.0,2.8
2026-01-20T23:02:49+00:00,SAT-55422,256.0696885402032,35.42577057209971,3105.012074773134,-6.337624109906791,221970.4044523405,10.5,10500221970.404453,47.655,-122.3035,60.0,2.816666666666667
2026-01-20T23:02:50+00:00,SAT-55422,256.10092730431245,35.49082754953819,3098.691350994187,-6.336334997764969,221925.25429219496,10.5,10500221925.254292,47.655,-122.3035,60.0,2.8333333333333335
2026-01-20T23:02:51+00:00,SAT-55422,256.13240342267875,35.556011046861855,3092.371912889749,-6.335030599960194,221879.5687634745,10.5,10500221879.568764,47.655,-122.3035,60.0,2.85
2026-01-20T23:02:52+00:00,SAT-55422,256.1641188193764,35.62132164815806,3086.0537757047223,-6.3337108085938505,221833.3440871132,10.5,10500221833.344088,47.655,-122.3035,60.0,2.8666666666666667
2026-01-20T23:02:53+00:00,SAT-55422,256.19607543863253,35.68675993980328,3079.7369547916182,-6.3323755252009,221786.57681444893,10.5,10500221786.576815,47.655,-122.3035,60.0,2.8833333333333333
2026-01-20T23:02:54+00:00,SAT-55422,256.2282752451203,35.75232651055966,3073.421465601151,-6.331024607453889,221739.26196057218,10.5,10500221739.261961,47.655,-122.3035,60.0,2.9
2026-01-20T23:02:55+00:00,SAT-55422,256.2607202239851,35.81802195111715,3067.1073237259834,-6.329657976375465,221691.39675936205,10.5,10500221691.396759,47.655,-122.3035,60.0,2.9166666666666665
2026-01-20T23:02:56+00:00,SAT-55422,256.2934123814722,35.883846854749926,3060.7945448375453,-6.32827551983659,221642.97728358532,10.5,10500221642.977283,47.655,-122.3035,60.0,2.933333333333333
2026-01-20T23:02:57+00:00,SAT-55422,256.3263537450132,35.94980181697026,3054.483144719095,-6.32687708660123,221593.99823631626,10.5,10500221593.998236,47.655,-122.3035,60.0,2.95
2026-01-20T23:02:58+00:00,SAT-55422,256.3595463632576,36.01588743511293,3048.1731393047244,-6.325462610912859,221544.45731448327,10.5,10500221544.457314,47.655,-122.3035,60.0,2.966666666666667
2026-01-20T23:02:59+00:00,SAT-55422,256.3929923068827,36.082104309228704,3041.864544594107,-6.3240319554535445,221494.3497086315,10.5,10500221494.349709,47.655,-122.3035,60.0,2.9833333333333334
2026-01-20T23:03:00+00:00,SAT-55422,256.4266936684256,36.148453041328,3035.5573767238684,-6.322584993070767,221443.67096534182,10.5,10500221443.670965,47.655,-122.3035,60.0,3.0
2026-01-20T23:03:01+00:00,SAT-55422,256.46065256265604,36.214934235482275,3029.2516519574456,-6.321121627222592,221392.41770330732,10.5,10500221392.417704,47.655,-122.3035,60.0,3.0166666666666666
2026-01-20T23:03:02+00:00,SAT-55422,256.49487112703343,36.28154849813979,3022.9473866545623,-6.319641717631215,221340.5850094059,10.5,10500221340.585009,47.655,-122.3035,60.0,3.033333333333333
2026-01-20T23:03:03+00:00,SAT-55422,256.52935152175723,36.34829643765763,3016.6445973148448,-6.318145160251341,221288.16923953133,10.5,10500221288.169239,47.655,-122.3035,60.0,3.05
2026-01-20T23:03:04+00:00,SAT-55422,256.56409593027246,36.41517866467672,3010.3433005416878,-6.3166318338781515,221235.166148578,10.5,10500221235.16615,47.655,-122.3035,60.0,3.066666666666667
2026-01-20T23:03:05+00:00,SAT-55422,256.59910655949,36.48219579193315,3004.0435130593664,-6.315101599721396,221181.57087552437,10.5,10500221181.570875,47.655,-122.3035,60.0,3.0833333333333335
2026-01-20T23:03:06+00:00,SAT-55422,256.6343856399674,36.549348434059496,2997.7452517305774,-6.313554345232762,221127.37947845238,10.5,10500221127.379478,47.655,-122.3035,60.0,3.1
2026-01-20T23:03:07+00:00,SAT-55422,256.66993542640387,36.61663720785679,2991.4485335302656,-6.311989961484486,221072.58814225107,10.5,10500221072.588142,47.655,-122.3035,60.0,3.1166666666666667
2026-01-20T23:03:08+00:00,SAT-55422,256.70575819797943,36.684062732322346,2985.1533755420114,-6.310408295597966,221017.1915124651,10.5,10500221017.191513,47.655,-122.3035,60.0,3.1333333333333333
2026-01-20T23:03:09+00:00,SAT-55422,256.7418562584021,36.7516256281671,2978.8597950018684,-6.308809225537946,220961.18531490353,10.5,10500220961.185314,47.655,-122.3035,60.0,3.15
2026-01-20T23:03:10+00:00,SAT-55422,256.778231936421,36.81932651813252,2972.5678092675985,-6.307192644391757,220904.56580503253,10.5,10500220904.565805,47.655,-122.3035,60.0,3.1666666666666665
2026-01-20T23:03:11+00:00,SAT-55422,256.8148875862881,36.88716602714365,2966.277435803592,-6.305558389950898,220847.32730162417,10.5,10500220847.327301,47.655,-122.3035,60.0,3.183333333333333
2026-01-20T23:03:12+00:00,SAT-55422,256.8518255877036,36.955144781695004,2959.9886922360142,-6.303906336626636,220789.46540602992,10.5,10500220789.465406,47.655,-122.3035,60.0,3.2
2026-01-20T23:03:13+00:00,SAT-55422,256.8890483464266,37.02326341023153,2953.7015963162853,-6.302236394890473,220730.97698258297,10.5,10500220730.976982,47.655,-122.3035,60.0,3.216666666666667
2026-01-20T23:03:14+00:00,SAT-55422,256.92655829485966,37.091522543526125,2947.4161658851144,-6.300548377572184,220671.85547579027,10.5,10500220671.855476,47.655,-122.3035,60.0,3.2333333333333334
2026-01-20T23:03:15+00:00,SAT-55422,256.96435789174683,37.15992281360091,2941.1324189698826,-6.29884217619632,220612.09708638288,10.5,10500220612.097086,47.655,-122.3035,60.0,3.25
2026-01-20T23:03:16+00:00,SAT-55422,257.0024496230635,37.228464854562944,2934.850373706156,-6.297117659937462,220551.6972323011,10.5,10500220551.697233,47.655,-122.3035,60.0,3.2666666666666666
2026-01-20T23:03:17+00:00,SAT-55422,257.04083600224556,37.2971493023456,2928.5700483599785,-6.29537465888859,220490.6499626825,10.5,10500220490.649963,47.655,-122.3035,60.0,3.283333333333333
2026-01-20T23:03:18+00:00,SAT-55422,257.0795195702681,37.3659767942563,2922.291461366847,-6.2936130608972904,220428.9513494751,10.5,10500220428.95135,47.655,-122.3035,60.0,3.3
2026-01-20T23:03:19+00:00,SAT-55422,257.1185028964502,37.43494796959059,2916.014631274112,-6.291832736062085,220366.59684297958,10.5,10500220366.596844,47.655,-122.3035,60.0,3.316666666666667
2026-01-20T23:03:20+00:00,SAT-55422,257.15778857869367,37.504063469414966,2909.7395767586795,-6.290033515994513,220303.5805455199,10.5,10500220303.580545,47.655,-122.3035,60.0,3.3333333333333335
2026-01-20T23:03:21+00:00,SAT-55422,257.19737924362266,37.57332393611929,2903.466316665394,-6.288215257223631,220239.8974321366,10.5,10500220239.897432,47.655,-122.3035,60.0,3.35
2026-01-20T23:03:22+00:00,SAT-55422,257.2372775471271,37.642730013663524,2897.19486998219,-6.286377852725468,220175.54375439763,10.5,10500220175.543755,47.655,-122.3035,60.0,3.3666666666666667
2026-01-20T23:03:23+00:00,SAT-55422,257.27748617505915,37.71228234795999,2890.9252558037383,-6.284521102705111,220110.51251463994,10.5,10500220110.512514,47.655,-122.3035,60.0,3.3833333333333333
2026-01-20T23:03:24+00:00,SAT-55422,257.3180078429432,37.78198158581244,2884.657493423974,-6.28264489721887,220044.79986217042,10.5,10500220044.799862,47.655,-122.3035,60.0,3.4
2026-01-20T23:03:25+00:00,SAT-55422,257.3588452970582,37.85182837588801,2878.391602246481,-6.280749076340657,219978.40019570105,10.5,10500219978.400196,47.655,-122.3035,60.0,3.4166666666666665
2026-01-20T23:03:26+00:00,SAT-55422,257.4000013144867,37.92182336812974,2872.1276018343437,-6.278833495048435,219911.30843594662,10.5,10500219911.308435,47.655,-122.3035,60.0,3.433333333333333
2026-01-20T23:03:27+00:00,SAT-55422,257.44147870366106,37.99196721389265,2865.865511895282,-6.276897985099608,219843.51869033973,10.5,10500219843.51869,47.655,-122.3035,60.0,3.45
2026-01-20T23:03:28+00:00,SAT-55422,257.4832803046044,38.06226056564798,2859.6053523048095,-6.2749424144429256,219775.026333887,10.5,10500219775.026335,47.655,-122.3035,60.0,3.466666666666667
2026-01-20T23:03:29+00:00,SAT-55422,257.5254089896681,38.13270407735744,2853.3471430701384,-6.272966606446099,219705.82518017862,10.5,10500219705.82518,47.655,-122.3035,60.0,3.4833333333333334
2026-01-20T23:03:30+00:00,SAT-55422,257.5678676636148,38.2032984039333,2847.090904374643,-6.270970420605675,219635.91030818922,10.5,10500219635.910309,47.655,-122.3035,60.0,3.5
2026-01-20T23:03:31+00:00,SAT-55422,257.61065926437277,38.2740442016103,2840.836656541825,-6.268953698430776,219565.27616689794,10.5,10500219565.276167,47.655,-122.3035,60.0,3.5166666666666666
2026-01-20T23:03:32+00:00,SAT-55422,257.65378676334007,38.3449421277016,2834.584420053257,-6.266916269808051,219493.91679821556,10.5,10500219493.916798,47.655,-122.3035,60.0,3.533333333333333
2026-01-20T23:03:33+00:00,SAT-55422,257.6972531657779,38.41599284042829,2828.3342155601686,-6.2648579727642995,219421.8265291555,10.5,10500219421.826529,47.655,-122.3035,60.0,3.55
2026-01-20T23:03:34+00:00,SAT-55422,257.7410615113303,38.48719699896436,2822.0860638753315,-6.262778655344861,219349.00003762284,10.5,10500219349.000038,47.655,-122.3035,60.0,3.566666666666667
2026-01-20T23:03:35+00:00,SAT-55422,257.78521487461086,38.55855526351248,2815.8399859630676,-6.260678152354934,219275.43153779677,10.5,10500219275.431538,47.655,-122.3035,60.0,3.5833333333333335
2026-01-20T23:03:36+00:00,SAT-55422,257.8297163655612,38.63006829510253,2809.596002952452,-6.258556281870645,219201.1146579337,10.5,10500219201.114658,47.655,-122.3035,60.0,3.6
2026-01-20T23:03:37+00:00,SAT-55422,257.87456912984464,38.701736755355014,2803.354136154,-6.256412891234463,219126.0440513212,10.5,10500219126.044052,47.655,-122.3035,60.0,3.6166666666666667
2026-01-20T23:03:38+00:00,SAT-55422,257.9197763495535,38.7735613067631,2797.1144070304754,-6.254247811119761,219050.21378742452,10.5,10500219050.213787,47.655,-122.3035,60.0,3.6333333333333333
2026-01-20T23:03:39+00:00,SAT-55422,257.9653412436273,38.845542612454466,2790.8768372135187,-6.252060853711379,218973.61728816235,10.5,10500218973.617289,47.655,-122.3035,60.0,3.65
2026-01-20T23:03:40+00:00,SAT-55422,258.01126706818457,38.917681335919085,2784.641448522084,-6.249851861878949,218896.24905016445,10.5,10500218896.24905,47.655,-122.3035,60.0,3.6666666666666665
2026-01-20T23:03:41+00:00,SAT-55422,258.05755711733696,38.989978141311305,2778.408262931837,-6.247620660387787,218818.102935971,10.5,10500218818.102936,47.655,-122.3035,60.0,3.683333333333333
2026-01-20T23:03:42+00:00,SAT-55422,258.104214723558,39.062433693181184,2772.17730259321,-6.245367056651565,218739.17220039415,10.5,10500218739.172201,47.655,-122.3035,60.0,3.7
2026-01-20T23:03:43+00:00,SAT-55422,258.1512432580937,39.135048656212255,2765.948589848709,-6.243090887789917,218659.45113867449,10.5,10500218659.45114,47.655,-122.3035,60.0,3.716666666666667
2026-01-20T23:03:44+00:00,SAT-55422,258.1986461317619,39.207823695505226,2759.722147203287,-6.240791968121191,218578.93324745513,10.5,10500218578.933247,47.655,-122.3035,60.0,3.7333333333333334
2026-01-20T23:03:45+00:00,SAT-55422,258.2464267953342,39.28075947624777,2753.4979973470804,-6.238470125989079,218497.61251460612,10.5,10500218497.612514,47.655,-122.3035,60.0,3.75
2026-01-20T23:03:46+00:00,SAT-55422,258.29458874021697,39.35385666381325,2747.276163141428,-6.236125145322422,218415.4813724014,10.5,10500218415.481373,47.655,-122.3035,60.0,3.7666666666666666
2026-01-20T23:03:47+00:00,SAT-55422,258.343135498661,39.427115923165324,2741.0566676631593,-6.233756871880585,218332.53441868155,10.5,10500218332.534418,47.655,-122.3035,60.0,3.783333333333333
2026-01-20T23:03:48+00:00,SAT-55422,258.3920706448743,39.50053791951705,2734.839534142937,-6.231365112278324,218248.76488027727,10.5,10500218248.764881,47.655,-122.3035,60.0,3.8
2026-01-20T23:03:49+00:00,SAT-55422,258.441397795301,39.57412331779476,2728.6247860042913,-6.228949666028529,218164.16573528197,10.5,10500218164.165735,47.655,-122.3035,60.0,3.816666666666667
2026-01-20T23:03:50+00:00,SAT-55422,258.49112060915263,39.647872782475424,2722.412446870706,-6.226510336206207,218078.73008654933,10.5,10500218078.730087,47.655,-122.3035,60.0,3.8333333333333335
2026-01-20T23:03:51+00:00,SAT-55422,258.5412427890691,39.72178697755026,2716.202540562063,-6.224046955181672,217992.45206297873,10.5,10500217992.452063,47.655,-122.3035,60.0,3.85
2026-01-20T23:03:52+00:00,SAT-55422,258.59176808200425,39.795866566790416,2709.9950910654284,-6.221559311329165,217905.32425254086,10.5,10500217905.324253,47.655,-122.3035,60.0,3.8666666666666667
2026-01-20T23:03:53+00:00,SAT-55422,258.6427002794807,39.870112213138185,2703.790122578929,-6.2190472013866955,217817.33953614105,10.5,10500217817.339537,47.655,-122.3035,60.0,3.8833333333333333
2026-01-20T23:03:54+00:00,SAT-55422,258.69404321829484,39.94452457871626,2697.587659503413,-6.216510425593403,217728.49091730898,10.5,10500217728.490917,47.655,-122.3035,60.0,3.9
2026-01-20T23:03:55+00:00,SAT-55422,258.74580078123256,40.01910432478001,2691.3877264389544,-6.213948791899644,217638.77166965374,10.5,10500217638.77167,47.655,-122.3035,60.0,3.9166666666666665
2026-01-20T23:03:56+00:00,SAT-55422,258.7979768977879,40.09385211171507,2685.1903481771665,-6.211362092645295,217548.17452003944,10.5,10500217548.17452,47.655,-122.3035,60.0,3.933333333333333
2026-01-20T23:03:57+00:00,SAT-55422,258.85057554472473,40.16876859875365,2678.9955497167684,-6.2087501198881725,217456.69218545122,10.5,10500217456.692186,47.655,-122.3035,60.0,3.95
2026-01-20T23:03:58+00:00,SAT-55422,258.90360074674334,40.24385444386905,2672.8033562638666,-6.206112665862954,217364.31738906863,10.5,10500217364.317389,47.655,-122.3035,60.0,3.966666666666667
2026-01-20T23:03:59+00:00,SAT-55422,258.95705657720293,40.31911030367387,2666.6137932317793,-6.203449520070094,217271.0427583071,10.5,10500217271.042759,47.655,-122.3035,60.0,3.9833333333333334
2026-01-20T23:04:00+00:00,SAT-55422,259.010947158797,40.394536833279545,2660.426886243763,-6.200760485737571,217176.86140137818,10.5,10500217176.8614,47.655,-122.3035,60.0,4.0
2026-01-20T23:04:01+00:00,SAT-55422,259.06527666442605,40.47013468635547,2654.2426611193205,-6.1980452951016645,217081.76394006374,10.5,10500217081.76394,47.655,-122.3035,60.0,4.016666666666667
2026-01-20T23:04:02+00:00,SAT-55422,259.12004931722464,40.54590451413968,2648.061143945006,-6.1953037996925815,216985.74517432356,10.5,10500216985.745174,47.655,-122.3035,60.0,4.033333333333333
2026-01-20T23:04:03+00:00,SAT-55422,259.17526939250394,40.6218469667906,2641.8823609554456,-6.192535737755791,216888.7959364068,10.5,10500216888.795937,47.655,-122.3035,60.0,4.05
2026-01-20T23:04:04+00:00,SAT-55422,259.2309412173704,40.69796269186874,2635.7063386463237,-6.189740893121035,216790.9086551166,10.5,10500216790.908655,47.655,-122.3035,60.0,4.066666666666666
2026-01-20T23:04:05+00:00,SAT-55422,259.28706917197894,40.77425233477383,2629.533103728918,-6.186919052040734,216692.07584410848,10.5,10500216692.075844,47.655,-122.3035,60.0,4.083333333333333
2026-01-20T23:04:06+00:00,SAT-55422,259.3436576903146,40.850716538644306,2623.3626831276824,-6.184069983076686,216592.28939743777,10.5,10500216592.289398,47.655,-122.3035,60.0,4.1
2026-01-20T23:04:07+00:00,SAT-55422,259.400711260841,40.92735594400548,2617.195103997894,-6.181193467836695,216491.54166608586,10.5,10500216491.541666,47.655,-122.3035,60.0,4.116666666666666
2026-01-20T23:04:08+00:00,SAT-55422,259.4582344274262,41.00417118879336,2611.030393712638,-6.178289233342199,216389.8230891889,10.5,10500216389.82309,47.655,-122.3035,60.0,4.133333333333334
2026-01-20T23:04:09+00:00,SAT-55422,259.51623178960824,41.081162907529084,2604.8685799172517,-6.175357114139205,216287.1278718481,10.5,10500216287.127872,47.655,-122.3035,60.0,4.15
2026-01-20T23:04:10+00:00,SAT-55422,259.57470800455206,41.15833173252047,2598.7096904220834,-6.172396821853143,216183.44591396625,10.5,10500216183.445913,47.655,-122.3035,60.0,4.166666666666667
2026-01-20T23:04:11+00:00,SAT-55422,259.63366778662385,41.23567829216837,2592.5537533250886,-6.169408138867356,216078.7695936875,10.5,10500216078.769594,47.655,-122.3035,60.0,4.183333333333334
2026-01-20T23:04:12+00:00,SAT-55422,259.6931159089783,41.313203211698514,2586.400796941258,-6.166390792848727,215973.0893727541,10.5,10500215973.089373,47.655,-122.3035,60.0,4.2
2026-01-20T23:04:13+00:00,SAT-55422,259.75305720387746,41.390907112309876,2580.2508498571906,-6.163344603016872,215866.39891947235,10.5,10500215866.39892,47.655,-122.3035,60.0,4.216666666666667
2026-01-20T23:04:14+00:00,SAT-55422,259.8134965645499,41.46879061217074,2574.1039408397814,-6.160269265752668,215758.6875998162,10.5,10500215758.6876,47.655,-122.3035,60.0,4.233333333333333
2026-01-20T23:04:15+00:00,SAT-55422,259.8744389447904,41.546854324688226,2567.9600989587375,-6.157164563603611,215649.94779767914,10.5,10500215649.947798,47.655,-122.3035,60.0,4.25
2026-01-20T23:04:16+00:00,SAT-55422,259.93588936079266,41.6250988594269,2561.8193535006367,-6.154030229860542,215540.17017177827,10.5,10500215540.170172,47.655,-122.3035,60.0,4.266666666666667
2026-01-20T23:04:17+00:00,SAT-55422,259.9978528915791,41.70352482130271,2555.681734018056,-6.150866015350422,215429.34599501977,10.5,10500215429.345995,47.655,-122.3035,60.0,4.283333333333333
2026-01-20T23:04:18+00:00,SAT-55422,260.06033468010844,41.78213281061452,2549.5472703120795,-6.147671658567245,215317.4661083571,10.5,10500215317.466108,47.655,-122.3035,60.0,4.3
2026-01-20T23:04:19+00:00,SAT-55422,260.1233399341357,41.860923422699635,2543.415992444602,-6.144446915494373,215204.52196529545,10.5,10500215204.521965,47.655,-122.3035,60.0,4.316666666666666
2026-01-20T23:04:20+00:00,SAT-55422,260.186873927372,41.93989724795706,2537.2879307208823,-6.141191503243467,215090.50365788856,10.5,10500215090.503658,47.655,-122.3035,60.0,4.333333333333333
2026-01-20T23:04:21+00:00,SAT-55422,260.25094200005714,42.019054871143574,2531.163115728314,-6.137905172514944,214975.4024546105,10.5,10500214975.402454,47.655,-122.3035,60.0,4.35
2026-01-20T23:04:22+00:00,SAT-55422,260.3155495603396,42.09839687159757,2525.0415783029257,-6.1345876556223375,214859.2089799489,10.5,10500214859.20898,47.655,-122.3035,60.0,4.366666666666666
2026-01-20T23:04:23+00:00,SAT-55422,260.3807020851201,42.177923822785836,2518.9233495477188,-6.131238661086363,214741.9130250662,10.5,10500214741.913025,47.655,-122.3035,60.0,4.383333333333334
2026-01-20T23:04:24+00:00,SAT-55422,260.44640512079036,42.257636291767916,2512.8084608563954,-6.127857946865831,214623.5061126562,10.5,10500214623.506113,47.655,-122.3035,60.0,4.4
2026-01-20T23:04:25+00:00,SAT-55422,260.5126642849107,42.337534839616666,2506.6969438640544,-6.124445220699308,214503.9780064872,10.5,10500214503.978006,47.655,-122.3035,60.0,4.416666666666667
2026-01-20T23:04:26+00:00,SAT-55422,260.579485266668,42.417620020521106,2500.588830497277,-6.1210002035207784,214383.31893248687,10.5,10500214383.318932,47.655,-122.3035,60.0,4.433333333333334
2026-01-20T23:04:27+00:00,SAT-55422,260.6468738281511,42.49789238172027,2494.4841529609653,-6.117522592163936,214261.51827248879,10.5,10500214261.518272,47.655,-122.3035,60.0,4.45
2026-01-20T23:04:28+00:00,SAT-55422,260.7148358051543,42.57835246293017,2488.382943762381,-6.114012142912499,214138.56749051786,10.5,10500214138.56749,47.655,-122.3035,60.0,4.466666666666667
2026-01-20T23:04:29+00:00,SAT-55422,260.7833771090575,42.65900079687734,2482.2852356518492,-6.1104685467561435,214014.4557637254,10.5,10500214014.455763,47.655,-122.3035,60.0,4.483333333333333
2026-01-20T23:04:30+00:00,SAT-55422,260.85250372716314,42.73983790816956,2476.1910616878845,-6.106891512258274,213889.1728847691,10.5,10500213889.172884,47.655,-122.3035,60.0,4.5
2026-01-20T23:04:31+00:00,SAT-55422,260.9222217240965,42.820864313255335,2470.100455219659,-6.103280718796766,213762.70762410588,10.5,10500213762.707624,47.655,-122.3035,60.0,4.516666666666667
2026-01-20T23:04:32+00:00,SAT-55422,260.99253724259216,42.90208051974897,2464.013449916112,-6.099635931146159,213635.05174314516,10.5,10500213635.051743,47.655,-122.3035,60.0,4.533333333333333
2026-01-20T23:04:33+00:00,SAT-55422,261.06345650583387,42.98348702729539,2457.9300796807825,-6.095956801633822,213506.1930649207,10.5,10500213506.193066,47.655,-122.3035,60.0,4.55
2026-01-20T23:04:34+00:00,SAT-55422,261.13498581720944,43.06508432575993,2451.8503787639534,-6.092243026308755,213376.12094378282,10.5,10500213376.120943,47.655,-122.3035,60.0,4.566666666666666
2026-01-20T23:04:35+00:00,SAT-55422,261.2071315621376,43.146872895510604,2445.7743817190476,-6.088494308230348,213244.82497961525,10.5,10500213244.82498,47.655,-122.3035,60.0,4.583333333333333
2026-01-20T23:04:36+00:00,SAT-55422,261.2799002094122,43.22885320719982,2439.7021233956393,-6.0847103367604465,213112.29429255583,10.5,10500213112.294292,47.655,-122.3035,60.0,4.6
2026-01-20T23:04:37+00:00,SAT-55422,261.3532983123165,43.3110257212572,2433.63363895311,-6.080890818404674,212978.51860319008,10.5,10500212978.518602,47.655,-122.3035,60.0,4.616666666666666
2026-01-20T23:04:38+00:00,SAT-55422,261.42733251015346,43.39339088779167,2427.5689638435547,-6.077035389710683,212843.48518187928,10.5,10500212843.485182,47.655,-122.3035,60.0,4.633333333333334
2026-01-20T23:04:39+00:00,SAT-55422,261.502009528656,43.475949145297974,2421.50813388155,-6.073143765742008,212707.18404894325,10.5,10500212707.18405,47.655,-122.3035,60.0,4.65
2026-01-20T23:04:40+00:00,SAT-55422,261.57733618235113,43.55870092137369,2415.45118516585,-6.069215617433974,212569.60367914502,10.5,10500212569.60368,47.655,-122.3035,60.0,4.666666666666667
2026-01-20T23:04:41+00:00,SAT-55422,261.6533193753823,43.64164663176148,2409.3981541233957,-6.065250606731497,212430.73223236564,10.5,10500212430.732233,47.655,-122.3035,60.0,4.683333333333334
2026-01-20T23:04:42+00:00,SAT-55422,261.7299661027345,43.724786679850176,2403.349077518282,-6.061248402451639,212290.55810917768,10.5,10500212290.55811,47.655,-122.3035,60.0,4.7
2026-01-20T23:04:43+00:00,SAT-55422,261.80728345176425,43.80812145638807,2397.3039924449035,-6.0572086749147775,212149.06976280626,10.5,10500212149.069763,47.655,-122.3035,60.0,4.716666666666667
2026-01-20T23:04:44+00:00,SAT-55422,261.8852786036359,43.89165133911212,2391.2629363264555,-6.053131101446082,212006.2558918139,10.5,10500212006.255892,47.655,-122.3035,60.0,4.733333333333333
2026-01-20T23:04:45+00:00,SAT-55422,261.9639588349088,43.97537669244739,2385.2259469079463,-6.049015314051753,211862.10360750105,10.5,10500211862.103607,47.655,-122.3035,60.0,4.75
2026-01-20T23:04:46+00:00,SAT-55422,262.0433315183383,44.05929786645645,2379.1930623013986,-6.044860977674183,211716.6011747331,10.5,10500211716.601175,47.655,-122.3035,60.0,4.766666666666667
2026-01-20T23:04:47+00:00,SAT-55422,262.12340412488203,44.14341519687742,2373.1643209529984,-6.0406677323245415,211569.73598517838,10.5,10500211569.735985,47.655,-122.3035,60.0,4.783333333333333
2026-01-20T23:04:48+00:00,SAT-55422,262.2041842248197,44.227729004331884,2367.13976166796,-6.036435255957681,211421.49675945367,10.5,10500211421.49676,47.655,-122.3035,60.0,4.8
2026-01-20T23:04:49+00:00,SAT-55422,262.2856794899166,44.312239594417484,2361.1194235726853,-6.032163165698108,211271.87008763955,10.5,10500211271.870089,47.655,-122.3035,60.0,4.816666666666666
2026-01-20T23:04:50+00:00,SAT-55422,262.3678976940479,44.39694725638246,2355.103346175429,-6.027851095792762,211120.84315951672,10.5,10500211120.843159,47.655,-122.3035,60.0,4.833333333333333
2026-01-20T23:04:51+00:00,SAT-55422,262.45084671508346,44.481852262894854,2349.0915693492248,-6.023498686617201,210968.403379516,10.5,10500210968.40338,47.655,-122.3035,60.0,4.85
2026-01-20T23:04:52+00:00,SAT-55422,262.53453453656954,44.56695486963931,2343.0841333257717,-6.019105589844205,210814.53854774477,10.5,10500210814.538548,47.655,-122.3035,60.0,4.866666666666666
2026-01-20T23:04:53+00:00,SAT-55422,262.61896924957125,44.6522553149789,2337.0810786841676,-6.014671417723943,210659.23508356372,10.5,10500210659.235083,47.655,-122.3035,60.0,4.883333333333334
2026-01-20T23:04:54+00:00,SAT-55422,262.7041590537457,44.73775381888158,2331.082446390224,-6.010195783299409,210502.47943410167,10.5,10500210502.479435,47.655,-122.3035,60.0,4.9
2026-01-20T23:04:55+00:00,SAT-55422,262.7901122590224,44.8234505823961,2325.08827779568,-6.005678321199213,210344.25880250704,10.5,10500210344.258802,47.655,-122.3035,60.0,4.916666666666667
2026-01-20T23:04:56+00:00,SAT-55422,262.87683728768684,44.90934578742126,2319.0986146166706,-6.001118651585999,210184.559885269,10.5,10500210184.559885,47.655,-122.3035,60.0,4.933333333333334
2026-01-20T23:04:57+00:00,SAT-55422,262.9643426758802,44.99543959593947,2313.113498948155,-5.996516355076814,210023.3679938224,10.5,10500210023.367994,47.655,-122.3035,60.0,4.95
2026-01-20T23:04:58+00:00,SAT-55422,263.0526370747631,45.081732148871716,2307.132973303359,-5.991871068893208,209860.67042213143,10.5,10500209860.670422,47.655,-122.3035,60.0,4.966666666666667
2026-01-20T23:04:59+00:00,SAT-55422,263.1417292531985,45.16822356630585,2301.157080557316,-5.987182390558665,209696.45307376605,10.5,10500209696.453074,47.655,-122.3035,60.0,4.983333333333333
2026-01-20T23:05:00+00:00,SAT-55422,263.23162809895933,45.25491394631951,2295.1858639864654,-5.982449908175803,209530.7015223376,10.5,10500209530.701523,47.655,-122.3035,60.0,5.0
2026-01-20T23:05:01+00:00,SAT-55422,263.32234262041356,45.34180336421786,2289.219367278045,-5.977673210654292,209363.40136972375,10.5,10500209363.40137,47.655,-122.3035,60.0,5.016666666666667
2026-01-20T23:05:02+00:00,SAT-55422,263.4138819484196,45.42889187190593,2283.2576345292855,-5.972851917805336,209194.5393001048,10.5,10500209194.5393,47.655,-122.3035,60.0,5.033333333333333
2026-01-20T23:05:03+00:00,SAT-55422,263.50625533873654,45.51617949768829,2277.3007102165943,-5.967985579425508,209024.09954545234,10.5,10500209024.099545,47.655,-122.3035,60.0,5.05
2026-01-20T23:05:04+00:00,SAT-55422,263.59947217281075,45.60366624456636,2271.348639265381,-5.963073801245026,208852.06829677077,10.5,10500208852.068296,47.655,-122.3035,60.0,5.066666666666666
2026-01-20T23:05:05+00:00,SAT-55422,263.69354196064353,45.69135209036797,2265.4014669942726,-5.958116144333279,208678.43018085344,10.5,10500208678.430182,47.655,-122.3035,60.0,5.083333333333333
2026-01-20T23:05:06+00:00,SAT-55422,263.7884743420592,45.779236986381264,2259.4592391596575,-5.953112185095698,208503.17036162675,10.5,10500208503.170362,47.655,-122.3035,60.0,5.1
2026-01-20T23:05:07+00:00,SAT-55422,263.8842790889445,45.8673208568481,2253.5220019403887,-5.948061485544674,208326.27349891196,10.5,10500208326.273499,47.655,-122.3035,60.0,5.116666666666666
2026-01-20T23:05:08+00:00,SAT-55422,263.98096610707887,45.95560359800395,2247.5898019521387,-5.942963622751151,208147.72477994455,10.5,10500208147.72478,47.655,-122.3035,60.0,5.133333333333334
2026-01-20T23:05:09+00:00,SAT-55422,264.078545438443,46.044085077532124,2241.6626862323815,-5.937818134201091,207967.50800552644,10.5,10500207967.508005,47.655,-122.3035,60.0,5.15
2026-01-20T23:05:10+00:00,SAT-55422,264.1770272626377,46.13276513318271,2235.7407022798716,-5.932624587511276,207785.6080317684,10.5,10500207785.608032,47.655,-122.3035,60.0,5.166666666666667
2026-01-20T23:05:11+00:00,SAT-55422,264.2764218995355,46.22164357241251,2229.8238980245937,-5.927382535635844,207602.00920123333,10.5,10500207602.009201,47.655,-122.3035,60.0,5.183333333333334
2026-01-20T23:05:12+00:00,SAT-55422,264.37673981120145,46.31072017133564,2223.9123218423865,-5.922091491249467,207416.69444572687,10.5,10500207416.694447,47.655,-122.3035,60.0,5.2
2026-01-20T23:05:13+00:00,SAT-55422,264.47799160329987,46.399994673254824,2218.006022595114,-5.916751022761754,207229.64864912783,10.5,10500207229.64865,47.655,-122.3035,60.0,5.216666666666667
2026-01-20T23:05:14+00:00,SAT-55422,264.5801880283871,46.48946678863414,2212.105049575079,-5.9113606528552385,207040.85509375957,10.5,10500207040.855093,47.655,-122.3035,60.0,5.233333333333333
2026-01-20T23:05:15+00:00,SAT-55422,264.68333998725393,46.57913619349939,2206.2094525506313,-5.905919919654457,206850.29760278962,10.5,10500206850.297604,47.655,-122.3035,60.0,5.25
2026-01-20T23:05:16+00:00,SAT-55422,264.7874585315369,46.669002528753964,2200.319281750763,-5.900428311024828,206657.95823909852,10.5,10500206657.958239,47.655,-122.3035,60.0,5.266666666666667
2026-01-20T23:05:17+00:00,SAT-55422,264.89255486502253,46.75906539845553,2194.434587915234,-5.8948853897626705,206463.82168996407,10.5,10500206463.82169,47.655,-122.3035,60.0,5.283333333333333
2026-01-20T23:05:18+00:00,SAT-55422,264.9986403474403,46.84932436999685,2188.555422219844,-5.889290643292772,206267.87000283413,10.5,10500206267.870003,47.655,-122.3035,60.0,5.3
2026-01-20T23:05:19+00:00,SAT-55422,265.1057264953472,46.93977897194423,2182.6818363516,-5.883643599081542,206070.08662758349,10.5,10500206070.086628,47.655,-122.3035,60.0,5.316666666666666
2026-01-20T23:05:20+00:00,SAT-55422,265.2138249853335,47.03042869363571,2176.813882468783,-5.87794371402043,205870.45254225348,10.5,10500205870.452541,47.655,-122.3035,60.0,5.333333333333333
2026-01-20T23:05:21+00:00,SAT-55422,265.3229476549703,47.121272983023346,2170.951613271333,-5.8721905248775395,205668.95152250348,10.5,10500205668.951523,47.655,-122.3035,60.0,5.35
2026-01-20T23:05:22+00:00,SAT-55422,265.43310650691444,47.2123112468443,2165.0950819211885,-5.866383527525284,205465.56591165307,10.5,10500205465.565912,47.655,-122.3035,60.0,5.366666666666666
2026-01-20T23:05:23+00:00,SAT-55422,265.54431371051515,47.303542848872326,2159.24434208307,-5.860522188043988,205260.27700957662,10.5,10500205260.27701,47.655,-122.3035,60.0,5.383333333333334
2026-01-20T23:05:24+00:00,SAT-55422,265.6565816037488,47.39496710831795,2153.3994479541943,-5.854605976672983,205053.06626181476,10.5,10500205053.066261,47.655,-122.3035,60.0,5.4
2026-01-20T23:05:25+00:00,SAT-55422,265.7699226957741,47.486583298720234,2147.560454260126,-5.848634392856206,204843.9161367767,10.5,10500204843.916138,47.655,-122.3035,60.0,5.416666666666667
2026-01-20T23:05:26+00:00,SAT-55422,265.8843496701299,47.57839064721325,2141.7274162256504,-5.842606900651258,204632.80786349272,10.5,10500204632.807863,47.655,-122.3035,60.0,5.433333333333334
2026-01-20T23:05:27+00:00,SAT-55422,265.99987538656944,47.670388332741794,2135.9003896100676,-5.836522953508693,204419.7222994892,10.5,10500204419.7223,47.655,-122.3035,60.0,5.45
2026-01-20T23:05:28+00:00,SAT-55422,266.11651288343546,47.76257548463092,2130.079430717768,-5.8303820040288095,204204.64027251312,10.5,10500204204.640272,47.655,-122.3035,60.0,5.466666666666667
2026-01-20T23:05:29+00:00,SAT-55422,266.2342753802589,47.85495118127785,2124.264596399083,-5.824183533636352,203987.5436198655,10.5,10500203987.54362,47.655,-122.3035,60.0,5.483333333333333
2026-01-20T23:05:30+00:00,SAT-55422,266.35317628107464,47.94751444929108,2118.4559440215367,-5.817926958581455,203768.4118961568,10.5,10500203768.411896,47.655,-122.3035,60.0,5.5
2026-01-20T23:05:31+00:00,SAT-55422,266.4732291756445,48.0402642610859,2112.653531534845,-5.811611723858657,203547.22566274798,10.5,10500203547.225662,47.655,-122.3035,60.0,5.516666666666667
2026-01-20T23:05:32+00:00,SAT-55422,266.59444784281817,48.1331995339497,2106.8574174422497,-5.805237273363466,203323.96544250753,10.5,10500203323.965443,47.655,-122.3035,60.0,5.533333333333333
2026-01-20T23:05:33+00:00,SAT-55422,266.71684625322365,48.22631912859648,2101.067660801615,-5.798803030130498,203098.6110276671,10.5,10500203098.611027,47.655,-122.3035,60.0,5.55
2026-01-20T23:05:34+00:00,SAT-55422,266.84043857156615,48.319621847362676,2095.2843212462317,-5.7923084257360165,202871.14250962302,10.5,10500202871.14251,47.655,-122.3035,60.0,5.566666666666666
2026-01-20T23:05:35+00:00,SAT-55422,266.9652391595736,48.41310643284079,2089.5074589762976,-5.785752851694844,202641.53857665046,10.5,10500202641.538576,47.655,-122.3035,60.0,5.583333333333333
2026-01-20T23:05:36+00:00,SAT-55422,267.09126257789603,48.50677156568915,2083.737134798874,-5.779135732037199,202409.7790558513,10.5,10500202409.779057,47.655,-122.3035,60.0,5.6
2026-01-20T23:05:37+00:00,SAT-55422,267.218523589629,48.600615863573864,2077.9734100954556,-5.772456475048903,202175.84322289217,10.5,10500202175.843224,47.655,-122.3035,60.0,5.616666666666666
2026-01-20T23:05:38+00:00,SAT-55422,267.3470371628192,48.694637879296145,2072.2163468376734,-5.765714472782732,201939.7097848895,10.5,10500201939.709785,47.655,-122.3035,60.0,5.633333333333334
2026-01-20T23:05:39+00:00,SAT-55422,267.47681847290585,48.788836098862966,2066.4660076034847,-5.758909125658535,201701.35774201035,10.5,10500201701.357742,47.655,-122.3035,60.0,5.65
2026-01-20T23:05:40+00:00,SAT-55422,267.60788290581814,48.883208939922945,2060.722455568828,-5.752039783591825,201460.76432554604,10.5,10500201460.764326,47.655,-122.3035,60.0,5.666666666666667
2026-01-20T23:05:41+00:00,SAT-55422,267.7402460595563,48.97775474917849,2054.9857545579925,-5.7451058779616755,201217.90961998646,10.5,10500201217.90962,47.655,-122.3035,60.0,5.683333333333334
2026-01-20T23:05:42+00:00,SAT-55422,267.87392374917437,49.07247180195344,2049.255968962372,-5.738106735915606,200972.77005919162,10.5,10500200972.77006,47.655,-122.3035,60.0,5.7
2026-01-20T23:05:43+00:00,SAT-55422,268.00893200702194,49.16735829862165,2043.533163844419,-5.7310417174377255,200725.32322709772,10.5,10500200725.323227,47.655,-122.3035,60.0,5.716666666666667
2026-01-20T23:05:44+00:00,SAT-55422,268.14528708652,49.26241236327432,2037.8174049048944,-5.723910228524578,200475.54831919112,10.5,10500200475.548319,47.655,-122.3035,60.0,5.733333333333333
2026-01-20T23:05:45+00:00,SAT-55422,268.28300546622063,49.3576320425597,2032.1087584369793,-5.716711591473237,200223.4215994486,10.5,10500200223.4216,47.655,-122.3035,60.0,5.75
2026-01-20T23:05:46+00:00,SAT-55422,268.42210385065954,49.45301530231675,2026.4072914097499,-5.709445131171675,199968.9194225913,10.5,10500199968.919422,47.655,-122.3035,60.0,5.766666666666667
2026-01-20T23:05:47+00:00,SAT-55422,268.56259917325804,49.54856002558209,2020.7130714655948,-5.702110214103113,199712.01960018184,10.5,10500199712.0196,47.655,-122.3035,60.0,5.783333333333333
2026-01-20T23:05:48+00:00,SAT-55422,268.70450860039534,49.64426401122314,2015.026166878729,-5.694706166034748,199452.69851773544,10.5,10500199452.698517,47.655,-122.3035,60.0,5.8
2026-01-20T23:05:49+00:00,SAT-55422,268.84784953325766,49.74012497112921,2009.3466465958038,-5.6872323010419255,199190.9321512692,10.5,10500199190.932152,47.655,-122.3035,60.0,5.816666666666666
2026-01-20T23:05:50+00:00,SAT-55422,268.99263961046256,49.836140527836854,2003.6745802475648,-5.679687935668158,198926.696563246,10.5,10500198926.696564,47.655,-122.3035,60.0,5.833333333333333
2026-01-20T23:05:51+00:00,SAT-55422,269.1388967110013,49.932308212340544,1998.0100381463917,-5.672072394044683,198659.96808188275,10.5,10500198659.968082,47.655,-122.3035,60.0,5.85
2026-01-20T23:05:52+00:00,SAT-55422,269.28663895742625,50.02862546194661,1992.3530912787312,-5.6643849592736455,198390.72159838415,10.5,10500198390.721598,47.655,-122.3035,60.0,5.866666666666666
2026-01-20T23:05:53+00:00,SAT-55422,269.4358847175461,50.12508961722903,1986.7038113460155,-5.656624945842808,198118.93310321198,10.5,10500198118.933104,47.655,-122.3035,60.0,5.883333333333334
2026-01-20T23:05:54+00:00,SAT-55422,269.5866526082365,50.22169792018019,1981.0622707333616,-5.6487916273760215,197844.57715560083,10.5,10500197844.577156,47.655,-122.3035,60.0,5.9
2026-01-20T23:05:55+00:00,SAT-55422,269.73896149711896,50.318447511055815,1975.4285425503251,-5.640884275184221,197567.6282337774,10.5,10500197567.628233,47.655,-122.3035,60.0,5.916666666666667
2026-01-20T23:05:56+00:00,SAT-55422,269.89283050534067,50.415335425827266,1969.8027006332084,-5.632902214863589,197288.06271726717,10.5,10500197288.062717,47.655,-122.3035,60.0,5.933333333333334
2026-01-20T23:05:57+00:00,SAT-55422,270.0482790119749,50.51235859455716,1964.1848194909176,-5.624844641255266,197005.85240600113,10.5,10500197005.852406,47.655,-122.3035,60.0,5.95
2026-01-20T23:05:58+00:00,SAT-55422,270.2053266529905,50.60951383650524,1958.5749744353723,-5.616710850679431,196720.97265413537,10.5,10500196720.972654,47.655,-122.3035,60.0,5.966666666666667
2026-01-20T23:05:59+00:00,SAT-55422,270.36399332691246,50.706797859194694,1952.9732414802945,-5.60850009902967,196433.3973999157,10.5,10500196433.3974,47.655,-122.3035,60.0,5.983333333333333
2026-01-20T23:06:00+00:00,SAT-55422,270.5242991964352,50.80420725496896,1947.379697381529,-5.600211615462377,196143.09964513837,10.5,10500196143.099646,47.655,-122.3035,60.0,6.0
2026-01-20T23:06:01+00:00,SAT-55422,270.68626469019983,50.90173849770305,1941.794419663708,-5.5918446358940335,195850.05262836648,10.5,10500195850.052628,47.655,-122.3035,60.0,6.016666666666667
2026-01-20T23:06:02+00:00,SAT-55422,270.8499105056454,50.999387940045004,1936.2174866135097,-5.583398393115315,195554.22947868425,10.5,10500195554.229479,47.655,-122.3035,60.0,6.033333333333333
2026-01-20T23:06:03+00:00,SAT-55422,271.01525761143154,51.097151810413216,1930.648977282776,-5.574872117145829,195255.60322812124,10.5,10500195255.603228,47.655,-122.3035,60.0,6.05
2026-01-20T23:06:04+00:00,SAT-55422,271.18232724991617,51.19502620994259,1925.0889714912757,-5.566265015693062,194954.14612724233,10.5,10500194954.146128,47.655,-122.3035,60.0,6.066666666666666
2026-01-20T23:06:05+00:00,SAT-55422,271.3511409387943,51.29300710900397,1919.537549848958,-5.557576275057019,194649.82967683164,10.5,10500194649.829678,47.655,-122.3035,60.0,6.083333333333333
2026-01-20T23:06:06+00:00,SAT-55422,271.52172047282966,51.391090343681185,1913.9947937773013,-5.548805106153324,194342.62623981657,10.5,10500194342.62624,47.655,-122.3035,60.0,6.1
2026-01-20T23:06:07+00:00,SAT-55422,271.6940879268391,51.48927161298312,1908.4607854847643,-5.539950707582929,194032.50774781252,10.5,10500194032.507748,47.655,-122.3035,60.0,6.116666666666666
2026-01-20T23:06:08+00:00,SAT-55422,271.86826565757497,51.587546475342876,1902.935607979068,-5.53101224623972,193719.44502191932,10.5,10500193719.445023,47.655,-122.3035,60.0,6.133333333333334
2026-01-20T23:06:09+00:00,SAT-55422,272.0442763046731,51.68591034468525,1897.4193450988184,-5.521988890722655,193403.40894295572,10.5,10500193403.408943,47.655,-122.3035,60.0,6.15
2026-01-20T23:06:10+00:00,SAT-55422,272.2221427927311,51.784358487022644,1891.9120815118044,-5.512879833968072,193084.37124413837,10.5,10500193084.371244,47.655,-122.3035,60.0,6.166666666666667
2026-01-20T23:06:11+00:00,SAT-55422,272.40188833401675,51.882886017386895,1886.413902690727,-5.503684205041024,192762.30142164134,10.5,10500192762.301422,47.655,-122.3035,60.0,6.183333333333334
2026-01-20T23:06:12+00:00,SAT-55422,272.58353642801427,51.981487895096016,1880.9248949768992,-5.494401166647918,192437.17014990127,10.5,10500192437.17015,47.655,-122.3035,60.0,6.2
2026-01-20T23:06:13+00:00,SAT-55422,272.7671108641986,52.08015892069939,1875.4451455466956,-5.485029841026635,192108.94668597588,10.5,10500192108.946686,47.655,-122.3035,60.0,6.216666666666667
2026-01-20T23:06:14+00:00,SAT-55422,272.95263572210706,52.178893731512666,1869.9747424519119,-5.475569388270827,191777.60161279203,10.5,10500191777.601612,47.655,-122.3035,60.0,6.233333333333333
2026-01-20T23:06:15+00:00,SAT-55422,273.1401353740061,52.27768679848954,1864.5137745820098,-5.466018914114193,191443.10360936107,10.5,10500191443.10361,47.655,-122.3035,60.0,6.25
2026-01-20T23:06:16+00:00,SAT-55422,273.32963448413665,52.376532421346575,1859.0623317183333,-5.456377529923542,191105.4215519898,10.5,10500191105.421553,47.655,-122.3035,60.0,6.266666666666667
2026-01-20T23:06:17+00:00,SAT-55422,273.52115800988236,52.47542472469228,1853.6205045284894,-5.446644366207526,190764.52498741317,10.5,10500190764.524988,47.655,-122.3035,60.0,6.283333333333333
2026-01-20T23:06:18+00:00,SAT-55422,273.7147312033321,52.574357654329795,1848.1883845472585,-5.4368185037851315,190420.38172202412,10.5,10500190420.381721,47.655,-122.3035,60.0,6.3
2026-01-20T23:06:19+00:00,SAT-55422,273.91037961001985,52.67332497221815,1842.76606422615,-5.4268990426990165,190072.96023550956,10.5,10500190072.960236,47.655,-122.3035,60.0,6.316666666666666
2026-01-20T23:06:20+00:00,SAT-55422,274.1081290701141,52.772320252616886,1837.3536369142316,-5.416885060665487,189722.22822559334,10.5,10500189722.228226,47.655,-122.3035,60.0,6.333333333333333
2026-01-20T23:06:21+00:00,SAT-55422,274.30800571769646,52.87133687738119,1831.9511968803945,-5.406775618167371,189368.15278640998,10.5,10500189368.152786,47.655,-122.3035,60.0,6.35
2026-01-20T23:06:22+00:00,SAT-55422,274.5100359801066,52.97036803127625,1826.5588393305425,-5.396569807899738,189010.7021403028,10.5,10500189010.70214,47.655,-122.3035,60.0,6.366666666666666
2026-01-20T23:06:23+00:00,SAT-55422,274.71424657888275,53.06940669811479,1821.1766603754636,-5.386266668815193,188649.84262732693,10.5,10500188649.842627,47.655,-122.3035,60.0,6.383333333333334
2026-01-20T23:06:24+00:00,SAT-55422,274.92066452715267,53.168445655233924,1815.8047570844321,-5.37586524027927,188285.54060199985,10.5,10500188285.540602,47.655,-122.3035,60.0,6.4
2026-01-20T23:06:25+00:00,SAT-55422,275.1293171286938,53.2674774688777,1810.4432274847934,-5.365364603047688,187917.76386849838,10.5,10500187917.763868,47.655,-122.3035,60.0,6.416666666666667
2026-01-20T23:06:26+00:00,SAT-55422,275.340231978661,53.366494490274604,1805.0921705206872,-5.354763752262219,187546.4772324369,10.5,10500187546.477232,47.655,-122.3035,60.0,6.433333333333334
2026-01-20T23:06:27+00:00,SAT-55422,275.5534369585002,53.4654888492616,1799.751686138431,-5.344061706520507,187171.64632095356,10.5,10500187171.64632,47.655,-122.3035,60.0,6.45
2026-01-20T23:06:28+00:00,SAT-55422,275.7689602352184,53.56445244986049,1794.421875263128,-5.333257506942459,186793.23755001143,10.5,10500186793.23755,47.655,-122.3035,60.0,6.466666666666667
2026-01-20T23:06:29+00:00,SAT-55422,275.9868302601697,53.66337696575262,1789.102839776204,-5.322350141461775,186411.2154727676,10.5,10500186411.215473,47.655,-122.3035,60.0,6.483333333333333
2026-01-20T23:06:30+00:00,SAT-55422,276.20707576438923,53.762253834268726,1783.7946825684528,-5.311338611613883,186025.5451187694,10.5,10500186025.545118,47.655,-122.3035,60.0,6.5
2026-01-20T23:06:31+00:00,SAT-55422,276.4297257562226,53.861074251535506,1778.49750752647,-5.3002219015805485,185636.19090976517,10.5,10500185636.19091,47.655,-122.3035,60.0,6.516666666666667
2026-01-20T23:06:32+00:00,SAT-55422,276.65480951733804,53.95982916697241,1773.2114195499603,-5.288999004667602,185243.11758706692,10.5,10500185243.117586,47.655,-122.3035,60.0,6.533333333333333
2026-01-20T23:06:33+00:00,SAT-55422,276.8823565994077,54.05850927820401,1767.9365245426384,-5.277668870153543,184846.2883499631,10.5,10500184846.28835,47.655,-122.3035,60.0,6.55
