satellites_20260121_005943/SAT-64415.csv

timestamp,satellite,azimuth_deg,elevation_deg,distance_km,relative_velocity_kms,doppler_shift_hz,tx_freq_ghz,rx_freq_hz,ue_lat,ue_lon,ue_alt_m,time_minutes
2026-01-20T23:00:00+00:00,SAT-64415,253.65699976993673,30.10438923896892,3633.288461193142,-6.675407488866461,233801.00720578447,10.5,10500233801.007206,47.655,-122.3035,60.0,0.0
2026-01-20T23:00:01+00:00,SAT-64415,253.65153748214283,30.155456395424075,3626.6308547909125,-6.675929071352219,233819.27523072748,10.5,10500233819.27523,47.655,-122.3035,60.0,0.016666666666666666
2026-01-20T23:00:02+00:00,SAT-64415,253.64610104780255,30.206601184377632,3619.9727281970836,-6.676445866329495,233837.37557687226,10.5,10500233837.375576,47.655,-122.3035,60.0,0.03333333333333333
2026-01-20T23:00:03+00:00,SAT-64415,253.6406906541,30.257824040373336,3613.3140861863976,-6.676957805337018,233855.30584641555,10.5,10500233855.305847,47.655,-122.3035,60.0,0.05
2026-01-20T23:00:04+00:00,SAT-64415,253.63530648996186,30.3091254007873,3606.654933601875,-6.677464860815047,233873.0650740987,10.5,10500233873.065075,47.655,-122.3035,60.0,0.06666666666666667
2026-01-20T23:00:05+00:00,SAT-64415,253.62994874608393,30.36050570617423,3599.9952753140224,-6.677967020992704,233890.6528476557,10.5,10500233890.652847,47.655,-122.3035,60.0,0.08333333333333333
2026-01-20T23:00:06+00:00,SAT-64415,253.62461761494274,30.41196540041847,3593.3351162050853,-6.678464274641382,233908.0687738132,10.5,10500233908.068773,47.655,-122.3035,60.0,0.1
2026-01-20T23:00:07+00:00,SAT-64415,253.61931329082597,30.46350493077068,3586.67446116851,-6.678956592769684,233925.31183716995,10.5,10500233925.311836,47.655,-122.3035,60.0,0.11666666666666667
2026-01-20T23:00:08+00:00,SAT-64415,253.61403596983754,30.515124747741375,3580.013315126654,-6.679443923747563,233942.38022942326,10.5,10500233942.38023,47.655,-122.3035,60.0,0.13333333333333333
2026-01-20T23:00:09+00:00,SAT-64415,253.6087858499412,30.56682530495644,3573.35168305337,-6.6799262723441535,233959.2741176084,10.5,10500233959.274118,47.655,-122.3035,60.0,0.15
2026-01-20T23:00:10+00:00,SAT-64415,253.6035631309547,30.618607059626505,3566.6895699177526,-6.6804036150039785,233975.99267671295,10.5,10500233975.992676,47.655,-122.3035,60.0,0.16666666666666666
2026-01-20T23:00:11+00:00,SAT-64415,253.59836801459525,30.670470472360336,3560.026980712388,-6.68087594468616,233992.53566013553,10.5,10500233992.53566,47.655,-122.3035,60.0,0.18333333333333332
2026-01-20T23:00:12+00:00,SAT-64415,253.59320070448408,30.722416007326302,3553.363920436888,-6.68134316893231,234008.89982959226,10.5,10500234008.89983,47.655,-122.3035,60.0,0.2
2026-01-20T23:00:13+00:00,SAT-64415,253.58806140617952,30.77444413161783,3546.7003941830726,-6.681805337267427,234025.08691965818,10.5,10500234025.08692,47.655,-122.3035,60.0,0.21666666666666667
2026-01-20T23:00:14+00:00,SAT-64415,253.5829503271899,30.82655531639586,3540.0364069933717,-6.682262396727896,234041.09507532342,10.5,10500234041.095076,47.655,-122.3035,60.0,0.23333333333333334
2026-01-20T23:00:15+00:00,SAT-64415,253.57786767700804,30.87875003612263,3533.3719639630344,-6.682714316510518,234056.92321772964,10.5,10500234056.923218,47.655,-122.3035,60.0,0.25
2026-01-20T23:00:16+00:00,SAT-64415,253.57281366711692,30.931028768767302,3526.707070218035,-6.683161071788757,234072.5704773465,10.5,10500234072.570477,47.655,-122.3035,60.0,0.26666666666666666
2026-01-20T23:00:17+00:00,SAT-64415,253.56778851103468,30.983391995888685,3520.0417309091044,-6.683602648327376,234088.0363555959,10.5,10500234088.036356,47.655,-122.3035,60.0,0.2833333333333333
2026-01-20T23:00:18+00:00,SAT-64415,253.56279242431398,31.03584020275247,3513.3759512011725,-6.684039026462846,234103.32016377774,10.5,10500234103.320164,47.655,-122.3035,60.0,0.3
2026-01-20T23:00:19+00:00,SAT-64415,253.55782562458995,31.08837387832483,3506.7097362787804,-6.684470145964009,234118.41979234212,10.5,10500234118.419792,47.655,-122.3035,60.0,0.31666666666666665
2026-01-20T23:00:20+00:00,SAT-64415,253.5528883315815,31.140993514987116,3500.0430913865384,-6.6848960152490156,234133.33553612835,10.5,10500234133.335537,47.655,-122.3035,60.0,0.3333333333333333
2026-01-20T23:00:21+00:00,SAT-64415,253.5479807671367,31.193699609114333,3493.3760217606637,-6.685316596099232,234148.06605655816,10.5,10500234148.066057,47.655,-122.3035,60.0,0.35
2026-01-20T23:00:22+00:00,SAT-64415,253.54310315524043,31.24649266074226,3486.7085326754873,-6.6857318739058815,234162.6108419704,10.5,10500234162.610842,47.655,-122.3035,60.0,0.36666666666666664
2026-01-20T23:00:23+00:00,SAT-64415,253.53825572205142,31.299373173793338,3480.040629419912,-6.686141787311082,234176.96774335252,10.5,10500234176.967743,47.655,-122.3035,60.0,0.38333333333333336
2026-01-20T23:00:24+00:00,SAT-64415,253.53343869591913,31.352341655740336,3473.3723173440335,-6.686546343618462,234191.13701650844,10.5,10500234191.137016,47.655,-122.3035,60.0,0.4
2026-01-20T23:00:25+00:00,SAT-64415,253.52865230742103,31.40539861819058,3466.703601790665,-6.68694551531605,234205.11769785258,10.5,10500234205.117699,47.655,-122.3035,60.0,0.4166666666666667
2026-01-20T23:00:26+00:00,SAT-64415,253.52389678937135,31.458544576647665,3460.034488130056,-6.6873392521815695,234218.90802838834,10.5,10500234218.908028,47.655,-122.3035,60.0,0.43333333333333335
2026-01-20T23:00:27+00:00,SAT-64415,253.51917237686882,31.51178005036839,3453.364981782547,-6.687727531861483,234232.50722520033,10.5,10500234232.507225,47.655,-122.3035,60.0,0.45
2026-01-20T23:00:28+00:00,SAT-64415,253.51447930730143,31.56510556262318,3446.6950881907705,-6.688110337802562,234245.91470852445,10.5,10500234245.91471,47.655,-122.3035,60.0,0.4666666666666667
2026-01-20T23:00:29+00:00,SAT-64415,253.50981782039554,31.618521640782816,3440.0248128138687,-6.688487635803144,234259.12928047377,10.5,10500234259.12928,47.655,-122.3035,60.0,0.48333333333333334
2026-01-20T23:00:30+00:00,SAT-64415,253.50518815822744,31.672028816216926,3433.3541611450946,-6.688859397427822,234272.14994512015,10.5,10500234272.149944,47.655,-122.3035,60.0,0.5
2026-01-20T23:00:31+00:00,SAT-64415,253.5005905652605,31.725627624380298,3426.68313870606,-6.689225587621632,234284.97547469035,10.5,10500234284.975475,47.655,-122.3035,60.0,0.5166666666666667
2026-01-20T23:00:32+00:00,SAT-64415,253.4960252883686,31.779318604799617,3420.0117510533382,-6.689586188845399,234297.60525488836,10.5,10500234297.605255,47.655,-122.3035,60.0,0.5333333333333333
2026-01-20T23:00:33+00:00,SAT-64415,253.49149257686489,31.833102301256464,3413.3400037609968,-6.689941182989729,234310.03865144652,10.5,10500234310.03865,47.655,-122.3035,60.0,0.55
2026-01-20T23:00:34+00:00,SAT-64415,253.4869926825439,31.886979261825044,3406.6679024211617,-6.690290494318187,234322.2730117546,10.5,10500234322.273012,47.655,-122.3035,60.0,0.5666666666666667
2026-01-20T23:00:35+00:00,SAT-64415,253.48252585968433,31.940950038446157,3399.995452701495,-6.690634133241657,234334.3087004457,10.5,10500234334.3087,47.655,-122.3035,60.0,0.5833333333333334
2026-01-20T23:00:36+00:00,SAT-64415,253.47809236511262,31.9950151876695,3393.3226602592754,-6.690972051759288,234346.14403632702,10.5,10500234346.144037,47.655,-122.3035,60.0,0.6
2026-01-20T23:00:37+00:00,SAT-64415,253.47369245820664,32.04917527022073,3386.6495307996543,-6.6913042423219835,234357.7787549973,10.5,10500234357.778755,47.655,-122.3035,60.0,0.6166666666666667
2026-01-20T23:00:38+00:00,SAT-64415,253.4693264009435,32.10343085137609,3379.9760700353117,-6.691630639495433,234369.21056467018,10.5,10500234369.210566,47.655,-122.3035,60.0,0.6333333333333333
2026-01-20T23:00:39+00:00,SAT-64415,253.46499445791812,32.15778250053327,3373.302283744188,-6.691951235026146,234380.4391762735,10.5,10500234380.439177,47.655,-122.3035,60.0,0.65
2026-01-20T23:00:40+00:00,SAT-64415,253.4606968963915,32.21223079172279,3366.6281777124555,-6.692265997014186,234391.46347253656,10.5,10500234391.463472,47.655,-122.3035,60.0,0.6666666666666666
2026-01-20T23:00:41+00:00,SAT-64415,253.4564339863026,32.26677630345956,3359.9537577581,-6.69257488273504,234402.28195706618,10.5,10500234402.281958,47.655,-122.3035,60.0,0.6833333333333333
2026-01-20T23:00:42+00:00,SAT-64415,253.45220600032587,32.32141961870133,3353.279029741719,-6.692877853703259,234412.89328193915,10.5,10500234412.893282,47.655,-122.3035,60.0,0.7
2026-01-20T23:00:43+00:00,SAT-64415,253.44801321387624,32.37616132492612,3346.6039995622923,-6.693174911912589,234423.29751698484,10.5,10500234423.297518,47.655,-122.3035,60.0,0.7166666666666667
2026-01-20T23:00:44+00:00,SAT-64415,253.44385590517481,32.431002014514334,3339.9286731168118,-6.693465984313552,234433.4921037016,10.5,10500234433.492104,47.655,-122.3035,60.0,0.7333333333333333
2026-01-20T23:00:45+00:00,SAT-64415,253.43973435525368,32.4859422841768,3333.2530563751225,-6.693751060887615,234443.47669119798,10.5,10500234443.47669,47.655,-122.3035,60.0,0.75
2026-01-20T23:00:46+00:00,SAT-64415,253.43564884801188,32.54098273552242,3326.577155317064,-6.6940301078732265,234453.2500970017,10.5,10500234453.250097,47.655,-122.3035,60.0,0.7666666666666667
2026-01-20T23:00:47+00:00,SAT-64415,253.4315996702406,32.59612397491016,3319.9009759561454,-6.694303074394541,234462.81053922538,10.5,10500234462.81054,47.655,-122.3035,60.0,0.7833333333333333
2026-01-20T23:00:48+00:00,SAT-64415,253.42758711166405,32.65136661335597,3313.224524356616,-6.694569954920601,234472.1578241515,10.5,10500234472.157824,47.655,-122.3035,60.0,0.8
2026-01-20T23:00:49+00:00,SAT-64415,253.4236114649721,32.70671126695862,3306.547806588241,-6.694830674860502,234481.28933929108,10.5,10500234481.28934,47.655,-122.3035,60.0,0.8166666666666667
2026-01-20T23:00:50+00:00,SAT-64415,253.41967302586062,32.762158556374466,3299.870828795181,-6.695085233518997,234490.2050602936,10.5,10500234490.205061,47.655,-122.3035,60.0,0.8333333333333334
2026-01-20T23:00:51+00:00,SAT-64415,253.41577209306405,32.81770910748315,3293.1935971222847,-6.695333590178026,234498.9035610405,10.5,10500234498.90356,47.655,-122.3035,60.0,0.85
2026-01-20T23:00:52+00:00,SAT-64415,253.4119089684084,32.873363551106415,3286.5161177550135,-6.695575697638713,234507.38318842725,10.5,10500234507.383188,47.655,-122.3035,60.0,0.8666666666666667
2026-01-20T23:00:53+00:00,SAT-64415,253.40808395682495,32.929122523003805,3279.838396925902,-6.695811520149829,234515.64269029477,10.5,10500234515.64269,47.655,-122.3035,60.0,0.8833333333333333
2026-01-20T23:00:54+00:00,SAT-64415,253.4042973664148,32.984986664021164,3273.160440903139,-6.696041044116495,234523.68159049284,10.5,10500234523.681591,47.655,-122.3035,60.0,0.9
2026-01-20T23:00:55+00:00,SAT-64415,253.4005495084771,33.04095662032927,3266.4822559684735,-6.69626418737533,234531.4970113123,10.5,10500234531.497011,47.655,-122.3035,60.0,0.9166666666666666
2026-01-20T23:00:56+00:00,SAT-64415,253.39684069754244,33.09703304290098,3259.803848485598,-6.696480975402882,234539.0898450496,10.5,10500234539.089846,47.655,-122.3035,60.0,0.9333333333333333
2026-01-20T23:00:57+00:00,SAT-64415,253.3931712514347,33.15321658847066,3253.125224792796,-6.696691314140887,234546.45679738652,10.5,10500234546.456797,47.655,-122.3035,60.0,0.95
2026-01-20T23:00:58+00:00,SAT-64415,253.38954149129523,33.209507918583135,3246.44639132216,-6.69689518813133,234553.59732691795,10.5,10500234553.597326,47.655,-122.3035,60.0,0.9666666666666667
2026-01-20T23:00:59+00:00,SAT-64415,253.38595174162327,33.265907700308446,3239.767354521197,-6.697092571161762,234560.51051557309,10.5,10500234560.510515,47.655,-122.3035,60.0,0.9833333333333333
2026-01-20T23:01:00+00:00,SAT-64415,253.38240233034543,33.322416606211995,3233.088120863558,-6.697283412662792,234567.1945921979,10.5,10500234567.194592,47.655,-122.3035,60.0,1.0
2026-01-20T23:01:01+00:00,SAT-64415,253.37889358882217,33.379035314200244,3226.408696873329,-6.697467662877669,234573.64781410052,10.5,10500234573.647814,47.655,-122.3035,60.0,1.0166666666666666
2026-01-20T23:01:02+00:00,SAT-64415,253.37542585192276,33.43576450758799,3219.729089124219,-6.697645293384205,234579.8691858157,10.5,10500234579.869186,47.655,-122.3035,60.0,1.0333333333333334
2026-01-20T23:01:03+00:00,SAT-64415,253.3719994580526,33.49260487533442,3213.049304218284,-6.697816287542267,234585.85812453562,10.5,10500234585.858124,47.655,-122.3035,60.0,1.05
2026-01-20T23:01:04+00:00,SAT-64415,253.3686147492167,33.54955711220623,3206.369348774175,-6.697980553644615,234591.61141828477,10.5,10500234591.611418,47.655,-122.3035,60.0,1.0666666666666667
2026-01-20T23:01:05+00:00,SAT-64415,253.36527207103637,33.60662191819175,3199.6892295020066,-6.698138085452343,234597.1288485503,10.5,10500234597.128849,47.655,-122.3035,60.0,1.0833333333333333
2026-01-20T23:01:06+00:00,SAT-64415,253.3619717728324,33.6637999992939,3193.0089531181156,-6.6982888474302165,234602.40917073796,10.5,10500234602.40917,47.655,-122.3035,60.0,1.1
2026-01-20T23:01:07+00:00,SAT-64415,253.35871420764676,33.72109206733961,3186.3285263742787,-6.698432787251419,234607.45055214132,10.5,10500234607.450552,47.655,-122.3035,60.0,1.1166666666666667
2026-01-20T23:01:08+00:00,SAT-64415,253.35549973231286,33.778498839898965,3179.6479560744597,-6.698569851126988,234612.25110884337,10.5,10500234612.251108,47.655,-122.3035,60.0,1.1333333333333333
2026-01-20T23:01:09+00:00,SAT-64415,253.35232870747416,33.83602104033019,3172.967249076269,-6.698700014192272,234616.8099699788,10.5,10500234616.80997,47.655,-122.3035,60.0,1.15
2026-01-20T23:01:10+00:00,SAT-64415,253.34920149767265,33.893659398095714,3166.2864122621145,-6.698823227814702,234621.12543222943,10.5,10500234621.125433,47.655,-122.3035,60.0,1.1666666666666667
2026-01-20T23:01:11+00:00,SAT-64415,253.34611847136756,33.951414648618055,3159.6054525629074,-6.698939448527769,234625.19597321414,10.5,10500234625.195972,47.655,-122.3035,60.0,1.1833333333333333
2026-01-20T23:01:12+00:00,SAT-64415,253.3430800010113,34.00928753339062,3152.924376952909,-6.699048633996257,234629.02011017464,10.5,10500234629.020111,47.655,-122.3035,60.0,1.2
2026-01-20T23:01:13+00:00,SAT-64415,253.34008646308553,34.06727880005106,3146.2431924486036,-6.699150744489575,234632.59645157764,10.5,10500234632.59645,47.655,-122.3035,60.0,1.2166666666666666
2026-01-20T23:01:14+00:00,SAT-64415,253.3371382381679,34.12538920247148,3139.561906106099,-6.699245712876469,234635.92264620253,10.5,10500234635.922646,47.655,-122.3035,60.0,1.2333333333333334
2026-01-20T23:01:15+00:00,SAT-64415,253.33423571096642,34.1836195005837,3132.880525048457,-6.69933354015254,234638.99872891957,10.5,10500234638.99873,47.655,-122.3035,60.0,1.25
2026-01-20T23:01:16+00:00,SAT-64415,253.33137927041565,34.24197046104485,3126.1990563977447,-6.6994141233301026,234641.8210926643,10.5,10500234641.821093,47.655,-122.3035,60.0,1.2666666666666666
2026-01-20T23:01:17+00:00,SAT-64415,253.32856930966966,34.3004428563922,3119.5175073787436,-6.699487456761307,234644.38953962523,10.5,10500234644.38954,47.655,-122.3035,60.0,1.2833333333333334
2026-01-20T23:01:18+00:00,SAT-64415,253.32580622622663,34.35903746596831,3112.835885221867,-6.699553493746351,234646.70243417757,10.5,10500234646.702435,47.655,-122.3035,60.0,1.3
2026-01-20T23:01:19+00:00,SAT-64415,253.32309042194362,34.41775507562988,3106.154197204104,-6.699612153177932,234648.7569356007,10.5,10500234648.756935,47.655,-122.3035,60.0,1.3166666666666667
2026-01-20T23:01:20+00:00,SAT-64415,253.32042230310302,34.47659647751374,3099.472450683335,-6.699663421847926,234650.55258129016,10.5,10500234650.552582,47.655,-122.3035,60.0,1.3333333333333333
2026-01-20T23:01:21+00:00,SAT-64415,253.3178022804878,34.53556247070911,3092.790653030612,-6.699707246103571,234652.0874920993,10.5,10500234652.087492,47.655,-122.3035,60.0,1.35
2026-01-20T23:01:22+00:00,SAT-64415,253.3152307694321,34.59465386097287,3086.1088116704977,-6.699743565922083,234653.35956577622,10.5,10500234653.359566,47.655,-122.3035,60.0,1.3666666666666667
2026-01-20T23:01:23+00:00,SAT-64415,253.31270818987525,34.65387146074475,3079.426934087418,-6.699772332473195,234654.36709207858,10.5,10500234654.367092,47.655,-122.3035,60.0,1.3833333333333333
2026-01-20T23:01:24+00:00,SAT-64415,253.31023496644042,34.71321608932191,3072.7450278144984,-6.699793513213565,234655.10893120072,10.5,10500234655.10893,47.655,-122.3035,60.0,1.4
2026-01-20T23:01:25+00:00,SAT-64415,253.30781152848942,34.772688573078604,3066.0631004173197,-6.6998070353569705,234655.58253386142,10.5,10500234655.582535,47.655,-122.3035,60.0,1.4166666666666667
2026-01-20T23:01:26+00:00,SAT-64415,253.3054383101899,34.83228974518382,3059.381159534057,-6.699812871173927,234655.78692885675,10.5,10500234655.786928,47.655,-122.3035,60.0,1.4333333333333333
2026-01-20T23:01:27+00:00,SAT-64415,253.30311575058386,34.89202044608045,3052.6992128305396,-6.699810952290073,234655.7197214273,10.5,10500234655.71972,47.655,-122.3035,60.0,1.45
2026-01-20T23:01:28+00:00,SAT-64415,253.3008442936524,34.95188152319936,3046.0172680407886,-6.699801232722698,234655.3793010641,10.5,10500234655.379301,47.655,-122.3035,60.0,1.4666666666666666
2026-01-20T23:01:29+00:00,SAT-64415,253.29862438837796,35.01187383123831,3039.335332944687,-6.699783654656213,234654.76364282065,10.5,10500234654.763643,47.655,-122.3035,60.0,1.4833333333333334
2026-01-20T23:01:30+00:00,SAT-64415,253.2964564888276,35.07199823213644,3032.6534153797766,-6.699758187938957,234653.87169065827,10.5,10500234653.87169,47.655,-122.3035,60.0,1.5
2026-01-20T23:01:31+00:00,SAT-64415,253.29434105422115,35.132255595404075,3025.971523213672,-6.699724745023468,234652.7003782944,10.5,10500234652.700378,47.655,-122.3035,60.0,1.5166666666666666
2026-01-20T23:01:32+00:00,SAT-64415,253.29227854898716,35.19264679768559,3019.289664401302,-6.699683294759938,234651.24861473113,10.5,10500234651.248615,47.655,-122.3035,60.0,1.5333333333333334
2026-01-20T23:01:33+00:00,SAT-64415,253.29026944285107,35.25317272335253,3012.6078469286613,-6.699633782611812,234649.51448986764,10.5,10500234649.51449,47.655,-122.3035,60.0,1.55
2026-01-20T23:01:34+00:00,SAT-64415,253.28831421091735,35.31383426437657,3005.9260788361366,-6.69957613044691,234647.49526718433,10.5,10500234647.495268,47.655,-122.3035,60.0,1.5666666666666667
2026-01-20T23:01:35+00:00,SAT-64415,253.28641333370723,35.37463232019666,2999.2443682420376,-6.69951032264967,234645.19039975826,10.5,10500234645.1904,47.655,-122.3035,60.0,1.5833333333333333
2026-01-20T23:01:36+00:00,SAT-64415,253.2845672972998,35.43556779837911,2992.562723280248,-6.699436257019636,234642.59630809719,10.5,10500234642.596308,47.655,-122.3035,60.0,1.6
2026-01-20T23:01:37+00:00,SAT-64415,253.28277659333196,35.49664161390875,2985.8811521865805,-6.6993539222905945,234639.71259761057,10.5,10500234639.712597,47.655,-122.3035,60.0,1.6166666666666667
2026-01-20T23:01:38+00:00,SAT-64415,253.28104171915703,35.55785469011384,2979.1996632080827,-6.699263220751198,234636.53584603377,10.5,10500234636.535847,47.655,-122.3035,60.0,1.6333333333333333
2026-01-20T23:01:39+00:00,SAT-64415,253.27936317785492,35.61920795795787,2972.5182646892536,-6.699164117270241,234633.06482292336,10.5,10500234633.064823,47.655,-122.3035,60.0,1.65
2026-01-20T23:01:40+00:00,SAT-64415,253.2777414783664,35.68070235670877,2965.8369650096292,-6.699056546892159,234629.29725326068,10.5,10500234629.297253,47.655,-122.3035,60.0,1.6666666666666667
2026-01-20T23:01:41+00:00,SAT-64415,253.2761771355478,35.74233883375229,2959.1557726135293,-6.698940455994177,234625.23125894935,10.5,10500234625.231258,47.655,-122.3035,60.0,1.6833333333333333
2026-01-20T23:01:42+00:00,SAT-64415,253.27467067027752,35.8041183447919,2952.4746959987506,-6.698815767013317,234620.86412340577,10.5,10500234620.864124,47.655,-122.3035,60.0,1.7
2026-01-20T23:01:43+00:00,SAT-64415,253.27322260950643,35.86604185371754,2945.79374374045,-6.698682447756396,234616.1947190885,10.5,10500234616.19472,47.655,-122.3035,60.0,1.7166666666666666
2026-01-20T23:01:44+00:00,SAT-64415,253.2718334864027,35.92811033312487,2939.112924445887,-6.698540390816252,234611.21928414438,10.5,10500234611.219284,47.655,-122.3035,60.0,1.7333333333333334
2026-01-20T23:01:45+00:00,SAT-64415,253.27050384036335,35.99032476370661,2932.4322468294463,-6.698389597042625,234605.93784833493,10.5,10500234605.937849,47.655,-122.3035,60.0,1.75
2026-01-20T23:01:46+00:00,SAT-64415,253.26923421721102,36.05268613536643,2925.7517196046624,-6.6982299402455645,234600.3459919543,10.5,10500234600.345991,47.655,-122.3035,60.0,1.7666666666666666
2026-01-20T23:01:47+00:00,SAT-64415,253.268025169164,36.11519544612145,2919.071351610924,-6.698061402702939,234594.44309429845,10.5,10500234594.443094,47.655,-122.3035,60.0,1.7833333333333334
2026-01-20T23:01:48+00:00,SAT-64415,253.26687725503976,36.17785370322435,2912.391151705295,-6.697883891326675,234588.22589502932,10.5,10500234588.225895,47.655,-122.3035,60.0,1.8
2026-01-20T23:01:49+00:00,SAT-64415,253.26579104027437,36.24066192255275,2905.7111288376786,-6.6976973582109585,234581.69271628262,10.5,10500234581.692717,47.655,-122.3035,60.0,1.8166666666666667
2026-01-20T23:01:50+00:00,SAT-64415,253.2647670970705,36.303621129138904,2899.0312920057563,-6.697501737235893,234574.84124225992,10.5,10500234574.841242,47.655,-122.3035,60.0,1.8333333333333333
2026-01-20T23:01:51+00:00,SAT-64415,253.26380600446365,36.36673235709908,2892.351650273153,-6.697296950883222,234567.66875794396,10.5,10500234567.668758,47.655,-122.3035,60.0,1.85
2026-01-20T23:01:52+00:00,SAT-64415,253.26290834844514,36.42999664963385,2885.6722127808052,-6.69708293703477,234560.17308769352,10.5,10500234560.173088,47.655,-122.3035,60.0,1.8666666666666667
2026-01-20T23:01:53+00:00,SAT-64415,253.26207472204288,36.49341505927525,2878.9929887316025,-6.69685961638335,234552.35145383535,10.5,10500234552.351454,47.655,-122.3035,60.0,1.8833333333333333
2026-01-20T23:01:54+00:00,SAT-64415,253.26130572544417,36.556988647833066,2872.3139874075296,-6.696626959813051,234544.20283660715,10.5,10500234544.202837,47.655,-122.3035,60.0,1.9
2026-01-20T23:01:55+00:00,SAT-64415,253.26060196611766,36.620718486983975,2865.63521811961,-6.696384846418899,234535.7230014053,10.5,10500234535.723001,47.655,-122.3035,60.0,1.9166666666666667
2026-01-20T23:01:56+00:00,SAT-64415,253.2599640588707,36.68460565750124,2858.9566902994475,-6.696133234033898,234526.91047136323,10.5,10500234526.910471,47.655,-122.3035,60.0,1.9333333333333333
2026-01-20T23:01:57+00:00,SAT-64415,253.25939262600627,36.748651250120965,2852.2784134207045,-6.695872045937701,234517.7625594099,10.5,10500234517.76256,47.655,-122.3035,60.0,1.95
2026-01-20T23:01:58+00:00,SAT-64415,253.25888829742144,36.81285636532501,2845.6003970335564,-6.695601204033703,234508.27653027175,10.5,10500234508.276531,47.655,-122.3035,60.0,1.9666666666666666
2026-01-20T23:01:59+00:00,SAT-64415,253.25845171071046,36.87722211343936,2838.922650766067,-6.69532065258239,234498.45043171532,10.5,10500234498.450432,47.655,-122.3035,60.0,1.9833333333333334
2026-01-20T23:02:00+00:00,SAT-64415,253.25808351131337,36.941749614967975,2832.2451843018907,-6.695030300595145,234488.28107693433,10.5,10500234488.281076,47.655,-122.3035,60.0,2.0
2026-01-20T23:02:01+00:00,SAT-64415,253.257784352588,37.006440000368016,2825.5680074154307,-6.6947300735618684,234477.76585626986,10.5,10500234477.765856,47.655,-122.3035,60.0,2.0166666666666666
2026-01-20T23:02:02+00:00,SAT-64415,253.25755489596852,37.071294410327994,2818.8911299553984,-6.694419912886852,234466.90271745244,10.5,10500234466.902718,47.655,-122.3035,60.0,2.033333333333333
2026-01-20T23:02:03+00:00,SAT-64415,253.25739581107842,37.13631399604355,2812.214561828946,-6.694099730903712,234455.68859003444,10.5,10500234455.68859,47.655,-122.3035,60.0,2.05
2026-01-20T23:02:04+00:00,SAT-64415,253.25730777585613,37.201499919056225,2805.5383130306577,-6.693769433129819,234444.12016483452,10.5,10500234444.120165,47.655,-122.3035,60.0,2.066666666666667
2026-01-20T23:02:05+00:00,SAT-64415,253.25729147665203,37.266853351307475,2798.86239364935,-6.693428975670231,234432.1959044661,10.5,10500234432.195904,47.655,-122.3035,60.0,2.0833333333333335
2026-01-20T23:02:06+00:00,SAT-64415,253.2573476084296,37.33237547576295,2792.1868138176146,-6.693078256449009,234419.91223379804,10.5,10500234419.912233,47.655,-122.3035,60.0,2.1
2026-01-20T23:02:07+00:00,SAT-64415,253.2574768748243,37.398067485964724,2785.5115837698495,-6.692717207004374,234407.2667550093,10.5,10500234407.266754,47.655,-122.3035,60.0,2.1166666666666667
2026-01-20T23:02:08+00:00,SAT-64415,253.25767998832995,37.46393058649327,2778.8367138087306,-6.692345729070511,234394.25602641533,10.5,10500234394.256027,47.655,-122.3035,60.0,2.1333333333333333
2026-01-20T23:02:09+00:00,SAT-64415,253.2579576703858,37.52996599279857,2772.1622143349377,-6.69196375800593,234380.87778399774,10.5,10500234380.877785,47.655,-122.3035,60.0,2.15
2026-01-20T23:02:10+00:00,SAT-64415,253.25831065157712,37.59617493166921,2765.48809581362,-6.691571199316315,234367.12871816577,10.5,10500234367.128717,47.655,-122.3035,60.0,2.1666666666666665
2026-01-20T23:02:11+00:00,SAT-64415,253.25873967172095,37.662558641065296,2758.814368804168,-6.691167997801882,234353.0068955896,10.5,10500234353.006895,47.655,-122.3035,60.0,2.183333333333333
2026-01-20T23:02:12+00:00,SAT-64415,253.25924548008214,37.729118370650426,2752.141043921027,-6.690754017097104,234338.50754017165,10.5,10500234338.50754,47.655,-122.3035,60.0,2.2
2026-01-20T23:02:13+00:00,SAT-64415,253.25982883540763,37.795855381109746,2745.468131914642,-6.690329211390034,234323.62904738367,10.5,10500234323.629047,47.655,-122.3035,60.0,2.216666666666667
2026-01-20T23:02:14+00:00,SAT-64415,253.2604905062011,37.862770945201525,2738.7956435811493,-6.689893487904136,234308.36816779902,10.5,10500234308.368168,47.655,-122.3035,60.0,2.2333333333333334
2026-01-20T23:02:15+00:00,SAT-64415,253.26123127080797,37.929866347423555,2732.1235898092127,-6.689446741722015,234292.72122676668,10.5,10500234292.721228,47.655,-122.3035,60.0,2.25
2026-01-20T23:02:16+00:00,SAT-64415,253.2620519175701,37.99714288403258,2725.4519815921353,-6.6889889065382695,234276.685901991,10.5,10500234276.685902,47.655,-122.3035,60.0,2.2666666666666666
2026-01-20T23:02:17+00:00,SAT-64415,253.2629532450244,38.06460186357957,2718.780829989348,-6.688519869720218,234260.25824859907,10.5,10500234260.25825,47.655,-122.3035,60.0,2.283333333333333
2026-01-20T23:02:18+00:00,SAT-64415,253.26393606202538,38.13224460658541,2712.110146172614,-6.688039568222689,234243.43605848227,10.5,10500234243.436058,47.655,-122.3035,60.0,2.3
2026-01-20T23:02:19+00:00,SAT-64415,253.2650011879443,38.20007244619219,2705.4399413765727,-6.687547870250576,234226.21471561852,10.5,10500234226.214716,47.655,-122.3035,60.0,2.316666666666667
2026-01-20T23:02:20+00:00,SAT-64415,253.2661494527921,38.268086727612356,2698.7702269673096,-6.68704471646668,234208.59214176808,10.5,10500234208.592142,47.655,-122.3035,60.0,2.3333333333333335
2026-01-20T23:02:21+00:00,SAT-64415,253.26738169744783,38.33628880902083,2692.101014370087,-6.6865300010322,234190.5646300085,10.5,10500234190.56463,47.655,-122.3035,60.0,2.35
2026-01-20T23:02:22+00:00,SAT-64415,253.2686987738042,38.40468006123286,2685.432315115724,-6.686003633907875,234172.1290267839,10.5,10500234172.129026,47.655,-122.3035,60.0,2.3666666666666667
2026-01-20T23:02:23+00:00,SAT-64415,253.27010154495042,38.47326186802179,2678.76414082484,-6.685465512880035,234153.28175213924,10.5,10500234153.281752,47.655,-122.3035,60.0,2.3833333333333333
2026-01-20T23:02:24+00:00,SAT-64415,253.27159088535421,38.54203562615278,2672.0965032199942,-6.6849155168826,234134.0185658283,10.5,10500234134.018566,47.655,-122.3035,60.0,2.4
2026-01-20T23:02:25+00:00,SAT-64415,253.27316768101107,38.61100274534102,2665.42941414449,-6.684353603933059,234114.33799744598,10.5,10500234114.337997,47.655,-122.3035,60.0,2.4166666666666665
2026-01-20T23:02:26+00:00,SAT-64415,253.27483282975396,38.68016464924369,2658.762885483501,-6.683779616506664,234094.23452980918,10.5,10500234094.23453,47.655,-122.3035,60.0,2.433333333333333
2026-01-20T23:02:27+00:00,SAT-64415,253.2765872412776,38.74952277441416,2652.096929279305,-6.683193481652022,234073.70560785168,10.5,10500234073.705608,47.655,-122.3035,60.0,2.45
2026-01-20T23:02:28+00:00,SAT-64415,253.27843183747314,38.819078571354424,2645.431557646937,-6.6825950962737055,234052.74762073538,10.5,10500234052.747622,47.655,-122.3035,60.0,2.466666666666667
2026-01-20T23:02:29+00:00,SAT-64415,253.2803675525626,38.88883350436652,2638.7667828042536,-6.681984333907324,234031.35613914244,10.5,10500234031.356138,47.655,-122.3035,60.0,2.4833333333333334
2026-01-20T23:02:30+00:00,SAT-64415,253.2823953333093,38.95878905147922,2632.102617095237,-6.681361128520391,234009.52885033586,10.5,10500234009.52885,47.655,-122.3035,60.0,2.5
2026-01-20T23:02:31+00:00,SAT-64415,253.28451613927064,39.02894670525566,2625.4390729297256,-6.680725328116061,233987.2604307432,10.5,10500233987.260431,47.655,-122.3035,60.0,2.5166666666666666
2026-01-20T23:02:32+00:00,SAT-64415,253.2867309429305,39.099307972060764,2618.776162869151,-6.680076858718883,233964.5482894312,10.5,10500233964.54829,47.655,-122.3035,60.0,2.533333333333333
2026-01-20T23:02:33+00:00,SAT-64415,253.289040730005,39.16987437306611,2612.1138995487227,-6.679415611108362,233941.38860103613,10.5,10500233941.388601,47.655,-122.3035,60.0,2.55
2026-01-20T23:02:34+00:00,SAT-64415,253.2914464996307,39.24064744405755,2605.452295712577,-6.678741451510383,233917.77668022265,10.5,10500233917.77668,47.655,-122.3035,60.0,2.566666666666667
2026-01-20T23:02:35+00:00,SAT-64415,253.29394926454455,39.31162873535095,2598.7913642382705,-6.678054273989077,233893.70881666848,10.5,10500233893.708817,47.655,-122.3035,60.0,2.5833333333333335
2026-01-20T23:02:36+00:00,SAT-64415,253.2965500513803,39.382819812278676,2592.131118109012,-6.677353975830686,233869.18141290333,10.5,10500233869.181414,47.655,-122.3035,60.0,2.6
2026-01-20T23:02:37+00:00,SAT-64415,253.2992499008741,39.454222255406194,2585.4715704104506,-6.676640436943389,233844.19026280366,10.5,10500233844.190264,47.655,-122.3035,60.0,2.6166666666666667
2026-01-20T23:02:38+00:00,SAT-64415,253.3020498681258,39.52583766054194,2578.8127343480055,-6.675913540456966,233818.73127308005,10.5,10500233818.731274,47.655,-122.3035,60.0,2.6333333333333333
2026-01-20T23:02:39+00:00,SAT-64415,253.30495102280827,39.597667638957375,2572.1546232436563,-6.675173169043293,233792.80033440527,10.5,10500233792.800335,47.655,-122.3035,60.0,2.65
2026-01-20T23:02:40+00:00,SAT-64415,253.30795444946193,39.6697138175833,2565.497250536397,-6.674419208519112,233766.3934475986,10.5,10500233766.393448,47.655,-122.3035,60.0,2.6666666666666665
2026-01-20T23:02:41+00:00,SAT-64415,253.31106124771844,39.74197783923513,2558.8406297791007,-6.673651521588851,233739.50580398837,10.5,10500233739.505804,47.655,-122.3035,60.0,2.683333333333333
2026-01-20T23:02:42+00:00,SAT-64415,253.3142725325622,39.81446136256698,2552.1847746615695,-6.67287000259413,233712.13370297113,10.5,10500233712.133703,47.655,-122.3035,60.0,2.7
2026-01-20T23:02:43+00:00,SAT-64415,253.31758943462688,39.88716606261531,2545.529698978982,-6.672074527488157,233684.27279990364,10.5,10500233684.2728,47.655,-122.3035,60.0,2.716666666666667
2026-01-20T23:02:44+00:00,SAT-64415,253.3210131004393,39.96009363080476,2538.8754166502345,-6.671264954106111,233655.91811557236,10.5,10500233655.918116,47.655,-122.3035,60.0,2.7333333333333334
2026-01-20T23:02:45+00:00,SAT-64415,253.3245446926969,40.03324577495824,2532.2219417360056,-6.670441177818245,233627.06598540104,10.5,10500233627.065985,47.655,-122.3035,60.0,2.75
2026-01-20T23:02:46+00:00,SAT-64415,253.3281853905811,40.106624219920775,2525.569288401328,-6.669603047341765,233597.71111082632,10.5,10500233597.711111,47.655,-122.3035,60.0,2.7666666666666666
2026-01-20T23:02:47+00:00,SAT-64415,253.33193639000186,40.18023070725677,2518.917470962113,-6.668750449229822,233567.84951845964,10.5,10500233567.849518,47.655,-122.3035,60.0,2.783333333333333
2026-01-20T23:02:48+00:00,SAT-64415,253.3357989039383,40.25406699588709,2512.2665038474142,-6.667883257416976,233537.47679295603,10.5,10500233537.476793,47.655,-122.3035,60.0,2.8
2026-01-20T23:02:49+00:00,SAT-64415,253.33977416274058,40.328134862172405,2505.616401612017,-6.667001298075297,233506.58684612613,10.5,10500233506.586845,47.655,-122.3035,60.0,2.816666666666667
2026-01-20T23:02:50+00:00,SAT-64415,253.34386341433822,40.40243609959212,2498.9671789840695,-6.666104492761063,233475.1769305389,10.5,10500233475.176931,47.655,-122.3035,60.0,2.8333333333333335
2026-01-20T23:02:51+00:00,SAT-64415,253.34806792474743,40.47697252005009,2492.318850769956,-6.66519265872556,233443.24064556145,10.5,10500233443.240646,47.655,-122.3035,60.0,2.85
2026-01-20T23:02:52+00:00,SAT-64415,253.35238897818817,40.55174595292329,2485.6714319583207,-6.6642656911942,233410.77432154448,10.5,10500233410.77432,47.655,-122.3035,60.0,2.8666666666666667
2026-01-20T23:02:53+00:00,SAT-64415,253.35682787758262,40.626758246178944,2479.024937642303,-6.6633234151772625,233377.7718296077,10.5,10500233377.77183,47.655,-122.3035,60.0,2.8833333333333333
2026-01-20T23:02:54+00:00,SAT-64415,253.3613859447378,40.702011265808345,2472.379383089566,-6.662365705284731,233344.22877806245,10.5,10500233344.228779,47.655,-122.3035,60.0,2.9
2026-01-20T23:02:55+00:00,SAT-64415,253.36606452081085,40.777506896631884,2465.734783692829,-6.661392422542895,233310.14029946146,10.5,10500233310.140299,47.655,-122.3035,60.0,2.9166666666666665
2026-01-20T23:02:56+00:00,SAT-64415,253.37086496661567,40.85324704238561,2459.0911549834123,-6.6604034207679295,233275.50127382876,10.5,10500233275.501274,47.655,-122.3035,60.0,2.933333333333333
2026-01-20T23:02:57+00:00,SAT-64415,253.37578866298685,40.92923362588488,2452.4485126384334,-6.659398540194341,233240.30610550108,10.5,10500233240.306105,47.655,-122.3035,60.0,2.95
2026-01-20T23:02:58+00:00,SAT-64415,253.38083701111253,41.00546858911317,2445.8068724943464,-6.658377636448075,233204.5497378883,10.5,10500233204.549738,47.655,-122.3035,60.0,2.966666666666667
2026-01-20T23:02:59+00:00,SAT-64415,253.38601143295563,41.081953893653505,2439.1662505315953,-6.6573405571399435,233168.2268336764,10.5,10500233168.226833,47.655,-122.3035,60.0,2.9833333333333334
2026-01-20T23:03:00+00:00,SAT-64415,253.39131337160143,41.158691520847285,2432.526662882608,-6.656287148382017,233131.33200305916,10.5,10500233131.332003,47.655,-122.3035,60.0,3.0
2026-01-20T23:03:01+00:00,SAT-64415,253.39674429168292,41.235683472040186,2425.888125833288,-6.655217253642095,233093.85976361687,10.5,10500233093.859764,47.655,-122.3035,60.0,3.0166666666666666
2026-01-20T23:03:02+00:00,SAT-64415,253.40230567974132,41.31293176880739,2419.250655825656,-6.654130714861292,233055.80457945867,10.5,10500233055.804579,47.655,-122.3035,60.0,3.033333333333333
2026-01-20T23:03:03+00:00,SAT-64415,253.40799904467127,41.390438453206094,2412.6142694593673,-6.653027377170306,233017.1610264065,10.5,10500233017.161026,47.655,-122.3035,60.0,3.05
2026-01-20T23:03:04+00:00,SAT-64415,253.4138259181196,41.468205588079705,2405.9789834885364,-6.651907061151296,232977.92282048872,10.5,10500232977.922821,47.655,-122.3035,60.0,3.066666666666667
2026-01-20T23:03:05+00:00,SAT-64415,253.41978785488982,41.54623525704056,2399.344814846215,-6.650769618892485,232938.0847812092,10.5,10500232938.084782,47.655,-122.3035,60.0,3.0833333333333335
2026-01-20T23:03:06+00:00,SAT-64415,253.4258864334276,41.62452956511799,2392.7117806129727,-6.649614872521535,232897.64067872617,10.5,10500232897.640678,47.655,-122.3035,60.0,3.1
2026-01-20T23:03:07+00:00,SAT-64415,253.43212325623062,41.70309063868777,2386.0798980467775,-6.648442675357066,232856.5853756374,10.5,10500232856.585375,47.655,-122.3035,60.0,3.1166666666666667
2026-01-20T23:03:08+00:00,SAT-64415,253.43849995035913,41.78192062612405,2379.4491845518883,-6.647252822109296,232814.91168182626,10.5,10500232814.911682,47.655,-122.3035,60.0,3.1333333333333333
2026-01-20T23:03:09+00:00,SAT-64415,253.4450181677959,41.861021697387,2372.8196577373046,-6.646045161636716,232772.61430367778,10.5,10500232772.614304,47.655,-122.3035,60.0,3.15
2026-01-20T23:03:10+00:00,SAT-64415,253.451679586026,41.94039604496302,2366.1913353627656,-6.64481951805666,232729.687081037,10.5,10500232729.68708,47.655,-122.3035,60.0,3.1666666666666665
2026-01-20T23:03:11+00:00,SAT-64415,253.45848590850585,42.02004588386623,2359.564235363424,-6.64357570146773,232686.12336275371,10.5,10500232686.123363,47.655,-122.3035,60.0,3.183333333333333
2026-01-20T23:03:12+00:00,SAT-64415,253.46543886510568,42.0999734517654,2352.938375863827,-6.64231353684361,232641.91701866602,10.5,10500232641.917019,47.655,-122.3035,60.0,3.2
2026-01-20T23:03:13+00:00,SAT-64415,253.4725402126877,42.18018100946992,2346.3137751630816,-6.641032829524953,232597.06123098003,10.5,10500232597.061232,47.655,-122.3035,60.0,3.216666666666667
2026-01-20T23:03:14+00:00,SAT-64415,253.47979173557013,42.26067084099582,2339.690451754435,-6.639733422189783,232551.5504896148,10.5,10500232551.55049,47.655,-122.3035,60.0,3.2333333333333334
2026-01-20T23:03:15+00:00,SAT-64415,253.48719524617167,42.341445254340975,2333.0684242880375,-6.638415109272863,232505.3775948061,10.5,10500232505.377594,47.655,-122.3035,60.0,3.25
2026-01-20T23:03:16+00:00,SAT-64415,253.49475258543322,42.42250658120432,2326.4477116190565,-6.637077694451436,232458.53567050066,10.5,10500232458.535671,47.655,-122.3035,60.0,3.2666666666666666
2026-01-20T23:03:17+00:00,SAT-64415,253.5024656234295,42.50385717742289,2319.828332798457,-6.635720984163905,232411.0179373525,10.5,10500232411.017937,47.655,-122.3035,60.0,3.283333333333333
2026-01-20T23:03:18+00:00,SAT-64415,253.51033625993233,42.58549942332837,2313.2103070702506,-6.63434480498993,232362.81832144782,10.5,10500232362.818321,47.655,-122.3035,60.0,3.3
2026-01-20T23:03:19+00:00,SAT-64415,253.51836642508172,42.6674357243327,2306.593653851407,-6.632948918362514,232313.92846716108,10.5,10500232313.928467,47.655,-122.3035,60.0,3.316666666666667
2026-01-20T23:03:20+00:00,SAT-64415,253.5265580798013,42.74966851044247,2299.978392796827,-6.6315331512252,232264.3423133233,10.5,10500232264.342314,47.655,-122.3035,60.0,3.3333333333333335
2026-01-20T23:03:21+00:00,SAT-64415,253.53491321662074,42.83220023742291,2293.364543734005,-6.630097310211547,232214.05308742373,10.5,10500232214.053087,47.655,-122.3035,60.0,3.35
2026-01-20T23:03:22+00:00,SAT-64415,253.54343386022623,42.915033386886115,2286.7521266832873,-6.628641171410346,232163.05294714464,10.5,10500232163.052948,47.655,-122.3035,60.0,3.3666666666666667
2026-01-20T23:03:23+00:00,SAT-64415,253.55212206807113,42.99817046625524,2280.1411618883344,-6.62716449077065,232111.33334478957,10.5,10500232111.333345,47.655,-122.3035,60.0,3.3833333333333333
2026-01-20T23:03:24+00:00,SAT-64415,253.5609799309619,43.08161400885412,2273.5316698362058,-6.625667123128378,232058.88919609835,10.5,10500232058.889196,47.655,-122.3035,60.0,3.4
2026-01-20T23:03:25+00:00,SAT-64415,253.5700095740237,43.165366575530555,2266.923671158739,-6.624148807273307,232005.71135238404,10.5,10500232005.711353,47.655,-122.3035,60.0,3.4166666666666665
2026-01-20T23:03:26+00:00,SAT-64415,253.57921315708262,43.249430753535364,2260.3171867482847,-6.622609335679737,231951.79254521886,10.5,10500231951.792545,47.655,-122.3035,60.0,3.433333333333333
2026-01-20T23:03:27+00:00,SAT-64415,253.58859287554412,43.3338091575776,2253.7122377041674,-6.621048480510208,231897.1247947711,10.5,10500231897.124794,47.655,-122.3035,60.0,3.45
2026-01-20T23:03:28+00:00,SAT-64415,253.59815096105035,43.418504429933286,2247.1088453529383,-6.619466033690142,231841.700813389,10.5,10500231841.700813,47.655,-122.3035,60.0,3.466666666666667
2026-01-20T23:03:29+00:00,SAT-64415,253.6078896823205,43.503519241082785,2240.507031228671,-6.6178617441879455,231785.5118088842,10.5,10500231785.511808,47.655,-122.3035,60.0,3.4833333333333334
2026-01-20T23:03:30+00:00,SAT-64415,253.61781134577325,43.58885628953249,2233.9068171158015,-6.616235408819637,231728.55066489428,10.5,10500231728.550665,47.655,-122.3035,60.0,3.5
2026-01-20T23:03:31+00:00,SAT-64415,253.62791829648688,43.674518302829895,2227.308225001405,-6.614586758745348,231670.80796550977,10.5,10500231670.807966,47.655,-122.3035,60.0,3.5166666666666666
2026-01-20T23:03:32+00:00,SAT-64415,253.638212918794,43.76050803709222,2220.7112771406833,-6.612915578790928,231612.2761744218,10.5,10500231612.276175,47.655,-122.3035,60.0,3.533333333333333
2026-01-20T23:03:33+00:00,SAT-64415,253.64869763730235,43.846828278116746,2214.1159960034356,-6.6112216212724215,231552.9466166905,10.5,10500231552.946617,47.655,-122.3035,60.0,3.55
2026-01-20T23:03:34+00:00,SAT-64415,253.65937491761497,43.93348184134673,2207.522404306487,-6.609504641749843,231492.81073099357,10.5,10500231492.810732,47.655,-122.3035,60.0,3.566666666666667
2026-01-20T23:03:35+00:00,SAT-64415,253.67024726726174,44.020471572334436,2200.930525010448,-6.607764391335266,231431.85980022314,10.5,10500231431.8598,47.655,-122.3035,60.0,3.5833333333333335
2026-01-20T23:03:36+00:00,SAT-64415,253.68131723653426,44.10780034708625,2194.340381324156,-6.6060006185280065,231370.08501576135,10.5,10500231370.085016,47.655,-122.3035,60.0,3.6
2026-01-20T23:03:37+00:00,SAT-64415,253.69258741945376,44.19547107245893,2187.7519967072776,-6.604213072800113,231307.4776030596,10.5,10500231307.477604,47.655,-122.3035,60.0,3.6166666666666667
2026-01-20T23:03:38+00:00,SAT-64415,253.70406045465802,44.283486686587054,2181.1653948693383,-6.602401478554424,231244.02790953952,10.5,10500231244.02791,47.655,-122.3035,60.0,3.6333333333333333
2026-01-20T23:03:39+00:00,SAT-64415,253.7157390263556,44.37185015898861,2174.580599794727,-6.6005655893135,231179.72730251856,10.5,10500231179.727303,47.655,-122.3035,60.0,3.65
2026-01-20T23:03:40+00:00,SAT-64415,253.7276258653552,44.460564491385846,2167.997635713651,-6.598705132874833,231114.56624831352,10.5,10500231114.566248,47.655,-122.3035,60.0,3.6666666666666665
2026-01-20T23:03:41+00:00,SAT-64415,253.73972375004627,44.54963271780732,2161.4165271277975,-6.596819844054939,231048.535459077,10.5,10500231048.53546,47.655,-122.3035,60.0,3.683333333333333
2026-01-20T23:03:42+00:00,SAT-64415,253.75203550743885,44.639057905129135,2154.8372988033266,-6.594909437227953,230981.62493098312,10.5,10500230981.624931,47.655,-122.3035,60.0,3.7
2026-01-20T23:03:43+00:00,SAT-64415,253.7645640141901,44.72884315325211,2148.259975791265,-6.592973628096248,230913.82470672627,10.5,10500230913.824707,47.655,-122.3035,60.0,3.716666666666667
2026-01-20T23:03:44+00:00,SAT-64415,253.77731219769163,44.81899159557562,2141.684583426177,-6.591012167777231,230845.1260693854,10.5,10500230845.12607,47.655,-122.3035,60.0,3.7333333333333334
2026-01-20T23:03:45+00:00,SAT-64415,253.7902830373393,44.90950639996214,2135.111147290847,-6.5890247360007175,230775.51780174382,10.5,10500230775.517801,47.655,-122.3035,60.0,3.75
2026-01-20T23:03:46+00:00,SAT-64415,253.8034795654375,45.00039076821833,2128.5396932874755,-6.587011047380214,230704.98990835936,10.5,10500230704.989908,47.655,-122.3035,60.0,3.7666666666666666
2026-01-20T23:03:47+00:00,SAT-64415,253.8169048685204,45.09164793705666,2121.9702476028883,-6.584970817972065,230633.53244432417,10.5,10500230633.532444,47.655,-122.3035,60.0,3.783333333333333
2026-01-20T23:03:48+00:00,SAT-64415,253.83056208856385,45.18328117860413,2115.4028367070973,-6.582903753774443,230561.13511245052,10.5,10500230561.135113,47.655,-122.3035,60.0,3.8
2026-01-20T23:03:49+00:00,SAT-64415,253.84445442422486,45.27529380075565,2108.8374873633334,-6.580809517323064,230487.78609331182,10.5,10500230487.786093,47.655,-122.3035,60.0,3.816666666666667
2026-01-20T23:03:50+00:00,SAT-64415,253.85858513196308,45.36768914705418,2102.27422667139,-6.578687834046099,230413.47577024114,10.5,10500230413.47577,47.655,-122.3035,60.0,3.8333333333333335
2026-01-20T23:03:51+00:00,SAT-64415,253.87295752760997,45.460470598094034,2095.713082004901,-6.5765383795501755,230338.1927816104,10.5,10500230338.192781,47.655,-122.3035,60.0,3.85
2026-01-20T23:03:52+00:00,SAT-64415,253.88757498752415,45.55364157131765,2089.15408106103,-6.574360847542166,230261.92639973864,10.5,10500230261.9264,47.655,-122.3035,60.0,3.8666666666666667
2026-01-20T23:03:53+00:00,SAT-64415,253.90244095008,45.64720552179903,2082.597251842414,-6.572154882088068,230184.66415831156,10.5,10500230184.664158,47.655,-122.3035,60.0,3.8833333333333333
2026-01-20T23:03:54+00:00,SAT-64415,253.9175589168909,45.74116594204749,2076.0426227066787,-6.569920189782445,230106.39578102954,10.5,10500230106.39578,47.655,-122.3035,60.0,3.9
2026-01-20T23:03:55+00:00,SAT-64415,253.93293245455376,45.83552636344746,2069.4902223040685,-6.567656432867014,230027.10943816887,10.5,10500230027.109438,47.655,-122.3035,60.0,3.9166666666666665
2026-01-20T23:03:56+00:00,SAT-64415,253.94856519596266,45.930290356153996,2062.9400796216896,-6.565363268979017,229946.7931387376,10.5,10500229946.793139,47.655,-122.3035,60.0,3.933333333333333
2026-01-20T23:03:57+00:00,SAT-64415,253.964460841883,46.02546152957157,2056.3922239880944,-6.563040339385689,229865.43431839684,10.5,10500229865.434319,47.655,-122.3035,60.0,3.95
2026-01-20T23:03:58+00:00,SAT-64415,253.98062316246,46.12104353266192,2049.846685089614,-6.560687335942965,229783.0221846379,10.5,10500229783.022184,47.655,-122.3035,60.0,3.966666666666667
2026-01-20T23:03:59+00:00,SAT-64415,253.99705599908515,46.21704005525207,2043.3034929199,-6.558303872853849,229699.54322521822,10.5,10500229699.543224,47.655,-122.3035,60.0,3.9833333333333334
2026-01-20T23:04:00+00:00,SAT-64415,254.0137632657662,46.31345482745194,2036.7626778573735,-6.555889598153027,229614.98511282355,10.5,10500229614.985113,47.655,-122.3035,60.0,4.0
2026-01-20T23:04:01+00:00,SAT-64415,254.03074895101634,46.41029162072854,2030.2242706314823,-6.553444154229119,229529.33532239078,10.5,10500229529.335323,47.655,-122.3035,60.0,4.016666666666667
2026-01-20T23:04:02+00:00,SAT-64415,254.0480171196059,46.507554248399764,2023.6883023283312,-6.5509671837726255,229442.58133942971,10.5,10500229442.581339,47.655,-122.3035,60.0,4.033333333333333
2026-01-20T23:04:03+00:00,SAT-64415,254.0655719144296,46.60524656623443,2017.154804390382,-6.548458301331888,229354.7096637929,10.5,10500229354.709663,47.655,-122.3035,60.0,4.05
2026-01-20T23:04:04+00:00,SAT-64415,254.08341755824958,46.703372472617204,2010.6238086445203,-6.545917116181703,229265.70661063088,10.5,10500229265.70661,47.655,-122.3035,60.0,4.066666666666666
2026-01-20T23:04:05+00:00,SAT-64415,254.10155835566258,46.8019359090717,2004.095347307315,-6.543343253561067,229175.55905422813,10.5,10500229175.559053,47.655,-122.3035,60.0,4.083333333333333
2026-01-20T23:04:06+00:00,SAT-64415,254.11999869512584,46.900940861107905,1997.5694529690968,-6.540736327670445,229084.25348225297,10.5,10500229084.253483,47.655,-122.3035,60.0,4.1
2026-01-20T23:04:07+00:00,SAT-64415,254.13874305101643,47.00039135867674,1991.0461586049669,-6.538095951955085,228991.77635592283,10.5,10500228991.776356,47.655,-122.3035,60.0,4.116666666666666
2026-01-20T23:04:08+00:00,SAT-64415,254.1577959857235,47.1002914767817,1984.5254975755504,-6.535421672912954,228898.11179167827,10.5,10500228898.111792,47.655,-122.3035,60.0,4.133333333333334
2026-01-20T23:04:09+00:00,SAT-64415,254.17716215154917,47.20064533507083,1978.007503693765,-6.532713130562588,228803.24718144568,10.5,10500228803.24718,47.655,-122.3035,60.0,4.15
2026-01-20T23:04:10+00:00,SAT-64415,254.19684629336592,47.30145709992429,1971.4922111315507,-6.529969908861563,228707.16795365952,10.5,10500228707.167953,47.655,-122.3035,60.0,4.166666666666667
2026-01-20T23:04:11+00:00,SAT-64415,254.2168532507057,47.402730984238815,1964.9796544757794,-6.527191540683491,228609.85774757768,10.5,10500228609.857748,47.655,-122.3035,60.0,4.183333333333334
2026-01-20T23:04:12+00:00,SAT-64415,254.2371879598686,47.50447124726429,1958.4698687792045,-6.52437763588254,228511.30289864287,10.5,10500228511.302898,47.655,-122.3035,60.0,4.2
2026-01-20T23:04:13+00:00,SAT-64415,254.25785545678121,47.60668219648351,1951.9628894836842,-6.521527752961589,228411.48794375834,10.5,10500228411.487944,47.655,-122.3035,60.0,4.216666666666667
2026-01-20T23:04:14+00:00,SAT-64415,254.27886087924838,47.709368187466474,1945.4587524713972,-6.51864143284801,228310.39680425884,10.5,10500228310.396805,47.655,-122.3035,60.0,4.233333333333333
2026-01-20T23:04:15+00:00,SAT-64415,254.300209469508,47.81253362426566,1938.95749408237,-6.515718248044103,228208.01450736658,10.5,10500228208.014507,47.655,-122.3035,60.0,4.25
2026-01-20T23:04:16+00:00,SAT-64415,254.32190657703347,47.916182960599,1932.4591510829873,-6.512757725795964,228104.3244952401,10.5,10500228104.324495,47.655,-122.3035,60.0,4.266666666666667
2026-01-20T23:04:17+00:00,SAT-64415,254.34395766113232,48.02032069982229,1925.963760711127,-6.509759396483116,227999.31031978372,10.5,10500227999.31032,47.655,-122.3035,60.0,4.283333333333333
2026-01-20T23:04:18+00:00,SAT-64415,254.36636829374356,48.124951395656495,1919.4713606730345,-6.506722828296124,227892.95685720455,10.5,10500227892.956858,47.655,-122.3035,60.0,4.3
2026-01-20T23:04:19+00:00,SAT-64415,254.38914416264114,48.2300796535307,1912.9819891056138,-6.5036474873328425,227785.24540799102,10.5,10500227785.245407,47.655,-122.3035,60.0,4.316666666666666
2026-01-20T23:04:20+00:00,SAT-64415,254.41229107388273,48.335710129604706,1906.4956846782472,-6.500532926576121,227676.16031571172,10.5,10500227676.160316,47.655,-122.3035,60.0,4.333333333333333
2026-01-20T23:04:21+00:00,SAT-64415,254.43581495542713,48.441847532923056,1900.012486506142,-6.497378646890367,227565.68409852678,10.5,10500227565.6841,47.655,-122.3035,60.0,4.35
2026-01-20T23:04:22+00:00,SAT-64415,254.45972186005707,48.54849662527995,1893.53243420231,-6.494184135966422,227453.7988132024,10.5,10500227453.798813,47.655,-122.3035,60.0,4.366666666666666
2026-01-20T23:04:23+00:00,SAT-64415,254.48401796865699,48.65566222173219,1887.055567890706,-6.490948889979856,227340.48681367593,10.5,10500227340.486814,47.655,-122.3035,60.0,4.383333333333334
2026-01-20T23:04:24+00:00,SAT-64415,254.5087095936601,48.76334919147561,1880.5819281977663,-6.487672386180897,227225.72979103902,10.5,10500227225.729792,47.655,-122.3035,60.0,4.4
2026-01-20T23:04:25+00:00,SAT-64415,254.5338031825157,48.87156245827829,1874.1115562712819,-6.484354115199421,227109.50990499542,10.5,10500227109.509905,47.655,-122.3035,60.0,4.416666666666667
2026-01-20T23:04:26+00:00,SAT-64415,254.5593053213718,48.980307001451486,1867.6444937670562,-6.480993526736841,226991.80788176076,10.5,10500226991.807882,47.655,-122.3035,60.0,4.433333333333334
2026-01-20T23:04:27+00:00,SAT-64415,254.5852227386539,49.08958785592486,1861.180782889724,-6.47759008358657,226872.60490608797,10.5,10500226872.604906,47.655,-122.3035,60.0,4.45
2026-01-20T23:04:28+00:00,SAT-64415,254.61156230899718,49.19941011322483,1854.7204663796938,-6.474143229099048,226751.88148175494,10.5,10500226751.881481,47.655,-122.3035,60.0,4.466666666666667
2026-01-20T23:04:29+00:00,SAT-64415,254.6383310571686,49.30977892191612,1848.2635875325388,-6.470652419700709,226629.61857051603,10.5,10500226629.61857,47.655,-122.3035,60.0,4.483333333333333
2026-01-20T23:04:30+00:00,SAT-64415,254.6655361622793,49.42069948860802,1841.8101901859573,-6.467117075274443,226505.7958542161,10.5,10500226505.795855,47.655,-122.3035,60.0,4.5
2026-01-20T23:04:31+00:00,SAT-64415,254.69318496186003,49.53217707810381,1835.3603187562169,-6.463536606320639,226380.39268608522,10.5,10500226380.392687,47.655,-122.3035,60.0,4.516666666666667
2026-01-20T23:04:32+00:00,SAT-64415,254.721284956183,49.64421701401603,1828.9140182475132,-6.459910436501309,226253.38888032915,10.5,10500226253.38888,47.655,-122.3035,60.0,4.533333333333333
2026-01-20T23:04:33+00:00,SAT-64415,254.74984381297395,49.75682467980259,1822.4713342388427,-6.456237984904231,226124.7640909446,10.5,10500226124.764091,47.655,-122.3035,60.0,4.55
2026-01-20T23:04:34+00:00,SAT-64415,254.7788693720478,49.87000551948373,1816.0323128885648,-6.452518611873588,225994.49591447916,10.5,10500225994.495914,47.655,-122.3035,60.0,4.566666666666666
2026-01-20T23:04:35+00:00,SAT-64415,254.80836964985195,49.983765037404346,1809.5970009929897,-6.448751717214538,225862.56332957064,10.5,10500225862.56333,47.655,-122.3035,60.0,4.583333333333333
2026-01-20T23:04:36+00:00,SAT-64415,254.83835284473778,50.098108799743954,1803.1654459470208,-6.444936685086185,225728.94476686584,10.5,10500225728.944767,47.655,-122.3035,60.0,4.6
2026-01-20T23:04:37+00:00,SAT-64415,254.86882734207833,50.21304243505476,1796.7376957597617,-6.441072867342139,225593.61752553648,10.5,10500225593.617525,47.655,-122.3035,60.0,4.616666666666666
2026-01-20T23:04:38+00:00,SAT-64415,254.89980171942386,50.32857163449374,1790.3137990867324,-6.4371596114858995,225456.55875239513,10.5,10500225456.558752,47.655,-122.3035,60.0,4.633333333333334
2026-01-20T23:04:39+00:00,SAT-64415,254.9312847520908,50.444702152570194,1783.8938052342103,-6.433196253671149,225317.7451967356,10.5,10500225317.745197,47.655,-122.3035,60.0,4.65
2026-01-20T23:04:40+00:00,SAT-64415,254.96328541877034,50.5614398077476,1777.477764170549,-6.429182152700381,225177.1544011091,10.5,10500225177.154402,47.655,-122.3035,60.0,4.666666666666667
2026-01-20T23:04:41+00:00,SAT-64415,254.99581290772602,50.6787904837058,1771.0657265035893,-6.425116612225105,225034.76197644573,10.5,10500225034.761976,47.655,-122.3035,60.0,4.683333333333334
2026-01-20T23:04:42+00:00,SAT-64415,255.02887662252058,50.7967601291472,1764.6577435356635,-6.4209989357651915,224890.54352906538,10.5,10500224890.54353,47.655,-122.3035,60.0,4.7
2026-01-20T23:04:43+00:00,SAT-64415,255.06248618842255,50.91535475862242,1758.253867263727,-6.4168284207733866,224744.47445279147,10.5,10500224744.474453,47.655,-122.3035,60.0,4.716666666666667
2026-01-20T23:04:44+00:00,SAT-64415,255.09665145893985,51.03458045324593,1751.854150385409,-6.41260435895854,224596.5299402718,10.5,10500224596.52994,47.655,-122.3035,60.0,4.733333333333333
2026-01-20T23:04:45+00:00,SAT-64415,255.1313825226631,51.15444336143398,1745.458646304741,-6.408326051184315,224446.6855047945,10.5,10500224446.685505,47.655,-122.3035,60.0,4.75
2026-01-20T23:04:46+00:00,SAT-64415,255.16668971035915,51.27494969990625,1739.0674091230264,-6.403992689208232,224294.91283828908,10.5,10500224294.912838,47.655,-122.3035,60.0,4.766666666666667
2026-01-20T23:04:47+00:00,SAT-64415,255.20258360154605,51.39610575244748,1732.680493747656,-6.399603598469683,224141.18831478967,10.5,10500224141.188314,47.655,-122.3035,60.0,4.783333333333333
2026-01-20T23:04:48+00:00,SAT-64415,255.23907503302394,51.51791787328499,1726.2979557587823,-6.395157973154714,223985.483711283,10.5,10500223985.483711,47.655,-122.3035,60.0,4.8
2026-01-20T23:04:49+00:00,SAT-64415,255.27617510583468,51.64039248541997,1719.9198515402227,-6.390655042888557,223827.77204598606,10.5,10500223827.772045,47.655,-122.3035,60.0,4.816666666666666
2026-01-20T23:04:50+00:00,SAT-64415,255.31389519359143,51.76353608211367,1713.546238244115,-6.386094030206012,223668.0260887788,10.5,10500223668.026089,47.655,-122.3035,60.0,4.833333333333333
2026-01-20T23:04:51+00:00,SAT-64415,255.35224695094772,51.88735522759251,1707.1771737979898,-6.381474127933636,223506.21756903298,10.5,10500223506.21757,47.655,-122.3035,60.0,4.85
2026-01-20T23:04:52+00:00,SAT-64415,255.39124232207647,52.011856557281476,1700.812716934397,-6.3767945369982515,223342.31849982578,10.5,10500223342.3185,47.655,-122.3035,60.0,4.866666666666666
2026-01-20T23:04:53+00:00,SAT-64415,255.43089354983712,52.13704677878242,1694.4529271828308,-6.372054380095901,223176.29815426163,10.5,10500223176.298155,47.655,-122.3035,60.0,4.883333333333334
2026-01-20T23:04:54+00:00,SAT-64415,255.47121318456072,52.26293267112732,1688.0978649477486,-6.367252868286038,223008.12890030546,10.5,10500223008.1289,47.655,-122.3035,60.0,4.9
2026-01-20T23:04:55+00:00,SAT-64415,255.5122140945276,52.389521087340725,1681.7475914204447,-6.362389117526728,222837.7797750691,10.5,10500222837.779776,47.655,-122.3035,60.0,4.916666666666667
2026-01-20T23:04:56+00:00,SAT-64415,255.55390947533743,52.51681895333271,1675.4021686738981,-6.3574622615507685,222665.22043821085,10.5,10500222665.220438,47.655,-122.3035,60.0,4.933333333333334
2026-01-20T23:04:57+00:00,SAT-64415,255.5963128605427,52.64483326903272,1669.0616596450448,-6.3524714194905645,222490.42003802155,10.5,10500222490.420038,47.655,-122.3035,60.0,4.95
2026-01-20T23:04:58+00:00,SAT-64415,255.63943813248397,52.77357110887436,1662.7261281493395,-6.347415662939901,222313.3460577883,10.5,10500222313.346058,47.655,-122.3035,60.0,4.966666666666667
2026-01-20T23:04:59+00:00,SAT-64415,255.68329953315873,52.90303962156793,1656.3956389281675,-6.342294123700087,222133.96808952052,10.5,10500222133.96809,47.655,-122.3035,60.0,4.983333333333333
2026-01-20T23:05:00+00:00,SAT-64415,255.7279116765747,53.033246032101445,1650.0702575887972,-6.337105837110031,221952.25234670626,10.5,10500221952.252346,47.655,-122.3035,60.0,5.0
2026-01-20T23:05:01+00:00,SAT-64415,255.77328956008074,53.16419764047229,1643.7500507005861,-6.3318498496165505,221768.1654318795,10.5,10500221768.165432,47.655,-122.3035,60.0,5.016666666666667
2026-01-20T23:05:02+00:00,SAT-64415,255.8194485771745,53.295901822619996,1637.435085783902,-6.326525201449913,221581.67372984442,10.5,10500221581.673729,47.655,-122.3035,60.0,5.033333333333333
2026-01-20T23:05:03+00:00,SAT-64415,255.86640453061355,53.428366030989665,1631.1254313163226,-6.3211309457756,221392.74407845113,10.5,10500221392.744078,47.655,-122.3035,60.0,5.05
2026-01-20T23:05:04+00:00,SAT-64415,255.91417364632363,53.56159779549834,1624.8211567197357,-6.315666034748637,221201.33977773614,10.5,10500221201.339777,47.655,-122.3035,60.0,5.066666666666666
2026-01-20T23:05:05+00:00,SAT-64415,255.9627725866041,53.6956047220177,1618.5223324610795,-6.310129481006515,221007.42624608794,10.5,10500221007.426247,47.655,-122.3035,60.0,5.083333333333333
2026-01-20T23:05:06+00:00,SAT-64415,256.0122184656185,53.8303944943022,1612.2290299920226,-6.304520246709583,220810.96713397178,10.5,10500220810.967134,47.655,-122.3035,60.0,5.1
2026-01-20T23:05:07+00:00,SAT-64415,256.0625288642572,53.96597487349428,1605.9413217993042,-6.298837287310444,220611.92585691952,10.5,10500220611.925858,47.655,-122.3035,60.0,5.116666666666666
2026-01-20T23:05:08+00:00,SAT-64415,256.11372184617903,54.10235369855735,1599.6592814114267,-6.293079518404063,220410.26443447976,10.5,10500220410.264435,47.655,-122.3035,60.0,5.133333333333334
2026-01-20T23:05:09+00:00,SAT-64415,256.16581597402734,54.23953888592598,1593.382983438405,-6.287245864215993,220205.94518848078,10.5,10500220205.945189,47.655,-122.3035,60.0,5.15
2026-01-20T23:05:10+00:00,SAT-64415,256.21883032695126,54.37753843020388,1587.11250356316,-6.28133522983248,219998.9297704115,10.5,10500219998.92977,47.655,-122.3035,60.0,5.166666666666667
2026-01-20T23:05:11+00:00,SAT-64415,256.2727845184678,54.5163604042029,1580.847918560607,-6.275346485490381,219789.17861118776,10.5,10500219789.178612,47.655,-122.3035,60.0,5.183333333333334
2026-01-20T23:05:12+00:00,SAT-64415,256.32769871496487,54.65601295859572,1574.5893063324115,-6.2692784550903795,219576.65051883654,10.5,10500219576.650518,47.655,-122.3035,60.0,5.2
2026-01-20T23:05:13+00:00,SAT-64415,256.38359365474594,54.796504321227324,1568.3367459532012,-6.263130022865451,219361.30641447703,10.5,10500219361.306414,47.655,-122.3035,60.0,5.216666666666667
2026-01-20T23:05:14+00:00,SAT-64415,256.4404906692537,54.937842798831056,1562.0903176103968,-6.256899983090621,219143.10406852036,10.5,10500219143.104069,47.655,-122.3035,60.0,5.233333333333333
