satellites_20260121_005943/SAT-56493.csv

timestamp,satellite,azimuth_deg,elevation_deg,distance_km,relative_velocity_kms,doppler_shift_hz,tx_freq_ghz,rx_freq_hz,ue_lat,ue_lon,ue_alt_m,time_minutes
2026-01-20T23:07:10+00:00,SAT-56493,252.5354727196992,30.032988122463127,3674.5400538657505,-6.449149150039458,225876.48310823855,10.5,10500225876.483109,47.655,-122.3035,60.0,7.166666666666667
2026-01-20T23:07:11+00:00,SAT-56493,252.5484769421646,30.088187287528193,3668.108102446777,-6.449037471274773,225872.57164549854,10.5,10500225872.571646,47.655,-122.3035,60.0,7.183333333333334
2026-01-20T23:07:12+00:00,SAT-56493,252.56159150897125,30.143470126442995,3661.6762624087596,-6.4489177585887605,225868.37880085025,10.5,10500225868.378801,47.655,-122.3035,60.0,7.2
2026-01-20T23:07:13+00:00,SAT-56493,252.5748171599786,30.19883703576229,3655.244541764194,-6.448789984782516,225863.9036216729,10.5,10500225863.903622,47.655,-122.3035,60.0,7.216666666666667
2026-01-20T23:07:14+00:00,SAT-56493,252.58815464159613,30.254288414443767,3648.812948552704,-6.448654110673309,225859.14473562158,10.5,10500225859.144735,47.655,-122.3035,60.0,7.233333333333333
2026-01-20T23:07:15+00:00,SAT-56493,252.60160470684085,30.309824663762114,3642.381490852992,-6.448510058715448,225854.0994267181,10.5,10500225854.099426,47.655,-122.3035,60.0,7.25
2026-01-20T23:07:16+00:00,SAT-56493,252.61516811528338,30.365446186994028,3635.9501768211003,-6.448357828009888,225848.76766347414,10.5,10500225848.767664,47.655,-122.3035,60.0,7.266666666666667
2026-01-20T23:07:17+00:00,SAT-56493,252.62884563335354,30.42115339009627,3629.5190146139653,-6.448197328809085,225843.14630255106,10.5,10500225843.146303,47.655,-122.3035,60.0,7.283333333333333
2026-01-20T23:07:18+00:00,SAT-56493,252.64263803414576,30.4769466809545,3623.0880124780324,-6.448028559525868,225837.23528835946,10.5,10500225837.235289,47.655,-122.3035,60.0,7.3
2026-01-20T23:07:19+00:00,SAT-56493,252.65654609776175,30.53282647016287,3616.657178661332,-6.447851429697629,225831.03145251604,10.5,10500225831.031452,47.655,-122.3035,60.0,7.316666666666666
2026-01-20T23:07:20+00:00,SAT-56493,252.67057061111973,30.588793170270307,3610.226521502114,-6.447665931489139,225824.5345205981,10.5,10500225824.534521,47.655,-122.3035,60.0,7.333333333333333
2026-01-20T23:07:21+00:00,SAT-56493,252.68471236827384,30.644847196514657,3603.796049346442,-6.447471989873441,225817.74186484417,10.5,10500225817.741865,47.655,-122.3035,60.0,7.35
2026-01-20T23:07:22+00:00,SAT-56493,252.69897217029597,30.700988966254993,3597.365770615208,-6.4472695909344635,225810.6529978545,10.5,10500225810.652998,47.655,-122.3035,60.0,7.366666666666666
2026-01-20T23:07:23+00:00,SAT-56493,252.71335082553927,30.757218899522154,3590.935693743183,-6.447058625727165,225803.26410391295,10.5,10500225803.264105,47.655,-122.3035,60.0,7.383333333333334
2026-01-20T23:07:24+00:00,SAT-56493,252.72784914942469,30.813537418204458,3584.5058272737906,-6.446839112559146,225795.57582422913,10.5,10500225795.575825,47.655,-122.3035,60.0,7.4
2026-01-20T23:07:25+00:00,SAT-56493,252.7424679649156,30.869944947178002,3578.0761797321984,-6.446610980161732,225787.58566267265,10.5,10500225787.585663,47.655,-122.3035,60.0,7.416666666666667
2026-01-20T23:07:26+00:00,SAT-56493,252.7572081023153,30.926441913540444,3571.6467597146507,-6.446374146897043,225779.2907599395,10.5,10500225779.29076,47.655,-122.3035,60.0,7.433333333333334
2026-01-20T23:07:27+00:00,SAT-56493,252.77207039933828,30.983028746536558,3565.217575898812,-6.446128628743506,225770.6916756619,10.5,10500225770.691675,47.655,-122.3035,60.0,7.45
2026-01-20T23:07:28+00:00,SAT-56493,252.78705570147082,31.039705878432404,3558.7886369464118,-6.445874299168629,225761.78397813666,10.5,10500225761.783978,47.655,-122.3035,60.0,7.466666666666667
2026-01-20T23:07:29+00:00,SAT-56493,252.80216486163636,31.096473743280264,3552.359951645374,-6.445611167779292,225752.5680038374,10.5,10500225752.568005,47.655,-122.3035,60.0,7.483333333333333
2026-01-20T23:07:30+00:00,SAT-56493,252.8173987406874,31.153332778133915,3545.9315287740424,-6.445339156552577,225743.0410200715,10.5,10500225743.04102,47.655,-122.3035,60.0,7.5
2026-01-20T23:07:31+00:00,SAT-56493,252.8327582072369,31.210283422294513,3539.503377188574,-6.4450582193400985,225733.20141052728,10.5,10500225733.20141,47.655,-122.3035,60.0,7.516666666666667
2026-01-20T23:07:32+00:00,SAT-56493,252.84824413782752,31.267326117608803,3533.075505791152,-6.444768299310689,225723.04718473682,10.5,10500225723.047184,47.655,-122.3035,60.0,7.533333333333333
2026-01-20T23:07:33+00:00,SAT-56493,252.86385741700923,31.32446130839308,3526.6479235406396,-6.444469360290788,225712.57707574908,10.5,10500225712.577076,47.655,-122.3035,60.0,7.55
2026-01-20T23:07:34+00:00,SAT-56493,252.87959893747265,31.38168944163293,3520.2206394319765,-6.444161333340386,225701.78866899328,10.5,10500225701.78867,47.655,-122.3035,60.0,7.566666666666666
2026-01-20T23:07:35+00:00,SAT-56493,252.89546960006106,31.4390109667116,3513.793662528858,-6.443844165214821,225690.6800996162,10.5,10500225690.6801,47.655,-122.3035,60.0,7.583333333333333
2026-01-20T23:07:36+00:00,SAT-56493,252.9114703138908,31.496426335565697,3507.3670019480837,-6.443517818690554,225679.25006389193,10.5,10500225679.250063,47.655,-122.3035,60.0,7.6
2026-01-20T23:07:37+00:00,SAT-56493,252.9276019965169,31.553936002847298,3500.9406668435763,-6.443182223149939,225667.49608849187,10.5,10500225667.496088,47.655,-122.3035,60.0,7.616666666666666
2026-01-20T23:07:38+00:00,SAT-56493,252.94386557390854,31.611540425643213,3494.5146664396884,-6.442837329862832,225655.4164666802,10.5,10500225655.416466,47.655,-122.3035,60.0,7.633333333333334
2026-01-20T23:07:39+00:00,SAT-56493,252.96026198062322,31.669240063689106,3488.0890100093716,-6.442483077794073,225643.00906074748,10.5,10500225643.00906,47.655,-122.3035,60.0,7.65
2026-01-20T23:07:40+00:00,SAT-56493,252.97679215986108,31.72703537927638,3481.6637068864516,-6.4421194392131556,225630.2728994541,10.5,10500225630.2729,47.655,-122.3035,60.0,7.666666666666667
2026-01-20T23:07:41+00:00,SAT-56493,252.99345706368274,31.78492683757105,3475.2387664324096,-6.441746308163883,225617.2042717658,10.5,10500225617.204271,47.655,-122.3035,60.0,7.683333333333334
2026-01-20T23:07:42+00:00,SAT-56493,253.01025765283615,31.842914905926886,3468.8141981144013,-6.441363650605188,225603.80198542046,10.5,10500225603.801985,47.655,-122.3035,60.0,7.7
2026-01-20T23:07:43+00:00,SAT-56493,253.02719489711754,31.901000054551364,3462.3900114335306,-6.44097145839488,225590.06575524405,10.5,10500225590.065756,47.655,-122.3035,60.0,7.716666666666667
2026-01-20T23:07:44+00:00,SAT-56493,253.0442697755422,31.95918275675954,3455.966215899025,-6.440569591909743,225575.99069104102,10.5,10500225575.99069,47.655,-122.3035,60.0,7.733333333333333
2026-01-20T23:07:45+00:00,SAT-56493,253.06148327602818,32.0174634878032,3449.5428211593603,-6.440158042337246,225561.57648415922,10.5,10500225561.576485,47.655,-122.3035,60.0,7.75
2026-01-20T23:07:46+00:00,SAT-56493,253.07883639592825,32.07584272607258,3443.119836871803,-6.439736729194182,225546.82031573626,10.5,10500225546.820316,47.655,-122.3035,60.0,7.766666666666667
2026-01-20T23:07:47+00:00,SAT-56493,253.09633014190211,32.134320952465515,3436.697272773886,-6.4393056314122985,225531.72144787293,10.5,10500225531.721447,47.655,-122.3035,60.0,7.783333333333333
2026-01-20T23:07:48+00:00,SAT-56493,253.11396553022706,32.192898650946375,3430.2751386241575,-6.438864645911417,225516.2762702652,10.5,10500225516.27627,47.655,-122.3035,60.0,7.8
2026-01-20T23:07:49+00:00,SAT-56493,253.13174358663548,32.25157630781859,3423.8534442839687,-6.438413722892094,225500.48303872606,10.5,10500225500.483038,47.655,-122.3035,60.0,7.816666666666666
2026-01-20T23:07:50+00:00,SAT-56493,253.14966534659203,32.31035441222682,3417.4321996643375,-6.43795280752606,225484.33983293746,10.5,10500225484.339832,47.655,-122.3035,60.0,7.833333333333333
2026-01-20T23:07:51+00:00,SAT-56493,253.16773185541476,32.36923345613124,3411.011414730965,-6.437481843763789,225467.84468980797,10.5,10500225467.84469,47.655,-122.3035,60.0,7.85
2026-01-20T23:07:52+00:00,SAT-56493,253.18594416836422,32.42821393431517,3404.5910995054514,-6.43700077529961,225450.99563727487,10.5,10500225450.995638,47.655,-122.3035,60.0,7.866666666666666
2026-01-20T23:07:53+00:00,SAT-56493,253.2043033507818,32.48729634440172,3398.1712640655524,-6.436509512067326,225433.78952083888,10.5,10500225433.78952,47.655,-122.3035,60.0,7.883333333333334
2026-01-20T23:07:54+00:00,SAT-56493,253.22281047806584,32.546481186561884,3391.7519185788506,-6.436008007760495,225416.2247186525,10.5,10500225416.224718,47.655,-122.3035,60.0,7.9
2026-01-20T23:07:55+00:00,SAT-56493,253.24146663596937,32.60576896393509,3385.333073259111,-6.435496209554242,225398.2993805653,10.5,10500225398.299381,47.655,-122.3035,60.0,7.916666666666667
2026-01-20T23:07:56+00:00,SAT-56493,253.26027292068477,32.665160182589645,3378.9147383727823,-6.43497403696028,225380.01068753682,10.5,10500225380.010687,47.655,-122.3035,60.0,7.933333333333334
2026-01-20T23:07:57+00:00,SAT-56493,253.27923043887444,32.72465535128571,3372.496924266587,-6.434441436194218,225361.35675581035,10.5,10500225361.356756,47.655,-122.3035,60.0,7.95
2026-01-20T23:07:58+00:00,SAT-56493,253.2983403078909,32.78425498174071,3366.0796413408893,-6.433898319852423,225342.3345241408,10.5,10500225342.334524,47.655,-122.3035,60.0,7.966666666666667
2026-01-20T23:07:59+00:00,SAT-56493,253.31760365578532,32.84395958833631,3359.6629000832236,-6.433344660438167,225322.9430294766,10.5,10500225322.94303,47.655,-122.3035,60.0,7.983333333333333
2026-01-20T23:08:00+00:00,SAT-56493,253.3370216216474,32.903769688694574,3353.2467110085463,-6.432780347587467,225303.1784064041,10.5,10500225303.178406,47.655,-122.3035,60.0,8.0
2026-01-20T23:08:01+00:00,SAT-56493,253.3565953554446,32.96368580292531,3346.8310847418857,-6.432205352379058,225283.03964197828,10.5,10500225283.039642,47.655,-122.3035,60.0,8.016666666666667
2026-01-20T23:08:02+00:00,SAT-56493,253.37632601844066,33.02370845440445,3340.416031937113,-6.431619579657938,225262.52340346848,10.5,10500225262.523403,47.655,-122.3035,60.0,8.033333333333333
2026-01-20T23:08:03+00:00,SAT-56493,253.39621478309934,33.08383816917394,3334.0015633430007,-6.431022994118584,225241.62845432604,10.5,10500225241.628454,47.655,-122.3035,60.0,8.05
2026-01-20T23:08:04+00:00,SAT-56493,253.41626283343734,33.14407547652268,3327.5876897435332,-6.43041547167508,225220.3504485371,10.5,10500225220.350449,47.655,-122.3035,60.0,8.066666666666666
2026-01-20T23:08:05+00:00,SAT-56493,253.43647136482343,33.204420908170086,3321.174422046449,-6.429796991832951,225198.68866829862,10.5,10500225198.68867,47.655,-122.3035,60.0,8.083333333333334
2026-01-20T23:08:06+00:00,SAT-56493,253.4568415845177,33.26487499925887,3314.761771179928,-6.429167479207961,225176.6404733357,10.5,10500225176.640472,47.655,-122.3035,60.0,8.1
2026-01-20T23:08:07+00:00,SAT-56493,253.47737471161298,33.32543828786031,3308.349748147331,-6.428526840482826,225154.20259528238,10.5,10500225154.202595,47.655,-122.3035,60.0,8.116666666666667
2026-01-20T23:08:08+00:00,SAT-56493,253.49807197708762,33.386111314820845,3301.9383640450897,-6.427875004184571,225131.37253085265,10.5,10500225131.37253,47.655,-122.3035,60.0,8.133333333333333
2026-01-20T23:08:09+00:00,SAT-56493,253.51893462405934,33.44689462398789,3295.527630040916,-6.427211925284922,225108.148702966,10.5,10500225108.148703,47.655,-122.3035,60.0,8.15
2026-01-20T23:08:10+00:00,SAT-56493,253.53996390801944,33.5077887624795,3289.1175573474316,-6.426537509261103,225084.52780103486,10.5,10500225084.527802,47.655,-122.3035,60.0,8.166666666666666
2026-01-20T23:08:11+00:00,SAT-56493,253.5611610968084,33.56879428023546,3282.708157271529,-6.425851681872366,225060.50722483435,10.5,10500225060.507225,47.655,-122.3035,60.0,8.183333333333334
2026-01-20T23:08:12+00:00,SAT-56493,253.5825274708228,33.62991173022512,3276.2994411941413,-6.425154385731047,225036.08496440557,10.5,10500225036.084965,47.655,-122.3035,60.0,8.2
2026-01-20T23:08:13+00:00,SAT-56493,253.60406432326653,33.69114166863111,3269.8914205534393,-6.424445534311713,225011.25798926197,10.5,10500225011.25799,47.655,-122.3035,60.0,8.216666666666667
2026-01-20T23:08:14+00:00,SAT-56493,253.6257729601677,33.752484654586624,3263.4841068738856,-6.423725041422322,224986.02328059362,10.5,10500224986.023281,47.655,-122.3035,60.0,8.233333333333333
2026-01-20T23:08:15+00:00,SAT-56493,253.6476547005512,33.81394125019935,3257.0775117659073,-6.42299285192459,224960.37890722454,10.5,10500224960.378908,47.655,-122.3035,60.0,8.25
2026-01-20T23:08:16+00:00,SAT-56493,253.6697108767212,33.875512020866225,3250.671646894921,-6.422248861835226,224934.32122722006,10.5,10500224934.321228,47.655,-122.3035,60.0,8.266666666666667
2026-01-20T23:08:17+00:00,SAT-56493,253.69194283423326,33.93719753482417,3244.2665240300507,-6.421493025647724,224907.84864674983,10.5,10500224907.848646,47.655,-122.3035,60.0,8.283333333333333
2026-01-20T23:08:18+00:00,SAT-56493,253.71435193228808,33.99899836373077,3237.8621549858044,-6.420725243034928,224880.95765193246,10.5,10500224880.957651,47.655,-122.3035,60.0,8.3
2026-01-20T23:08:19+00:00,SAT-56493,253.7369395436914,34.060915082155034,3231.458551676751,-6.419945439968529,224853.6456499835,10.5,10500224853.64565,47.655,-122.3035,60.0,8.316666666666666
2026-01-20T23:08:20+00:00,SAT-56493,253.75970705511355,34.12294826784902,3225.0557260912888,-6.419153536233661,224825.9098314389,10.5,10500224825.909832,47.655,-122.3035,60.0,8.333333333333334
2026-01-20T23:08:21+00:00,SAT-56493,253.78265586725752,34.18509850170684,3218.6536902978187,-6.418349450908524,224797.74736207505,10.5,10500224797.747362,47.655,-122.3035,60.0,8.35
2026-01-20T23:08:22+00:00,SAT-56493,253.8057873950171,34.24736636777563,3212.2524564454457,-6.417533108108789,224769.1555841017,10.5,10500224769.155584,47.655,-122.3035,60.0,8.366666666666667
2026-01-20T23:08:23+00:00,SAT-56493,253.829103067688,34.30975245332439,3205.852036758959,-6.4167044030685085,224740.13082817226,10.5,10500224740.130829,47.655,-122.3035,60.0,8.383333333333333
2026-01-20T23:08:24+00:00,SAT-56493,253.85260432901282,34.37225734857776,3199.4524435676317,-6.415863285610131,224710.67133685655,10.5,10500224710.671337,47.655,-122.3035,60.0,8.4
2026-01-20T23:08:25+00:00,SAT-56493,253.87629263761892,34.4348816472695,3193.053689250783,-6.4150096605989795,224680.7737781358,10.5,10500224680.773779,47.655,-122.3035,60.0,8.416666666666666
2026-01-20T23:08:26+00:00,SAT-56493,253.90016946698958,34.49762594622043,3186.6557862826126,-6.414143410567171,224650.43403778787,10.5,10500224650.434038,47.655,-122.3035,60.0,8.433333333333334
2026-01-20T23:08:27+00:00,SAT-56493,253.92423630557113,34.56049084513579,3180.2587472544737,-6.413264493267919,224619.65063615158,10.5,10500224619.650637,47.655,-122.3035,60.0,8.45
2026-01-20T23:08:28+00:00,SAT-56493,253.9484946572826,34.623476947361794,3173.8625847998546,-6.412372811673939,224588.42017492105,10.5,10500224588.420176,47.655,-122.3035,60.0,8.466666666666667
2026-01-20T23:08:29+00:00,SAT-56493,253.9729460414897,34.68658485936676,3167.4673116490117,-6.411468278290117,224556.73958964716,10.5,10500224556.73959,47.655,-122.3035,60.0,8.483333333333333
2026-01-20T23:08:30+00:00,SAT-56493,253.99759199322094,34.749815190851116,3161.0729406194637,-6.410550772180984,224524.6046446583,10.5,10500224524.604645,47.655,-122.3035,60.0,8.5
2026-01-20T23:08:31+00:00,SAT-56493,254.02243406323123,34.81316855443214,3154.6794846493417,-6.4096202533704805,224492.0139398238,10.5,10500224492.013939,47.655,-122.3035,60.0,8.516666666666667
2026-01-20T23:08:32+00:00,SAT-56493,254.0474738185701,34.87664556646443,3148.2869567166467,-6.408676599612948,224458.96319358362,10.5,10500224458.963194,47.655,-122.3035,60.0,8.533333333333333
2026-01-20T23:08:33+00:00,SAT-56493,254.0727128424138,34.940246846241976,3141.8953699213,-6.407719747012458,224425.45016803197,10.5,10500224425.450169,47.655,-122.3035,60.0,8.55
2026-01-20T23:08:34+00:00,SAT-56493,254.09815273454188,35.00397301659287,3135.504737426946,-6.406749571607603,224391.47052151602,10.5,10500224391.470522,47.655,-122.3035,60.0,8.566666666666666
2026-01-20T23:08:35+00:00,SAT-56493,254.12379511127702,35.06782470329929,3129.115072520862,-6.405766007994052,224357.0219632995,10.5,10500224357.021963,47.655,-122.3035,60.0,8.583333333333334
2026-01-20T23:08:36+00:00,SAT-56493,254.14964160596264,35.131802535697204,3122.7263885555567,-6.404768935569733,224322.10026938768,10.5,10500224322.10027,47.655,-122.3035,60.0,8.6
2026-01-20T23:08:37+00:00,SAT-56493,254.17569386893774,35.19590714614028,3116.338699003815,-6.403758298136719,224286.70347149143,10.5,10500224286.703472,47.655,-122.3035,60.0,8.616666666666667
2026-01-20T23:08:38+00:00,SAT-56493,254.20195356805186,35.260139170662704,3109.9520173944734,-6.4027339624219985,224250.82690182613,10.5,10500224250.826902,47.655,-122.3035,60.0,8.633333333333333
2026-01-20T23:08:39+00:00,SAT-56493,254.228422388535,35.32449924822058,3103.5663573892843,-6.401695853953589,224214.467952068,10.5,10500224214.467953,47.655,-122.3035,60.0,8.65
2026-01-20T23:08:40+00:00,SAT-56493,254.2551020334992,35.38898802129817,3097.1817327242743,-6.400643875904952,224177.62323094197,10.5,10500224177.623232,47.655,-122.3035,60.0,8.666666666666666
2026-01-20T23:08:41+00:00,SAT-56493,254.28199422407266,35.45360613570009,3090.7981572320386,-6.399577907915415,224140.28852290823,10.5,10500224140.288523,47.655,-122.3035,60.0,8.683333333333334
2026-01-20T23:08:42+00:00,SAT-56493,254.3091006995067,35.51835424032453,3084.415644865211,-6.398497884398202,224102.4615308405,10.5,10500224102.46153,47.655,-122.3035,60.0,8.7
2026-01-20T23:08:43+00:00,SAT-56493,254.3364232177114,35.58323298773814,3078.034209641838,-6.39740368305683,224064.1379713986,10.5,10500224064.137972,47.655,-122.3035,60.0,8.716666666666667
2026-01-20T23:08:44+00:00,SAT-56493,254.3639635551857,35.648243033611216,3071.6538657019364,-6.396295214123937,224025.31470054973,10.5,10500224025.314701,47.655,-122.3035,60.0,8.733333333333333
2026-01-20T23:08:45+00:00,SAT-56493,254.3917235074584,35.71338503706484,3065.2746272750496,-6.395172364584149,223985.98776001754,10.5,10500223985.98776,47.655,-122.3035,60.0,8.75
2026-01-20T23:08:46+00:00,SAT-56493,254.41970488919392,35.778659660446316,3058.8965087034376,-6.3940350262141,223946.15335936187,10.5,10500223946.153358,47.655,-122.3035,60.0,8.766666666666667
2026-01-20T23:08:47+00:00,SAT-56493,254.44790953449495,35.84406756939185,3052.5195244372935,-6.392883122125223,223905.80880561992,10.5,10500223905.808805,47.655,-122.3035,60.0,8.783333333333333
2026-01-20T23:08:48+00:00,SAT-56493,254.4763392973034,35.90960943316213,3046.1436890034943,-6.3917165257875626,223864.94966717742,10.5,10500223864.949667,47.655,-122.3035,60.0,8.8
2026-01-20T23:08:49+00:00,SAT-56493,254.50499605142582,35.97528592414624,3039.7690170551086,-6.3905351418067475,223823.57260292003,10.5,10500223823.572603,47.655,-122.3035,60.0,8.816666666666666
2026-01-20T23:08:50+00:00,SAT-56493,254.53388169094552,36.04109771819292,3033.3955233403467,-6.3893388415508285,223781.67310761267,10.5,10500223781.673107,47.655,-122.3035,60.0,8.833333333333334
2026-01-20T23:08:51+00:00,SAT-56493,254.56299813032584,36.10704549428036,3027.023222735707,-6.388127549406868,223739.2485329705,10.5,10500223739.248533,47.655,-122.3035,60.0,8.85
2026-01-20T23:08:52+00:00,SAT-56493,254.5923473049662,36.1731299350772,3020.652130193098,-6.38690113993149,223696.29448543582,10.5,10500223696.294485,47.655,-122.3035,60.0,8.866666666666667
2026-01-20T23:08:53+00:00,SAT-56493,254.62193117122146,36.23935172643831,3014.2822607895396,-6.385659491702859,223652.80671230235,10.5,10500223652.806713,47.655,-122.3035,60.0,8.883333333333333
2026-01-20T23:08:54+00:00,SAT-56493,254.65175170668732,36.3057115574548,3007.913629723148,-6.384402515566524,223608.7820910041,10.5,10500223608.782091,47.655,-122.3035,60.0,8.9
2026-01-20T23:08:55+00:00,SAT-56493,254.6818109106943,36.372210120804965,3001.5462522809567,-6.383130076843227,223564.2159045038,10.5,10500223564.215904,47.655,-122.3035,60.0,8.916666666666666
2026-01-20T23:08:56+00:00,SAT-56493,254.71211080431794,36.43884811228502,2995.180143884318,-6.381842078428944,223519.10475180772,10.5,10500223519.104752,47.655,-122.3035,60.0,8.933333333333334
2026-01-20T23:08:57+00:00,SAT-56493,254.74265343091116,36.50562623121503,2988.8153200514316,-6.380538399970118,223473.44441762523,10.5,10500223473.444418,47.655,-122.3035,60.0,8.95
2026-01-20T23:08:58+00:00,SAT-56493,254.77344085625853,36.57254518020349,2982.451796420528,-6.3792189257318945,223427.2308484321,10.5,10500223427.230848,47.655,-122.3035,60.0,8.966666666666667
2026-01-20T23:08:59+00:00,SAT-56493,254.80447516891854,36.639605665205224,2976.089588745265,-6.377883538371409,223380.459934385,10.5,10500223380.459934,47.655,-122.3035,60.0,8.983333333333333
2026-01-20T23:09:00+00:00,SAT-56493,254.83575848051768,36.706808395511636,2969.7287128963294,-6.376532120072141,223333.12754905087,10.5,10500223333.127548,47.655,-122.3035,60.0,9.0
2026-01-20T23:09:01+00:00,SAT-56493,254.86729292607947,36.77415408375594,2963.3691848619105,-6.375164545485751,223285.22930220072,10.5,10500223285.229301,47.655,-122.3035,60.0,9.016666666666667
2026-01-20T23:09:02+00:00,SAT-56493,254.89908066427583,36.841643445837164,2957.011020755213,-6.373780715911889,223236.7617369308,10.5,10500223236.761738,47.655,-122.3035,60.0,9.033333333333333
2026-01-20T23:09:03+00:00,SAT-56493,254.93112387793838,36.909277201213555,2950.6542367878765,-6.372380487686997,223187.71982153557,10.5,10500223187.719822,47.655,-122.3035,60.0,9.05
2026-01-20T23:09:04+00:00,SAT-56493,254.9634247741011,36.977056072428326,2944.298849314823,-6.370963721560889,223138.0986788845,10.5,10500223138.098679,47.655,-122.3035,60.0,9.066666666666666
2026-01-20T23:09:05+00:00,SAT-56493,254.99598558438143,37.044980785160774,2937.9448748298532,-6.369530336303782,223087.89546396697,10.5,10500223087.895464,47.655,-122.3035,60.0,9.083333333333334
2026-01-20T23:09:06+00:00,SAT-56493,255.02880856564727,37.113052068853364,2931.5923299077795,-6.368080185120971,223037.1050354115,10.5,10500223037.105036,47.655,-122.3035,60.0,9.1
2026-01-20T23:09:07+00:00,SAT-56493,255.06189600000044,37.18127065601547,2925.2412312698193,-6.366613135200909,222985.7227415959,10.5,10500222985.722742,47.655,-122.3035,60.0,9.116666666666667
2026-01-20T23:09:08+00:00,SAT-56493,255.09525019518276,37.2496372823724,2918.8915957696454,-6.365129053212648,222933.7439127064,10.5,10500222933.743914,47.655,-122.3035,60.0,9.133333333333333
2026-01-20T23:09:09+00:00,SAT-56493,255.1288734849533,37.31815268686509,2912.543440393908,-6.363627836642158,222881.1649582681,10.5,10500222881.164959,47.655,-122.3035,60.0,9.15
2026-01-20T23:09:10+00:00,SAT-56493,255.162768229624,37.38681761198506,2906.196782231497,-6.362109338562601,222827.98073228152,10.5,10500222827.980732,47.655,-122.3035,60.0,9.166666666666666
2026-01-20T23:09:11+00:00,SAT-56493,255.19693681617832,37.455632803296304,2899.851638517837,-6.360573415863356,222774.18622240736,10.5,10500222774.186222,47.655,-122.3035,60.0,9.183333333333334
2026-01-20T23:09:12+00:00,SAT-56493,255.23138165864253,37.52459900947424,2893.508026631083,-6.359019951423649,222719.77732658078,10.5,10500222719.777327,47.655,-122.3035,60.0,9.2
2026-01-20T23:09:13+00:00,SAT-56493,255.2661051986573,37.593716982590415,2887.165964066196,-6.357448804965679,222664.7491316797,10.5,10500222664.749132,47.655,-122.3035,60.0,9.216666666666667
2026-01-20T23:09:14+00:00,SAT-56493,255.3011099056972,37.6629874778587,2880.825468458044,-6.355859845637084,222609.09705470104,10.5,10500222609.097055,47.655,-122.3035,60.0,9.233333333333333
2026-01-20T23:09:15+00:00,SAT-56493,255.33639827754388,37.73241125373654,2874.486557571995,-6.354252914071327,222552.8155139544,10.5,10500222552.815514,47.655,-122.3035,60.0,9.25
2026-01-20T23:09:16+00:00,SAT-56493,255.37197284048722,37.801989071607785,2868.1492493323613,-6.352627914581803,222495.9011580903,10.5,10500222495.901157,47.655,-122.3035,60.0,9.266666666666667
2026-01-20T23:09:17+00:00,SAT-56493,255.4078361501517,37.87172169648217,2861.813561758885,-6.350984647261796,222438.34698552973,10.5,10500222438.346985,47.655,-122.3035,60.0,9.283333333333333
2026-01-20T23:09:18+00:00,SAT-56493,255.44399079123778,37.94160989583947,2855.4795130706825,-6.349323034835979,222380.15028976405,10.5,10500222380.15029,47.655,-122.3035,60.0,9.3
2026-01-20T23:09:19+00:00,SAT-56493,255.4804393787282,38.01165444097963,2849.1471215639394,-6.34764286942417,222321.3037899499,10.5,10500222321.30379,47.655,-122.3035,60.0,9.316666666666666
2026-01-20T23:09:20+00:00,SAT-56493,255.5171845574767,38.081856105570495,2842.816405742167,-6.345944054407695,222261.8041020925,10.5,10500222261.804102,47.655,-122.3035,60.0,9.333333333333334
2026-01-20T23:09:21+00:00,SAT-56493,255.55422900335344,38.15221566687243,2836.487384205238,-6.344226438219661,222201.6459176783,10.5,10500222201.645918,47.655,-122.3035,60.0,9.35
2026-01-20T23:09:22+00:00,SAT-56493,255.59157542334881,38.22273390512326,2830.1600757041865,-6.3424898458098715,222140.82310570884,10.5,10500222140.823105,47.655,-122.3035,60.0,9.366666666666667
2026-01-20T23:09:23+00:00,SAT-56493,255.62922655583793,38.293411603261404,2823.8344991646327,-6.340734160272023,222079.3315716309,10.5,10500222079.331572,47.655,-122.3035,60.0,9.383333333333333
2026-01-20T23:09:24+00:00,SAT-56493,255.66718517144668,38.36424954756907,2817.5106736287876,-6.338959187393486,222017.16451329674,10.5,10500222017.164513,47.655,-122.3035,60.0,9.4
2026-01-20T23:09:25+00:00,SAT-56493,255.705454072973,38.43524852678865,2811.1886183325605,-6.337164833834621,221954.31866155728,10.5,10500221954.31866,47.655,-122.3035,60.0,9.416666666666666
2026-01-20T23:09:26+00:00,SAT-56493,255.7440360965685,38.50640933324732,2804.8683526049495,-6.33535088087492,221890.7863558951,10.5,10500221890.786356,47.655,-122.3035,60.0,9.433333333333334
2026-01-20T23:09:27+00:00,SAT-56493,255.78293411132472,38.577732761427,2798.54989599309,-6.3335172321696325,221826.56422190962,10.5,10500221826.564222,47.655,-122.3035,60.0,9.45
2026-01-20T23:09:28+00:00,SAT-56493,255.82215102064504,38.6492196093336,2792.2332681402067,-6.331663686839817,221761.6452239705,10.5,10500221761.645224,47.655,-122.3035,60.0,9.466666666666667
2026-01-20T23:09:29+00:00,SAT-56493,255.86168976196538,38.72087067729169,2785.9184888898653,-6.329790107849094,221696.02456248412,10.5,10500221696.024563,47.655,-122.3035,60.0,9.483333333333333
2026-01-20T23:09:30+00:00,SAT-56493,255.90155330774678,38.792686768654804,2779.6055782223034,-6.327896334036908,221629.6965929261,10.5,10500221629.696592,47.655,-122.3035,60.0,9.5
2026-01-20T23:09:31+00:00,SAT-56493,255.94174466578363,38.86466868950727,2773.2945562784903,-6.325982181850544,221562.6548865039,10.5,10500221562.654886,47.655,-122.3035,60.0,9.516666666666667
2026-01-20T23:09:32+00:00,SAT-56493,255.98226687957805,38.936817248388984,2766.9854433824585,-6.3240475246833086,221494.8950089156,10.5,10500221494.895008,47.655,-122.3035,60.0,9.533333333333333
2026-01-20T23:09:33+00:00,SAT-56493,256.02312302927635,39.00913325692395,2760.678259984508,-6.322092159106008,221426.40983521033,10.5,10500221426.409836,47.655,-122.3035,60.0,9.55
2026-01-20T23:09:34+00:00,SAT-56493,256.06431623164644,39.08161752891308,2754.373026737826,-6.32011594974516,221357.19462403614,10.5,10500221357.194624,47.655,-122.3035,60.0,9.566666666666666
2026-01-20T23:09:35+00:00,SAT-56493,256.10584964111456,39.15427088109135,2748.0697644306133,-6.31811868970094,221287.24212888596,10.5,10500221287.242128,47.655,-122.3035,60.0,9.583333333333334
2026-01-20T23:09:36+00:00,SAT-56493,256.14772644980235,39.22709413227374,2741.768494057418,-6.316100239942714,221216.54748031887,10.5,10500221216.54748,47.655,-122.3035,60.0,9.6
2026-01-20T23:09:37+00:00,SAT-56493,256.18994988858014,39.300088104110394,2735.469236751449,-6.314060422294224,221145.10443784864,10.5,10500221145.104439,47.655,-122.3035,60.0,9.616666666666667
2026-01-20T23:09:38+00:00,SAT-56493,256.2325232273714,39.3732536206035,2729.172013823614,-6.3119990405292725,221072.90612880385,10.5,10500221072.906128,47.655,-122.3035,60.0,9.633333333333333
2026-01-20T23:09:39+00:00,SAT-56493,256.2754497755683,39.446591507860916,2722.876846780526,-6.309915949634468,220999.94747420202,10.5,10500220999.947474,47.655,-122.3035,60.0,9.65
2026-01-20T23:09:40+00:00,SAT-56493,256.3187328830427,39.52010259466028,2716.583757273424,-6.307810951284666,220926.22152785776,10.5,10500220926.221527,47.655,-122.3035,60.0,9.666666666666666
2026-01-20T23:09:41+00:00,SAT-56493,256.3623759403175,39.59378771178717,2710.2927671513426,-6.305683868692064,220851.7220979144,10.5,10500220851.722097,47.655,-122.3035,60.0,9.683333333333334
2026-01-20T23:09:42+00:00,SAT-56493,256.40638237935866,39.667647692249545,2704.0038984396338,-6.3035345200735655,220776.44281755894,10.5,10500220776.442818,47.655,-122.3035,60.0,9.7
2026-01-20T23:09:43+00:00,SAT-56493,256.4507556741493,39.741683371175824,2697.717173344947,-6.301362726643046,220700.37742494507,10.5,10500220700.377424,47.655,-122.3035,60.0,9.716666666666667
2026-01-20T23:09:44+00:00,SAT-56493,256.495499341362,39.815895585809706,2691.432614252242,-6.2991682966314,220623.51920350746,10.5,10500220623.519203,47.655,-122.3035,60.0,9.733333333333333
2026-01-20T23:09:45+00:00,SAT-56493,256.5406169408764,39.89028517530789,2685.150243737735,-6.296951020625147,220545.86081870028,10.5,10500220545.860819,47.655,-122.3035,60.0,9.75
2026-01-20T23:09:46+00:00,SAT-56493,256.5861120763144,39.964852980484125,2678.870084586498,-6.294710756350196,220467.39728748298,10.5,10500220467.397287,47.655,-122.3035,60.0,9.766666666666667
2026-01-20T23:09:47+00:00,SAT-56493,256.63198839623294,40.03959984455731,2672.592159725498,-6.292447268803693,220388.1203790616,10.5,10500220388.120378,47.655,-122.3035,60.0,9.783333333333333
2026-01-20T23:09:48+00:00,SAT-56493,256.67824959405937,40.11452661199413,2666.316492316078,-6.290160395558599,220308.02440455422,10.5,10500220308.024405,47.655,-122.3035,60.0,9.8
2026-01-20T23:09:49+00:00,SAT-56493,256.72489940936543,40.18963412932039,2660.043105681574,-6.287849892386857,220227.10081006106,10.5,10500220227.100811,47.655,-122.3035,60.0,9.816666666666666
2026-01-20T23:09:50+00:00,SAT-56493,256.77194162789397,40.2649232440829,2653.7720233889004,-6.285515624452171,220145.34487304479,10.5,10500220145.344873,47.655,-122.3035,60.0,9.833333333333334
2026-01-20T23:09:51+00:00,SAT-56493,256.8193800831833,40.340394806103475,2647.5032691394463,-6.283157354077943,220062.74826906552,10.5,10500220062.748268,47.655,-122.3035,60.0,9.85
2026-01-20T23:09:52+00:00,SAT-56493,256.8672186564441,40.416049666181486,2641.2368668716463,-6.280774878072827,219979.30388150288,10.5,10500219979.30388,47.655,-122.3035,60.0,9.866666666666667
2026-01-20T23:09:53+00:00,SAT-56493,256.91546127755385,40.49188867643742,2634.9728407265816,-6.278367996895512,219895.004721576,10.5,10500219895.00472,47.655,-122.3035,60.0,9.883333333333333
2026-01-20T23:09:54+00:00,SAT-56493,256.964111925872,40.56791269029287,2628.7112150443445,-6.2759364871737535,219809.84296584412,10.5,10500219809.842966,47.655,-122.3035,60.0,9.9
2026-01-20T23:09:55+00:00,SAT-56493,257.0131746307638,40.64412256210514,2622.452014387803,-6.2734802034891075,219723.8135211381,10.5,10500219723.81352,47.655,-122.3035,60.0,9.916666666666666
2026-01-20T23:09:56+00:00,SAT-56493,257.06265347310256,40.72051914805212,2616.1952634648565,-6.270998827287385,219636.90523034288,10.5,10500219636.90523,47.655,-122.3035,60.0,9.933333333333334
2026-01-20T23:09:57+00:00,SAT-56493,257.1125525844773,40.79710330392585,2609.9409873011086,-6.268492235269392,219549.11377499902,10.5,10500219549.113775,47.655,-122.3035,60.0,9.95
2026-01-20T23:09:58+00:00,SAT-56493,257.16287614977796,40.87387588745291,2603.6892110451336,-6.265960173548351,219460.4302629177,10.5,10500219460.430264,47.655,-122.3035,60.0,9.966666666666667
2026-01-20T23:09:59+00:00,SAT-56493,257.21362840681286,40.95083775660287,2597.4399600987144,-6.263402434144471,219370.84740976687,10.5,10500219370.84741,47.655,-122.3035,60.0,9.983333333333333
2026-01-20T23:10:00+00:00,SAT-56493,257.2648136475764,41.02798977006804,2591.193260071061,-6.260818779811107,219280.35690616546,10.5,10500219280.356907,47.655,-122.3035,60.0,10.0
2026-01-20T23:10:01+00:00,SAT-56493,257.31643621880005,41.10533278680639,2584.9491368079957,-6.2582090084028295,219188.9516721255,10.5,10500219188.951672,47.655,-122.3035,60.0,10.016666666666667
2026-01-20T23:10:02+00:00,SAT-56493,257.3685005231661,41.182867666386,2578.707616356949,-6.2555728724765824,219096.6230411444,10.5,10500219096.623041,47.655,-122.3035,60.0,10.033333333333333
2026-01-20T23:10:03+00:00,SAT-56493,257.4210110197298,41.26059526831956,2572.4687250121324,-6.252910165044616,219003.36376363566,10.5,10500219003.363764,47.655,-122.3035,60.0,10.05
2026-01-20T23:10:04+00:00,SAT-56493,257.473972225223,41.338516452470415,2566.2324892741944,-6.250220638960169,218909.16518347428,10.5,10500218909.165184,47.655,-122.3035,60.0,10.066666666666666
2026-01-20T23:10:05+00:00,SAT-56493,257.52738871454505,41.416632078440095,2559.9989358902712,-6.247504060885312,218814.01912817894,10.5,10500218814.019129,47.655,-122.3035,60.0,10.083333333333334
2026-01-20T23:10:06+00:00,SAT-56493,257.5812651218429,41.4949430056324,2553.768091840215,-6.244760210555567,218717.91788315587,10.5,10500218717.917883,47.655,-122.3035,60.0,10.1
2026-01-20T23:10:07+00:00,SAT-56493,257.63560614155756,41.57345009330388,2547.5399843235546,-6.2419888282294655,218620.8523511602,10.5,10500218620.85235,47.655,-122.3035,60.0,10.116666666666667
2026-01-20T23:10:08+00:00,SAT-56493,257.6904165290049,41.65215419994613,2541.3146407988665,-6.239189688277251,218522.81462968336,10.5,10500218522.81463,47.655,-122.3035,60.0,10.133333333333333
2026-01-20T23:10:09+00:00,SAT-56493,257.7457011016664,41.73105618359248,2535.0920889497584,-6.236362547026348,218423.79618428115,10.5,10500218423.796185,47.655,-122.3035,60.0,10.15
2026-01-20T23:10:10+00:00,SAT-56493,257.8014647400222,41.81015690146524,2528.872356702858,-6.233507141870964,218323.78781738773,10.5,10500218323.787817,47.655,-122.3035,60.0,10.166666666666666
2026-01-20T23:10:11+00:00,SAT-56493,257.8577123883392,41.88945720959784,2522.655472246698,-6.230623244648882,218222.78153779724,10.5,10500218222.781538,47.655,-122.3035,60.0,10.183333333333334
2026-01-20T23:10:12+00:00,SAT-56493,257.91444905606414,41.96895796313892,2516.4414639973684,-6.227710581910932,218120.7677681631,10.5,10500218120.767769,47.655,-122.3035,60.0,10.2
2026-01-20T23:10:13+00:00,SAT-56493,257.97167981837464,42.048660015627206,2510.230360643676,-6.224768920238381,218017.73833317382,10.5,10500218017.738333,47.655,-122.3035,60.0,10.216666666666667
2026-01-20T23:10:14+00:00,SAT-56493,258.02940981768796,42.12856421936368,2504.022191107225,-6.221797980422402,217913.68345375528,10.5,10500217913.683455,47.655,-122.3035,60.0,10.233333333333333
2026-01-20T23:10:15+00:00,SAT-56493,258.08764426421845,42.208671424661226,2497.8169845880834,-6.218797523336956,217808.59475470206,10.5,10500217808.594755,47.655,-122.3035,60.0,10.25
2026-01-20T23:10:16+00:00,SAT-56493,258.1463884375356,42.2889824802113,2491.6147705248086,-6.215767269511483,217702.46244777305,10.5,10500217702.462448,47.655,-122.3035,60.0,10.266666666666667
2026-01-20T23:10:17+00:00,SAT-56493,258.2056476872236,42.36949823239293,2485.415578634683,-6.212706947376718,217595.27702146376,10.5,10500217595.277021,47.655,-122.3035,60.0,10.283333333333333
2026-01-20T23:10:18+00:00,SAT-56493,258.2654274341146,42.45021952520479,2479.2194389058322,-6.209616324431773,217487.03033260966,10.5,10500217487.030333,47.655,-122.3035,60.0,10.3
2026-01-20T23:10:19+00:00,SAT-56493,258.3257331718537,42.531147200604046,2473.0263815582657,-6.206495075666038,217377.71099796446,10.5,10500217377.710999,47.655,-122.3035,60.0,10.316666666666666
2026-01-20T23:10:20+00:00,SAT-56493,258.3865704670891,42.61228209710926,2466.8364371361345,-6.203342962453565,217267.31065983797,10.5,10500217267.31066,47.655,-122.3035,60.0,10.333333333333334
2026-01-20T23:10:21+00:00,SAT-56493,258.4479449615819,42.69362505074707,2460.6496364215814,-6.200159696086896,217155.81920647385,10.5,10500217155.819206,47.655,-122.3035,60.0,10.35
2026-01-20T23:10:22+00:00,SAT-56493,258.5098623729127,42.775176894202005,2454.466010484684,-6.196945005333717,217043.2271381691,10.5,10500217043.227139,47.655,-122.3035,60.0,10.366666666666667
2026-01-20T23:10:23+00:00,SAT-56493,258.572328495879,42.856938456844254,2448.285590666031,-6.193698574043217,216929.52338198505,10.5,10500216929.523382,47.655,-122.3035,60.0,10.383333333333333
2026-01-20T23:10:24+00:00,SAT-56493,258.6353492032737,42.938910563924196,2442.1084086215183,-6.190420151021166,216814.6991400372,10.5,10500216814.69914,47.655,-122.3035,60.0,10.4
2026-01-20T23:10:25+00:00,SAT-56493,258.69893044788677,43.02109403722339,2435.934496257567,-6.187109424290762,216698.74348557828,10.5,10500216698.743486,47.655,-122.3035,60.0,10.416666666666666
2026-01-20T23:10:26+00:00,SAT-56493,258.76307826313246,43.10348969402253,2429.763885791741,-6.183766099376765,216581.64610483975,10.5,10500216581.646105,47.655,-122.3035,60.0,10.433333333333334
2026-01-20T23:10:27+00:00,SAT-56493,258.82779876456505,43.18609834710326,2423.5966097352957,-6.180389889210732,216463.39694347043,10.5,10500216463.396944,47.655,-122.3035,60.0,10.45
2026-01-20T23:10:28+00:00,SAT-56493,258.8930981513354,43.268920804613806,2417.4327008857895,-6.176980487451507,216343.9852721072,10.5,10500216343.985271,47.655,-122.3035,60.0,10.466666666666667
2026-01-20T23:10:29+00:00,SAT-56493,258.95898270731783,43.35195786956242,2411.2721923463046,-6.173537600290636,216223.40080033528,10.5,10500216223.4008,47.655,-122.3035,60.0,10.483333333333333
2026-01-20T23:10:30+00:00,SAT-56493,259.02545880269196,43.4352103397368,2405.115117512948,-6.170060888384697,216101.6316429125,10.5,10500216101.631643,47.655,-122.3035,60.0,10.5
2026-01-20T23:10:31+00:00,SAT-56493,259.0925328947858,43.51867900681978,2398.9615101202658,-6.166550077243177,215978.66818602008,10.5,10500215978.668186,47.655,-122.3035,60.0,10.516666666666667
2026-01-20T23:10:32+00:00,SAT-56493,259.1602115303416,43.602364657006746,2392.8114041765616,-6.163004820582405,215854.49830133902,10.5,10500215854.4983,47.655,-122.3035,60.0,10.533333333333333
2026-01-20T23:10:33+00:00,SAT-56493,259.2285013460951,43.686268069742596,2386.664834035501,-6.159424847269675,215729.11249265514,10.5,10500215729.112494,47.655,-122.3035,60.0,10.55
2026-01-20T23:10:34+00:00,SAT-56493,259.29740907122414,43.7703900184706,2380.5218343211573,-6.155809767177708,215602.4970960608,10.5,10500215602.497095,47.655,-122.3035,60.0,10.566666666666666
2026-01-20T23:10:35+00:00,SAT-56493,259.3669415273771,43.85473126869096,2374.3824400466924,-6.152159312646969,215474.64273698698,10.5,10500215474.642736,47.655,-122.3035,60.0,10.583333333333334
2026-01-20T23:10:36+00:00,SAT-56493,259.4371056317932,43.93929257934987,2368.246686492212,-6.1484731227596,215345.53677456357,10.5,10500215345.536774,47.655,-122.3035,60.0,10.6
2026-01-20T23:10:37+00:00,SAT-56493,259.50790839767194,44.024074701228216,2362.1146092977797,-6.144750880421027,215215.16810279724,10.5,10500215215.168102,47.655,-122.3035,60.0,10.616666666666667
2026-01-20T23:10:38+00:00,SAT-56493,259.5793569363817,44.109078377227036,2355.9862444197065,-6.1409922487699715,215083.52492338113,10.5,10500215083.524923,47.655,-122.3035,60.0,10.633333333333333
2026-01-20T23:10:39+00:00,SAT-56493,259.651458458817,44.19430434175353,2349.8616281502664,-6.137196871778664,214950.59476671682,10.5,10500214950.594767,47.655,-122.3035,60.0,10.65
2026-01-20T23:10:40+00:00,SAT-56493,259.72422027684615,44.27975332010657,2343.740797136813,-6.13336443095696,214816.36647793214,10.5,10500214816.366478,47.655,-122.3035,60.0,10.666666666666666
2026-01-20T23:10:41+00:00,SAT-56493,259.797649805476,44.36542602864286,2337.6237883443387,-6.129494546903553,214680.8267687885,10.5,10500214680.826769,47.655,-122.3035,60.0,10.683333333333334
2026-01-20T23:10:42+00:00,SAT-56493,259.8717545638036,44.45132317355236,2331.5106391162267,-6.125586877680052,214543.9636631571,10.5,10500214543.963663,47.655,-122.3035,60.0,10.7
2026-01-20T23:10:43+00:00,SAT-56493,259.94654217724667,44.53744545100001,2325.401387136887,-6.121641098286015,214405.76577814762,10.5,10500214405.765778,47.655,-122.3035,60.0,10.716666666666667
2026-01-20T23:10:44+00:00,SAT-56493,260.02202037959376,44.623793546979854,2319.296070414863,-6.117656796402743,214266.21867261516,10.5,10500214266.218672,47.655,-122.3035,60.0,10.733333333333333
2026-01-20T23:10:45+00:00,SAT-56493,260.09819701361863,44.71036813566284,2313.1947273699175,-6.113633654412701,214125.31122225017,10.5,10500214125.311222,47.655,-122.3035,60.0,10.75
2026-01-20T23:10:46+00:00,SAT-56493,260.17508003425434,44.79716988033093,2307.097396738583,-6.109571257034778,213983.0288821514,10.5,10500213983.028883,47.655,-122.3035,60.0,10.766666666666667
2026-01-20T23:10:47+00:00,SAT-56493,260.2526775091005,44.88419943154518,2301.004117671567,-6.1054692782048265,213839.3602321733,10.5,10500213839.360231,47.655,-122.3035,60.0,10.783333333333333
2026-01-20T23:10:48+00:00,SAT-56493,260.3309976216242,44.97145742798409,2294.914929644771,-6.101327320181418,213694.29134172844,10.5,10500213694.291342,47.655,-122.3035,60.0,10.8
2026-01-20T23:10:49+00:00,SAT-56493,260.4100486720845,45.05894449495381,2288.8298725307764,-6.097145001694523,213547.80885712773,10.5,10500213547.808857,47.655,-122.3035,60.0,10.816666666666666
2026-01-20T23:10:50+00:00,SAT-56493,260.48983907977265,45.1466612441514,2282.74898658242,-6.092921921549103,213399.8987268238,10.5,10500213399.898727,47.655,-122.3035,60.0,10.833333333333334
2026-01-20T23:10:51+00:00,SAT-56493,260.5703773847268,45.23460827288601,2276.672312452662,-6.088657715572662,213250.54819595543,10.5,10500213250.548197,47.655,-122.3035,60.0,10.85
2026-01-20T23:10:52+00:00,SAT-56493,260.65167225034463,45.322786164116366,2270.599891157664,-6.084351984036629,213099.74326433722,10.5,10500213099.743265,47.655,-122.3035,60.0,10.866666666666667
2026-01-20T23:10:53+00:00,SAT-56493,260.73373246495913,45.411195485415945,2264.5317641122515,-6.080004317678484,212947.46959786452,10.5,10500212947.469599,47.655,-122.3035,60.0,10.883333333333333
2026-01-20T23:10:54+00:00,SAT-56493,260.8165669438373,45.499836788298836,2258.4679731394203,-6.075614312903632,212793.71306094743,10.5,10500212793.71306,47.655,-122.3035,60.0,10.9
2026-01-20T23:10:55+00:00,SAT-56493,260.90018473141185,45.588710607750265,2252.408560464684,-6.0711815769854995,212638.45989864008,10.5,10500212638.459898,47.655,-122.3035,60.0,10.916666666666666
2026-01-20T23:10:56+00:00,SAT-56493,260.98459500368136,45.67781746182247,2246.353568705237,-6.0667056815420874,212481.69510719285,10.5,10500212481.695107,47.655,-122.3035,60.0,10.933333333333334
2026-01-20T23:10:57+00:00,SAT-56493,261.06980706988816,45.76715785052212,2240.3030409055123,-6.062186209107955,212323.40406520007,10.5,10500212323.404066,47.655,-122.3035,60.0,10.95
2026-01-20T23:10:58+00:00,SAT-56493,261.15583037499425,45.856732255370474,2234.2570205262955,-6.0576227525904285,212163.5725145544,10.5,10500212163.572515,47.655,-122.3035,60.0,10.966666666666667
2026-01-20T23:10:59+00:00,SAT-56493,261.2426745021436,45.94654113893729,2228.2155514343785,-6.053014869467817,212002.18495627426,10.5,10500212002.184956,47.655,-122.3035,60.0,10.983333333333333
2026-01-20T23:11:00+00:00,SAT-56493,261.3303491744989,46.03658494367487,2222.178677937896,-6.048362132696264,211839.22643347742,10.5,10500211839.226433,47.655,-122.3035,60.0,11.0
2026-01-20T23:11:01+00:00,SAT-56493,261.41886425786805,46.12686409148879,2216.1464447708872,-6.043664105363044,211674.68164363218,10.5,10500211674.681644,47.655,-122.3035,60.0,11.016666666666667
2026-01-20T23:11:02+00:00,SAT-56493,261.50822976301333,46.21737898291516,2210.1188971031384,-6.038920339983194,211508.53491392214,10.5,10500211508.534914,47.655,-122.3035,60.0,11.033333333333333
2026-01-20T23:11:03+00:00,SAT-56493,261.5984558479371,46.308129996256405,2204.0960805507284,-6.034130405001898,211340.77112947227,10.5,10500211340.77113,47.655,-122.3035,60.0,11.05
2026-01-20T23:11:04+00:00,SAT-56493,261.6895528207188,46.39911748711147,2198.07804116014,-6.029293827549883,211171.37372840036,10.5,10500211171.373728,47.655,-122.3035,60.0,11.066666666666666
2026-01-20T23:11:05+00:00,SAT-56493,261.7815311413657,46.490341787001704,2192.0648254494636,-6.0244101757768025,211000.32758548055,10.5,10500211000.327585,47.655,-122.3035,60.0,11.083333333333334
2026-01-20T23:11:06+00:00,SAT-56493,261.8744014251513,46.581803203237335,2186.056480367489,-6.019478951077899,210827.6152374652,10.5,10500210827.615238,47.655,-122.3035,60.0,11.1
2026-01-20T23:11:07+00:00,SAT-56493,261.96817444411124,46.67350201710577,2180.0530533602805,-6.01449972139903,210653.22155199051,10.5,10500210653.221552,47.655,-122.3035,60.0,11.116666666666667
2026-01-20T23:11:08+00:00,SAT-56493,262.0628611309309,46.76543848409013,2174.054592304805,-6.0094719874833915,210477.1290429715,10.5,10500210477.129044,47.655,-122.3035,60.0,11.133333333333333
2026-01-20T23:11:09+00:00,SAT-56493,262.15847258049087,46.85761283199437,2168.061145575955,-6.004395291090309,210299.32166088128,10.5,10500210299.321661,47.655,-122.3035,60.0,11.15
2026-01-20T23:11:10+00:00,SAT-56493,262.2550200534185,46.95002526072643,2162.0727620056405,-5.999269137509511,210119.7820788736,10.5,10500210119.78208,47.655,-122.3035,60.0,11.166666666666666
2026-01-20T23:11:11+00:00,SAT-56493,262.352514978271,47.042675940846365,2156.0894909191647,-5.994093016591266,209938.49242934686,10.5,10500209938.49243,47.655,-122.3035,60.0,11.183333333333334
2026-01-20T23:11:12+00:00,SAT-56493,262.4509689541553,47.13556501241472,2150.111382150618,-5.988866483570855,209755.43713475933,10.5,10500209755.437136,47.655,-122.3035,60.0,11.2
2026-01-20T23:11:13+00:00,SAT-56493,262.55039375483824,47.228692585082406,2144.13848597767,-5.983588981341326,209570.59668286893,10.5,10500209570.596684,47.655,-122.3035,60.0,11.216666666666667
2026-01-20T23:11:14+00:00,SAT-56493,262.65080132970917,47.32205873536445,2138.170853233612,-5.97826004844853,209383.95491159943,10.5,10500209383.954912,47.655,-122.3035,60.0,11.233333333333333
2026-01-20T23:11:15+00:00,SAT-56493,262.7522038085368,47.415663507151294,2132.2085352119593,-5.972879136717732,209195.49262155284,10.5,10500209195.492622,47.655,-122.3035,60.0,11.25
2026-01-20T23:11:16+00:00,SAT-56493,262.85461350298726,47.509506909322745,2126.2515837529395,-5.967445737465158,209005.19199647167,10.5,10500209005.191996,47.655,-122.3035,60.0,11.266666666666667
2026-01-20T23:11:17+00:00,SAT-56493,262.95804291044425,47.60358891531627,2120.3000512041076,-5.961959351305936,208813.0355457852,10.5,10500208813.035545,47.655,-122.3035,60.0,11.283333333333333
2026-01-20T23:11:18+00:00,SAT-56493,263.0625047174184,47.69790946220118,2114.3539904110717,-5.9564194171456135,208619.0036175925,10.5,10500208619.003618,47.655,-122.3035,60.0,11.3
2026-01-20T23:11:19+00:00,SAT-56493,263.1680118015692,47.79246844857774,2108.4134547790386,-5.950825413417563,208423.07794442386,10.5,10500208423.077944,47.655,-122.3035,60.0,11.316666666666666
2026-01-20T23:11:20+00:00,SAT-56493,263.27457723576896,47.887265734066354,2102.47849823339,-5.945176776882902,208225.23879927114,10.5,10500208225.2388,47.655,-122.3035,60.0,11.333333333333334
2026-01-20T23:11:21+00:00,SAT-56493,263.382214290594,47.98230113745417,2096.5491752612456,-5.939472988626884,208025.46800754502,10.5,10500208025.468008,47.655,-122.3035,60.0,11.35
2026-01-20T23:11:22+00:00,SAT-56493,263.49093643861227,48.07757443620173,2090.625540867255,-5.9337134679027175,207823.7452290362,10.5,10500207823.74523,47.655,-122.3035,60.0,11.366666666666667
2026-01-20T23:11:23+00:00,SAT-56493,263.60075735656244,48.17308536419286,2084.707650635267,-5.927897673029188,207620.05149177727,10.5,10500207620.051493,47.655,-122.3035,60.0,11.383333333333333
2026-01-20T23:11:24+00:00,SAT-56493,263.71169092965965,48.268833611086926,2078.7955606893656,-5.922025030360348,207414.36670426064,10.5,10500207414.366705,47.655,-122.3035,60.0,11.4
2026-01-20T23:11:25+00:00,SAT-56493,263.8237512544374,48.36481882047313,2072.889327725753,-5.916094935400801,207206.66969450048,10.5,10500207206.669695,47.655,-122.3035,60.0,11.416666666666666
2026-01-20T23:11:26+00:00,SAT-56493,263.93695264175994,48.461040588011535,2066.9890090435133,-5.910106846500081,206996.94149160635,10.5,10500206996.941492,47.655,-122.3035,60.0,11.433333333333334
2026-01-20T23:11:27+00:00,SAT-56493,264.05130962170654,48.55749846105719,2061.094662481937,-5.904060160595465,206785.16097377066,10.5,10500206785.160975,47.655,-122.3035,60.0,11.45
2026-01-20T23:11:28+00:00,SAT-56493,264.1668369460173,48.654191936218616,2055.2063464817697,-5.897954287904009,206571.3074843,10.5,10500206571.307484,47.655,-122.3035,60.0,11.466666666666667
2026-01-20T23:11:29+00:00,SAT-56493,264.28354959213084,48.75112045809678,2049.3241200719667,-5.891788621701774,206355.35977315556,10.5,10500206355.359774,47.655,-122.3035,60.0,11.483333333333333
2026-01-20T23:11:30+00:00,SAT-56493,264.40146276658606,48.84828341747858,2043.4480428865897,-5.88556254361083,206137.2961821265,10.5,10500206137.296183,47.655,-122.3035,60.0,11.5
2026-01-20T23:11:31+00:00,SAT-56493,264.52059190864605,48.9456801495787,2037.5781751764284,-5.879275448057594,205917.09550146433,10.5,10500205917.0955,47.655,-122.3035,60.0,11.516666666666667
2026-01-20T23:11:32+00:00,SAT-56493,264.64095269444397,49.043309932638856,2031.7145777962323,-5.872926722583119,205694.7362802661,10.5,10500205694.73628,47.655,-122.3035,60.0,11.533333333333333
2026-01-20T23:11:33+00:00,SAT-56493,264.76256104083654,49.14117198616339,2025.857312211576,-5.86651572750516,205470.1961141537,10.5,10500205470.196114,47.655,-122.3035,60.0,11.55
2026-01-20T23:11:34+00:00,SAT-56493,264.88543310875866,49.23926546875393,2020.006440526011,-5.860041811341113,205243.45218545053,10.5,10500205243.452185,47.655,-122.3035,60.0,11.566666666666666
2026-01-20T23:11:35+00:00,SAT-56493,265.0095853070312,49.337589476158975,2014.1620254928334,-5.853504354624955,205014.4827978362,10.5,10500205014.482798,47.655,-122.3035,60.0,11.583333333333334
2026-01-20T23:11:36+00:00,SAT-56493,265.13503429716263,49.436143040010265,2008.3241304831542,-5.846902701297563,204783.26497334504,10.5,10500204783.264973,47.655,-122.3035,60.0,11.6
2026-01-20T23:11:37+00:00,SAT-56493,265.2617969967326,49.53492512535967,2002.4928195223933,-5.840236182406283,204549.77528242546,10.5,10500204549.775282,47.655,-122.3035,60.0,11.616666666666667
2026-01-20T23:11:38+00:00,SAT-56493,265.3898905832092,49.633934628544615,1996.6681573031403,-5.8335041369554,204313.99057421152,10.5,10500204313.990574,47.655,-122.3035,60.0,11.633333333333333
2026-01-20T23:11:39+00:00,SAT-56493,265.51933249846627,49.73317037537346,1990.8502091772168,-5.826705890887448,204075.88724035947,10.5,10500204075.88724,47.655,-122.3035,60.0,11.65
2026-01-20T23:11:40+00:00,SAT-56493,265.6501404526997,49.83263111888146,1985.039041168705,-5.819840767821374,203835.44159114378,10.5,10500203835.441591,47.655,-122.3035,60.0,11.666666666666666
2026-01-20T23:11:41+00:00,SAT-56493,265.78233242877604,49.932315537227254,1979.2347199762644,-5.812908063739648,203592.62896889256,10.5,10500203592.62897,47.655,-122.3035,60.0,11.683333333333334
2026-01-20T23:11:42+00:00,SAT-56493,265.9159266859056,50.032222231083914,1973.4373130006945,-5.805907091633834,203347.4253116643,10.5,10500203347.425312,47.655,-122.3035,60.0,11.7
2026-01-20T23:11:43+00:00,SAT-56493,266.0509417645187,50.132349721748646,1967.6468883279717,-5.798837151436285,203099.8061001287,10.5,10500203099.8061,47.655,-122.3035,60.0,11.716666666666667
2026-01-20T23:11:44+00:00,SAT-56493,266.1873964904006,50.23269644866692,1961.8635147422729,-5.791697540356818,202849.7467196009,10.5,10500202849.74672,47.655,-122.3035,60.0,11.733333333333333
2026-01-20T23:11:45+00:00,SAT-56493,266.32530997920014,50.333260767083054,1956.0872617286902,-5.784487483597625,202597.2200333841,10.5,10500202597.220034,47.655,-122.3035,60.0,11.75
2026-01-20T23:11:46+00:00,SAT-56493,266.4647016390413,50.43404094439255,1950.3181995450489,-5.777206335392306,202342.2034240075,10.5,10500202342.203424,47.655,-122.3035,60.0,11.766666666666667
2026-01-20T23:11:47+00:00,SAT-56493,266.6055911785441,50.53503515997795,1944.5563990932176,-5.769853285420781,202084.6685106341,10.5,10500202084.66851,47.655,-122.3035,60.0,11.783333333333333
2026-01-20T23:11:48+00:00,SAT-56493,266.74799860711096,50.636241499802736,1938.8019320832248,-5.762427637102801,201824.59089607725,10.5,10500201824.590897,47.655,-122.3035,60.0,11.8
2026-01-20T23:11:49+00:00,SAT-56493,266.8919442426192,50.737657955844085,1933.0548709198208,-5.75492860745975,201561.9431571136,10.5,10500201561.943157,47.655,-122.3035,60.0,11.816666666666666
2026-01-20T23:11:50+00:00,SAT-56493,267.0374487137746,50.83928242191565,1927.3152887886476,-5.747355429656093,201296.69843591918,10.5,10500201296.698437,47.655,-122.3035,60.0,11.833333333333334
2026-01-20T23:11:51+00:00,SAT-56493,267.1845329652794,50.941112691234004,1921.5832596401372,-5.7397073766544855,201028.8312685708,10.5,10500201028.831268,47.655,-122.3035,60.0,11.85
2026-01-20T23:11:52+00:00,SAT-56493,267.33321826367785,51.04314645434127,1915.8588581498204,-5.731983620831231,200758.3126681857,10.5,10500200758.312668,47.655,-122.3035,60.0,11.866666666666667
2026-01-20T23:11:53+00:00,SAT-56493,267.4835261993379,51.1453812944361,1910.1421598186448,-5.724183403326553,200485.1160562845,10.5,10500200485.116056,47.655,-122.3035,60.0,11.883333333333333
2026-01-20T23:11:54+00:00,SAT-56493,267.63547869313993,51.24781468565985,1904.4332409043939,-5.716305898675663,200209.21252159873,10.5,10500200209.212523,47.655,-122.3035,60.0,11.9
2026-01-20T23:11:55+00:00,SAT-56493,267.7890979994055,51.35044398887336,1898.7321784881146,-5.7083503496341645,199930.57554222638,10.5,10500199930.575542,47.655,-122.3035,60.0,11.916666666666666
2026-01-20T23:11:56+00:00,SAT-56493,267.9444067126543,51.453266449785446,1893.0390504060795,-5.700315893791986,199649.17491291877,10.5,10500199649.174913,47.655,-122.3035,60.0,11.933333333333334
2026-01-20T23:11:57+00:00,SAT-56493,268.10142776939654,51.55627919385858,1887.353935354671,-5.692201731930852,199364.9826416712,10.5,10500199364.982641,47.655,-122.3035,60.0,11.95
2026-01-20T23:11:58+00:00,SAT-56493,268.26018445474955,51.659479224178824,1881.6769128273586,-5.684007027004926,199077.9694115978,10.5,10500199077.969412,47.655,-122.3035,60.0,11.966666666666667
2026-01-20T23:11:59+00:00,SAT-56493,268.4207004061829,51.76286341741015,1876.0080631524256,-5.675730937544064,198788.10575085474,10.5,10500198788.105751,47.655,-122.3035,60.0,11.983333333333333
2026-01-20T23:12:00+00:00,SAT-56493,268.5829996181469,51.86642852026034,1870.3474674973816,-5.66737260823295,198495.36170268155,10.5,10500198495.361702,47.655,-122.3035,60.0,12.0
2026-01-20T23:12:01+00:00,SAT-56493,268.7471064464664,51.97017114568842,1864.6952078827708,-5.658931193459698,198199.7076501732,10.5,10500198199.70765,47.655,-122.3035,60.0,12.016666666666667
2026-01-20T23:12:02+00:00,SAT-56493,268.913045613394,52.074087769449335,1859.0513671724937,-5.650405809714993,197901.11264909615,10.5,10500197901.11265,47.655,-122.3035,60.0,12.033333333333333
2026-01-20T23:12:03+00:00,SAT-56493,269.08084221119054,52.17817472566744,1853.4160291116045,-5.641795587855869,197599.54625838727,10.5,10500197599.546259,47.655,-122.3035,60.0,12.05
2026-01-20T23:12:04+00:00,SAT-56493,269.2505217072575,52.28242820327643,1847.789278311983,-5.633099625555915,197294.97687475884,10.5,10500197294.976875,47.655,-122.3035,60.0,12.066666666666666
2026-01-20T23:12:05+00:00,SAT-56493,269.4221099477729,52.38684424148044,1842.1712002854285,-5.624317034500594,196987.37338567816,10.5,10500196987.373386,47.655,-122.3035,60.0,12.083333333333334
2026-01-20T23:12:06+00:00,SAT-56493,269.5956331626927,52.49141872598556,1836.5618814296865,-5.615446912249143,196676.70418385245,10.5,10500196676.704184,47.655,-122.3035,60.0,12.1
2026-01-20T23:12:07+00:00,SAT-56493,269.77111796994757,52.596147384618725,1830.9614090425368,-5.606488350992228,196362.9374739587,10.5,10500196362.937473,47.655,-122.3035,60.0,12.116666666666667
2026-01-20T23:12:08+00:00,SAT-56493,269.9485913796818,52.701025782989454,1825.3698713271472,-5.597440381486388,196046.03930899114,10.5,10500196046.039309,47.655,-122.3035,60.0,12.133333333333333
2026-01-20T23:12:09+00:00,SAT-56493,270.1280807966273,52.80604931899559,1819.7873574533446,-5.588302118921265,195725.9786991482,10.5,10500195725.978699,47.655,-122.3035,60.0,12.15
2026-01-20T23:12:10+00:00,SAT-56493,270.3096140272886,52.91121321996934,1814.2139574734072,-5.579072574365986,195402.72100788757,10.5,10500195402.721008,47.655,-122.3035,60.0,12.166666666666666
2026-01-20T23:12:11+00:00,SAT-56493,270.49321928061363,53.01651253615114,1808.6497624259061,-5.569750828747791,195076.2340453935,10.5,10500195076.234045,47.655,-122.3035,60.0,12.183333333333334
2026-01-20T23:12:12+00:00,SAT-56493,270.6789251745187,53.12194213734211,1803.094864266035,-5.5603358779514735,194746.4826433041,10.5,10500194746.482643,47.655,-122.3035,60.0,12.2
2026-01-20T23:12:13+00:00,SAT-56493,270.86676073691376,53.22749670650156,1797.549355950425,-5.550826777975838,194413.4337387043,10.5,10500194413.433739,47.655,-122.3035,60.0,12.216666666666667
2026-01-20T23:12:14+00:00,SAT-56493,271.05675541168347,53.333170735990414,1792.0133313771903,-5.541222532511932,194077.05243664028,10.5,10500194077.052437,47.655,-122.3035,60.0,12.233333333333333
2026-01-20T23:12:15+00:00,SAT-56493,271.24893906056667,53.438958521553424,1786.4868854380984,-5.53152211179546,193737.3026704105,10.5,10500193737.30267,47.655,-122.3035,60.0,12.25
2026-01-20T23:12:16+00:00,SAT-56493,271.4433419654097,53.544854156529595,1780.9701140519344,-5.521724564304083,193394.1511136777,10.5,10500193394.151114,47.655,-122.3035,60.0,12.266666666666667
2026-01-20T23:12:17+00:00,SAT-56493,271.6399948345162,53.650851528099395,1775.4631140864685,-5.5118288302458485,193047.56064804478,10.5,10500193047.560648,47.655,-122.3035,60.0,12.283333333333333
2026-01-20T23:12:18+00:00,SAT-56493,271.8389288017247,53.756944309806556,1769.9659834664367,-5.501833913912011,192697.49639957963,10.5,10500192697.496399,47.655,-122.3035,60.0,12.3
2026-01-20T23:12:19+00:00,SAT-56493,272.0401754318608,53.863125957287146,1764.4788211096284,-5.49173873486851,192343.92052691116,10.5,10500192343.920527,47.655,-122.3035,60.0,12.316666666666666
2026-01-20T23:12:20+00:00,SAT-56493,272.2437667201565,53.96938970098055,1759.001727011386,-5.48154227644787,191986.797422044,10.5,10500191986.797422,47.655,-122.3035,60.0,12.333333333333334
2026-01-20T23:12:21+00:00,SAT-56493,272.4497350973077,54.0757285416055,1753.5348021810087,-5.471243469463698,191626.08963754796,10.5,10500191626.089638,47.655,-122.3035,60.0,12.35
2026-01-20T23:12:22+00:00,SAT-56493,272.65811342955334,54.18213524323186,1748.0781486941303,-5.460841243683427,191261.75968935143,10.5,10500191261.75969,47.655,-122.3035,60.0,12.366666666666667
2026-01-20T23:12:23+00:00,SAT-56493,272.8689350206829,54.288602327235374,1742.6318696937633,-5.4503345225245345,190893.7698709806,10.5,10500190893.76987,47.655,-122.3035,60.0,12.383333333333333
2026-01-20T23:12:24+00:00,SAT-56493,273.082233613315,54.39512206600295,1737.1960693966323,-5.439722191448116,190522.08114656847,10.5,10500190522.081146,47.655,-122.3035,60.0,12.4
