satellites_20260121_005943/SAT-56487.csv

timestamp,satellite,azimuth_deg,elevation_deg,distance_km,relative_velocity_kms,doppler_shift_hz,tx_freq_ghz,rx_freq_hz,ue_lat,ue_lon,ue_alt_m,time_minutes
2026-01-20T23:03:33+00:00,SAT-56487,252.01177617130634,30.048270109778784,3610.274745219137,-5.449864899660735,190877.3216917876,10.5,10500190877.321692,47.655,-122.3035,60.0,3.55
2026-01-20T23:03:34+00:00,SAT-56487,252.0643799966037,30.11112974534923,3604.8394132925423,-5.446653627765467,190764.84936634864,10.5,10500190764.849367,47.655,-122.3035,60.0,3.566666666666667
2026-01-20T23:03:35+00:00,SAT-56487,252.1172626789554,30.17404782516748,3599.40728407445,-5.443421607315345,190651.65033875246,10.5,10500190651.65034,47.655,-122.3035,60.0,3.5833333333333335
2026-01-20T23:03:36+00:00,SAT-56487,252.17042583392612,30.237024244806488,3593.978378258088,-5.4401687436351285,190537.72129307152,10.5,10500190537.721292,47.655,-122.3035,60.0,3.6
2026-01-20T23:03:37+00:00,SAT-56487,252.22387108811398,30.300058896035996,3588.552716631103,-5.436894912138298,190423.057865759,10.5,10500190423.057865,47.655,-122.3035,60.0,3.6166666666666667
2026-01-20T23:03:38+00:00,SAT-56487,252.27760007890572,30.36315166643038,3583.1303201053965,-5.433600031065504,190307.65719325666,10.5,10500190307.657194,47.655,-122.3035,60.0,3.6333333333333333
2026-01-20T23:03:39+00:00,SAT-56487,252.33161445501383,30.42630243980573,3577.711209674414,-5.430283956269868,190191.514226931,10.5,10500190191.514227,47.655,-122.3035,60.0,3.65
2026-01-20T23:03:40+00:00,SAT-56487,252.38591587588536,30.489511095449064,3572.295406475361,-5.426946627594433,190074.62685983095,10.5,10500190074.62686,47.655,-122.3035,60.0,3.6666666666666665
2026-01-20T23:03:41+00:00,SAT-56487,252.44050601268242,30.552777509034993,3566.88293170544,-5.423587904655173,189956.99017511416,10.5,10500189956.990175,47.655,-122.3035,60.0,3.683333333333333
2026-01-20T23:03:42+00:00,SAT-56487,252.49538654750194,30.61610155164315,3561.4738067018643,-5.420207688731928,189838.6007151829,10.5,10500189838.600716,47.655,-122.3035,60.0,3.7
2026-01-20T23:03:43+00:00,SAT-56487,252.55055917389961,30.679483090184583,3556.0680529003016,-5.416805866130341,189719.45449798,10.5,10500189719.454498,47.655,-122.3035,60.0,3.716666666666667
2026-01-20T23:03:44+00:00,SAT-56487,252.6060255968095,30.742921987173204,3550.6656918498147,-5.413382336835305,189599.54802055328,10.5,10500189599.548021,47.655,-122.3035,60.0,3.7333333333333334
2026-01-20T23:03:45+00:00,SAT-56487,252.66178753277683,30.806418100826907,3545.266745199211,-5.409936981559508,189478.8771049565,10.5,10500189478.877106,47.655,-122.3035,60.0,3.75
2026-01-20T23:03:46+00:00,SAT-56487,252.71784670981526,30.86997128478661,3539.8712347162686,-5.406469712753965,189357.43868485387,10.5,10500189357.438684,47.655,-122.3035,60.0,3.7666666666666666
2026-01-20T23:03:47+00:00,SAT-56487,252.77420486785627,30.933581388429,3534.479182256082,-5.402980372650995,189235.22723455387,10.5,10500189235.227234,47.655,-122.3035,60.0,3.783333333333333
2026-01-20T23:03:48+00:00,SAT-56487,252.83086375803444,30.997248255985042,3529.0906098310916,-5.399468895668394,189112.2404570903,10.5,10500189112.240458,47.655,-122.3035,60.0,3.8
2026-01-20T23:03:49+00:00,SAT-56487,252.88782514380534,31.060971727560183,3523.705539519145,-5.395935150632608,188988.4737582104,10.5,10500188988.473759,47.655,-122.3035,60.0,3.816666666666667
2026-01-20T23:03:50+00:00,SAT-56487,252.94509080028897,31.124751638305494,3518.3239935289143,-5.392379020038653,188863.9230223926,10.5,10500188863.923023,47.655,-122.3035,60.0,3.8333333333333335
2026-01-20T23:03:51+00:00,SAT-56487,253.002662514504,31.188587818514815,3512.945994186262,-5.388800385137931,188738.58409055867,10.5,10500188738.584091,47.655,-122.3035,60.0,3.85
2026-01-20T23:03:52+00:00,SAT-56487,253.06054208543554,31.252480093548815,3507.571563935485,-5.385199150053257,188612.45360468407,10.5,10500188612.453604,47.655,-122.3035,60.0,3.8666666666666667
2026-01-20T23:03:53+00:00,SAT-56487,253.11873132438052,31.31642828404151,3502.2007253164984,-5.3815751949306545,188485.52736697556,10.5,10500188485.527367,47.655,-122.3035,60.0,3.8833333333333333
2026-01-20T23:03:54+00:00,SAT-56487,253.1772320547481,31.38043220555386,3496.833500988754,-5.377928399526344,188357.80116598733,10.5,10500188357.801167,47.655,-122.3035,60.0,3.9
2026-01-20T23:03:55+00:00,SAT-56487,253.236046112152,31.444491668503677,3491.4699137316265,-5.374258628808874,188229.2702723468,10.5,10500188229.270273,47.655,-122.3035,60.0,3.9166666666666665
2026-01-20T23:03:56+00:00,SAT-56487,253.29517534430136,31.508606477924765,3486.109986459161,-5.370565802804272,188099.93188502712,10.5,10500188099.931885,47.655,-122.3035,60.0,3.933333333333333
2026-01-20T23:03:57+00:00,SAT-56487,253.35462161174104,31.572776434052884,3480.753742165164,-5.366849785253737,187969.78123166872,10.5,10500187969.78123,47.655,-122.3035,60.0,3.95
2026-01-20T23:03:58+00:00,SAT-56487,253.4143867872634,31.637001331591723,3475.401203979338,-5.363110453174692,187838.8140049016,10.5,10500187838.814005,47.655,-122.3035,60.0,3.966666666666667
2026-01-20T23:03:59+00:00,SAT-56487,253.4744727561616,31.701280959800762,3470.0523951540385,-5.359347687516148,187707.02603505642,10.5,10500187707.026035,47.655,-122.3035,60.0,3.9833333333333334
2026-01-20T23:04:00+00:00,SAT-56487,253.53488141634347,31.76561510247355,3464.7073390603555,-5.35556137333709,187574.4132964127,10.5,10500187574.413296,47.655,-122.3035,60.0,4.0
2026-01-20T23:04:01+00:00,SAT-56487,253.59561467846964,31.83000353791574,3459.366059184014,-5.351751403903234,187440.97205068433,10.5,10500187440.972052,47.655,-122.3035,60.0,4.016666666666667
2026-01-20T23:04:02+00:00,SAT-56487,253.65667446613625,31.894446038973957,3454.0285791171877,-5.347917635380762,187306.6972602026,10.5,10500187306.69726,47.655,-122.3035,60.0,4.033333333333333
2026-01-20T23:04:03+00:00,SAT-56487,253.7180627155168,31.958942372518905,3448.6949225955013,-5.344059950490848,187171.58481736694,10.5,10500187171.584818,47.655,-122.3035,60.0,4.05
2026-01-20T23:04:04+00:00,SAT-56487,253.7797813757495,32.02349229969043,3443.365113471545,-5.340178236374654,187035.63076938337,10.5,10500187035.63077,47.655,-122.3035,60.0,4.066666666666666
2026-01-20T23:04:05+00:00,SAT-56487,253.8418324090934,32.088095575876,3438.0391757104676,-5.3362723696679275,186898.83079551402,10.5,10500186898.830795,47.655,-122.3035,60.0,4.083333333333333
2026-01-20T23:04:06+00:00,SAT-56487,253.90421779086734,32.152751950512325,3432.7171334004524,-5.332342208604291,186761.17993050063,10.5,10500186761.17993,47.655,-122.3035,60.0,4.1
2026-01-20T23:04:07+00:00,SAT-56487,253.96693950932072,32.21746116678481,3427.3990107710706,-5.328387656070568,186622.67477302902,10.5,10500186622.674772,47.655,-122.3035,60.0,4.116666666666666
2026-01-20T23:04:08+00:00,SAT-56487,254.029999566257,32.282222962091446,3422.0848321487497,-5.324408568906333,186483.3103090155,10.5,10500186483.310308,47.655,-122.3035,60.0,4.133333333333334
2026-01-20T23:04:09+00:00,SAT-56487,254.09339997655195,32.3470370674084,3416.774622002694,-5.320404821187941,186343.08212808133,10.5,10500186343.082129,47.655,-122.3035,60.0,4.15
2026-01-20T23:04:10+00:00,SAT-56487,254.15714276844724,32.41190320741926,3411.4684049276957,-5.3163763049324135,186201.98644820592,10.5,10500186201.986448,47.655,-122.3035,60.0,4.166666666666667
2026-01-20T23:04:11+00:00,SAT-56487,254.2212299838672,32.476821100653396,3406.1662056262435,-5.312322860917037,186060.01769273626,10.5,10500186060.017693,47.655,-122.3035,60.0,4.183333333333334
2026-01-20T23:04:12+00:00,SAT-56487,254.28566367783878,32.54179045878292,3400.868048959622,-5.30824439342726,185917.17250934386,10.5,10500185917.17251,47.655,-122.3035,60.0,4.2
2026-01-20T23:04:13+00:00,SAT-56487,254.35044591939993,32.6068109873126,3395.573959884577,-5.3041407510486565,185773.44559485512,10.5,10500185773.445595,47.655,-122.3035,60.0,4.216666666666667
2026-01-20T23:04:14+00:00,SAT-56487,254.4155787909524,32.67188238481925,3390.2839635088644,-5.300011813822049,185628.8327477922,10.5,10500185628.832748,47.655,-122.3035,60.0,4.233333333333333
2026-01-20T23:04:15+00:00,SAT-56487,254.4810643887647,32.73700434325128,3384.9980850598795,-5.295857465270584,185483.32988864294,10.5,10500185483.32989,47.655,-122.3035,60.0,4.25
2026-01-20T23:04:16+00:00,SAT-56487,254.54690482308655,32.802176547887164,3379.716349881183,-5.291677548015367,185336.9315053328,10.5,10500185336.931505,47.655,-122.3035,60.0,4.266666666666667
2026-01-20T23:04:17+00:00,SAT-56487,254.61310221771055,32.867398676747065,3374.4387834732956,-5.287471948334097,185189.63361482567,10.5,10500185189.633615,47.655,-122.3035,60.0,4.283333333333333
2026-01-20T23:04:18+00:00,SAT-56487,254.67965871061585,32.93267040104274,3369.165411450157,-5.283240525719252,185041.43129595392,10.5,10500185041.431295,47.655,-122.3035,60.0,4.3
2026-01-20T23:04:19+00:00,SAT-56487,254.74657645369905,32.99799138475865,3363.8962595658395,-5.278983169697577,184892.32067947675,10.5,10500184892.320679,47.655,-122.3035,60.0,4.316666666666666
2026-01-20T23:04:20+00:00,SAT-56487,254.81385761325924,33.06336128493433,3358.6313536845946,-5.274699706328316,184742.29567325313,10.5,10500184742.295673,47.655,-122.3035,60.0,4.333333333333333
2026-01-20T23:04:21+00:00,SAT-56487,254.88150436923178,33.12877975079,3353.37071984415,-5.270390033105574,184591.35268709302,10.5,10500184591.352688,47.655,-122.3035,60.0,4.35
2026-01-20T23:04:22+00:00,SAT-56487,254.94951891621366,33.19424642451659,3348.114384184466,-5.26605400171405,184439.48652636725,10.5,10500184439.486526,47.655,-122.3035,60.0,4.366666666666666
2026-01-20T23:04:23+00:00,SAT-56487,255.01790346294717,33.25976094061786,3342.862372993423,-5.261691499097209,184286.69323135773,10.5,10500184286.693232,47.655,-122.3035,60.0,4.383333333333334
2026-01-20T23:04:24+00:00,SAT-56487,255.08666023286196,33.3253229262534,3337.6147126716564,-5.257302339601353,184132.9662996866,10.5,10500184132.9663,47.655,-122.3035,60.0,4.4
2026-01-20T23:04:25+00:00,SAT-56487,255.1557914631739,33.39093200024107,3332.3714298049613,-5.252886444472747,183978.30297306494,10.5,10500183978.302973,47.655,-122.3035,60.0,4.416666666666667
2026-01-20T23:04:26+00:00,SAT-56487,255.22529940642573,33.456587774291314,3327.1325510576735,-5.248443631288445,183822.6968622695,10.5,10500183822.696863,47.655,-122.3035,60.0,4.433333333333334
2026-01-20T23:04:27+00:00,SAT-56487,255.29518632913673,33.522289851618,3321.8981032760685,-5.24397381093211,183666.14484606936,10.5,10500183666.144846,47.655,-122.3035,60.0,4.45
2026-01-20T23:04:28+00:00,SAT-56487,255.36545451318204,33.588037828005106,3316.668113395299,-5.239476767899758,183508.6393766032,10.5,10500183508.639376,47.655,-122.3035,60.0,4.466666666666667
2026-01-20T23:04:29+00:00,SAT-56487,255.43610625409832,33.65383129012649,3311.442608565447,-5.234952429855452,183350.17792036067,10.5,10500183350.177921,47.655,-122.3035,60.0,4.483333333333333
2026-01-20T23:04:30+00:00,SAT-56487,255.50714386316406,33.71966981723496,3306.221616008738,-5.230400642657155,183190.75507863553,10.5,10500183190.75508,47.655,-122.3035,60.0,4.5
2026-01-20T23:04:31+00:00,SAT-56487,255.57856966634688,33.78555298003868,3301.005163101128,-5.225821246725889,183030.365262297,10.5,10500183030.365263,47.655,-122.3035,60.0,4.516666666666667
2026-01-20T23:04:32+00:00,SAT-56487,255.6503860042761,33.85148034052762,3295.7932773777266,-5.221214104940913,182869.0036687967,10.5,10500182869.00367,47.655,-122.3035,60.0,4.533333333333333
2026-01-20T23:04:33+00:00,SAT-56487,255.72259523265558,33.91745145214997,3290.585986510399,-5.216579083159143,182706.66559987643,10.5,10500182706.6656,47.655,-122.3035,60.0,4.55
2026-01-20T23:04:34+00:00,SAT-56487,255.79519972236642,33.983465859745095,3285.3833183047946,-5.211916033529285,182543.3458771584,10.5,10500182543.345877,47.655,-122.3035,60.0,4.566666666666666
2026-01-20T23:04:35+00:00,SAT-56487,255.86820185936114,34.04952309926322,3280.1853007140217,-5.207224816269049,182379.0396048756,10.5,10500182379.039604,47.655,-122.3035,60.0,4.583333333333333
2026-01-20T23:04:36+00:00,SAT-56487,255.94160404484077,34.11562269775892,3274.9919618305953,-5.202505272999366,182213.7412359231,10.5,10500182213.741236,47.655,-122.3035,60.0,4.6
2026-01-20T23:04:37+00:00,SAT-56487,256.0154086950587,34.181764173045565,3269.803329904991,-5.197757266645235,182047.44596935448,10.5,10500182047.445969,47.655,-122.3035,60.0,4.616666666666666
2026-01-20T23:04:38+00:00,SAT-56487,256.0896182417048,34.24794703385469,3264.6194333243902,-5.192980664530802,181880.14915830013,10.5,10500181880.149158,47.655,-122.3035,60.0,4.633333333333334
2026-01-20T23:04:39+00:00,SAT-56487,256.16423513205183,34.31417077977913,3259.4403006082985,-5.188175292222847,181711.8446933708,10.5,10500181711.844694,47.655,-122.3035,60.0,4.65
2026-01-20T23:04:40+00:00,SAT-56487,256.23926182838426,34.380434900629474,3254.265960450188,-5.183341015557447,181542.5278755785,10.5,10500181542.527876,47.655,-122.3035,60.0,4.666666666666667
2026-01-20T23:04:41+00:00,SAT-56487,256.3147008086891,34.44673887682936,3249.0964416773386,-5.178477694490582,181372.19379998918,10.5,10500181372.1938,47.655,-122.3035,60.0,4.683333333333334
2026-01-20T23:04:42+00:00,SAT-56487,256.39055456662066,34.513082179226444,3243.9317732567,-5.173585166270969,181200.83676636443,10.5,10500181200.836767,47.655,-122.3035,60.0,4.7
2026-01-20T23:04:43+00:00,SAT-56487,256.4668256112383,34.579464268684234,3238.7719843175387,-5.168663284955167,181028.45166314775,10.5,10500181028.451664,47.655,-122.3035,60.0,4.716666666666667
2026-01-20T23:04:44+00:00,SAT-56487,256.54351646731516,34.64588459617711,3233.617104134677,-5.163711900024747,180855.03321854697,10.5,10500180855.033218,47.655,-122.3035,60.0,4.733333333333333
2026-01-20T23:04:45+00:00,SAT-56487,256.62062967533865,34.71234260261156,3228.4671621330526,-5.158730854837229,180680.5759462798,10.5,10500180680.575947,47.655,-122.3035,60.0,4.75
2026-01-20T23:04:46+00:00,SAT-56487,256.69816779147624,34.778837718625745,3223.322187893828,-5.153720006293677,180505.0748344163,10.5,10500180505.074835,47.655,-122.3035,60.0,4.766666666666667
2026-01-20T23:04:47+00:00,SAT-56487,256.7761333878564,34.84536936464034,3218.1822111408846,-5.1486792006255975,180328.52449733333,10.5,10500180328.524498,47.655,-122.3035,60.0,4.783333333333333
2026-01-20T23:04:48+00:00,SAT-56487,256.8545290524514,34.91193695059696,3213.04726175146,-5.1436082712426145,180150.91910033123,10.5,10500180150.9191,47.655,-122.3035,60.0,4.8
2026-01-20T23:04:49+00:00,SAT-56487,256.9333573889469,34.978539875666,3207.917369768941,-5.138507076191323,179972.25367160133,10.5,10500179972.253672,47.655,-122.3035,60.0,4.816666666666666
2026-01-20T23:04:50+00:00,SAT-56487,257.0126210171759,35.045177528437726,3202.7925653782863,-5.133375455845484,179792.52262035751,10.5,10500179792.522621,47.655,-122.3035,60.0,4.833333333333333
2026-01-20T23:04:51+00:00,SAT-56487,257.0923225729131,35.11184928656468,3197.6728789236563,-5.128213249522779,179611.7203188253,10.5,10500179611.72032,47.655,-122.3035,60.0,4.85
2026-01-20T23:04:52+00:00,SAT-56487,257.17246470789064,35.17855451661731,3192.5583409094656,-5.123020313284188,179429.84172565135,10.5,10500179429.841726,47.655,-122.3035,60.0,4.866666666666666
2026-01-20T23:04:53+00:00,SAT-56487,257.2530500901469,35.24529257416996,3187.4489819836836,-5.117796480856467,179246.88101724326,10.5,10500179246.881018,47.655,-122.3035,60.0,4.883333333333334
2026-01-20T23:04:54+00:00,SAT-56487,257.33408140370017,35.31206280337764,3182.3448329601097,-5.112541580489284,179062.83217817804,10.5,10500179062.832178,47.655,-122.3035,60.0,4.9
2026-01-20T23:04:55+00:00,SAT-56487,257.41556134850333,35.37886453676849,3177.245924823835,-5.107255479270975,178877.69055332686,10.5,10500178877.690554,47.655,-122.3035,60.0,4.916666666666667
2026-01-20T23:04:56+00:00,SAT-56487,257.49749264115485,35.44569709561487,3172.152288692509,-5.101937995199401,178691.449768205,10.5,10500178691.449768,47.655,-122.3035,60.0,4.933333333333334
2026-01-20T23:04:57+00:00,SAT-56487,257.5798780141067,35.512559789154544,3167.0639558652965,-5.096588989529546,178504.10496337514,10.5,10500178504.104963,47.655,-122.3035,60.0,4.95
2026-01-20T23:04:58+00:00,SAT-56487,257.6627202164567,35.57945191501765,3161.980957779739,-5.091208265663202,178315.64925313636,10.5,10500178315.649254,47.655,-122.3035,60.0,4.966666666666667
2026-01-20T23:04:59+00:00,SAT-56487,257.7460220129946,35.64637275832712,3156.903326069451,-5.085795705056582,178126.0784855839,10.5,10500178126.078485,47.655,-122.3035,60.0,4.983333333333333
2026-01-20T23:05:00+00:00,SAT-56487,257.8297861855831,35.71332159258123,3151.8310924862744,-5.080351114137417,177935.385880998,10.5,10500177935.385881,47.655,-122.3035,60.0,5.0
2026-01-20T23:05:01+00:00,SAT-56487,257.91401553191025,35.780297678524136,3146.764288975108,-5.074874337856496,177743.56600889942,10.5,10500177743.56601,47.655,-122.3035,60.0,5.016666666666667
2026-01-20T23:05:02+00:00,SAT-56487,257.9987128661931,35.84730026450707,3141.702947635486,-5.069365207231762,177550.6129508218,10.5,10500177550.612951,47.655,-122.3035,60.0,5.033333333333333
2026-01-20T23:05:03+00:00,SAT-56487,258.08388101895673,35.914328586157794,3136.6471007354735,-5.0638235614914455,177356.5210758577,10.5,10500177356.521076,47.655,-122.3035,60.0,5.05
2026-01-20T23:05:04+00:00,SAT-56487,258.1695228372308,35.98138186634073,3131.5967807034795,-5.058249251615351,177161.28516468944,10.5,10500177161.285164,47.655,-122.3035,60.0,5.066666666666666
2026-01-20T23:05:05+00:00,SAT-56487,258.2556411847722,36.04845931516366,3126.552020116535,-5.052642072094648,176964.89801952857,10.5,10500176964.89802,47.655,-122.3035,60.0,5.083333333333333
2026-01-20T23:05:06+00:00,SAT-56487,258.3422389411054,36.11556012907676,3121.5128517566322,-5.047001881126367,176767.35467383522,10.5,10500176767.354673,47.655,-122.3035,60.0,5.1
2026-01-20T23:05:07+00:00,SAT-56487,258.4293190026615,36.18268349156426,3116.479308547189,-5.041328510625456,176568.6492405599,10.5,10500176568.64924,47.655,-122.3035,60.0,5.116666666666666
2026-01-20T23:05:08+00:00,SAT-56487,258.5168842823549,36.24982857264214,3111.451423579259,-5.035621799805921,176368.77608829696,10.5,10500176368.776089,47.655,-122.3035,60.0,5.133333333333334
2026-01-20T23:05:09+00:00,SAT-56487,258.60493770972437,36.316994528799256,3106.4292301042524,-5.029881540329167,176167.7279201475,10.5,10500176167.72792,47.655,-122.3035,60.0,5.15
2026-01-20T23:05:10+00:00,SAT-56487,258.6934822300825,36.384180502204686,3101.412761581364,-5.024107604455678,175965.50026213343,10.5,10500175965.500261,47.655,-122.3035,60.0,5.166666666666667
2026-01-20T23:05:11+00:00,SAT-56487,258.78252080600566,36.45138562162437,3096.402051597187,-5.018299795238606,175762.08621634293,10.5,10500175762.086216,47.655,-122.3035,60.0,5.183333333333334
2026-01-20T23:05:12+00:00,SAT-56487,258.8720564160808,36.518609001335655,3091.3971339347354,-5.012457957498128,175557.48034772224,10.5,10500175557.480349,47.655,-122.3035,60.0,5.2
2026-01-20T23:05:13+00:00,SAT-56487,258.962092055673,36.58584974152448,3086.3980425317905,-5.006581910218048,175351.6763163185,10.5,10500175351.676317,47.655,-122.3035,60.0,5.216666666666667
2026-01-20T23:05:14+00:00,SAT-56487,259.0526307364703,36.6531069277742,3081.4048115066666,-5.000671462295541,175144.66742890238,10.5,10500175144.667429,47.655,-122.3035,60.0,5.233333333333333
2026-01-20T23:05:15+00:00,SAT-56487,259.1436754862672,36.720379630764526,3076.4174751682704,-4.994726473826849,174936.4487854525,10.5,10500174936.448786,47.655,-122.3035,60.0,5.25
2026-01-20T23:05:16+00:00,SAT-56487,259.235229349959,36.78766690679273,3071.4360679650404,-4.988746761045294,174727.01394968244,10.5,10500174727.01395,47.655,-122.3035,60.0,5.266666666666667
2026-01-20T23:05:17+00:00,SAT-56487,259.327295388694,36.85496779701548,3066.4606245286914,-4.982732114178086,174516.35557446178,10.5,10500174516.355574,47.655,-122.3035,60.0,5.283333333333333
2026-01-20T23:05:18+00:00,SAT-56487,259.4198766793605,36.92228132692632,3061.491179700151,-4.976682390544051,174304.46866249226,10.5,10500174304.468662,47.655,-122.3035,60.0,5.3
2026-01-20T23:05:19+00:00,SAT-56487,259.51297631586846,36.989606507089356,3056.5277684626485,-4.970597413222734,174091.3470172712,10.5,10500174091.347017,47.655,-122.3035,60.0,5.316666666666666
2026-01-20T23:05:20+00:00,SAT-56487,259.60659740848683,37.05694233250409,3051.570425975861,-4.964476999372931,173876.98423492623,10.5,10500173876.984236,47.655,-122.3035,60.0,5.333333333333333
2026-01-20T23:05:21+00:00,SAT-56487,259.70074308369186,37.12428778234983,3046.6191875818195,-4.958320949515333,173661.373328848,10.5,10500173661.37333,47.655,-122.3035,60.0,5.35
2026-01-20T23:05:22+00:00,SAT-56487,259.79541648382815,37.19164181958297,3041.6740888215027,-4.952129100738058,173444.50859317352,10.5,10500173444.508593,47.655,-122.3035,60.0,5.366666666666666
2026-01-20T23:05:23+00:00,SAT-56487,259.89062076778526,37.25900339125368,3036.735165398367,-4.945901294204642,173226.38446477777,10.5,10500173226.384464,47.655,-122.3035,60.0,5.383333333333334
2026-01-20T23:05:24+00:00,SAT-56487,259.9863591110823,37.32637142838398,3031.80245317428,-4.93963731495896,173006.99341498804,10.5,10500173006.993416,47.655,-122.3035,60.0,5.4
2026-01-20T23:05:25+00:00,SAT-56487,260.08263470467745,37.393744845021644,3026.8759882254944,-4.933336981410022,172786.32908371976,10.5,10500172786.329084,47.655,-122.3035,60.0,5.416666666666667
2026-01-20T23:05:26+00:00,SAT-56487,260.17945075561323,37.46112253850945,3021.955806809368,-4.92700014488576,172564.3862638482,10.5,10500172564.386265,47.655,-122.3035,60.0,5.433333333333334
2026-01-20T23:05:27+00:00,SAT-56487,260.276810487641,37.52850338975278,3017.0419453315353,-4.9206265927785315,172341.15750895438,10.5,10500172341.157509,47.655,-122.3035,60.0,5.45
2026-01-20T23:05:28+00:00,SAT-56487,260.3747171398672,37.59588626215824,3012.1344404096712,-4.91421614956041,172116.6366713078,10.5,10500172116.636671,47.655,-122.3035,60.0,5.466666666666667
2026-01-20T23:05:29+00:00,SAT-56487,260.47317396745643,37.663270001952924,3007.2333288365094,-4.907768626620364,171890.81714495242,10.5,10500171890.817144,47.655,-122.3035,60.0,5.483333333333333
2026-01-20T23:05:30+00:00,SAT-56487,260.5721842413097,37.73065343781638,3002.3386475928933,-4.901283851129626,171663.69287669362,10.5,10500171663.692877,47.655,-122.3035,60.0,5.5
2026-01-20T23:05:31+00:00,SAT-56487,260.6717512483195,37.79803538090558,2997.4504338320335,-4.894761624608552,171435.2569149348,10.5,10500171435.256914,47.655,-122.3035,60.0,5.516666666666667
2026-01-20T23:05:32+00:00,SAT-56487,260.7718782907808,37.86541462431053,2992.56872490509,-4.888201760482045,171205.50272502674,10.5,10500171205.502726,47.655,-122.3035,60.0,5.533333333333333
2026-01-20T23:05:33+00:00,SAT-56487,260.8725686865444,37.93278994302352,2987.6935583493027,-4.881604079673276,170974.42403494153,10.5,10500170974.424034,47.655,-122.3035,60.0,5.55
2026-01-20T23:05:34+00:00,SAT-56487,260.9738257691217,38.00016009384682,2982.824971880509,-4.874968393909184,170742.01425056008,10.5,10500170742.01425,47.655,-122.3035,60.0,5.566666666666666
2026-01-20T23:05:35+00:00,SAT-56487,261.0756528873891,38.06752381506949,2977.963003402317,-4.868294498174423,170508.2661913778,10.5,10500170508.266191,47.655,-122.3035,60.0,5.583333333333333
2026-01-20T23:05:36+00:00,SAT-56487,261.1780534051378,38.134879826036006,2973.107691022804,-4.861582231773969,170273.17422917517,10.5,10500170273.174229,47.655,-122.3035,60.0,5.6
2026-01-20T23:05:37+00:00,SAT-56487,261.2810307019451,38.20222682756037,2968.259073010315,-4.8548313756600185,170036.73069197155,10.5,10500170036.730692,47.655,-122.3035,60.0,5.616666666666666
2026-01-20T23:05:38+00:00,SAT-56487,261.38458817179725,38.26956350091636,2963.4171878516568,-4.848041759769021,169798.92962342207,10.5,10500169798.929623,47.655,-122.3035,60.0,5.633333333333334
2026-01-20T23:05:39+00:00,SAT-56487,261.4887292240485,38.336888508312484,2958.5820742032474,-4.8412131679449475,169559.76345282828,10.5,10500169559.763453,47.655,-122.3035,60.0,5.65
2026-01-20T23:05:40+00:00,SAT-56487,261.59345728229766,38.40420049204822,2953.753770937083,-4.83434544904019,169319.22688636146,10.5,10500169319.226887,47.655,-122.3035,60.0,5.666666666666667
2026-01-20T23:05:41+00:00,SAT-56487,261.6987757857101,38.471498075212615,2948.932317075907,-4.827438369359543,169077.31173902712,10.5,10500169077.311739,47.655,-122.3035,60.0,5.683333333333334
2026-01-20T23:05:42+00:00,SAT-56487,261.80468818704844,38.53877986032657,2944.1177518755326,-4.8204917516110495,168834.01180131093,10.5,10500168834.0118,47.655,-122.3035,60.0,5.7
2026-01-20T23:05:43+00:00,SAT-56487,261.9111979537888,38.60604442991992,2939.3101147685925,-4.813505410239094,168589.32057427036,10.5,10500168589.320574,47.655,-122.3035,60.0,5.716666666666667
2026-01-20T23:05:44+00:00,SAT-56487,262.01830856782294,38.6732903462077,2934.5094453727806,-4.806479137805652,168343.2307925483,10.5,10500168343.230793,47.655,-122.3035,60.0,5.733333333333333
2026-01-20T23:05:45+00:00,SAT-56487,262.1260235247845,38.740516150571004,2929.7157835126764,-4.799412739359141,168095.7356281157,10.5,10500168095.735628,47.655,-122.3035,60.0,5.75
2026-01-20T23:05:46+00:00,SAT-56487,262.23434633419606,38.807720363519444,2924.9291692072884,-4.792306030885384,167846.8286360177,10.5,10500167846.828636,47.655,-122.3035,60.0,5.766666666666667
2026-01-20T23:05:47+00:00,SAT-56487,262.3432805195488,38.87490148463066,2920.149642659152,-4.785158799405228,167596.50235682345,10.5,10500167596.502357,47.655,-122.3035,60.0,5.783333333333333
2026-01-20T23:05:48+00:00,SAT-56487,262.45282961746796,38.94205799192716,2915.377244283212,-4.777970864047832,167344.75045567102,10.5,10500167344.750456,47.655,-122.3035,60.0,5.8
2026-01-20T23:05:49+00:00,SAT-56487,262.56299717827767,39.00918834211198,2910.6120146748012,-4.770742010685469,167091.56543290167,10.5,10500167091.565434,47.655,-122.3035,60.0,5.816666666666666
2026-01-20T23:05:50+00:00,SAT-56487,262.6737867650405,39.07629096988244,2905.8539946428114,-4.763472052924475,166836.9407602208,10.5,10500166836.94076,47.655,-122.3035,60.0,5.833333333333333
2026-01-20T23:05:51+00:00,SAT-56487,262.78520195400733,39.14336428810037,2901.103225182028,-4.756160787876909,166580.86933163457,10.5,10500166580.869331,47.655,-122.3035,60.0,5.85
2026-01-20T23:05:52+00:00,SAT-56487,262.89724633404137,39.21040668734111,2896.3597474895855,-4.748808015603526,166323.34414442483,10.5,10500166323.344145,47.655,-122.3035,60.0,5.866666666666666
2026-01-20T23:05:53+00:00,SAT-56487,263.00992350645936,39.27741653571241,2891.6236029620236,-4.741413544111093,166064.3584741764,10.5,10500166064.358475,47.655,-122.3035,60.0,5.883333333333334
2026-01-20T23:05:54+00:00,SAT-56487,263.12323708502146,39.34439217874386,2886.894833187363,-4.733977140184674,165803.9041527158,10.5,10500165803.904152,47.655,-122.3035,60.0,5.9
2026-01-20T23:05:55+00:00,SAT-56487,263.2371906946653,39.411331938580325,2882.1734799862193,-4.72649865094109,165541.97582542736,10.5,10500165541.975826,47.655,-122.3035,60.0,5.916666666666667
2026-01-20T23:05:56+00:00,SAT-56487,263.3517879732904,39.47823411489472,2877.4595853316805,-4.718977842075782,165278.5652859743,10.5,10500165278.565287,47.655,-122.3035,60.0,5.933333333333334
2026-01-20T23:05:57+00:00,SAT-56487,263.4670325694548,39.5450969835082,2872.753191430517,-4.711414519438634,165013.66573439835,10.5,10500165013.665735,47.655,-122.3035,60.0,5.95
2026-01-20T23:05:58+00:00,SAT-56487,263.5829281431488,39.611918796732986,2868.0543406831302,-4.703808479533875,164747.27004341682,10.5,10500164747.270044,47.655,-122.3035,60.0,5.966666666666667
2026-01-20T23:05:59+00:00,SAT-56487,263.69947836526734,39.67869778301132,2863.3630756928746,-4.696159515181145,164479.37095669704,10.5,10500164479.370956,47.655,-122.3035,60.0,5.983333333333333
2026-01-20T23:06:00+00:00,SAT-56487,263.81668691726543,39.745432146635636,2858.6794392697348,-4.68846743410159,164209.96173982037,10.5,10500164209.96174,47.655,-122.3035,60.0,6.0
2026-01-20T23:06:01+00:00,SAT-56487,263.93455749123706,39.81212006772983,2854.003474415457,-4.680732019806298,163939.0348104292,10.5,10500163939.034811,47.655,-122.3035,60.0,6.016666666666667
2026-01-20T23:06:02+00:00,SAT-56487,264.0530937890108,39.87875970167559,2849.335224347704,-4.672953067054271,163666.58298011567,10.5,10500163666.58298,47.655,-122.3035,60.0,6.033333333333333
2026-01-20T23:06:03+00:00,SAT-56487,264.1722995221141,39.94534917904054,2844.6747324888283,-4.665130378532742,163392.5993381521,10.5,10500163392.599339,47.655,-122.3035,60.0,6.05
2026-01-20T23:06:04+00:00,SAT-56487,264.2921784116885,40.0118866054604,2840.022042457971,-4.657263747709328,163117.07665090074,10.5,10500163117.07665,47.655,-122.3035,60.0,6.066666666666666
2026-01-20T23:06:05+00:00,SAT-56487,264.4127341878966,40.0783700612747,2835.377198080256,-4.649352956547584,162840.00728180303,10.5,10500162840.007282,47.655,-122.3035,60.0,6.083333333333333
2026-01-20T23:06:06+00:00,SAT-56487,264.5339705892965,40.144797601129895,2830.7402433982593,-4.6413978056169904,162561.38424595862,10.5,10500162561.384247,47.655,-122.3035,60.0,6.1
2026-01-20T23:06:07+00:00,SAT-56487,264.65589136296387,40.211167254010626,2826.1112226534574,-4.633398095684728,162281.2005653913,10.5,10500162281.200565,47.655,-122.3035,60.0,6.116666666666666
2026-01-20T23:06:08+00:00,SAT-56487,264.7785002641713,40.27747702301125,2821.4901802860277,-4.625353618502661,161999.44894637057,10.5,10500161999.448946,47.655,-122.3035,60.0,6.133333333333334
2026-01-20T23:06:09+00:00,SAT-56487,264.90180105574416,40.3437248849703,2816.8771609438413,-4.617264134401972,161716.12099468062,10.5,10500161716.120995,47.655,-122.3035,60.0,6.15
2026-01-20T23:06:10+00:00,SAT-56487,265.0257975068139,40.40990878978469,2812.2722095137974,-4.609129470089377,161431.2106408576,10.5,10500161431.21064,47.655,-122.3035,60.0,6.166666666666667
2026-01-20T23:06:11+00:00,SAT-56487,265.1504933942546,40.47602666112912,2807.675371055628,-4.600949396771448,161144.7098715879,10.5,10500161144.709871,47.655,-122.3035,60.0,6.183333333333334
2026-01-20T23:06:12+00:00,SAT-56487,265.2758925007314,40.542076395423095,2803.0866908572484,-4.592723736112347,160856.6124407961,10.5,10500160856.61244,47.655,-122.3035,60.0,6.2
2026-01-20T23:06:13+00:00,SAT-56487,265.4019986157026,40.60805586232059,2798.5062143844325,-4.58445222747563,160566.90921989144,10.5,10500160566.90922,47.655,-122.3035,60.0,6.216666666666667
2026-01-20T23:06:14+00:00,SAT-56487,265.52881553264245,40.673962903290665,2793.9339873628965,-4.5761346995622665,160275.59420925725,10.5,10500160275.59421,47.655,-122.3035,60.0,6.233333333333333
2026-01-20T23:06:15+00:00,SAT-56487,265.6563470511285,40.739795332668585,2789.3700556892,-4.5677709300383045,159982.6596218181,10.5,10500159982.659622,47.655,-122.3035,60.0,6.25
2026-01-20T23:06:16+00:00,SAT-56487,265.7845969749402,40.80555093668526,2784.8144654816415,-4.559360715734255,159688.09834171904,10.5,10500159688.098341,47.655,-122.3035,60.0,6.266666666666667
2026-01-20T23:06:17+00:00,SAT-56487,265.91356911211824,40.87122747350833,2780.267263061149,-4.550903825913765,159391.902287597,10.5,10500159391.902288,47.655,-122.3035,60.0,6.283333333333333
2026-01-20T23:06:18+00:00,SAT-56487,266.04326727367845,40.93682267260896,2775.728494978771,-4.542400056698378,159094.06431876606,10.5,10500159094.06432,47.655,-122.3035,60.0,6.3
2026-01-20T23:06:19+00:00,SAT-56487,266.17369527387183,41.002334234914805,2771.1982079888908,-4.533849215636449,158794.57769475548,10.5,10500158794.577694,47.655,-122.3035,60.0,6.316666666666666
2026-01-20T23:06:20+00:00,SAT-56487,266.3048569300445,41.06775983274283,2766.6764490378296,-4.525251070904039,158493.4342961103,10.5,10500158493.434296,47.655,-122.3035,60.0,6.333333333333333
2026-01-20T23:06:21+00:00,SAT-56487,266.4367560609002,41.13309710899402,2762.1632653031143,-4.51660539886666,158190.62629020485,10.5,10500158190.62629,47.655,-122.3035,60.0,6.35
2026-01-20T23:06:22+00:00,SAT-56487,266.56939648620323,41.19834367703972,2757.6587041853113,-4.507912017348364,157886.14729646672,10.5,10500157886.147297,47.655,-122.3035,60.0,6.366666666666666
2026-01-20T23:06:23+00:00,SAT-56487,266.7027820274634,41.26349712108951,2753.162813266676,-4.499170694406288,157579.98919127588,10.5,10500157579.989191,47.655,-122.3035,60.0,6.383333333333334
2026-01-20T23:06:24+00:00,SAT-56487,266.836916505865,41.328554995239585,2748.675640360788,-4.490381220429761,157272.14463317985,10.5,10500157272.144632,47.655,-122.3035,60.0,6.4
2026-01-20T23:06:25+00:00,SAT-56487,266.97180374232073,41.39351482356317,2744.1972334902794,-4.481543386140492,156962.60629236768,10.5,10500156962.606293,47.655,-122.3035,60.0,6.416666666666667
2026-01-20T23:06:26+00:00,SAT-56487,267.1074475569085,41.45837409988851,2739.727640886502,-4.4726569624975525,156651.36614685718,10.5,10500156651.366146,47.655,-122.3035,60.0,6.433333333333334
2026-01-20T23:06:27+00:00,SAT-56487,267.2438517675845,41.52313028728087,2735.2669110092374,-4.463721758866183,156338.4175198127,10.5,10500156338.41752,47.655,-122.3035,60.0,6.45
2026-01-20T23:06:28+00:00,SAT-56487,267.38102019078895,41.587780818375236,2730.815092508395,-4.454737549649659,156023.75250988273,10.5,10500156023.75251,47.655,-122.3035,60.0,6.466666666666667
2026-01-20T23:06:29+00:00,SAT-56487,267.5189566396518,41.65232309463955,2726.372234258878,-4.445704106067263,155707.36310419877,10.5,10500155707.363104,47.655,-122.3035,60.0,6.483333333333333
2026-01-20T23:06:30+00:00,SAT-56487,267.657664923219,41.71675448610692,2721.9383853637605,-4.436621247756373,155389.24298569883,10.5,10500155389.242985,47.655,-122.3035,60.0,6.5
2026-01-20T23:06:31+00:00,SAT-56487,267.79714884731686,41.781072331853856,2717.513595105998,-4.427488734155228,155069.3837288925,10.5,10500155069.383728,47.655,-122.3035,60.0,6.516666666666667
2026-01-20T23:06:32+00:00,SAT-56487,267.9374122118992,41.845273938904555,2713.097913008467,-4.4183063621644685,154747.77822038112,10.5,10500154747.778221,47.655,-122.3035,60.0,6.533333333333333
2026-01-20T23:06:33+00:00,SAT-56487,268.07845881151854,41.90935658255632,2708.6913887966016,-4.409073898841566,154424.41830153193,10.5,10500154424.4183,47.655,-122.3035,60.0,6.55
2026-01-20T23:06:34+00:00,SAT-56487,268.2202924336117,41.97331750572707,2704.294072428157,-4.399791163342105,154099.29763840855,10.5,10500154099.297638,47.655,-122.3035,60.0,6.566666666666666
2026-01-20T23:06:35+00:00,SAT-56487,268.3629168594502,42.037153919498664,2699.9060140412507,-4.390457907775795,153772.4075488445,10.5,10500153772.407549,47.655,-122.3035,60.0,6.583333333333333
2026-01-20T23:06:36+00:00,SAT-56487,268.5063358611351,42.10086300192799,2695.5272640212283,-4.381073947366124,153443.74156118467,10.5,10500153443.741562,47.655,-122.3035,60.0,6.6
2026-01-20T23:06:37+00:00,SAT-56487,268.6505532028991,42.164441898753374,2691.157872937722,-4.371639041778508,153113.29125789527,10.5,10500153113.291258,47.655,-122.3035,60.0,6.616666666666666
2026-01-20T23:06:38+00:00,SAT-56487,268.7955726384102,42.2278877223783,2686.797891600055,-4.362152995153686,152781.04977915657,10.5,10500152781.04978,47.655,-122.3035,60.0,6.633333333333334
2026-01-20T23:06:39+00:00,SAT-56487,268.9413979114431,42.29119755231283,2682.447371012888,-4.352615574758005,152447.00897365154,10.5,10500152447.008974,47.655,-122.3035,60.0,6.65
2026-01-20T23:06:40+00:00,SAT-56487,269.0880327537541,42.35436843443389,2678.1063624129965,-4.343026592213202,152111.1622435766,10.5,10500152111.162243,47.655,-122.3035,60.0,6.666666666666667
2026-01-20T23:06:41+00:00,SAT-56487,269.2354808857343,42.417397381430696,2673.774917225029,-4.3333858038345054,151773.5010540602,10.5,10500151773.501055,47.655,-122.3035,60.0,6.683333333333334
2026-01-20T23:06:42+00:00,SAT-56487,269.3837460135808,42.48028137180221,2669.4530871166717,-4.323693025244863,151434.01894743816,10.5,10500151434.018948,47.655,-122.3035,60.0,6.7
2026-01-20T23:06:43+00:00,SAT-56487,269.53283183046335,42.543017350528366,2665.140923939494,-4.313948013201656,151092.707404325,10.5,10500151092.707405,47.655,-122.3035,60.0,6.716666666666667
2026-01-20T23:06:44+00:00,SAT-56487,269.682742013497,42.60560222802078,2660.8384797876606,-4.304150579590895,150749.55983617305,10.5,10500150749.559835,47.655,-122.3035,60.0,6.733333333333333
2026-01-20T23:06:45+00:00,SAT-56487,269.8334802247369,42.66803288074005,2656.545806942949,-4.294300492897636,150404.56813434974,10.5,10500150404.568134,47.655,-122.3035,60.0,6.75
2026-01-20T23:06:46+00:00,SAT-56487,269.98505010865944,42.730306150381374,2652.2629579180325,-4.2843975542809,150057.7253346028,10.5,10500150057.725334,47.655,-122.3035,60.0,6.766666666666667
2026-01-20T23:06:47+00:00,SAT-56487,270.1374552923194,42.792418844168964,2647.9899854238965,-4.274441539984222,149709.02360003442,10.5,10500149709.0236,47.655,-122.3035,60.0,6.783333333333333
2026-01-20T23:06:48+00:00,SAT-56487,270.2906993834331,42.85436773432209,2643.7269423946855,-4.264432237302387,149358.4554808082,10.5,10500149358.45548,47.655,-122.3035,60.0,6.8
2026-01-20T23:06:49+00:00,SAT-56487,270.4447859697207,42.916149558042285,2639.473881976682,-4.254369448284299,149006.01404383942,10.5,10500149006.014044,47.655,-122.3035,60.0,6.816666666666666
2026-01-20T23:06:50+00:00,SAT-56487,270.59971861841336,42.97776101756388,2635.2308575135935,-4.244252935561854,148651.69097549302,10.5,10500148651.690975,47.655,-122.3035,60.0,6.833333333333333
2026-01-20T23:06:51+00:00,SAT-56487,270.7555008736507,43.03919877941846,2630.9979225858597,-4.234082509123875,148295.47962077384,10.5,10500148295.47962,47.655,-122.3035,60.0,6.85
2026-01-20T23:06:52+00:00,SAT-56487,270.9121362571922,43.100459474968275,2626.775130963427,-4.2238579503494655,147937.37232265327,10.5,10500147937.372322,47.655,-122.3035,60.0,6.866666666666666
2026-01-20T23:06:53+00:00,SAT-56487,271.06962826617166,43.16153969983794,2622.5625366342783,-4.213579051878862,147577.36181851532,10.5,10500147577.361818,47.655,-122.3035,60.0,6.883333333333334
2026-01-20T23:06:54+00:00,SAT-56487,271.2279803723958,43.222436013932295,2618.3601937932044,-4.20324558896966,147215.44023693024,10.5,10500147215.440237,47.655,-122.3035,60.0,6.9
2026-01-20T23:06:55+00:00,SAT-56487,271.3871960204676,43.28314494104412,2614.168156859139,-4.19285737295289,146851.6009699128,10.5,10500146851.60097,47.655,-122.3035,60.0,6.916666666666667
2026-01-20T23:06:56+00:00,SAT-56487,271.5472786280121,43.34366296924328,2609.9864804391805,-4.18241418350563,146485.83630082218,10.5,10500146485.8363,47.655,-122.3035,60.0,6.933333333333334
2026-01-20T23:06:57+00:00,SAT-56487,271.7082315832032,43.40398655028669,2605.8152193601645,-4.171915804606525,146118.13866367683,10.5,10500146118.138664,47.655,-122.3035,60.0,6.95
2026-01-20T23:06:58+00:00,SAT-56487,271.8700582436876,43.46411209956025,2601.65442866437,-4.161362034784553,145748.5010021093,10.5,10500145748.501001,47.655,-122.3035,60.0,6.966666666666667
2026-01-20T23:06:59+00:00,SAT-56487,272.03276193587783,43.52403599617294,2597.5041635950115,-4.150752673168901,145376.916280774,10.5,10500145376.91628,47.655,-122.3035,60.0,6.983333333333333
2026-01-20T23:07:00+00:00,SAT-56487,272.19634595371883,43.58375458285441,2593.364479595638,-4.140087501935559,145003.37687055278,10.5,10500145003.376871,47.655,-122.3035,60.0,7.0
2026-01-20T23:07:01+00:00,SAT-56487,272.36081355666136,43.643264165609274,2589.2354323270406,-4.1293663178708195,144627.87565404197,10.5,10500144627.875654,47.655,-122.3035,60.0,7.016666666666667
2026-01-20T23:07:02+00:00,SAT-56487,272.52616796892795,43.702561013830184,2585.117077652684,-4.11858891149361,144250.40529432835,10.5,10500144250.405294,47.655,-122.3035,60.0,7.033333333333333
2026-01-20T23:07:03+00:00,SAT-56487,272.6924123778759,43.76164136011979,2581.009471644955,-4.107755087886402,143870.95896457552,10.5,10500143870.958965,47.655,-122.3035,60.0,7.05
2026-01-20T23:07:04+00:00,SAT-56487,272.8595499332423,43.82050140042036,2576.912670570636,-4.096864632094596,143489.5291361641,10.5,10500143489.529137,47.655,-122.3035,60.0,7.066666666666666
2026-01-20T23:07:05+00:00,SAT-56487,273.02758374488116,43.87913729365097,2572.8267309108937,-4.085917340279374,143106.10866979655,10.5,10500143106.10867,47.655,-122.3035,60.0,7.083333333333333
2026-01-20T23:07:06+00:00,SAT-56487,273.1965168817898,43.937545161802866,2568.7517093501883,-4.074913012930425,142720.69057777786,10.5,10500142720.690578,47.655,-122.3035,60.0,7.1
2026-01-20T23:07:07+00:00,SAT-56487,273.36635237085557,43.9957210899455,2564.687662771959,-4.063851461557679,142333.26825838836,10.5,10500142333.26826,47.655,-122.3035,60.0,7.116666666666666
2026-01-20T23:07:08+00:00,SAT-56487,273.5370931958454,44.053661126335015,2560.6346482476324,-4.052732457348395,141943.8336976381,10.5,10500141943.833698,47.655,-122.3035,60.0,7.133333333333334
2026-01-20T23:07:09+00:00,SAT-56487,273.70874229415523,44.111361281796555,2556.5927230768366,-4.041555810166891,141552.3802361711,10.5,10500141552.380236,47.655,-122.3035,60.0,7.15
2026-01-20T23:07:10+00:00,SAT-56487,273.8813025569476,44.16881753024968,2552.5619447488302,-4.030321334240541,141158.90136744428,10.5,10500141158.901367,47.655,-122.3035,60.0,7.166666666666667
2026-01-20T23:07:11+00:00,SAT-56487,274.0547768278258,44.226025808748126,2548.5423709381475,-4.01902882067171,140763.38977497877,10.5,10500140763.389774,47.655,-122.3035,60.0,7.183333333333334
2026-01-20T23:07:12+00:00,SAT-56487,274.2291679002232,44.282982017137094,2544.5340595276643,-4.007678068568238,140365.83842268138,10.5,10500140365.838423,47.655,-122.3035,60.0,7.2
2026-01-20T23:07:13+00:00,SAT-56487,274.40447851616466,44.33968201816712,2540.537068600612,-3.9962688781596056,139966.2403137435,10.5,10500139966.240314,47.655,-122.3035,60.0,7.216666666666667
2026-01-20T23:07:14+00:00,SAT-56487,274.5807113646779,44.39612163751905,2536.551456439461,-3.984801067438086,139564.58907348462,10.5,10500139564.589073,47.655,-122.3035,60.0,7.233333333333333
2026-01-20T23:07:15+00:00,SAT-56487,274.757869080977,44.452296664073806,2532.5772815082028,-3.9732744386863668,139160.87777700817,10.5,10500139160.877777,47.655,-122.3035,60.0,7.25
2026-01-20T23:07:16+00:00,SAT-56487,274.9359542440732,44.50820284971917,2528.6146024680197,-3.9616887920658286,138755.0994251203,10.5,10500138755.099424,47.655,-122.3035,60.0,7.266666666666667
2026-01-20T23:07:17+00:00,SAT-56487,275.1149693749959,44.563835909360904,2524.6634781793996,-3.950043938915129,138347.24741010283,10.5,10500138347.24741,47.655,-122.3035,60.0,7.283333333333333
2026-01-20T23:07:18+00:00,SAT-56487,275.29491693557145,44.61919152113159,2520.723967690988,-3.938339681867631,137937.3148193412,10.5,10500137937.31482,47.655,-122.3035,60.0,7.3
2026-01-20T23:07:19+00:00,SAT-56487,275.4757993263037,44.67426532633297,2516.7961302482718,-3.9265758546389056,137525.2958288514,10.5,10500137525.29583,47.655,-122.3035,60.0,7.316666666666666
2026-01-20T23:07:20+00:00,SAT-56487,275.65761888608813,44.72905292994614,2512.880025262579,-3.914752239221986,137111.18280310725,10.5,10500137111.182802,47.655,-122.3035,60.0,7.333333333333333
2026-01-20T23:07:21+00:00,SAT-56487,275.84037788796286,44.78354989999302,2508.9757123626614,-3.902868658665931,136694.9695445383,10.5,10500136694.969545,47.655,-122.3035,60.0,7.35
2026-01-20T23:07:22+00:00,SAT-56487,276.0240785392512,44.83775176821218,2505.083251353752,-3.8909249440796536,136276.65013786423,10.5,10500136276.650137,47.655,-122.3035,60.0,7.366666666666666
2026-01-20T23:07:23+00:00,SAT-56487,276.2087229801916,44.89165403028387,2501.202702209523,-3.878920891499821,135856.21743942646,10.5,10500135856.21744,47.655,-122.3035,60.0,7.383333333333334
2026-01-20T23:07:24+00:00,SAT-56487,276.3943132803238,44.94525214546311,2497.3341251070674,-3.866856321824708,135433.66517632487,10.5,10500135433.665176,47.655,-122.3035,60.0,7.4
2026-01-20T23:07:25+00:00,SAT-56487,276.5808514378878,44.99854153706838,2493.477580402101,-3.8547310571128497,135008.98711629672,10.5,10500135008.987116,47.655,-122.3035,60.0,7.416666666666667
2026-01-20T23:07:26+00:00,SAT-56487,276.76833937795396,45.051517592646896,2489.633128627807,-3.8425449244556855,134582.17720335277,10.5,10500134582.177204,47.655,-122.3035,60.0,7.433333333333334
2026-01-20T23:07:27+00:00,SAT-56487,276.9567789508316,45.10417566421185,2485.8008304898167,-3.83029774245738,134153.22908424365,10.5,10500134153.229084,47.655,-122.3035,60.0,7.45
2026-01-20T23:07:28+00:00,SAT-56487,277.1461719296715,45.15651106830226,2481.980746874672,-3.8179893123953668,133722.1357988644,10.5,10500133722.1358,47.655,-122.3035,60.0,7.466666666666667
2026-01-20T23:07:29+00:00,SAT-56487,277.33652000764505,45.20851908594359,2478.1729388671097,-3.805619501419471,133288.89269423997,10.5,10500133288.892694,47.655,-122.3035,60.0,7.483333333333333
2026-01-20T23:07:30+00:00,SAT-56487,277.5278247993725,45.26019496375827,2474.3774676843614,-3.7931880980604658,132853.49236382355,10.5,10500132853.492363,47.655,-122.3035,60.0,7.5
2026-01-20T23:07:31+00:00,SAT-56487,277.72008783488326,45.31153391311406,2470.594394754562,-3.7806949631362676,132415.9299328698,10.5,10500132415.929934,47.655,-122.3035,60.0,7.516666666666667
2026-01-20T23:07:32+00:00,SAT-56487,277.91331056137335,45.362531111350584,2466.823781644661,-3.768139895506707,131976.19835659917,10.5,10500131976.198357,47.655,-122.3035,60.0,7.533333333333333
2026-01-20T23:07:33+00:00,SAT-56487,278.10749433795115,45.41318170119248,2463.0656901222087,-3.7555227466938534,131534.29243468647,10.5,10500131534.292435,47.655,-122.3035,60.0,7.55
2026-01-20T23:07:34+00:00,SAT-56487,278.30264043635674,45.46348079173474,2459.3201821028397,-3.7428433511517234,131090.2063690111,10.5,10500131090.20637,47.655,-122.3035,60.0,7.566666666666666
2026-01-20T23:07:35+00:00,SAT-56487,278.4987500380598,45.513423458498934,2455.587319667291,-3.730101544853404,130643.93441465676,10.5,10500130643.934414,47.655,-122.3035,60.0,7.583333333333333
2026-01-20T23:07:36+00:00,SAT-56487,278.6958242322485,45.563004743756636,2451.8671650598903,-3.717297154533054,130195.47050312077,10.5,10500130195.470503,47.655,-122.3035,60.0,7.6
2026-01-20T23:07:37+00:00,SAT-56487,278.89386401325135,45.61221965672764,2448.1597806977693,-3.70443003831401,129744.8096652822,10.5,10500129744.809666,47.655,-122.3035,60.0,7.616666666666666
2026-01-20T23:07:38+00:00,SAT-56487,279.09287028017764,45.66106317433727,2444.465229139558,-3.6915000296760336,129291.94606889795,10.5,10500129291.94607,47.655,-122.3035,60.0,7.633333333333334
2026-01-20T23:07:39+00:00,SAT-56487,279.29284383346953,45.70953024124218,2440.783573109961,-3.678506970024061,128836.87415929804,10.5,10500128836.874159,47.655,-122.3035,60.0,7.65
2026-01-20T23:07:40+00:00,SAT-56487,279.49378537318944,45.75761577030892,2437.1148754918568,-3.665450706226903,128379.58857318046,10.5,10500128379.588573,47.655,-122.3035,60.0,7.666666666666667
2026-01-20T23:07:41+00:00,SAT-56487,279.6956954972315,45.80531464307927,2433.4591993208464,-3.6523310903295894,127920.08412853631,10.5,10500127920.08413,47.655,-122.3035,60.0,7.683333333333334
2026-01-20T23:07:42+00:00,SAT-56487,279.89857469944553,45.852621710244385,2429.816607780091,-3.6391479828232507,127458.35593917487,10.5,10500127458.35594,47.655,-122.3035,60.0,7.7
2026-01-20T23:07:43+00:00,SAT-56487,280.10242336804384,45.89953179218351,2426.1871641918888,-3.6259012219029114,126994.39833800145,10.5,10500126994.398338,47.655,-122.3035,60.0,7.716666666666667
2026-01-20T23:07:44+00:00,SAT-56487,280.30724178208493,45.94603967911815,2422.5709320399105,-3.6125906606371525,126528.20617885624,10.5,10500126528.206179,47.655,-122.3035,60.0,7.733333333333333
2026-01-20T23:07:45+00:00,SAT-56487,280.5130301102146,45.99214013177525,2418.9679749543684,-3.5992161786739443,126059.77524650207,10.5,10500126059.775246,47.655,-122.3035,60.0,7.75
2026-01-20T23:07:46+00:00,SAT-56487,280.7197884100541,46.037827882209704,2415.3783566855045,-3.5857776276568205,125589.10034486797,10.5,10500125589.100346,47.655,-122.3035,60.0,7.766666666666667
2026-01-20T23:07:47+00:00,SAT-56487,280.9275166243917,46.08309763394816,2411.8021411315212,-3.572274861960997,125116.17637355796,10.5,10500125116.176374,47.655,-122.3035,60.0,7.783333333333333
2026-01-20T23:07:48+00:00,SAT-56487,281.13621457911995,46.1279440625492,2408.239392335859,-3.558707744713742,124640.99853871003,10.5,10500124640.998539,47.655,-122.3035,60.0,7.8
2026-01-20T23:07:49+00:00,SAT-56487,281.3458819816158,46.172361816262054,2404.690174478464,-3.5450761713061474,124163.56317647774,10.5,10500124163.563177,47.655,-122.3035,60.0,7.816666666666666
2026-01-20T23:07:50+00:00,SAT-56487,281.55651842049974,46.21634551699085,2401.154551843615,-3.531379983219894,123683.864734879,10.5,10500123683.864735,47.655,-122.3035,60.0,7.833333333333333
2026-01-20T23:07:51+00:00,SAT-56487,281.76812336018327,46.259889760205716,2397.6325888736837,-3.5176190634892195,123201.89911727801,10.5,10500123201.899117,47.655,-122.3035,60.0,7.85
2026-01-20T23:07:52+00:00,SAT-56487,281.9806961411923,46.3029891160676,2394.124350127697,-3.503793303598529,122717.66252299967,10.5,10500122717.662523,47.655,-122.3035,60.0,7.866666666666666
2026-01-20T23:07:53+00:00,SAT-56487,282.19423597858054,46.345638130154875,2390.6299002729083,-3.489902565477218,122231.15011622736,10.5,10500122231.150116,47.655,-122.3035,60.0,7.883333333333334
2026-01-20T23:07:54+00:00,SAT-56487,282.4087419578458,46.38783132374688,2387.149304114272,-3.475946734672669,121742.35788834629,10.5,10500121742.35789,47.655,-122.3035,60.0,7.9
2026-01-20T23:07:55+00:00,SAT-56487,282.6242130342716,46.429563194783135,2383.682626570892,-3.461925705351674,121251.28213262983,10.5,10500121251.282133,47.655,-122.3035,60.0,7.916666666666667
2026-01-20T23:07:56+00:00,SAT-56487,282.8406480313018,46.4708282186557,2380.229932667421,-3.4478393515067305,120757.91843576223,10.5,10500120757.918436,47.655,-122.3035,60.0,7.933333333333334
2026-01-20T23:07:57+00:00,SAT-56487,283.05804563707636,46.51162084867731,2376.791287554185,-3.4336875820170856,120262.26360630927,10.5,10500120262.263607,47.655,-122.3035,60.0,7.95
2026-01-20T23:07:58+00:00,SAT-56487,283.27640440455787,46.551935517231136,2373.366756472387,-3.419470279902235,119764.31354711889,10.5,10500119764.313547,47.655,-122.3035,60.0,7.966666666666667
2026-01-20T23:07:59+00:00,SAT-56487,283.4957227476899,46.59176663621678,2369.956404779898,-3.4051873458809405,119264.06478094214,10.5,10500119264.064781,47.655,-122.3035,60.0,7.983333333333333
2026-01-20T23:08:00+00:00,SAT-56487,283.7159989404195,46.631108598037116,2366.560297933606,-3.3908386809184483,118761.51383916306,10.5,10500118761.51384,47.655,-122.3035,60.0,8.0
2026-01-20T23:08:01+00:00,SAT-56487,283.93723111462145,46.669955776399384,2363.17850148917,-3.3764241892986804,118256.65736939966,10.5,10500118256.65737,47.655,-122.3035,60.0,8.016666666666667
2026-01-20T23:08:02+00:00,SAT-56487,284.1594172581846,46.70830252717401,2359.8110810977096,-3.3619437786201667,117749.4921353617,10.5,10500117749.492136,47.655,-122.3035,60.0,8.033333333333333
2026-01-20T23:08:03+00:00,SAT-56487,284.38255521317564,46.74614318927565,2356.4581025024986,-3.3473973570664,117240.01492124662,10.5,10500117240.014921,47.655,-122.3035,60.0,8.05
2026-01-20T23:08:04+00:00,SAT-56487,284.60664267379906,46.78347208553697,2353.1196315383845,-3.33278485019589,116728.22311979858,10.5,10500116728.22312,47.655,-122.3035,60.0,8.066666666666666
2026-01-20T23:08:05+00:00,SAT-56487,284.8316771855525,46.820283523788895,2349.795734114456,-3.318106153651297,116214.1130759821,10.5,10500116214.113075,47.655,-122.3035,60.0,8.083333333333334
2026-01-20T23:08:06+00:00,SAT-56487,285.0576561410733,46.85657179744125,2346.486476243881,-3.3033612194165256,115697.68310807044,10.5,10500115697.683107,47.655,-122.3035,60.0,8.1
2026-01-20T23:08:07+00:00,SAT-56487,285.28457678217194,46.89233118703545,2343.1919239877166,-3.2885499421010262,115178.92952484074,10.5,10500115178.929525,47.655,-122.3035,60.0,8.116666666666667
2026-01-20T23:08:08+00:00,SAT-56487,285.51243619369075,46.927555960573024,2339.9121435121274,-3.273672272486256,114657.8506024514,10.5,10500114657.850603,47.655,-122.3035,60.0,8.133333333333333
2026-01-20T23:08:09+00:00,SAT-56487,285.7412313056299,46.96224037510329,2336.647201032368,-3.2587281265980454,114134.44339977184,10.5,10500114134.4434,47.655,-122.3035,60.0,8.15
2026-01-20T23:08:10+00:00,SAT-56487,285.97095888866016,46.99637867735107,2333.3971628474405,-3.2437174569554545,113608.70625381867,10.5,10500113608.706253,47.655,-122.3035,60.0,8.166666666666666
2026-01-20T23:08:11+00:00,SAT-56487,286.2016155549517,47.02996510512654,2330.162095303704,-3.22864019541841,113080.6367780383,10.5,10500113080.636778,47.655,-122.3035,60.0,8.183333333333334
2026-01-20T23:08:12+00:00,SAT-56487,286.43319775471195,47.06299388815091,2326.9420648154733,-3.213496280547207,112550.23282055238,10.5,10500112550.23282,47.655,-122.3035,60.0,8.2
2026-01-20T23:08:13+00:00,SAT-56487,286.6657017749111,47.09545924919922,2323.737137858341,-3.1982856683091767,112017.4928391506,10.5,10500112017.49284,47.655,-122.3035,60.0,8.216666666666667
2026-01-20T23:08:14+00:00,SAT-56487,286.899123738724,47.127355405367695,2320.547380951814,-3.1830083104940843,111482.41514530657,10.5,10500111482.415146,47.655,-122.3035,60.0,8.233333333333333
2026-01-20T23:08:15+00:00,SAT-56487,287.13345960352643,47.15867656914058,2317.372860663481,-3.1676641498834983,110944.99773498884,10.5,10500110944.997734,47.655,-122.3035,60.0,8.25
2026-01-20T23:08:16+00:00,SAT-56487,287.36870515839394,47.18941694944089,2314.2136436179976,-3.1522531728368004,110405.24013044518,10.5,10500110405.240131,47.655,-122.3035,60.0,8.266666666666667
2026-01-20T23:08:17+00:00,SAT-56487,287.60485602588625,47.219570753209794,2311.069796453621,-3.1367753198826214,109863.14024873676,10.5,10500109863.14025,47.655,-122.3035,60.0,8.283333333333333
2026-01-20T23:08:18+00:00,SAT-56487,287.8419076567568,47.24913218614056,2307.941385867925,-3.121230562164751,109318.697079197,10.5,10500109318.697079,47.655,-122.3035,60.0,8.3
2026-01-20T23:08:19+00:00,SAT-56487,288.07985533079244,47.27809545417866,2304.8284785872597,-3.105618888037333,108771.91021393874,10.5,10500108771.910213,47.655,-122.3035,60.0,8.316666666666666
2026-01-20T23:08:20+00:00,SAT-56487,288.318694156623,47.306454764897204,2301.73114134959,-3.0899402512711736,108222.77803382007,10.5,10500108222.778034,47.655,-122.3035,60.0,8.333333333333334
2026-01-20T23:08:21+00:00,SAT-56487,288.55841906745445,47.334204328424505,2298.6494409389893,-3.0741946591327984,107671.30079334545,10.5,10500107671.300793,47.655,-122.3035,60.0,8.35
2026-01-20T23:08:22+00:00,SAT-56487,288.7990248239386,47.36133835919178,2295.5834441322804,-3.0583820794839136,107117.4773668959,10.5,10500107117.477367,47.655,-122.3035,60.0,8.366666666666667
2026-01-20T23:08:23+00:00,SAT-56487,289.0405060096007,47.387851076862084,2292.533217738342,-3.042502505489472,106561.30751507916,10.5,10500106561.307514,47.655,-122.3035,60.0,8.383333333333333
2026-01-20T23:08:24+00:00,SAT-56487,289.2828570315016,47.41373670786527,2289.498828572867,-3.026555937186573,106002.7912391946,10.5,10500106002.791239,47.655,-122.3035,60.0,8.4
2026-01-20T23:08:25+00:00,SAT-56487,289.5260721195814,47.438989486776556,2286.480343451513,-3.0105423742037085,105441.92852623045,10.5,10500105441.928526,47.655,-122.3035,60.0,8.416666666666666
2026-01-20T23:08:26+00:00,SAT-56487,289.77014532536407,47.463603657656996,2283.477829190307,-2.9944618108945575,104878.7191784286,10.5,10500104878.71918,47.655,-122.3035,60.0,8.433333333333334
2026-01-20T23:08:27+00:00,SAT-56487,290.0150705203634,47.48757347537739,2280.4913526109085,-2.9783142737843793,104313.16412481591,10.5,10500104313.164125,47.655,-122.3035,60.0,8.45
2026-01-20T23:08:28+00:00,SAT-56487,290.26084139767926,47.51089320725942,2277.5209805085206,-2.962099759346891,103745.263241887,10.5,10500103745.263243,47.655,-122.3035,60.0,8.466666666666667
2026-01-20T23:08:29+00:00,SAT-56487,290.5074514684277,47.53355713423788,2274.5667796818657,-2.9458182962210393,103175.01753269896,10.5,10500103175.017532,47.655,-122.3035,60.0,8.483333333333333
2026-01-20T23:08:30+00:00,SAT-56487,290.7548940634875,47.555559552534234,2271.628816901101,-2.9294699055853584,102602.42773901358,10.5,10500102602.427738,47.655,-122.3035,60.0,8.5
2026-01-20T23:08:31+00:00,SAT-56487,291.00316233197077,47.576894775032976,2268.7071589152642,-2.9130546160836226,102027.49486405704,10.5,10500102027.494864,47.655,-122.3035,60.0,8.516666666666667
2026-01-20T23:08:32+00:00,SAT-56487,291.2522492410114,47.597557132794584,2265.801872444823,-2.8965724588684325,101450.21999892518,10.5,10500101450.22,47.655,-122.3035,60.0,8.533333333333333
2026-01-20T23:08:33+00:00,SAT-56487,291.50214757525134,47.617540976543495,2262.913024179178,-2.8800234822788586,100870.60483665674,10.5,10500100870.604837,47.655,-122.3035,60.0,8.55
2026-01-20T23:08:34+00:00,SAT-56487,291.752849937637,47.63684067827525,2260.040680759519,-2.8634077157415865,100288.6504078987,10.5,10500100288.650408,47.655,-122.3035,60.0,8.566666666666666
2026-01-20T23:08:35+00:00,SAT-56487,292.0043487471234,47.65545063263168,2257.184908797686,-2.8467252155134957,99704.35868300498,10.5,10500099704.358683,47.655,-122.3035,60.0,8.583333333333334
2026-01-20T23:08:36+00:00,SAT-56487,292.2566362405117,47.673365258601756,2254.345774849414,-2.8299760404868395,99117.73172463135,10.5,10500099117.731724,47.655,-122.3035,60.0,8.6
2026-01-20T23:08:37+00:00,SAT-56487,292.5097044722773,47.6905790010635,2251.5233454117015,-2.8131602431891793,98528.77137251526,10.5,10500098528.771372,47.655,-122.3035,60.0,8.616666666666667
2026-01-20T23:08:38+00:00,SAT-56487,292.7635453135299,47.707086332295084,2248.7176869291607,-2.7962778884772357,97937.47989821337,10.5,10500097937.479898,47.655,-122.3035,60.0,8.633333333333333
2026-01-20T23:08:39+00:00,SAT-56487,293.0181504528818,47.722881753611446,2245.9288657817197,-2.7793290513406133,97343.85992817883,10.5,10500097343.859928,47.655,-122.3035,60.0,8.65
2026-01-20T23:08:40+00:00,SAT-56487,293.2735113971399,47.737959796992286,2243.1569482745163,-2.762313807375987,96747.91411012704,10.5,10500096747.91411,47.655,-122.3035,60.0,8.666666666666666
2026-01-20T23:08:41+00:00,SAT-56487,293.52961947125226,47.752315026667844,2240.402000637293,-2.7452322288412816,96149.64497483608,10.5,10500096149.644976,47.655,-122.3035,60.0,8.683333333333334
2026-01-20T23:08:42+00:00,SAT-56487,293.7864658178248,47.76594204070713,2237.6640890277286,-2.7280844182395954,95549.0561123981,10.5,10500095549.056112,47.655,-122.3035,60.0,8.7
2026-01-20T23:08:43+00:00,SAT-56487,294.04404140020483,47.77883547276373,2234.943279501271,-2.710870452241217,94946.15020813092,10.5,10500094946.150208,47.655,-122.3035,60.0,8.716666666666667
2026-01-20T23:08:44+00:00,SAT-56487,294.3023369999085,47.79098999357924,2232.2396380369023,-2.693590440057238,94340.93108706891,10.5,10500094340.931087,47.655,-122.3035,60.0,8.733333333333333
2026-01-20T23:08:45+00:00,SAT-56487,294.5613432201212,47.80240031275263,2229.5532305046854,-2.676244474362296,93733.40199506991,10.5,10500093733.401995,47.655,-122.3035,60.0,8.75
2026-01-20T23:08:46+00:00,SAT-56487,294.82105048423387,47.81306118030732,2226.8841226822547,-2.6588326800574986,93123.567306699,10.5,10500093123.567307,47.655,-122.3035,60.0,8.766666666666667
2026-01-20T23:08:47+00:00,SAT-56487,295.08144903954127,47.822967388455844,2224.2323802226774,-2.6413551549024734,92511.43044591192,10.5,10500092511.430447,47.655,-122.3035,60.0,8.783333333333333
2026-01-20T23:08:48+00:00,SAT-56487,295.342528954832,47.832113773153196,2221.5980686815215,-2.623812035259701,91896.99618869953,10.5,10500091896.99619,47.655,-122.3035,60.0,8.8
