satellites_20260121_005943/SAT-56458.csv

timestamp,satellite,azimuth_deg,elevation_deg,distance_km,relative_velocity_kms,doppler_shift_hz,tx_freq_ghz,rx_freq_hz,ue_lat,ue_lon,ue_alt_m,time_minutes
2026-01-20T23:07:05+00:00,SAT-56458,237.37354343662173,30.074153654870717,2924.384997819984,-3.0155061243040517,105615.78005138657,10.5,10500105615.780052,47.655,-122.3035,60.0,7.083333333333333
2026-01-20T23:07:06+00:00,SAT-56458,237.48435959044434,30.161849104054717,2921.3775330453454,-3.0037420054451016,105203.7508467727,10.5,10500105203.750847,47.655,-122.3035,60.0,7.1
2026-01-20T23:07:07+00:00,SAT-56458,237.5956873965202,30.249503134799344,2918.3818010185814,-2.9919385254499353,104790.34304867109,10.5,10500104790.343048,47.655,-122.3035,60.0,7.116666666666666
2026-01-20T23:07:08+00:00,SAT-56458,237.70752876774947,30.33711389817695,2915.397840995866,-2.9800956979454467,104375.55713435324,10.5,10500104375.557135,47.655,-122.3035,60.0,7.133333333333334
2026-01-20T23:07:09+00:00,SAT-56458,237.81988561370204,30.424679528769957,2912.4256922197815,-2.9682135190732337,103959.39296868152,10.5,10500103959.39297,47.655,-122.3035,60.0,7.15
2026-01-20T23:07:10+00:00,SAT-56458,237.93275983965356,30.512198144096473,2909.4653939367595,-2.956291987059609,103541.85048953397,10.5,10500103541.850489,47.655,-122.3035,60.0,7.166666666666667
2026-01-20T23:07:11+00:00,SAT-56458,238.04615334631467,30.59966784457225,2906.5169853949983,-2.9443310934579596,103122.92940107443,10.5,10500103122.929401,47.655,-122.3035,60.0,7.183333333333334
2026-01-20T23:07:12+00:00,SAT-56458,238.16006802924375,30.68708671323826,2903.5805058511232,-2.9323308659459335,102702.63067269124,10.5,10500102702.630672,47.655,-122.3035,60.0,7.2
2026-01-20T23:07:13+00:00,SAT-56458,238.27450577985712,30.774452816700258,2900.6559945341533,-2.920291291906976,102280.95386249927,10.5,10500102280.953863,47.655,-122.3035,60.0,7.216666666666667
2026-01-20T23:07:14+00:00,SAT-56458,238.38946848353885,30.861764203892662,2897.743490685691,-2.9082123833304996,101857.89939041845,10.5,10500101857.899391,47.655,-122.3035,60.0,7.233333333333333
2026-01-20T23:07:15+00:00,SAT-56458,238.50495802025176,30.949018906709284,2894.843033535383,-2.896094149319736,101433.46757528247,10.5,10500101433.467575,47.655,-122.3035,60.0,7.25
2026-01-20T23:07:16+00:00,SAT-56458,238.62097626401874,31.03621493982796,2891.9546623037945,-2.883936595473743,101007.65861319401,10.5,10500101007.658613,47.655,-122.3035,60.0,7.266666666666667
2026-01-20T23:07:17+00:00,SAT-56458,238.7375250824343,31.123350300528646,2889.0784162059085,-2.871739754316553,100580.47364328227,10.5,10500100580.473642,47.655,-122.3035,60.0,7.283333333333333
2026-01-20T23:07:18+00:00,SAT-56458,238.85460633734522,31.21042296940602,2886.2143344242704,-2.8595036067070847,100151.91199514561,10.5,10500100151.911995,47.655,-122.3035,60.0,7.3
2026-01-20T23:07:19+00:00,SAT-56458,238.97222188241926,31.297430908779713,2883.3624561605147,-2.8472281938914374,99721.97511339693,10.5,10500099721.975113,47.655,-122.3035,60.0,7.316666666666666
2026-01-20T23:07:20+00:00,SAT-56458,239.09037356514773,31.384372064382784,2880.5228205751405,-2.834913528470413,99290.66343936957,10.5,10500099290.663439,47.655,-122.3035,60.0,7.333333333333333
2026-01-20T23:07:21+00:00,SAT-56458,239.2090632253059,31.471244364447976,2877.695466816079,-2.8225596265433968,98857.97753693213,10.5,10500098857.977537,47.655,-122.3035,60.0,7.35
2026-01-20T23:07:22+00:00,SAT-56458,239.32829269471398,31.55804571975179,2874.8804340152064,-2.8101665023130984,98423.91790352356,10.5,10500098423.917904,47.655,-122.3035,60.0,7.366666666666666
2026-01-20T23:07:23+00:00,SAT-56458,239.44806379669848,31.64477402346348,2872.0777612902325,-2.7977341954699577,97988.48592927096,10.5,10500097988.48593,47.655,-122.3035,60.0,7.383333333333334
2026-01-20T23:07:24+00:00,SAT-56458,239.56837834677117,31.73142715185673,2869.287487719284,-2.785262708836626,97551.68171303553,10.5,10500097551.681713,47.655,-122.3035,60.0,7.4
2026-01-20T23:07:25+00:00,SAT-56458,239.68923815063528,31.818002963124073,2866.509652377671,-2.7727520955261364,97113.50711506036,10.5,10500097113.507114,47.655,-122.3035,60.0,7.416666666666667
2026-01-20T23:07:26+00:00,SAT-56458,239.81064500590037,31.90449929883512,2863.744294287733,-2.7602023596774297,96673.96228030864,10.5,10500096673.96228,47.655,-122.3035,60.0,7.433333333333334
2026-01-20T23:07:27+00:00,SAT-56458,239.93260069954113,31.99091398238679,2860.9914524676815,-2.747613543118518,96233.0486737743,10.5,10500096233.048674,47.655,-122.3035,60.0,7.45
2026-01-20T23:07:28+00:00,SAT-56458,240.05510700908906,32.07724482009444,2858.251165894011,-2.734985671187206,95790.76718289444,10.5,10500095790.767183,47.655,-122.3035,60.0,7.466666666666667
2026-01-20T23:07:29+00:00,SAT-56458,240.17816570142907,32.16348960061358,2855.5234735179474,-2.722318794172347,95347.11956899744,10.5,10500095347.11957,47.655,-122.3035,60.0,7.483333333333333
2026-01-20T23:07:30+00:00,SAT-56458,240.30177853348397,32.24964609566371,2852.808414240559,-2.7096129287572728,94902.10641640412,10.5,10500094902.106417,47.655,-122.3035,60.0,7.5
2026-01-20T23:07:31+00:00,SAT-56458,240.42594725023727,32.33571205893512,2850.1060269462787,-2.6968681147447384,94455.72911917535,10.5,10500094455.729118,47.655,-122.3035,60.0,7.516666666666667
2026-01-20T23:07:32+00:00,SAT-56458,240.55067358528675,32.421685226751165,2847.41635047984,-2.6840844067200877,94007.98958912076,10.5,10500094007.98959,47.655,-122.3035,60.0,7.533333333333333
2026-01-20T23:07:33+00:00,SAT-56458,240.67595926102456,32.507563318457336,2844.7394236315376,-2.671261826395487,93558.88858669224,10.5,10500093558.888586,47.655,-122.3035,60.0,7.55
2026-01-20T23:07:34+00:00,SAT-56458,240.8018059866888,32.59334403538612,2842.0752851700126,-2.6584004367276752,93108.42831690112,10.5,10500093108.428316,47.655,-122.3035,60.0,7.566666666666666
2026-01-20T23:07:35+00:00,SAT-56458,240.92821545973106,32.6790250620636,2839.4239738011165,-2.645500261591801,92656.60961595608,10.5,10500092656.609615,47.655,-122.3035,60.0,7.583333333333333
2026-01-20T23:07:36+00:00,SAT-56458,241.05518936351808,32.764604064969426,2836.7855282068886,-2.6325613766689036,92203.43513452724,10.5,10500092203.435135,47.655,-122.3035,60.0,7.6
2026-01-20T23:07:37+00:00,SAT-56458,241.18272936925018,32.85007869410258,2834.159986993891,-2.6195838029875906,91748.90560912545,10.5,10500091748.90561,47.655,-122.3035,60.0,7.616666666666666
2026-01-20T23:07:38+00:00,SAT-56458,241.31083713287455,32.93544658124371,2831.547388747711,-2.6065676018854167,91293.02318805121,10.5,10500091293.023188,47.655,-122.3035,60.0,7.633333333333334
2026-01-20T23:07:39+00:00,SAT-56458,241.43951429643312,33.0207053411654,2828.9477719927645,-2.593512833186453,90835.78996659668,10.5,10500090835.789967,47.655,-122.3035,60.0,7.65
2026-01-20T23:07:40+00:00,SAT-56458,241.5687624875184,33.10585257157468,2826.3611751937997,-2.580419552592096,90377.20789566029,10.5,10500090377.207895,47.655,-122.3035,60.0,7.666666666666667
2026-01-20T23:07:41+00:00,SAT-56458,241.69858331851486,33.19088585293945,2823.7876367600147,-2.5672878055509143,89917.27856704319,10.5,10500089917.278566,47.655,-122.3035,60.0,7.683333333333334
2026-01-20T23:07:42+00:00,SAT-56458,241.82897838556636,33.27580274815109,2821.2271950552786,-2.554117659164688,89456.00433093359,10.5,10500089456.004332,47.655,-122.3035,60.0,7.7
2026-01-20T23:07:43+00:00,SAT-56458,241.9599492690553,33.36060080316542,2818.679888376538,-2.54090918110593,88993.38755750908,10.5,10500088993.387558,47.655,-122.3035,60.0,7.716666666666667
2026-01-20T23:07:44+00:00,SAT-56458,242.0914975331237,33.44527754702763,2816.1457549532483,-2.527662421884061,88529.43001582327,10.5,10500088529.430016,47.655,-122.3035,60.0,7.733333333333333
2026-01-20T23:07:45+00:00,SAT-56458,242.2236247242111,33.52983049128345,2813.624832964489,-2.5143774560686425,88064.13431761765,10.5,10500088064.134317,47.655,-122.3035,60.0,7.75
2026-01-20T23:07:46+00:00,SAT-56458,242.35633237171,33.61425713074812,2811.1171605149702,-2.5010543516284787,87597.5028434472,10.5,10500087597.502844,47.655,-122.3035,60.0,7.766666666666667
2026-01-20T23:07:47+00:00,SAT-56458,242.48962198704822,33.698554943276775,2808.622775641613,-2.487693173457136,87129.53786615915,10.5,10500087129.537867,47.655,-122.3035,60.0,7.783333333333333
2026-01-20T23:07:48+00:00,SAT-56458,242.62349506296863,33.782721389669774,2806.141716316618,-2.4742939921925866,86660.24185979409,10.5,10500086660.24186,47.655,-122.3035,60.0,7.8
2026-01-20T23:07:49+00:00,SAT-56458,242.75795307317418,33.866753913826855,2803.674020441738,-2.4608568923797325,86189.61778547207,10.5,10500086189.617786,47.655,-122.3035,60.0,7.816666666666666
2026-01-20T23:07:50+00:00,SAT-56458,242.89299747251698,33.950649943227866,2801.2197258344045,-2.447381939805587,85717.66794733264,10.5,10500085717.667948,47.655,-122.3035,60.0,7.833333333333333
2026-01-20T23:07:51+00:00,SAT-56458,243.0286296953621,34.034406888298676,2798.7788702464386,-2.433869227985131,85244.39562066592,10.5,10500085244.39562,47.655,-122.3035,60.0,7.85
2026-01-20T23:07:52+00:00,SAT-56458,243.16485115647316,34.11802214334015,2796.3514913363947,-2.4203188093061643,84769.80264031434,10.5,10500084769.80264,47.655,-122.3035,60.0,7.866666666666666
2026-01-20T23:07:53+00:00,SAT-56458,243.30166324816025,34.201493085174974,2793.9376267105804,-2.40673079689536,84293.89296845246,10.5,10500084293.89297,47.655,-122.3035,60.0,7.883333333333334
2026-01-20T23:07:54+00:00,SAT-56458,243.43906734294876,34.2848170751674,2791.5373138624764,-2.3931052564406303,83816.66890574885,10.5,10500083816.668905,47.655,-122.3035,60.0,7.9
2026-01-20T23:07:55+00:00,SAT-56458,243.57706479035227,34.3679914576648,2789.1505902200533,-2.3794422856858506,83338.13387560747,10.5,10500083338.133875,47.655,-122.3035,60.0,7.916666666666667
2026-01-20T23:07:56+00:00,SAT-56458,243.71565691800058,34.45101356108729,2786.7774931137956,-2.365741963509778,82858.29064069608,10.5,10500082858.29064,47.655,-122.3035,60.0,7.933333333333334
2026-01-20T23:07:57+00:00,SAT-56458,243.85484502992023,34.53388069731422,2784.418059795522,-2.3520043942839823,82377.1428565485,10.5,10500082377.142857,47.655,-122.3035,60.0,7.95
2026-01-20T23:07:58+00:00,SAT-56458,243.99463040732624,34.6165901625677,2782.072327412956,-2.338229665306389,81894.69358070738,10.5,10500081894.69358,47.655,-122.3035,60.0,7.966666666666667
2026-01-20T23:07:59+00:00,SAT-56458,244.13501430700134,34.69913923687344,2779.740333026757,-2.3244178705961307,81410.94610612043,10.5,10500081410.946106,47.655,-122.3035,60.0,7.983333333333333
2026-01-20T23:08:00+00:00,SAT-56458,244.27599796097843,34.781525184315754,2777.422113603816,-2.310569108632477,80925.90388194825,10.5,10500080925.903881,47.655,-122.3035,60.0,8.0
2026-01-20T23:08:01+00:00,SAT-56458,244.4175825761311,34.86374525322439,2775.1177060128066,-2.2966834818826967,80439.57049702802,10.5,10500080439.570498,47.655,-122.3035,60.0,8.016666666666667
2026-01-20T23:08:02+00:00,SAT-56458,244.55976933372045,34.94579667635882,2772.8271470202085,-2.2827610993614553,79951.94976951448,10.5,10500079951.94977,47.655,-122.3035,60.0,8.033333333333333
2026-01-20T23:08:03+00:00,SAT-56458,244.70255938910955,35.02767667117511,2770.550473283779,-2.2688020561043243,79463.04502795533,10.5,10500079463.045029,47.655,-122.3035,60.0,8.05
2026-01-20T23:08:04+00:00,SAT-56458,244.84595387019363,35.10938243939255,2768.2877213664906,-2.25480646139431,78972.8600999037,10.5,10500078972.8601,47.655,-122.3035,60.0,8.066666666666666
2026-01-20T23:08:05+00:00,SAT-56458,244.98995387757316,35.19091116754363,2766.038927722327,-2.2407744286757203,78481.39895865913,10.5,10500078481.398958,47.655,-122.3035,60.0,8.083333333333334
2026-01-20T23:08:06+00:00,SAT-56458,245.13456048410472,35.27226002717982,2763.804128692128,-2.226706070425212,77988.66554362995,10.5,10500077988.665545,47.655,-122.3035,60.0,8.1
2026-01-20T23:08:07+00:00,SAT-56458,245.2797747340908,35.353426174884596,2761.583360504557,-2.2126014943741974,77494.66362802587,10.5,10500077494.663628,47.655,-122.3035,60.0,8.116666666666667
2026-01-20T23:08:08+00:00,SAT-56458,245.42559764228662,35.434406752195784,2759.3766592808342,-2.1984608233360143,76999.39751328951,10.5,10500076999.397512,47.655,-122.3035,60.0,8.133333333333333
2026-01-20T23:08:09+00:00,SAT-56458,245.57203019410022,35.51519888618796,2757.184061019694,-2.1842841739725123,76502.87128541232,10.5,10500076502.871284,47.655,-122.3035,60.0,8.15
2026-01-20T23:08:10+00:00,SAT-56458,245.71907334446695,35.595799689342854,2755.0056016035187,-2.1700716737955212,76005.08941039795,10.5,10500076005.08941,47.655,-122.3035,60.0,8.166666666666666
2026-01-20T23:08:11+00:00,SAT-56458,245.86672801779514,35.67620625999894,2752.84131678752,-2.155823426171861,75506.05550858969,10.5,10500075506.055508,47.655,-122.3035,60.0,8.183333333333334
2026-01-20T23:08:12+00:00,SAT-56458,246.01499510565628,35.75641568160219,2750.691242223818,-2.14153958096436,75005.77482881768,10.5,10500075005.774828,47.655,-122.3035,60.0,8.2
2026-01-20T23:08:13+00:00,SAT-56458,246.16387546904528,35.8364250244196,2748.55541341507,-2.12722025406593,74504.25143014193,10.5,10500074504.25143,47.655,-122.3035,60.0,8.216666666666667
2026-01-20T23:08:14+00:00,SAT-56458,246.31336993542476,35.91623134445209,2746.4338657483477,-2.1128655804460195,74001.49003976345,10.5,10500074001.49004,47.655,-122.3035,60.0,8.233333333333333
2026-01-20T23:08:15+00:00,SAT-56458,246.46347929916675,35.99583168418858,2744.3266344761164,-2.098475686669138,73497.49509050674,10.5,10500073497.49509,47.655,-122.3035,60.0,8.25
2026-01-20T23:08:16+00:00,SAT-56458,246.61420432026384,36.07522307243185,2742.2337547246116,-2.084050718070893,72992.27167263953,10.5,10500072992.271673,47.655,-122.3035,60.0,8.266666666666667
2026-01-20T23:08:17+00:00,SAT-56458,246.76554572477875,36.154402525058075,2740.155261475122,-2.0695908004488897,72485.82419212609,10.5,10500072485.824192,47.655,-122.3035,60.0,8.283333333333333
2026-01-20T23:08:18+00:00,SAT-56458,246.91750420274678,36.2333670444465,2738.0911895834743,-2.055096077886484,71978.157695375,10.5,10500071978.157696,47.655,-122.3035,60.0,8.3
2026-01-20T23:08:19+00:00,SAT-56458,247.07008040862533,36.31211362024237,2736.0415737617955,-2.0405667018006395,71469.27748564881,10.5,10500071469.277485,47.655,-122.3035,60.0,8.316666666666666
2026-01-20T23:08:20+00:00,SAT-56458,247.2232749610426,36.390639229760836,2734.0064485712,-2.026002803898543,70959.18817589033,10.5,10500070959.188175,47.655,-122.3035,60.0,8.333333333333334
2026-01-20T23:08:21+00:00,SAT-56458,247.37708844058778,36.46894083738949,2731.9858484414453,-2.01140454220808,70447.8953009046,10.5,10500070447.895302,47.655,-122.3035,60.0,8.35
2026-01-20T23:08:22+00:00,SAT-56458,247.53152139089082,36.54701539568901,2729.9798076446828,-1.9967720556826356,69935.4037274269,10.5,10500069935.403727,47.655,-122.3035,60.0,8.366666666666667
2026-01-20T23:08:23+00:00,SAT-56458,247.68657431638945,36.62485984481601,2727.9883603144817,-1.9821054993861595,69421.7188864527,10.5,10500069421.718887,47.655,-122.3035,60.0,8.383333333333333
2026-01-20T23:08:24+00:00,SAT-56458,247.84224768274066,36.7024711132807,2726.0115404297608,-1.967405036695552,68906.84650013209,10.5,10500068906.8465,47.655,-122.3035,60.0,8.4
2026-01-20T23:08:25+00:00,SAT-56458,247.9985419166063,36.77984611839293,2724.0493818064965,-1.9526708133092898,68390.79167144206,10.5,10500068390.791672,47.655,-122.3035,60.0,8.416666666666666
2026-01-20T23:08:26+00:00,SAT-56458,248.15545740349432,36.85698176576322,2722.101918115356,-1.9379029920472641,67873.56010302392,10.5,10500067873.560102,47.655,-122.3035,60.0,8.433333333333334
2026-01-20T23:08:27+00:00,SAT-56458,248.312994488217,36.93387495009266,2720.169182864621,-1.9231017321769106,67355.15737309697,10.5,10500067355.157373,47.655,-122.3035,60.0,8.45
2026-01-20T23:08:28+00:00,SAT-56458,248.47115347380043,37.010522555216596,2718.25120940373,-1.9082672030924523,66835.58941456342,10.5,10500066835.589415,47.655,-122.3035,60.0,8.466666666666667
2026-01-20T23:08:29+00:00,SAT-56458,248.6299346214164,37.08692145464172,2716.3480309131787,-1.8933995672666675,66314.86191790724,10.5,10500066314.861917,47.655,-122.3035,60.0,8.483333333333333
2026-01-20T23:08:30+00:00,SAT-56458,248.78933814901086,37.1630685114704,2714.459680411425,-1.8784989865101225,65792.98055041893,10.5,10500065792.98055,47.655,-122.3035,60.0,8.5
2026-01-20T23:08:31+00:00,SAT-56458,248.94936423038496,37.23896057854692,2712.5861907555454,-1.8635656468693698,65269.95182823573,10.5,10500065269.951828,47.655,-122.3035,60.0,8.516666666666667
2026-01-20T23:08:32+00:00,SAT-56458,249.11001299633148,37.31459449958099,2710.727594617068,-1.848599710242898,64745.78142172752,10.5,10500064745.781422,47.655,-122.3035,60.0,8.533333333333333
2026-01-20T23:08:33+00:00,SAT-56458,249.27128453176874,37.38996710839396,2708.8839245060526,-1.8336013552272659,64220.47558610128,10.5,10500064220.475586,47.655,-122.3035,60.0,8.55
2026-01-20T23:08:34+00:00,SAT-56458,249.43317887631343,37.465075229780105,2707.0552127544393,-1.8185707604042933,63694.04057604772,10.5,10500063694.040577,47.655,-122.3035,60.0,8.566666666666666
2026-01-20T23:08:35+00:00,SAT-56458,249.59569602336876,37.539915679686494,2705.2414915160625,-1.8035081044320331,63166.48264892757,10.5,10500063166.482649,47.655,-122.3035,60.0,8.583333333333334
2026-01-20T23:08:36+00:00,SAT-56458,249.75883591929608,37.614485265437914,2703.4427927665756,-1.788413576794126,62637.80844125947,10.5,10500062637.808441,47.655,-122.3035,60.0,8.6
2026-01-20T23:08:37+00:00,SAT-56458,249.92259846349253,37.68878078636844,2701.659148292653,-1.7732873497364174,62108.02398582149,10.5,10500062108.023985,47.655,-122.3035,60.0,8.616666666666667
2026-01-20T23:08:38+00:00,SAT-56458,250.0869835059998,37.76279903336201,2699.890589709182,-1.7581296303386418,61577.13653542191,10.5,10500061577.136536,47.655,-122.3035,60.0,8.633333333333333
2026-01-20T23:08:39+00:00,SAT-56458,250.2519908497252,37.83653679045221,2698.1371484245246,-1.7429405845970638,61045.15190395207,10.5,10500061045.151903,47.655,-122.3035,60.0,8.65
2026-01-20T23:08:40+00:00,SAT-56458,250.4176202458995,37.909990833420785,2696.3988556814866,-1.7277204289431716,60512.077671758176,10.5,10500060512.077671,47.655,-122.3035,60.0,8.666666666666666
2026-01-20T23:08:41+00:00,SAT-56458,250.58387139774237,37.98315793204017,2694.6757425070205,-1.7124693388022314,59977.91998297512,10.5,10500059977.919983,47.655,-122.3035,60.0,8.683333333333334
2026-01-20T23:08:42+00:00,SAT-56458,250.7507439559029,38.05603484868548,2692.9678397531216,-1.6971875245355532,59442.686205345795,10.5,10500059442.686205,47.655,-122.3035,60.0,8.7
2026-01-20T23:08:43+00:00,SAT-56458,250.91823752072645,38.128618339959424,2691.275178061985,-1.6818751804589327,58906.38314463132,10.5,10500058906.383144,47.655,-122.3035,60.0,8.716666666666667
2026-01-20T23:08:44+00:00,SAT-56458,251.08635163997425,38.200905156325355,2689.597787882007,-1.666532504254105,58369.01772448226,10.5,10500058369.017725,47.655,-122.3035,60.0,8.733333333333333
2026-01-20T23:08:45+00:00,SAT-56458,251.25508580820303,38.272892042477494,2687.935699464431,-1.6511597120521992,57830.59751472498,10.5,10500057830.597515,47.655,-122.3035,60.0,8.75
2026-01-20T23:08:46+00:00,SAT-56458,251.42443946770368,38.34457573837394,2686.2889428449444,-1.635756989761023,57291.12902663729,10.5,10500057291.129026,47.655,-122.3035,60.0,8.766666666666667
2026-01-20T23:08:47+00:00,SAT-56458,251.59441200465182,38.41595297824729,2684.6575478738228,-1.6203245787371934,56750.62071354887,10.5,10500056750.620714,47.655,-122.3035,60.0,8.783333333333333
2026-01-20T23:08:48+00:00,SAT-56458,251.7650027537521,38.48702049318731,2683.0415441606287,-1.604862656598946,56209.07879640165,10.5,10500056209.078796,47.655,-122.3035,60.0,8.8
2026-01-20T23:08:49+00:00,SAT-56458,251.93621099097672,38.55777500875744,2681.440961137781,-1.5893714530011378,55666.51131868016,10.5,10500055666.511318,47.655,-122.3035,60.0,8.816666666666666
2026-01-20T23:08:50+00:00,SAT-56458,252.1080359379382,38.62821324745913,2679.8558280086545,-1.5738511911681208,55122.92609864544,10.5,10500055122.926098,47.655,-122.3035,60.0,8.833333333333334
2026-01-20T23:08:51+00:00,SAT-56458,252.2804767604053,38.69833192875037,2678.286173753996,-1.5583020720545657,54578.330174580115,10.5,10500054578.330175,47.655,-122.3035,60.0,8.85
2026-01-20T23:08:52+00:00,SAT-56458,252.45353256511942,38.768127768406885,2676.7320271541334,-1.54272432642579,54032.73162886171,10.5,10500054032.731628,47.655,-122.3035,60.0,8.866666666666667
2026-01-20T23:08:53+00:00,SAT-56458,252.6272024020315,38.83759748007675,2675.193416759245,-1.5271181768815436,53486.13825787508,10.5,10500053486.138258,47.655,-122.3035,60.0,8.883333333333333
2026-01-20T23:08:54+00:00,SAT-56458,252.80148526262292,38.90673777525443,2673.670370897502,-1.511483850415137,52938.55801188614,10.5,10500052938.558012,47.655,-122.3035,60.0,8.9
2026-01-20T23:08:55+00:00,SAT-56458,252.9763800794847,38.97554536376156,2672.162917670688,-1.4958215699175306,52389.99869747914,10.5,10500052389.998697,47.655,-122.3035,60.0,8.916666666666666
2026-01-20T23:08:56+00:00,SAT-56458,253.15188572506787,39.044016953912184,2670.67108495829,-1.4801315614138757,51840.468231010986,10.5,10500051840.468231,47.655,-122.3035,60.0,8.933333333333334
2026-01-20T23:08:57+00:00,SAT-56458,253.32800101111116,39.112149252948775,2669.1949004143735,-1.4644140662912828,51289.97506687933,10.5,10500051289.975067,47.655,-122.3035,60.0,8.95
2026-01-20T23:08:58+00:00,SAT-56458,253.5047246895657,39.17993896805146,2667.734391452259,-1.4486693161932729,50738.52731822014,10.5,10500050738.527319,47.655,-122.3035,60.0,8.966666666666667
2026-01-20T23:08:59+00:00,SAT-56458,253.68205545065095,39.24738280624307,2666.289585254242,-1.4328975460800095,50186.13321433223,10.5,10500050186.133215,47.655,-122.3035,60.0,8.983333333333333
2026-01-20T23:09:00+00:00,SAT-56458,253.85999192242065,39.31447747488084,2664.8605087682845,-1.4170989913070509,49632.80099836279,10.5,10500049632.800999,47.655,-122.3035,60.0,9.0
2026-01-20T23:09:01+00:00,SAT-56458,254.03853266990416,39.381219681998765,2663.447188707621,-1.4012739014662074,49078.539412072794,10.5,10500049078.539412,47.655,-122.3035,60.0,9.016666666666667
2026-01-20T23:09:02+00:00,SAT-56458,254.21767619606666,39.44760613731575,2662.049651536559,-1.3854225122316914,48523.356709770065,10.5,10500048523.35671,47.655,-122.3035,60.0,9.033333333333333
2026-01-20T23:09:03+00:00,SAT-56458,254.3974209392755,39.51363355195243,2660.66792348436,-1.3695450690853395,47967.2614892669,10.5,10500047967.26149,47.655,-122.3035,60.0,9.05
2026-01-20T23:09:04+00:00,SAT-56458,254.57776527366138,39.57929863923298,2659.3020305354585,-1.3536418271981994,47410.262687732764,10.5,10500047410.262688,47.655,-122.3035,60.0,9.066666666666666
2026-01-20T23:09:05+00:00,SAT-56458,254.7587075095567,39.64459811548998,2657.9519984198,-1.3377130273891913,46852.36873966492,10.5,10500046852.36874,47.655,-122.3035,60.0,9.083333333333334
2026-01-20T23:09:06+00:00,SAT-56458,254.9402458909028,39.70952869979036,2656.61785262715,-1.3217589282598456,46293.58870238283,10.5,10500046293.588703,47.655,-122.3035,60.0,9.1
2026-01-20T23:09:07+00:00,SAT-56458,255.12237859666516,39.774087115100556,2655.2996183893656,-1.3057797773701112,45733.93124648308,10.5,10500045733.931246,47.655,-122.3035,60.0,9.116666666666667
2026-01-20T23:09:08+00:00,SAT-56458,255.30510373870877,39.8382700881873,2653.997320691402,-1.28977583841947,45173.40560783698,10.5,10500045173.405607,47.655,-122.3035,60.0,9.133333333333333
2026-01-20T23:09:09+00:00,SAT-56458,255.48841936308915,39.902074350726934,2652.7109842552186,-1.2737473659807947,44612.02070266339,10.5,10500044612.020702,47.655,-122.3035,60.0,9.15
2026-01-20T23:09:10+00:00,SAT-56458,255.67232344811765,39.9654966392846,2651.44063354888,-1.2576946183689799,44049.78557824256,10.5,10500044049.785578,47.655,-122.3035,60.0,9.166666666666666
2026-01-20T23:09:11+00:00,SAT-56458,255.85681390407575,40.02853369587129,2650.186292782827,-1.2416178626179382,43486.709587231686,10.5,10500043486.709587,47.655,-122.3035,60.0,9.183333333333334
2026-01-20T23:09:12+00:00,SAT-56458,256.04188857369337,40.09118226876238,2648.947985901176,-1.2255173577911727,42922.80180313046,10.5,10500042922.801804,47.655,-122.3035,60.0,9.2
2026-01-20T23:09:13+00:00,SAT-56458,256.22754523029073,40.15343911251475,2647.725736589672,-1.2093933773368368,42358.07180324992,10.5,10500042358.071804,47.655,-122.3035,60.0,9.216666666666667
2026-01-20T23:09:14+00:00,SAT-56458,256.4137815790953,40.21530098906384,2646.5195682613416,-1.193246186532945,41792.52887874825,10.5,10500041792.52888,47.655,-122.3035,60.0,9.233333333333333
2026-01-20T23:09:15+00:00,SAT-56458,256.60059525539714,40.27676466774761,2645.3295040646394,-1.1770760549860184,41226.18247238626,10.5,10500041226.182472,47.655,-122.3035,60.0,9.25
2026-01-20T23:09:16+00:00,SAT-56458,256.78798382444876,40.33782692592799,2644.1555668791334,-1.1608832556019406,40659.04214248237,10.5,10500040659.042143,47.655,-122.3035,60.0,9.266666666666667
2026-01-20T23:09:17+00:00,SAT-56458,256.9759447812462,40.39848454956622,2642.997779312213,-1.1446680653472725,40091.11758957712,10.5,10500040091.11759,47.655,-122.3035,60.0,9.283333333333333
2026-01-20T23:09:18+00:00,SAT-56458,257.1644755504958,40.45873433384716,2641.8561636950403,-1.1284307606864523,39522.41849662458,10.5,10500039522.418497,47.655,-122.3035,60.0,9.3
2026-01-20T23:09:19+00:00,SAT-56458,257.3535734859032,40.51857308359288,2640.7307420830484,-1.11217161654503,38952.954492680445,10.5,10500038952.954493,47.655,-122.3035,60.0,9.316666666666666
2026-01-20T23:09:20+00:00,SAT-56458,257.54323586921026,40.57799761359649,2639.6215362574812,-1.095890919371929,38382.7356103977,10.5,10500038382.735611,47.655,-122.3035,60.0,9.333333333333334
2026-01-20T23:09:21+00:00,SAT-56458,257.7334599114704,40.63700474965557,2638.528567713894,-1.0795889497634166,37811.771677444514,10.5,10500037811.771677,47.655,-122.3035,60.0,9.35
2026-01-20T23:09:22+00:00,SAT-56458,257.92424275146243,40.69559132870426,2637.4518576679966,-1.0632659871209325,37240.0724796412,10.5,10500037240.07248,47.655,-122.3035,60.0,9.366666666666667
2026-01-20T23:09:23+00:00,SAT-56458,258.11558145486583,40.75375419919729,2636.3914270568416,-1.0469223248128139,36667.648291987876,10.5,10500036667.648293,47.655,-122.3035,60.0,9.383333333333333
2026-01-20T23:09:24+00:00,SAT-56458,258.3074730159943,40.81149022226201,2635.347296524895,-1.0305582460643468,36094.50903423208,10.5,10500036094.509035,47.655,-122.3035,60.0,9.4
2026-01-20T23:09:25+00:00,SAT-56458,258.4999143555318,40.86879627163313,2634.319486434153,-1.0141740446163932,35520.664994421335,10.5,10500035520.664995,47.655,-122.3035,60.0,9.416666666666666
2026-01-20T23:09:26+00:00,SAT-56458,258.6929023217991,40.92566923464936,2633.308016853656,-0.9977700077345869,34946.126233813266,10.5,10500034946.126234,47.655,-122.3035,60.0,9.433333333333334
2026-01-20T23:09:27+00:00,SAT-56458,258.88643368901535,40.982106012360376,2632.312907565942,-0.9813464356080819,34370.903266301844,10.5,10500034370.903267,47.655,-122.3035,60.0,9.45
2026-01-20T23:09:28+00:00,SAT-56458,259.0805051591312,41.03810352066633,2631.3341780541623,-0.9649036177640895,33795.00623235472,10.5,10500033795.006233,47.655,-122.3035,60.0,9.466666666666667
2026-01-20T23:09:29+00:00,SAT-56458,259.2751133594199,41.09365869022804,2630.371847512712,-0.9484418535897935,33218.445617777455,10.5,10500033218.445618,47.655,-122.3035,60.0,9.483333333333333
2026-01-20T23:09:30+00:00,SAT-56458,259.4702548437032,41.148768467426095,2629.4259348373985,-0.9319614406986901,32641.231846253606,10.5,10500032641.231846,47.655,-122.3035,60.0,9.5
2026-01-20T23:09:31+00:00,SAT-56458,259.6659260916553,41.20342981475908,2628.4964586272085,-0.9154626817387006,32063.375517793564,10.5,10500032063.375517,47.655,-122.3035,60.0,9.516666666666667
2026-01-20T23:09:32+00:00,SAT-56458,259.8621235092229,41.257639711556955,2627.583437179288,-0.898945878733144,31484.88721053153,10.5,10500031484.88721,47.655,-122.3035,60.0,9.533333333333333
2026-01-20T23:09:33+00:00,SAT-56458,260.05884342816046,41.311395154436426,2626.6868884895644,-0.8824113331742504,30905.77748400071,10.5,10500030905.777485,47.655,-122.3035,60.0,9.55
2026-01-20T23:09:34+00:00,SAT-56458,260.256082105446,41.36469315772796,2625.806830253279,-0.8658593538390715,30326.057152879584,10.5,10500030326.057154,47.655,-122.3035,60.0,9.566666666666666
2026-01-20T23:09:35+00:00,SAT-56458,260.4538357243993,41.417530754361216,2624.9432798577163,-0.8492902462622169,29745.73691828257,10.5,10500029745.736917,47.655,-122.3035,60.0,9.583333333333334
2026-01-20T23:09:36+00:00,SAT-56458,260.65210039363734,41.46990499615177,2624.0962543854444,-0.8327043159884605,29164.827481680128,10.5,10500029164.827482,47.655,-122.3035,60.0,9.6
2026-01-20T23:09:37+00:00,SAT-56458,260.8508721466775,41.5218129542766,2623.2657706142986,-0.8161018804635588,28583.33996136543,10.5,10500028583.339962,47.655,-122.3035,60.0,9.616666666666667
2026-01-20T23:09:38+00:00,SAT-56458,261.05014694421936,41.57325172042704,2622.4518450055166,-0.7994832445858303,28001.285036167315,10.5,10500028001.285036,47.655,-122.3035,60.0,9.633333333333333
2026-01-20T23:09:39+00:00,SAT-56458,261.2499206710341,41.62421840656385,2621.6544937162494,-0.7828487283980344,27418.673915336993,10.5,10500027418.673916,47.655,-122.3035,60.0,9.65
2026-01-20T23:09:40+00:00,SAT-56458,261.4501891391493,41.67471014628161,2620.87373258446,-0.766198639986044,26835.51738934494,10.5,10500026835.51739,47.655,-122.3035,60.0,9.666666666666666
2026-01-20T23:09:41+00:00,SAT-56458,261.6509480847799,41.72472409457991,2620.1095771408477,-0.7495332987487039,26251.826644889752,10.5,10500026251.826645,47.655,-122.3035,60.0,9.683333333333334
2026-01-20T23:09:42+00:00,SAT-56458,261.85219317069647,41.7742574290043,2619.362042597562,-0.7328530236533807,25667.612853557835,10.5,10500025667.612854,47.655,-122.3035,60.0,9.7
2026-01-20T23:09:43+00:00,SAT-56458,262.0539199859907,41.82330735011327,2618.6311438486387,-0.7161581311359978,25082.887098273754,10.5,10500025082.887098,47.655,-122.3035,60.0,9.716666666666667
2026-01-20T23:09:44+00:00,SAT-56458,262.25612404518427,41.871871081791234,2617.916895472519,-0.6994489442672882,24497.66069434117,10.5,10500024497.660694,47.655,-122.3035,60.0,9.733333333333333
2026-01-20T23:09:45+00:00,SAT-56458,262.45880078977285,41.919945872145355,2617.2193117254365,-0.68272578368412,23911.94487181949,10.5,10500023911.944872,47.655,-122.3035,60.0,9.75
2026-01-20T23:09:46+00:00,SAT-56458,262.6619455874032,41.96752899381914,2616.538406543842,-0.6659889705041375,23325.750877606948,10.5,10500023325.750877,47.655,-122.3035,60.0,9.766666666666667
2026-01-20T23:09:47+00:00,SAT-56458,262.86555373187065,42.01461774450892,2615.8741935439257,-0.649238833684783,22739.09023318466,10.5,10500022739.090233,47.655,-122.3035,60.0,9.783333333333333
2026-01-20T23:09:48+00:00,SAT-56458,263.0696204451654,42.061209447934786,2615.226686013798,-0.6324756932352736,22151.974146629043,10.5,10500022151.974146,47.655,-122.3035,60.0,9.8
2026-01-20T23:09:49+00:00,SAT-56458,263.2741408748791,42.10730145374279,2614.595896922411,-0.6156998830244873,21564.414311440472,10.5,10500021564.414312,47.655,-122.3035,60.0,9.816666666666666
2026-01-20T23:09:50+00:00,SAT-56458,263.4791100980791,42.15289113887167,2613.981838905741,-0.5989117242910245,20976.42197875357,10.5,10500020976.421978,47.655,-122.3035,60.0,9.833333333333334
2026-01-20T23:09:51+00:00,SAT-56458,263.68452311767857,42.19797590721518,2613.384524279382,-0.5821115514267217,20388.00886038493,10.5,10500020388.00886,47.655,-122.3035,60.0,9.85
2026-01-20T23:09:52+00:00,SAT-56458,263.8903748662111,42.24255319093897,2612.8039650254254,-0.5652996917667835,19799.18642099805,10.5,10500019799.18642,47.655,-122.3035,60.0,9.866666666666667
2026-01-20T23:09:53+00:00,SAT-56458,264.09666020383224,42.286620450503754,2612.2401727995034,-0.5484764787303138,19209.966338340288,10.5,10500019209.96634,47.655,-122.3035,60.0,9.883333333333333
2026-01-20T23:09:54+00:00,SAT-56458,264.3033739201928,42.33017517552925,2611.693158924716,-0.5316422458497493,18620.36029412844,10.5,10500018620.360294,47.655,-122.3035,60.0,9.9
2026-01-20T23:09:55+00:00,SAT-56458,264.51051073465055,42.37321488528569,2611.1629343915224,-0.5147973223752669,18030.379820096416,10.5,10500018030.37982,47.655,-122.3035,60.0,9.916666666666666
2026-01-20T23:09:56+00:00,SAT-56458,264.7180652947694,42.415737128828496,2610.6495098620067,-0.4979420480700776,17440.036816189066,10.5,10500017440.036816,47.655,-122.3035,60.0,9.933333333333334
2026-01-20T23:09:57+00:00,SAT-56458,264.9260321801886,42.45773948623472,2610.152895659398,-0.4810767562623137,16849.342956967565,10.5,10500016849.342957,47.655,-122.3035,60.0,9.95
2026-01-20T23:09:58+00:00,SAT-56458,265.13440590045246,42.49921956857875,2609.673101774486,-0.464201783624702,16258.310034134918,10.5,10500016258.310034,47.655,-122.3035,60.0,9.966666666666667
2026-01-20T23:09:59+00:00,SAT-56458,265.34318089641306,42.540175018641705,2609.2101378622842,-0.44731746970700115,15666.949940159975,10.5,10500015666.94994,47.655,-122.3035,60.0,9.983333333333333
2026-01-20T23:10:00+00:00,SAT-56458,265.5523515415408,42.58060351157528,2608.764013239163,-0.43042414987937055,15075.274421124332,10.5,10500015075.274422,47.655,-122.3035,60.0,10.0
2026-01-20T23:10:01+00:00,SAT-56458,265.7619121404791,42.620502755028205,2608.3347368870163,-0.4135221671144291,14483.295489379874,10.5,10500014483.29549,47.655,-122.3035,60.0,10.016666666666667
2026-01-20T23:10:02+00:00,SAT-56458,265.9718569324158,42.659870490185405,2607.922317445681,-0.3966118586200588,13891.024955373017,10.5,10500013891.024956,47.655,-122.3035,60.0,10.033333333333333
2026-01-20T23:10:03+00:00,SAT-56458,266.18218008895235,42.69870449175135,2607.526763218684,-0.379693567311958,13298.474829462051,10.5,10500013298.474829,47.655,-122.3035,60.0,10.05
2026-01-20T23:10:04+00:00,SAT-56458,266.39287571681206,42.73700256883493,2607.1480821675514,-0.36276763410242263,12705.657051837634,10.5,10500012705.657051,47.655,-122.3035,60.0,10.066666666666666
2026-01-20T23:10:05+00:00,SAT-56458,266.60393785739217,42.77476256523535,2606.7862819138068,-0.34583440245145436,12112.583651921861,10.5,10500012112.583652,47.655,-122.3035,60.0,10.083333333333334
2026-01-20T23:10:06+00:00,SAT-56458,266.81536048825063,42.81198236006951,2606.4413697364284,-0.3288942161631196,11519.266671187424,10.5,10500011519.266672,47.655,-122.3035,60.0,10.1
2026-01-20T23:10:07+00:00,SAT-56458,267.02713752382454,42.84865986824794,2606.1133525715086,-0.3119474166686067,10925.718067998798,10.5,10500010925.718067,47.655,-122.3035,60.0,10.116666666666667
2026-01-20T23:10:08+00:00,SAT-56458,267.23926281437434,42.884793040640204,2605.8022370146177,-0.29499435079995545,10331.949989881106,10.5,10500010331.94999,47.655,-122.3035,60.0,10.133333333333333
2026-01-20T23:10:09+00:00,SAT-56458,267.45173014952263,42.92037986501895,2605.50802931542,-0.2780353627210519,9737.974490909457,10.5,10500009737.974491,47.655,-122.3035,60.0,10.15
2026-01-20T23:10:10+00:00,SAT-56458,267.6645332570751,42.955418366182876,2605.2307353803326,-0.2610708004719743,9143.803760919596,10.5,10500009143.80376,47.655,-122.3035,60.0,10.166666666666666
2026-01-20T23:10:11+00:00,SAT-56458,267.8776658060633,42.989906606775975,2604.970360768662,-0.24410100652830247,8549.449794854998,10.5,10500008549.449795,47.655,-122.3035,60.0,10.183333333333334
2026-01-20T23:10:12+00:00,SAT-56458,268.0911214035593,43.02384268707619,2604.726910698151,-0.22712633169330557,7954.9248793300485,10.5,10500007954.92488,47.655,-122.3035,60.0,10.2
2026-01-20T23:10:13+00:00,SAT-56458,268.304893600927,43.057224746303525,2604.5003900366755,-0.21014712068381283,7360.241087786253,10.5,10500007360.241087,47.655,-122.3035,60.0,10.216666666666667
2026-01-20T23:10:14+00:00,SAT-56458,268.51897588996394,43.09005096229098,2604.2908033083136,-0.19316372253753772,6765.410645000769,10.5,10500006765.410645,47.655,-122.3035,60.0,10.233333333333333
2026-01-20T23:10:15+00:00,SAT-56458,268.7333617069539,43.12231955240168,2604.098154689036,-0.17617648480920864,6170.445723810339,10.5,10500006170.445724,47.655,-122.3035,60.0,10.25
2026-01-20T23:10:16+00:00,SAT-56458,268.9480444318348,43.154028773669204,2603.9224480081866,-0.15918575644658423,5575.358545841518,10.5,10500005575.358545,47.655,-122.3035,60.0,10.266666666666667
2026-01-20T23:10:17+00:00,SAT-56458,269.16301739027455,43.18517692337388,2603.7636867470906,-0.14219188709215974,4980.161357053476,10.5,10500004980.161358,47.655,-122.3035,60.0,10.283333333333333
2026-01-20T23:10:18+00:00,SAT-56458,269.3782738550968,43.215762339494994,2603.621874038364,-0.12519522439061825,4384.866333433551,10.5,10500004384.866333,47.655,-122.3035,60.0,10.3
2026-01-20T23:10:19+00:00,SAT-56458,269.59380704487035,43.24578340075824,2603.497012667905,-0.10819611913760564,3789.4857613291238,10.5,10500003789.485762,47.655,-122.3035,60.0,10.316666666666666
2026-01-20T23:10:20+00:00,SAT-56458,269.809610128003,43.27523852744942,2603.389105071752,-0.09119492053905628,3194.0318714091563,10.5,10500003194.031872,47.655,-122.3035,60.0,10.333333333333334
2026-01-20T23:10:21+00:00,SAT-56458,270.0256762219291,43.3041261815218,2603.2981533376674,-0.07419197919291841,2598.516943096825,10.5,10500002598.516943,47.655,-122.3035,60.0,10.35
2026-01-20T23:10:22+00:00,SAT-56458,270.241998395584,43.33244486714579,2603.2241592037526,-0.05718764445860876,2002.9532124366917,10.5,10500002002.953213,47.655,-122.3035,60.0,10.366666666666667
2026-01-20T23:10:23+00:00,SAT-56458,270.4585696686194,43.36019313081206,2603.167124059679,-0.040182267132281346,1407.3529657939366,10.5,10500001407.352966,47.655,-122.3035,60.0,10.383333333333333
2026-01-20T23:10:24+00:00,SAT-56458,270.6753830144798,43.387369561930306,2603.127048945259,-0.02317619744647445,811.728469793532,10.5,10500000811.72847,47.655,-122.3035,60.0,10.4
2026-01-20T23:10:25+00:00,SAT-56458,270.89243136062015,43.413972793040514,2603.1039345510058,-0.006169785947297954,216.09200204305512,10.5,10500000216.092003,47.655,-122.3035,60.0,10.416666666666666
2026-01-20T23:10:26+00:00,SAT-56458,271.1097075899172,43.44000150016741,2603.0977812178207,0.010836616896387668,-379.5441625555187,10.5,10499999620.455837,47.655,-122.3035,60.0,10.433333333333334
2026-01-20T23:10:27+00:00,SAT-56458,271.32720454207026,43.465454403157004,2603.108588937072,0.02784266061114796,-975.1677489400137,10.5,10499999024.83225,47.655,-122.3035,60.0,10.45
2026-01-20T23:10:28+00:00,SAT-56458,271.5449150141071,43.490330265897796,2603.1363573505882,0.04484799465900457,-1570.7664797876535,10.5,10499998429.23352,47.655,-122.3035,60.0,10.466666666666667
2026-01-20T23:10:29+00:00,SAT-56458,271.7628317629485,43.514627896767685,2603.1810857505952,0.061852268630050486,-2166.328082261263,10.5,10499997833.671917,47.655,-122.3035,60.0,10.483333333333333
2026-01-20T23:10:30+00:00,SAT-56458,271.9809475054012,43.53834614876974,2603.2427730798418,0.07885513221805558,-2761.840287154868,10.5,10499997238.159714,47.655,-122.3035,60.0,10.5
2026-01-20T23:10:31+00:00,SAT-56458,272.1992549199928,43.56148391987053,2603.3214179317074,0.09585623515439798,-3357.290826579696,10.5,10499996642.709173,47.655,-122.3035,60.0,10.516666666666667
2026-01-20T23:10:32+00:00,SAT-56458,272.417746648519,43.584040153285926,2603.417018550235,0.11285522767257689,-3952.667450233379,10.5,10499996047.33255,47.655,-122.3035,60.0,10.533333333333333
2026-01-20T23:10:33+00:00,SAT-56458,272.63641529773594,43.60601383776601,2603.5295728306337,0.12985175961171305,-4547.957894000746,10.5,10499995452.042107,47.655,-122.3035,60.0,10.55
2026-01-20T23:10:34+00:00,SAT-56458,272.8552534390248,43.62740400766524,2603.6590783188863,0.14684548179382417,-5143.149928191835,10.5,10499994856.85007,47.655,-122.3035,60.0,10.566666666666666
2026-01-20T23:10:35+00:00,SAT-56458,273.07425361183624,43.64820974337973,2603.805532212729,0.1638360444239492,-5738.23130150748,10.5,10499994261.768698,47.655,-122.3035,60.0,10.583333333333334
2026-01-20T23:10:36+00:00,SAT-56458,273.29340832340256,43.668430171402335,2603.9689313610343,0.18082309903256424,-6333.189809070929,10.5,10499993666.81019,47.655,-122.3035,60.0,10.6
2026-01-20T23:10:37+00:00,SAT-56458,273.51271005161857,43.68806446466687,2604.1492722651365,0.19780629629277863,-6928.013215976819,10.5,10499993071.986784,47.655,-122.3035,60.0,10.616666666666667
2026-01-20T23:10:38+00:00,SAT-56458,273.7321512447868,43.70711184258902,2604.346551077972,0.21478528885721773,-7522.689356650814,10.5,10499992477.310644,47.655,-122.3035,60.0,10.633333333333333
2026-01-20T23:10:39+00:00,SAT-56458,273.9517243253074,43.72557157144981,2604.560763606059,0.2317597276962994,-8117.2060066005515,10.5,10499991882.793993,47.655,-122.3035,60.0,10.65
2026-01-20T23:10:40+00:00,SAT-56458,274.1714216882905,43.743442964318675,2604.791905307815,0.24872926680434918,-8711.551047243713,10.5,10499991288.448954,47.655,-122.3035,60.0,10.666666666666666
2026-01-20T23:10:41+00:00,SAT-56458,274.3912357062329,43.76072538148278,2605.0399712965745,0.26569355769049796,-9305.712272955943,10.5,10499990694.287727,47.655,-122.3035,60.0,10.683333333333334
2026-01-20T23:10:42+00:00,SAT-56458,274.6111587270764,43.77741823031314,2605.304956338111,0.2826522543394151,-9899.677564816719,10.5,10499990100.322435,47.655,-122.3035,60.0,10.7
2026-01-20T23:10:43+00:00,SAT-56458,274.831183077959,43.79352096558499,2605.5868548531053,0.29960501183759036,-10493.434842495935,10.5,10499989506.565157,47.655,-122.3035,60.0,10.716666666666667
2026-01-20T23:10:44+00:00,SAT-56458,275.0513010671122,43.809033089620144,2605.8856609182444,0.3165514836802775,-11086.971969931657,10.5,10499988913.02803,47.655,-122.3035,60.0,10.733333333333333
2026-01-20T23:10:45+00:00,SAT-56458,275.27150498323806,43.82395415223872,2606.201368264635,0.3334913252101091,-11680.276875764985,10.5,10499988319.723124,47.655,-122.3035,60.0,10.75
2026-01-20T23:10:46+00:00,SAT-56458,275.4917870983837,43.83828375095929,2606.5339702796446,0.3504241928420614,-12273.337526195022,10.5,10499987726.662474,47.655,-122.3035,60.0,10.766666666666667
2026-01-20T23:10:47+00:00,SAT-56458,275.7121396696242,43.852021531088916,2606.8834600079726,0.3673497431659384,-12866.141893544076,10.5,10499987133.858107,47.655,-122.3035,60.0,10.783333333333333
2026-01-20T23:10:48+00:00,SAT-56458,275.9325549402382,43.86516718576774,2607.2498301518235,0.3842676326221272,-13458.677944901256,10.5,10499986541.322056,47.655,-122.3035,60.0,10.8
2026-01-20T23:10:49+00:00,SAT-56458,276.1530251406387,43.877720455993604,2607.6330730707587,0.40117752035881016,-14050.933742194098,10.5,10499985949.066257,47.655,-122.3035,60.0,10.816666666666666
2026-01-20T23:10:50+00:00,SAT-56458,276.3735424912803,43.889681130747405,2608.0331807843963,0.4180790642876707,-14642.897304042728,10.5,10499985357.102695,47.655,-122.3035,60.0,10.833333333333334
2026-01-20T23:10:51+00:00,SAT-56458,276.59409920284156,43.901049046945694,2608.4501449711793,0.43497192392484213,-15234.556705261888,10.5,10499984765.443295,47.655,-122.3035,60.0,10.85
2026-01-20T23:10:52+00:00,SAT-56458,276.8146874783632,43.9118240894967,2608.8839569699735,0.45185576070752864,-15825.900087950347,10.5,10499984174.099913,47.655,-122.3035,60.0,10.866666666666667
2026-01-20T23:10:53+00:00,SAT-56458,277.0352995153723,43.92200619133279,2609.334607781986,0.4687302345106665,-16416.915539489648,10.5,10499983583.084461,47.655,-122.3035,60.0,10.883333333333333
2026-01-20T23:10:54+00:00,SAT-56458,277.25592750610656,43.9315953333397,2609.8020880692047,0.4855950085766564,-17007.59126520418,10.5,10499982992.408735,47.655,-122.3035,60.0,10.9
2026-01-20T23:10:55+00:00,SAT-56458,277.47656364039943,43.94059154440134,2610.286388157758,0.502449746455372,-17597.91548118734,10.5,10499982402.084518,47.655,-122.3035,60.0,10.916666666666666
2026-01-20T23:10:56+00:00,SAT-56458,277.69720010687905,43.948994901346325,2610.7874980382235,0.5192941102589332,-18187.8763531763,10.5,10499981812.123648,47.655,-122.3035,60.0,10.933333333333334
2026-01-20T23:10:57+00:00,SAT-56458,277.9178290933518,43.95680552886011,2611.3054073641883,0.5361277665702692,-18777.46220349488,10.5,10499981222.537796,47.655,-122.3035,60.0,10.95
2026-01-20T23:10:58+00:00,SAT-56458,278.1384427901219,43.96402359949767,2611.8401054567144,0.5529503797508805,-19366.661276663086,10.5,10499980633.338724,47.655,-122.3035,60.0,10.966666666666667
2026-01-20T23:10:59+00:00,SAT-56458,278.35903338998475,43.97064933355609,2612.391581302119,0.5697616218277465,-19955.462085678413,10.5,10499980044.537914,47.655,-122.3035,60.0,10.983333333333333
2026-01-20T23:11:00+00:00,SAT-56458,278.5795930926969,43.976682999081575,2612.959823559622,0.5865611543219275,-20543.852775576623,10.5,10499979456.147224,47.655,-122.3035,60.0,11.0
2026-01-20T23:11:01+00:00,SAT-56458,278.80011410151565,43.98212491162307,2613.544820550866,0.603348649556695,-21131.82186973262,10.5,10499978868.178131,47.655,-122.3035,60.0,11.016666666666667
2026-01-20T23:11:02+00:00,SAT-56458,279.02058862899946,43.98697543425617,2614.1465602706903,0.6201237811090987,-21719.357935433905,10.5,10499978280.642065,47.655,-122.3035,60.0,11.033333333333333
2026-01-20T23:11:03+00:00,SAT-56458,279.24100889833153,43.991234977438424,2614.7650303883834,0.6368862135891585,-22306.44922590469,10.5,10499977693.550774,47.655,-122.3035,60.0,11.05
2026-01-20T23:11:04+00:00,SAT-56458,279.4613671410689,43.994903998800986,2615.400218238736,0.6536356269139658,-22893.08453048756,10.5,10499977106.91547,47.655,-122.3035,60.0,11.066666666666666
2026-01-20T23:11:05+00:00,SAT-56458,279.6816556040167,43.997983003111194,2616.0521108373114,0.6703716905140049,-23479.252271239766,10.5,10499976520.747728,47.655,-122.3035,60.0,11.083333333333334
2026-01-20T23:11:06+00:00,SAT-56458,279.90186654638023,44.000472542031424,2616.7206948699845,0.6870940829611097,-24064.941190387293,10.5,10499975935.05881,47.655,-122.3035,60.0,11.1
2026-01-20T23:11:07+00:00,SAT-56458,280.121992244134,44.002373213995405,2617.405956702057,0.7038024775004621,-24650.13984359424,10.5,10499975349.860157,47.655,-122.3035,60.0,11.116666666666667
2026-01-20T23:11:08+00:00,SAT-56458,280.342024989283,44.003685663999185,2618.1078823729513,0.7204965537330408,-25234.83700913159,10.5,10499974765.16299,47.655,-122.3035,60.0,11.133333333333333
2026-01-20T23:11:09+00:00,SAT-56458,280.56195709304825,44.004410583425674,2618.826457602541,0.7371759921065183,-25819.02149492514,10.5,10499974180.978504,47.655,-122.3035,60.0,11.15
2026-01-20T23:11:10+00:00,SAT-56458,280.7817808872157,44.004548709833585,2619.5616677920016,0.753840471527645,-26402.682054931058,10.5,10499973597.317945,47.655,-122.3035,60.0,11.166666666666666
2026-01-20T23:11:11+00:00,SAT-56458,281.0014887246439,44.00410082673475,2620.313498022272,0.7704896745857319,-26985.807572084366,10.5,10499973014.192429,47.655,-122.3035,60.0,11.183333333333334
2026-01-20T23:11:12+00:00,SAT-56458,281.2210729815269,44.003067763369486,2621.0819330577256,0.7871232834558903,-27568.386914813076,10.5,10499972431.613085,47.655,-122.3035,60.0,11.2
2026-01-20T23:11:13+00:00,SAT-56458,281.4405260582772,44.00145039446795,2621.866957345759,0.8037409882643307,-28150.4092300263,10.5,10499971849.59077,47.655,-122.3035,60.0,11.216666666666667
2026-01-20T23:11:14+00:00,SAT-56458,281.6598403829046,43.99924963998255,2622.668555024721,0.8203424675752629,-28731.863259683003,10.5,10499971268.13674,47.655,-122.3035,60.0,11.233333333333333
2026-01-20T23:11:15+00:00,SAT-56458,281.8790084086163,43.99646646485287,2623.486709912383,0.8369274138049352,-29312.738230899122,10.5,10499970687.261768,47.655,-122.3035,60.0,11.25
2026-01-20T23:11:16+00:00,SAT-56458,282.09802261891167,43.99310187870643,2624.321405519751,0.8534955171578235,-29893.023293324964,10.5,10499970106.976707,47.655,-122.3035,60.0,11.266666666666667
2026-01-20T23:11:17+00:00,SAT-56458,282.3168755278137,43.98915693557481,2625.172625048863,0.8700464665414267,-30472.707551185227,10.5,10499969527.292448,47.655,-122.3035,60.0,11.283333333333333
2026-01-20T23:11:18+00:00,SAT-56458,282.5355596805414,43.98463273361093,2626.040351391494,0.8865799559520484,-31051.780286936064,10.5,10499968948.219713,47.655,-122.3035,60.0,11.3
2026-01-20T23:11:19+00:00,SAT-56458,282.75406765582244,43.979530414766806,2626.92456713423,0.9030956765729957,-31630.2306845106,10.5,10499968369.769316,47.655,-122.3035,60.0,11.316666666666666
2026-01-20T23:11:20+00:00,SAT-56458,282.972392066143,43.973851164500545,2627.825254555665,0.9195933278934111,-32208.048218747437,10.5,10499967791.95178,47.655,-122.3035,60.0,11.333333333333334
2026-01-20T23:11:21+00:00,SAT-56458,283.19052556079225,43.96759621140953,2628.7423956346847,0.936072607475268,-32785.22229698759,10.5,10499967214.777702,47.655,-122.3035,60.0,11.35
2026-01-20T23:11:22+00:00,SAT-56458,283.4084608262704,43.96076682690923,2629.6759720485397,0.9525332097600709,-33361.74221728001,10.5,10499966638.257782,47.655,-122.3035,60.0,11.366666666666667
2026-01-20T23:11:23+00:00,SAT-56458,283.6261905864393,43.95336432492311,2630.6259651697405,0.9689748418551761,-33937.597721285405,10.5,10499966062.402279,47.655,-122.3035,60.0,11.383333333333333
2026-01-20T23:11:24+00:00,SAT-56458,283.8437076065169,43.94539006144402,2631.592356078684,0.9853971999193633,-34512.77816719897,10.5,10499965487.221832,47.655,-122.3035,60.0,11.4
2026-01-20T23:11:25+00:00,SAT-56458,284.06100469127273,43.93684543426342,2632.575125552737,1.0017999947593201,-35087.27342624764,10.5,10499964912.726574,47.655,-122.3035,60.0,11.416666666666666
2026-01-20T23:11:26+00:00,SAT-56458,284.27807468938846,43.9277318824897,2633.5742540808437,1.018182926668702,-35661.07300144746,10.5,10499964338.926998,47.655,-122.3035,60.0,11.433333333333334
2026-01-20T23:11:27+00:00,SAT-56458,284.4949104918002,43.91805088626703,2634.5897218530413,1.0345457068196071,-36234.16677682357,10.5,10499963765.833223,47.655,-122.3035,60.0,11.45
2026-01-20T23:11:28+00:00,SAT-56458,284.7115050350241,43.9078039663002,2635.621508771309,1.0508880440549637,-36806.54455482372,10.5,10499963193.455444,47.655,-122.3035,60.0,11.466666666666667
2026-01-20T23:11:29+00:00,SAT-56458,284.9278513014264,43.89699268348758,2636.6695944472467,1.0672096498665402,-37378.196230669266,10.5,10499962621.80377,47.655,-122.3035,60.0,11.483333333333333
2026-01-20T23:11:30+00:00,SAT-56458,285.14394232055906,43.88561863850123,2637.733958204714,1.0835102385352164,-37949.111797268,10.5,10499962050.888203,47.655,-122.3035,60.0,11.5
2026-01-20T23:11:31+00:00,SAT-56458,285.359771170541,43.873683471356074,2638.814579082613,1.099789520700476,-38519.28111999068,10.5,10499961480.71888,47.655,-122.3035,60.0,11.516666666666667
2026-01-20T23:11:32+00:00,SAT-56458,285.57533097802934,43.86118886104273,2639.911435831258,1.1160472236271974,-39088.69464649965,10.5,10499960911.305353,47.655,-122.3035,60.0,11.533333333333333
2026-01-20T23:11:33+00:00,SAT-56458,285.7906149223763,43.848136524923085,2641.024506928956,1.1322830533595414,-39657.34208121801,10.5,10499960342.657919,47.655,-122.3035,60.0,11.55
2026-01-20T23:11:34+00:00,SAT-56458,286.0056162319881,43.83452821855247,2642.15377056084,1.148496741160551,-40225.21401184077,10.5,10499959774.785988,47.655,-122.3035,60.0,11.566666666666666
2026-01-20T23:11:35+00:00,SAT-56458,286.22032819011326,43.820365734955345,2643.2992046440236,1.1646880052315123,-40792.30056858495,10.5,10499959207.69943,47.655,-122.3035,60.0,11.583333333333334
2026-01-20T23:11:36+00:00,SAT-56458,286.4347441328496,43.805650904344134,2644.4607868145745,1.1808565724424167,-41358.592185282316,10.5,10499958641.407814,47.655,-122.3035,60.0,11.6
2026-01-20T23:11:37+00:00,SAT-56458,286.6488574515232,43.79038559357124,2645.638494436157,1.1970021666657749,-41924.07919078017,10.5,10499958075.920809,47.655,-122.3035,60.0,11.616666666666667
2026-01-20T23:11:38+00:00,SAT-56458,286.86266159268945,43.7745717057208,2646.832304597045,1.213124519788215,-42488.7521946141,10.5,10499957511.247805,47.655,-122.3035,60.0,11.633333333333333
2026-01-20T23:11:39+00:00,SAT-56458,287.07615006028493,43.758211179550095,2648.042194118114,1.2292233606765235,-43052.601700552106,10.5,10499956947.3983,47.655,-122.3035,60.0,11.65
2026-01-20T23:11:40+00:00,SAT-56458,287.2893164155802,43.741305989071186,2649.2681395498284,1.2452984275370418,-43615.61853947286,10.5,10499956384.38146,47.655,-122.3035,60.0,11.666666666666666
2026-01-20T23:11:41+00:00,SAT-56458,287.5021542794467,43.72385814295742,2650.510117181559,1.2613494459412593,-44177.79309972909,10.5,10499955822.2069,47.655,-122.3035,60.0,11.683333333333334
2026-01-20T23:11:42+00:00,SAT-56458,287.71465733061973,43.70586968425124,2651.7681030289777,1.277376160325275,-44739.11643039194,10.5,10499955260.88357,47.655,-122.3035,60.0,11.7
2026-01-20T23:11:43+00:00,SAT-56458,287.926819309559,43.68734268962638,2653.0420728528757,1.2933783077407546,-45299.57932189849,10.5,10499954700.420677,47.655,-122.3035,60.0,11.716666666666667
2026-01-20T23:11:44+00:00,SAT-56458,288.13863401759863,43.668279269011585,2654.3320021517957,1.309355630642248,-45859.172753917665,10.5,10499954140.827246,47.655,-122.3035,60.0,11.733333333333333
2026-01-20T23:11:45+00:00,SAT-56458,288.3500953183553,43.648681565029236,2655.637866167423,1.3253078701741159,-46417.887660229986,10.5,10499953582.112339,47.655,-122.3035,60.0,11.75
2026-01-20T23:11:46+00:00,SAT-56458,288.5611971379139,43.628551752528466,2656.9596398832764,1.3412347707063879,-46975.71508759261,10.5,10499953024.284912,47.655,-122.3035,60.0,11.766666666666667
2026-01-20T23:11:47+00:00,SAT-56458,288.77193346582544,43.60789203804764,2658.2972980279274,1.357136087885475,-47532.64647770922,10.5,10499952467.353521,47.655,-122.3035,60.0,11.783333333333333
2026-01-20T23:11:48+00:00,SAT-56458,288.98229835728085,43.586704659143365,2659.6508150862455,1.3730115578279185,-48088.67258826486,10.5,10499951911.327412,47.655,-122.3035,60.0,11.8
2026-01-20T23:11:49+00:00,SAT-56458,289.1922859303616,43.56499188419796,2661.0201652799187,1.3888609498873248,-48643.78534104721,10.5,10499951356.214659,47.655,-122.3035,60.0,11.816666666666666
2026-01-20T23:11:50+00:00,SAT-56458,289.4018903716449,43.542756011395106,2662.4053226006067,1.4046840007829835,-49197.9755148521,10.5,10499950802.024485,47.655,-122.3035,60.0,11.833333333333334
2026-01-20T23:11:51+00:00,SAT-56458,289.6111059313977,43.519999368733295,2663.8062607773877,1.4204804822749217,-49751.235115750234,10.5,10499950248.764885,47.655,-122.3035,60.0,11.85
2026-01-20T23:11:52+00:00,SAT-56458,289.819926929307,43.49672431295706,2665.2229533117097,1.436250139856844,-50303.55522985458,10.5,10499949696.44477,47.655,-122.3035,60.0,11.866666666666667
2026-01-20T23:11:53+00:00,SAT-56458,290.0283477507146,43.47293322947307,2666.655373451194,1.4519927415142284,-50854.92773103517,10.5,10499949145.07227,47.655,-122.3035,60.0,11.883333333333333
2026-01-20T23:11:54+00:00,SAT-56458,290.2363628502866,43.448628531470995,2668.103494212064,1.467708052916596,-51405.34441204741,10.5,10499948594.655588,47.655,-122.3035,60.0,11.9
2026-01-20T23:11:55+00:00,SAT-56458,290.4439667518453,43.42381265944385,2669.5672883768393,1.4833958332109753,-51954.79683720142,10.5,10499948045.203163,47.655,-122.3035,60.0,11.916666666666666
2026-01-20T23:11:56+00:00,SAT-56458,290.65115404760473,43.398488080782684,2671.046728487828,1.4990558511782088,-52503.27690822426,10.5,10499947496.723091,47.655,-122.3035,60.0,11.933333333333334
2026-01-20T23:11:57+00:00,SAT-56458,290.857919399786,43.37265728909797,2672.541786856737,1.5146878778978168,-53050.776607352396,10.5,10499946949.223392,47.655,-122.3035,60.0,11.95
2026-01-20T23:11:58+00:00,SAT-56458,291.06425754105715,43.346322803660485,2674.0524355669604,1.5302916907527697,-53597.28813759578,10.5,10499946402.711863,47.655,-122.3035,60.0,11.966666666666667
2026-01-20T23:11:59+00:00,SAT-56458,291.2701632755441,43.31948716876878,2675.578646479871,1.545867053795433,-54142.8032350702,10.5,10499945857.196764,47.655,-122.3035,60.0,11.983333333333333
2026-01-20T23:12:00+00:00,SAT-56458,291.4756314770682,43.29215295346342,2677.120391221523,1.5614137488933084,-54687.31425985286,10.5,10499945312.68574,47.655,-122.3035,60.0,12.0
2026-01-20T23:12:01+00:00,SAT-56458,291.68065709171617,43.26432275069289,2678.677641200419,1.5769315563836477,-55230.81351842513,10.5,10499944769.186481,47.655,-122.3035,60.0,12.016666666666667
2026-01-20T23:12:02+00:00,SAT-56458,291.88523513764915,43.235999176816264,2680.2503676059855,1.5924202576862097,-55773.29335518241,10.5,10499944226.706644,47.655,-122.3035,60.0,12.033333333333333
2026-01-20T23:12:03+00:00,SAT-56458,292.0893607052799,43.20718487106003,2681.838541409652,1.607879632348982,-56314.74604896268,10.5,10499943685.25395,47.655,-122.3035,60.0,12.05
2026-01-20T23:12:04+00:00,SAT-56458,292.293028957033,43.17788249503074,2683.442133362981,1.623309471876837,-56855.164297384654,10.5,10499943144.835703,47.655,-122.3035,60.0,12.066666666666666
2026-01-20T23:12:05+00:00,SAT-56458,292.4962351289115,43.14809473197427,2685.0611140095994,1.6387095589656746,-57394.54048953955,10.5,10499942605.45951,47.655,-122.3035,60.0,12.083333333333334
2026-01-20T23:12:06+00:00,SAT-56458,292.69897452929183,43.11782428641413,2686.695453676408,1.6540796913760445,-57932.867542146334,10.5,10499942067.132458,47.655,-122.3035,60.0,12.1
2026-01-20T23:12:07+00:00,SAT-56458,292.9012425408139,43.08707388335192,2688.3451224886066,1.6694196507279455,-58470.137806613624,10.5,10499941529.862194,47.655,-122.3035,60.0,12.116666666666667
2026-01-20T23:12:08+00:00,SAT-56458,293.10303461824105,43.05584626804548,2690.0100903536,1.6847292465919386,-59006.34461329696,10.5,10499940993.655386,47.655,-122.3035,60.0,12.133333333333333
2026-01-20T23:12:09+00:00,SAT-56458,293.3043462918661,43.02414420496731,2691.6903269888676,1.700008266732907,-59541.48052882479,10.5,10499940458.519472,47.655,-122.3035,60.0,12.15
2026-01-20T23:12:10+00:00,SAT-56458,293.5051731646546,42.99197047769151,2693.3858019002223,1.7152565126397012,-60075.53860049696,10.5,10499939924.4614,47.655,-122.3035,60.0,12.166666666666666
2026-01-20T23:12:11+00:00,SAT-56458,293.70551091381077,42.95932788811953,2695.096484395495,1.730473789614345,-60608.512009166756,10.5,10499939391.487991,47.655,-122.3035,60.0,12.183333333333334
2026-01-20T23:12:12+00:00,SAT-56458,293.9053552910481,42.92621925588992,2696.822343588337,1.745659904065763,-61140.39397445586,10.5,10499938859.606026,47.655,-122.3035,60.0,12.2
2026-01-20T23:12:13+00:00,SAT-56458,294.1047021225239,42.892647417840145,2698.563348399325,1.7608146541920833,-61671.17742840907,10.5,10499938328.82257,47.655,-122.3035,60.0,12.216666666666667
2026-01-20T23:12:14+00:00,SAT-56458,294.3035473076658,42.858615227652194,2700.319467547773,1.7759378600382763,-62200.85606824006,10.5,10499937799.143932,47.655,-122.3035,60.0,12.233333333333333
2026-01-20T23:12:15+00:00,SAT-56458,294.50188682150355,42.824125554920656,2702.0906695735175,1.7910293275807725,-62729.42309842269,10.5,10499937270.576902,47.655,-122.3035,60.0,12.25
2026-01-20T23:12:16+00:00,SAT-56458,294.69971671275937,42.78918128491309,2703.876922822891,1.806088871133857,-63256.87201545776,10.5,10499936743.127985,47.655,-122.3035,60.0,12.266666666666667
2026-01-20T23:12:17+00:00,SAT-56458,294.8970331045617,42.75378531790301,2705.6781954570356,1.8211163119917035,-63783.19656031136,10.5,10499936216.80344,47.655,-122.3035,60.0,12.283333333333333
2026-01-20T23:12:18+00:00,SAT-56458,295.09383219491457,42.717940568527325,2707.4944554588624,1.8361114662727769,-64308.39029267426,10.5,10499935691.609707,47.655,-122.3035,60.0,12.3
