satellites_20260121_005943/SAT-64159.csv

timestamp,satellite,azimuth_deg,elevation_deg,distance_km,relative_velocity_kms,doppler_shift_hz,tx_freq_ghz,rx_freq_hz,ue_lat,ue_lon,ue_alt_m,time_minutes
2026-01-20T23:10:58+00:00,SAT-64159,304.2355108240056,30.007155105278677,4132.171747127393,-1.6072078810632002,56291.21847742948,10.5,10500056291.218477,47.655,-122.3035,60.0,10.966666666666667
2026-01-20T23:10:59+00:00,SAT-64159,304.1181128542342,30.041304664217325,4130.5688251340125,-1.5962678498290708,55908.05230732403,10.5,10500055908.052307,47.655,-122.3035,60.0,10.983333333333333
2026-01-20T23:11:00+00:00,SAT-64159,304.00051555858016,30.07527496080881,4128.97681399845,-1.585313031098153,55524.36821653,10.5,10500055524.368217,47.655,-122.3035,60.0,11.0
2026-01-20T23:11:01+00:00,SAT-64159,303.88271968424255,30.109065187703166,4127.3957284687685,-1.5743435054898565,55140.16902868014,10.5,10500055140.16903,47.655,-122.3035,60.0,11.016666666666667
2026-01-20T23:11:02+00:00,SAT-64159,303.76472598829963,30.14267453945331,4125.825583212626,-1.56335935706678,54755.45768800225,10.5,10500054755.457687,47.655,-122.3035,60.0,11.033333333333333
2026-01-20T23:11:03+00:00,SAT-64159,303.64653523752685,30.176102212628408,4124.266392813845,-1.5523606587848888,54370.23674972281,10.5,10500054370.23675,47.655,-122.3035,60.0,11.05
2026-01-20T23:11:04+00:00,SAT-64159,303.52814820926733,30.20934740562023,4122.718171783484,-1.5413474980905082,53984.50927658205,10.5,10500053984.509277,47.655,-122.3035,60.0,11.066666666666666
2026-01-20T23:11:05+00:00,SAT-64159,303.4095656903901,30.24240931900315,4121.180934545388,-1.5303199505259328,53598.27791439068,10.5,10500053598.277914,47.655,-122.3035,60.0,11.083333333333334
2026-01-20T23:11:06+00:00,SAT-64159,303.2907884782661,30.27528715531805,4119.654695448064,-1.5192781080982538,53211.545885626205,10.5,10500053211.545885,47.655,-122.3035,60.0,11.1
2026-01-20T23:11:07+00:00,SAT-64159,303.1718173795242,30.30798011947996,4118.139468748253,-1.5082220425157553,52824.31570181606,10.5,10500052824.315702,47.655,-122.3035,60.0,11.116666666666667
2026-01-20T23:11:08+00:00,SAT-64159,303.05265321169287,30.340487418377343,4116.635268631185,-1.497151844599851,52436.59054391033,10.5,10500052436.590544,47.655,-122.3035,60.0,11.133333333333333
2026-01-20T23:11:09+00:00,SAT-64159,302.9332968017666,30.372808261334427,4115.142109191504,-1.486067593245053,52048.37317512857,10.5,10500052048.373175,47.655,-122.3035,60.0,11.15
2026-01-20T23:11:10+00:00,SAT-64159,302.81374898717274,30.404941859898496,4113.660004445173,-1.4749693753345805,51659.666638488605,10.5,10500051659.66664,47.655,-122.3035,60.0,11.166666666666666
2026-01-20T23:11:11+00:00,SAT-64159,302.69401061520136,30.436887428059183,4112.188968321507,-1.4638572780245656,51270.47398656687,10.5,10500051270.473986,47.655,-122.3035,60.0,11.183333333333334
2026-01-20T23:11:12+00:00,SAT-64159,302.5740825430145,30.468644182302896,4110.72901466289,-1.452731383220723,50880.79808804793,10.5,10500050880.798088,47.655,-122.3035,60.0,11.2
2026-01-20T23:11:13+00:00,SAT-64159,302.45396563811454,30.50021134154127,4109.280157230025,-1.4415917792313193,50490.64203586087,10.5,10500050490.642036,47.655,-122.3035,60.0,11.216666666666667
2026-01-20T23:11:14+00:00,SAT-64159,302.3336607778857,30.531588127299155,4107.842409695539,-1.4304385481069122,50100.00870376324,10.5,10500050100.008703,47.655,-122.3035,60.0,11.233333333333333
2026-01-20T23:11:15+00:00,SAT-64159,302.2131688501499,30.562773763619724,4106.415785650226,-1.4192717868137998,49708.90148792501,10.5,10500049708.901487,47.655,-122.3035,60.0,11.25
2026-01-20T23:11:16+00:00,SAT-64159,302.09249075194015,30.593767477450616,4105.000298588177,-1.4080915685229234,49317.32295110204,10.5,10500049317.32295,47.655,-122.3035,60.0,11.266666666666667
2026-01-20T23:11:17+00:00,SAT-64159,301.9716273915913,30.624568498147966,4103.595961930504,-1.3968979933972847,48925.27660142634,10.5,10500048925.276602,47.655,-122.3035,60.0,11.283333333333333
2026-01-20T23:11:18+00:00,SAT-64159,301.85057968645026,30.65517605813828,4102.202788998422,-1.3856911456783758,48532.7653893913,10.5,10500048532.765388,47.655,-122.3035,60.0,11.3
2026-01-20T23:11:19+00:00,SAT-64159,301.7293485642992,30.68558939260042,4100.820793029132,-1.3744711100005427,48139.792279249734,10.5,10500048139.79228,47.655,-122.3035,60.0,11.316666666666666
2026-01-20T23:11:20+00:00,SAT-64159,301.6079349633626,30.715807739524738,4099.449987175425,-1.3632379858229027,47746.36075448061,10.5,10500047746.360754,47.655,-122.3035,60.0,11.333333333333334
2026-01-20T23:11:21+00:00,SAT-64159,301.4863398310375,30.745830340093985,4098.090384490897,-1.3519918566388482,47352.473739375746,10.5,10500047352.47374,47.655,-122.3035,60.0,11.35
2026-01-20T23:11:22+00:00,SAT-64159,301.3645641253464,30.775656438369584,4096.741997945876,-1.3407328131996592,46958.13441242882,10.5,10500046958.134413,47.655,-122.3035,60.0,11.366666666666667
2026-01-20T23:11:23+00:00,SAT-64159,301.2426088143332,30.80528528150094,4095.4048404201785,-1.3294609454770057,46563.3459248283,10.5,10500046563.345924,47.655,-122.3035,60.0,11.383333333333333
2026-01-20T23:11:24+00:00,SAT-64159,301.1204748761727,30.834716119758365,4094.0789247038897,-1.318176352647434,46168.11175015636,10.5,10500046168.11175,47.655,-122.3035,60.0,11.4
2026-01-20T23:11:25+00:00,SAT-64159,300.998163298355,30.863948206785405,4092.764263488182,-1.3068791171096321,45772.434774363595,10.5,10500045772.434774,47.655,-122.3035,60.0,11.416666666666666
2026-01-20T23:11:26+00:00,SAT-64159,300.87567507925843,30.89298079927039,4091.460869382052,-1.2955693359218863,45376.31839684174,10.5,10500045376.318398,47.655,-122.3035,60.0,11.433333333333334
2026-01-20T23:11:27+00:00,SAT-64159,300.7530112268518,30.92181315732099,4090.1687548976925,-1.284247104166525,44979.765947776155,10.5,10500044979.765947,47.655,-122.3035,60.0,11.45
2026-01-20T23:11:28+00:00,SAT-64159,300.630172758875,30.95044454447122,4088.8879324524705,-1.2729125113451154,44582.78056189029,10.5,10500044582.780561,47.655,-122.3035,60.0,11.466666666666667
2026-01-20T23:11:29+00:00,SAT-64159,300.50716070342514,30.97887422759971,4087.618414374489,-1.2615656566281053,44185.36571255273,10.5,10500044185.365713,47.655,-122.3035,60.0,11.483333333333333
2026-01-20T23:11:30+00:00,SAT-64159,300.38397609803707,31.0071014771991,4086.360212892945,-1.2502066285788882,43787.52450162814,10.5,10500043787.524502,47.655,-122.3035,60.0,11.5
2026-01-20T23:11:31+00:00,SAT-64159,300.260619990766,31.03512556717961,4085.113340148709,-1.2388355273020195,43389.26043520149,10.5,10500043389.260435,47.655,-122.3035,60.0,11.516666666666667
2026-01-20T23:11:32+00:00,SAT-64159,300.137093439067,31.062945775181777,4083.877808182813,-1.2274524433627707,42990.576685251675,10.5,10500042990.576685,47.655,-122.3035,60.0,11.533333333333333
2026-01-20T23:11:33+00:00,SAT-64159,300.0133975107787,31.090561382405518,4082.6536289459664,-1.2160574806249995,42591.476889530335,10.5,10500042591.476889,47.655,-122.3035,60.0,11.55
2026-01-20T23:11:34+00:00,SAT-64159,299.88953328280354,31.11797167396367,4081.4408142852894,-1.2046507268369142,42191.9641213509,10.5,10500042191.96412,47.655,-122.3035,60.0,11.566666666666666
2026-01-20T23:11:35+00:00,SAT-64159,299.76550184277136,31.14517593855711,4080.2393759603906,-1.193232283083427,41792.0419211346,10.5,10500041792.041922,47.655,-122.3035,60.0,11.583333333333334
2026-01-20T23:11:36+00:00,SAT-64159,299.6413042877255,31.17217346882815,4079.0493256300624,-1.1818022483586337,41391.71375607339,10.5,10500041391.713757,47.655,-122.3035,60.0,11.6
2026-01-20T23:11:37+00:00,SAT-64159,299.51694172430615,31.198963561367663,4077.8706748543655,-1.1703607180868945,40990.98296833201,10.5,10500040990.98297,47.655,-122.3035,60.0,11.616666666666667
2026-01-20T23:11:38+00:00,SAT-64159,299.39241526919767,31.225545516669005,4076.703435098194,-1.1589077913055037,40589.85302661546,10.5,10500040589.853027,47.655,-122.3035,60.0,11.633333333333333
2026-01-20T23:11:39+00:00,SAT-64159,299.26772604873025,31.25191863926955,4075.547617727665,-1.147443567098512,40188.327401266295,10.5,10500040188.327402,47.655,-122.3035,60.0,11.65
2026-01-20T23:11:40+00:00,SAT-64159,299.14287519892326,31.27808223779106,4074.403234010079,-1.1359681446577126,39786.40956640071,10.5,10500039786.409567,47.655,-122.3035,60.0,11.666666666666666
2026-01-20T23:11:41+00:00,SAT-64159,299.0178638654776,31.30403562499469,4073.270295113807,-1.1244816238320274,39384.1030191503,10.5,10500039384.10302,47.655,-122.3035,60.0,11.683333333333334
2026-01-20T23:11:42+00:00,SAT-64159,298.89269320372733,31.32977811784084,4072.1488121076386,-1.1129841056342011,38981.41129740866,10.5,10500038981.411297,47.655,-122.3035,60.0,11.7
2026-01-20T23:11:43+00:00,SAT-64159,298.7673643785147,31.355309037565892,4071.038795959619,-1.1014756882548336,38578.33784022596,10.5,10500038578.337841,47.655,-122.3035,60.0,11.716666666666667
2026-01-20T23:11:44+00:00,SAT-64159,298.64187856454924,31.380627709659457,4069.9402575398667,-1.0899564768893184,38174.88633198985,10.5,10500038174.886332,47.655,-122.3035,60.0,11.733333333333333
2026-01-20T23:11:45+00:00,SAT-64159,298.5162369455845,31.405733464083177,4068.853207613582,-1.0784265673757065,37771.06012935428,10.5,10500037771.06013,47.655,-122.3035,60.0,11.75
2026-01-20T23:11:46+00:00,SAT-64159,298.39044071556043,31.430625635086933,4067.777656850386,-1.0668860667161129,37366.862979985926,10.5,10500037366.86298,47.655,-122.3035,60.0,11.766666666666667
2026-01-20T23:11:47+00:00,SAT-64159,298.2644910772867,31.455303561527895,4066.713615813181,-1.0553350764929967,36962.29844173219,10.5,10500036962.29844,47.655,-122.3035,60.0,11.783333333333333
2026-01-20T23:11:48+00:00,SAT-64159,298.13838924308146,31.479766586785505,4065.6610949635588,-1.0437736986704895,36557.37008580829,10.5,10500036557.370087,47.655,-122.3035,60.0,11.8
2026-01-20T23:11:49+00:00,SAT-64159,298.01213643475194,31.504014058818502,4064.6201046614183,-1.0322020350302727,36152.08147703924,10.5,10500036152.081476,47.655,-122.3035,60.0,11.816666666666666
2026-01-20T23:11:50+00:00,SAT-64159,297.8857338836316,31.52804533020389,4063.590655165148,-1.0206201908968282,35746.436304333896,10.5,10500035746.436304,47.655,-122.3035,60.0,11.833333333333334
2026-01-20T23:11:51+00:00,SAT-64159,297.759182830154,31.5518597582711,4062.572756628094,-1.0090282727914939,35340.43829852012,10.5,10500035340.4383,47.655,-122.3035,60.0,11.85
2026-01-20T23:11:52+00:00,SAT-64159,297.6324845236901,31.5754567051762,4061.566419097363,-0.9974263820538003,34934.091008936935,10.5,10500034934.09101,47.655,-122.3035,60.0,11.866666666666667
2026-01-20T23:11:53+00:00,SAT-64159,297.50564022321583,31.598835537823017,4060.5716525189946,-0.9858146222401317,34527.39806256695,10.5,10500034527.398062,47.655,-122.3035,60.0,11.883333333333333
2026-01-20T23:11:54+00:00,SAT-64159,297.37865119706015,31.62199562796008,4059.5884667357473,-0.9741931025547199,34120.36328420429,10.5,10500034120.363285,47.655,-122.3035,60.0,11.9
2026-01-20T23:11:55+00:00,SAT-64159,297.25151872215497,31.644936352366667,4058.6168714814658,-0.9625619273106879,33712.99032733579,10.5,10500033712.990328,47.655,-122.3035,60.0,11.916666666666666
2026-01-20T23:11:56+00:00,SAT-64159,297.1242440846759,31.667657092776953,4057.6568763859614,-0.9509212048518508,33305.28298662014,10.5,10500033305.282986,47.655,-122.3035,60.0,11.933333333333334
2026-01-20T23:11:57+00:00,SAT-64159,296.996828579506,31.690157236025712,4056.7084909709893,-0.9392710352095811,32897.24476557913,10.5,10500032897.244766,47.655,-122.3035,60.0,11.95
2026-01-20T23:11:58+00:00,SAT-64159,296.86927351137797,31.712436173886267,4055.77172465854,-0.9276115319298311,32488.87964107231,10.5,10500032488.87964,47.655,-122.3035,60.0,11.966666666666667
2026-01-20T23:11:59+00:00,SAT-64159,296.7415801930224,31.734493303450726,4054.846586757362,-0.9159428018785127,32080.191355995965,10.5,10500032080.191357,47.655,-122.3035,60.0,11.983333333333333
2026-01-20T23:12:00+00:00,SAT-64159,296.61374994607036,31.75632802700792,4053.9330864696217,-0.9042649482765854,31671.18352558471,10.5,10500031671.183525,47.655,-122.3035,60.0,12.0
2026-01-20T23:12:01+00:00,SAT-64159,296.4857841015797,31.777939751998563,4053.0312328945406,-0.8925780844184328,31261.860117887103,10.5,10500031261.860117,47.655,-122.3035,60.0,12.016666666666667
2026-01-20T23:12:02+00:00,SAT-64159,296.35768399860115,31.799327891308046,4052.1410350183473,-0.8808823166632718,30852.22485805281,10.5,10500030852.224857,47.655,-122.3035,60.0,12.033333333333333
2026-01-20T23:12:03+00:00,SAT-64159,296.2294509851581,31.820491863139306,4051.262501721195,-0.8691777533000294,30442.281538818126,10.5,10500030442.281538,47.655,-122.3035,60.0,12.05
2026-01-20T23:12:04+00:00,SAT-64159,296.10108641796694,31.841431091103026,4050.3956417752374,-0.8574645035796927,30032.033986614744,10.5,10500030032.033987,47.655,-122.3035,60.0,12.066666666666666
2026-01-20T23:12:05+00:00,SAT-64159,295.9725916622939,31.86214500428705,4049.540463843667,-0.8457426793553343,29621.486119010406,10.5,10500029621.486118,47.655,-122.3035,60.0,12.083333333333334
2026-01-20T23:12:06+00:00,SAT-64159,295.8439680915576,31.88263303736032,4048.6969764781234,-0.8340123884437449,29210.64171220519,10.5,10500029210.641712,47.655,-122.3035,60.0,12.1
2026-01-20T23:12:07+00:00,SAT-64159,295.71521708790806,31.902894630520674,4047.865188122715,-0.8222737427244244,28799.504684692423,10.5,10500028799.504684,47.655,-122.3035,60.0,12.116666666666667
2026-01-20T23:12:08+00:00,SAT-64159,295.5863400416178,31.92292922963349,4047.045107109972,-0.810526850955387,28388.078845637818,10.5,10500028388.078846,47.655,-122.3035,60.0,12.133333333333333
2026-01-20T23:12:09+00:00,SAT-64159,295.4573383515535,31.942736286198667,4046.236741663952,-0.7987718262140062,27976.368155489305,10.5,10500027976.368156,47.655,-122.3035,60.0,12.15
2026-01-20T23:12:10+00:00,SAT-64159,295.32821342447346,31.9623152575003,4045.440099895942,-0.7870087798232813,27564.376513249223,10.5,10500027564.376513,47.655,-122.3035,60.0,12.166666666666666
2026-01-20T23:12:11+00:00,SAT-64159,295.19896667527377,31.981665606606228,4044.655189806198,-0.7752378218697128,27152.107774612476,10.5,10500027152.107775,47.655,-122.3035,60.0,12.183333333333334
2026-01-20T23:12:12+00:00,SAT-64159,295.0695995272206,32.00078680237356,4043.8820192851863,-0.7634590662423013,26739.565928453623,10.5,10500026739.565928,47.655,-122.3035,60.0,12.2
2026-01-20T23:12:13+00:00,SAT-64159,294.94011341126884,32.019678319590895,4043.1205961097876,-0.7516726248683194,26326.754894939197,10.5,10500026326.754894,47.655,-122.3035,60.0,12.216666666666667
2026-01-20T23:12:14+00:00,SAT-64159,294.81050976638363,32.03833963896544,4042.370927945252,-0.7398786116596379,25913.678663744762,10.5,10500025913.678663,47.655,-122.3035,60.0,12.233333333333333
2026-01-20T23:12:15+00:00,SAT-64159,294.680790039175,32.05677024721707,4041.6330223432233,-0.7280771362961811,25500.341076325214,10.5,10500025500.341076,47.655,-122.3035,60.0,12.25
2026-01-20T23:12:16+00:00,SAT-64159,294.5509556846301,32.07496963700691,4040.9068867459573,-0.7162683167713328,25086.746265307964,10.5,10500025086.746265,47.655,-122.3035,60.0,12.266666666666667
2026-01-20T23:12:17+00:00,SAT-64159,294.4210081646038,32.09293730719408,4040.1925284780305,-0.704452262975929,24672.898079534923,10.5,10500024672.898079,47.655,-122.3035,60.0,12.283333333333333
2026-01-20T23:12:18+00:00,SAT-64159,294.2909489492785,32.11067276266142,4039.489954754423,-0.6926290911886196,24258.800591576273,10.5,10500024258.800592,47.655,-122.3035,60.0,12.3
2026-01-20T23:12:19+00:00,SAT-64159,294.1607795159523,32.128175514523626,4038.7991726741443,-0.6807989153141601,23844.457790858374,10.5,10500023844.45779,47.655,-122.3035,60.0,12.316666666666666
2026-01-20T23:12:20+00:00,SAT-64159,294.03050134947057,32.145445080101084,4038.120189222604,-0.6689618504201132,23429.873707533996,10.5,10500023429.873707,47.655,-122.3035,60.0,12.333333333333334
2026-01-20T23:12:21+00:00,SAT-64159,293.90011594194607,32.16248098299257,4037.453011270452,-0.6571180096163787,23015.052303190285,10.5,10500023015.052303,47.655,-122.3035,60.0,12.35
2026-01-20T23:12:22+00:00,SAT-64159,293.7696247931757,32.17928275305496,4036.7976455755274,-0.6452675120865908,22599.997752142262,10.5,10500022599.997751,47.655,-122.3035,60.0,12.366666666666667
2026-01-20T23:12:23+00:00,SAT-64159,293.6390294093315,32.195849926608695,4036.1540987768067,-0.633410468506785,22184.713930732843,10.5,10500022184.71393,47.655,-122.3035,60.0,12.383333333333333
2026-01-20T23:12:24+00:00,SAT-64159,293.5083313047222,32.21218204624097,4035.5223774028827,-0.6215469986536879,21769.205034049664,10.5,10500021769.205034,47.655,-122.3035,60.0,12.4
2026-01-20T23:12:25+00:00,SAT-64159,293.37753199985616,32.22827866109054,4034.902487862892,-0.6096772162806058,21353.475046214673,10.5,10500021353.475046,47.655,-122.3035,60.0,12.416666666666666
2026-01-20T23:12:26+00:00,SAT-64159,293.2466330226832,32.24413932671869,4034.2944364525215,-0.5978012401163161,20937.52812561188,10.5,10500020937.528126,47.655,-122.3035,60.0,12.433333333333334
2026-01-20T23:12:27+00:00,SAT-64159,293.1156359074837,32.25976360528158,4033.698229349045,-0.5859191841285939,20521.368263874854,10.5,10500020521.368263,47.655,-122.3035,60.0,12.45
2026-01-20T23:12:28+00:00,SAT-64159,292.984542195909,32.27515106543288,4033.1138726160743,-0.5740311669928536,20104.999617518606,10.5,10500020104.999617,47.655,-122.3035,60.0,12.466666666666667
2026-01-20T23:12:29+00:00,SAT-64159,292.85335343585683,32.290301282491185,4032.5413721988602,-0.5621373064732716,19688.42631114273,10.5,10500019688.426311,47.655,-122.3035,60.0,12.483333333333333
2026-01-20T23:12:30+00:00,SAT-64159,292.72207118168,32.30521383844403,4031.9807339252043,-0.5502377169543633,19271.652350976805,10.5,10500019271.652351,47.655,-122.3035,60.0,12.5
2026-01-20T23:12:31+00:00,SAT-64159,292.5906969949439,32.31988832189116,4031.4319635088286,-0.5383325204734167,18854.68201128287,10.5,10500018854.68201,47.655,-122.3035,60.0,12.516666666666667
2026-01-20T23:12:32+00:00,SAT-64159,292.4592324425322,32.33432432828945,4030.895066541743,-0.5264218311638863,18437.51928949729,10.5,10500018437.519289,47.655,-122.3035,60.0,12.533333333333333
2026-01-20T23:12:33+00:00,SAT-64159,292.3276790985634,32.3485214597654,4030.3700485021286,-0.5145057709695481,18020.16845660692,10.5,10500018020.168457,47.655,-122.3035,60.0,12.55
2026-01-20T23:12:34+00:00,SAT-64159,292.19603854238153,32.36247932536545,4029.8569147465487,-0.5025844550463946,17602.63354586173,10.5,10500017602.633545,47.655,-122.3035,60.0,12.566666666666666
2026-01-20T23:12:35+00:00,SAT-64159,292.0643123602637,32.376197540897316,4029.3556705167152,-0.4906580029460114,17184.918744463946,10.5,10500017184.918745,47.655,-122.3035,60.0,12.583333333333334
2026-01-20T23:12:36+00:00,SAT-64159,291.9325021442554,32.38967572908414,4028.8663209351107,-0.4787265339673986,16767.028230769185,10.5,10500016767.02823,47.655,-122.3035,60.0,12.6
2026-01-20T23:12:37+00:00,SAT-64159,291.8006094921824,32.40291351958869,4028.388871005234,-0.46679016832689313,16348.966215262086,10.5,10500016348.966215,47.655,-122.3035,60.0,12.616666666666667
2026-01-20T23:12:38+00:00,SAT-64159,291.6686360073325,32.415910549070304,4027.9233256106895,-0.45484902314780634,15930.736800096442,10.5,10500015930.7368,47.655,-122.3035,60.0,12.633333333333333
2026-01-20T23:12:39+00:00,SAT-64159,291.53658329931056,32.428666461124344,4027.4696895182697,-0.4429032194677582,15512.344224521688,10.5,10500015512.344225,47.655,-122.3035,60.0,12.65
2026-01-20T23:12:40+00:00,SAT-64159,291.40445298286477,32.44118090642502,4027.027967374054,-0.4309528766746875,15093.792670008459,10.5,10500015093.79267,47.655,-122.3035,60.0,12.666666666666666
2026-01-20T23:12:41+00:00,SAT-64159,291.27224667832934,32.453453542706015,4026.5981637050504,-0.41899811503880235,14675.08634892818,10.5,10500014675.08635,47.655,-122.3035,60.0,12.683333333333334
2026-01-20T23:12:42+00:00,SAT-64159,291.13996601128696,32.465484034814395,4026.180282918318,-0.4070390537513603,14256.22943586287,10.5,10500014256.229435,47.655,-122.3035,60.0,12.7
2026-01-20T23:12:43+00:00,SAT-64159,291.0076126129058,32.47727205470524,4025.7743293020435,-0.39507581504378975,13837.226211874191,10.5,10500013837.226212,47.655,-122.3035,60.0,12.716666666666667
2026-01-20T23:12:44+00:00,SAT-64159,290.875188118859,32.488817281560756,4025.3803070225067,-0.3831085163799092,13418.080791041937,10.5,10500013418.080791,47.655,-122.3035,60.0,12.733333333333333
2026-01-20T23:12:45+00:00,SAT-64159,290.7426941709287,32.50011940167053,4024.998220128837,-0.3711372815280037,12998.79750825499,10.5,10500012998.797508,47.655,-122.3035,60.0,12.75
2026-01-20T23:12:46+00:00,SAT-64159,290.61013241476644,32.511178108650455,4024.6280725467263,-0.35916222983078006,12579.380543399762,10.5,10500012579.380543,47.655,-122.3035,60.0,12.766666666666667
2026-01-20T23:12:47+00:00,SAT-64159,290.4775045013768,32.52199310333257,4024.2698680828416,-0.34718348270854793,12159.834149129107,10.5,10500012159.834148,47.655,-122.3035,60.0,12.783333333333333
2026-01-20T23:12:48+00:00,SAT-64159,290.3448120863676,32.53256409385155,4023.923610422754,-0.33520116126855354,11740.162567131067,10.5,10500011740.162567,47.655,-122.3035,60.0,12.8
2026-01-20T23:12:49+00:00,SAT-64159,290.21205682995475,32.54289079566295,4023.589303131249,-0.3232153870210612,11320.370053209086,10.5,10500011320.370052,47.655,-122.3035,60.0,12.816666666666666
2026-01-20T23:12:50+00:00,SAT-64159,290.07924039682746,32.55297293157374,4023.266949651926,-0.3112262813828229,10900.460859891413,10.5,10500010900.46086,47.655,-122.3035,60.0,12.833333333333334
2026-01-20T23:12:51+00:00,SAT-64159,289.9463644560631,32.562810231767415,4022.9565533072937,-0.2992339665842505,10480.439268204105,10.5,10500010480.439268,47.655,-122.3035,60.0,12.85
2026-01-20T23:12:52+00:00,SAT-64159,289.8134306807717,32.57240243384865,4022.658117297954,-0.28723856322741964,10060.309502142,10.5,10500010060.309502,47.655,-122.3035,60.0,12.866666666666667
2026-01-20T23:12:53+00:00,SAT-64159,289.6804407487505,32.58174928281316,4022.3716447042284,-0.2752401940540113,9640.075860637957,10.5,10500009640.075861,47.655,-122.3035,60.0,12.883333333333333
2026-01-20T23:12:54+00:00,SAT-64159,289.54739634149945,32.59085053113767,4022.0971384840254,-0.2632389814870525,9219.742631464236,10.5,10500009219.742632,47.655,-122.3035,60.0,12.9
2026-01-20T23:12:55+00:00,SAT-64159,289.4142991442219,32.59970593879353,4021.8346014731555,-0.2512350471679285,8799.31407501669,10.5,10500008799.314075,47.655,-122.3035,60.0,12.916666666666666
2026-01-20T23:12:56+00:00,SAT-64159,289.2811508462313,32.608315273235284,4021.584036386113,-0.2392285137956297,8378.794488732974,10.5,10500008378.794489,47.655,-122.3035,60.0,12.933333333333334
2026-01-20T23:12:57+00:00,SAT-64159,289.1479531403123,32.61667830945943,4021.3454458150213,-0.2272195031604495,7958.188138224344,10.5,10500007958.188139,47.655,-122.3035,60.0,12.95
2026-01-20T23:12:58+00:00,SAT-64159,289.01470772322267,32.62479482998654,4021.1188322305356,-0.2152081388400904,7537.499351704669,10.5,10500007537.499352,47.655,-122.3035,60.0,12.966666666666667
2026-01-20T23:12:59+00:00,SAT-64159,288.88141629453446,32.63266462494933,4020.904197980066,-0.2031945429983875,7116.732407868208,10.5,10500007116.732409,47.655,-122.3035,60.0,12.983333333333333
2026-01-20T23:13:00+00:00,SAT-64159,288.7480805574452,32.64028749205348,4020.701545289182,-0.19117883835059418,6695.891604722221,10.5,10500006695.891605,47.655,-122.3035,60.0,13.0
2026-01-20T23:13:01+00:00,SAT-64159,288.61470221836555,32.64766323661733,4020.510876261067,-0.17916114729890067,6274.981229309168,10.5,10500006274.98123,47.655,-122.3035,60.0,13.016666666666667
2026-01-20T23:13:02+00:00,SAT-64159,288.48128298719735,32.654791671570024,4020.332192876828,-0.167141594010036,5854.005630473126,10.5,10500005854.00563,47.655,-122.3035,60.0,13.033333333333333
2026-01-20T23:13:03+00:00,SAT-64159,288.347824575851,32.66167261754412,4020.165496993735,-0.15512030057211057,5432.969084256153,10.5,10500005432.969084,47.655,-122.3035,60.0,13.05
2026-01-20T23:13:04+00:00,SAT-64159,288.21432869981203,32.66830590280064,4020.0107903472976,-0.14309739034632513,5011.875911289315,10.5,10500005011.875912,47.655,-122.3035,60.0,13.066666666666666
2026-01-20T23:13:05+00:00,SAT-64159,288.08079707706696,32.67469136329863,4019.8680745499923,-0.13107298655920221,4590.730427486682,10.5,10500004590.730427,47.655,-122.3035,60.0,13.083333333333334
2026-01-20T23:13:06+00:00,SAT-64159,287.9472314281898,32.68082884269953,4019.7373510913976,-0.11904721236408079,4169.536946199121,10.5,10500004169.536945,47.655,-122.3035,60.0,13.1
2026-01-20T23:13:07+00:00,SAT-64159,287.8136334763326,32.68671819237826,4019.6186213382666,-0.10702019141286342,3748.299798239307,10.5,10500003748.299799,47.655,-122.3035,60.0,13.116666666666667
2026-01-20T23:13:08+00:00,SAT-64159,287.6800049465533,32.69235927146094,4019.5118865340305,-0.0949920466205339,3327.023288609902,10.5,10500003327.023289,47.655,-122.3035,60.0,13.133333333333333
2026-01-20T23:13:09+00:00,SAT-64159,287.5463475666728,32.697751946796444,4019.417147799534,-0.08296290165119202,2905.7117485507797,10.5,10500002905.711748,47.655,-122.3035,60.0,13.15
2026-01-20T23:13:10+00:00,SAT-64159,287.41266306637664,32.70289609300348,4019.3344061322873,-0.0709328798721373,2484.369498906612,10.5,10500002484.3695,47.655,-122.3035,60.0,13.166666666666666
2026-01-20T23:13:11+00:00,SAT-64159,287.2789531774388,32.70779159246828,4019.263662406762,-0.05890210496627358,2063.0008715758704,10.5,10500002063.000872,47.655,-122.3035,60.0,13.183333333333334
2026-01-20T23:13:12+00:00,SAT-64159,287.145219633146,32.712438335372454,4019.204917374075,-0.04687070028260445,1641.6101867624257,10.5,10500001641.610188,47.655,-122.3035,60.0,13.2
2026-01-20T23:13:13+00:00,SAT-64159,287.0114641689306,32.71683621967659,4019.158171662327,-0.034838789527920126,1220.2017772013508,10.5,10500001220.201777,47.655,-122.3035,60.0,13.216666666666667
2026-01-20T23:13:14+00:00,SAT-64159,286.87768852138686,32.72098515115922,4019.1234257762376,-0.02280649618590242,798.7799678135179,10.5,10500000798.779968,47.655,-122.3035,60.0,13.233333333333333
2026-01-20T23:13:15+00:00,SAT-64159,286.74389442879215,32.72488504340432,4019.100680097375,-0.010773943914044258,377.3490896074,10.5,10500000377.349089,47.655,-122.3035,60.0,13.25
2026-01-20T23:13:16+00:00,SAT-64159,286.6100836309623,32.728535817811654,4019.089934883978,0.0012587436545559785,-44.08652726292993,10.5,10499999955.913473,47.655,-122.3035,60.0,13.266666666666667
2026-01-20T23:13:17+00:00,SAT-64159,286.4762578687223,32.73193740361602,4019.0911902709827,0.013291442951343808,-465.52255490399955,10.5,10499999534.477446,47.655,-122.3035,60.0,13.283333333333333
2026-01-20T23:13:18+00:00,SAT-64159,286.34241888364636,32.73508973789519,4019.1044462700866,0.02532403035135236,-886.9546634465361,10.5,10499999113.045336,47.655,-122.3035,60.0,13.3
2026-01-20T23:13:19+00:00,SAT-64159,286.20856841870443,32.737992765555994,4019.12970276969,0.03735638200447341,-1308.3785151358638,10.5,10499998691.621485,47.655,-122.3035,60.0,13.316666666666666
2026-01-20T23:13:20+00:00,SAT-64159,286.0747082181085,32.74064643934423,4019.1669595346757,0.04938837476143378,-1729.7897967635154,10.5,10499998270.210203,47.655,-122.3035,60.0,13.333333333333334
2026-01-20T23:13:21+00:00,SAT-64159,285.9408400254987,32.74305071988165,4019.216216207105,0.06141988472384437,-2151.1841688838144,10.5,10499997848.81583,47.655,-122.3035,60.0,13.35
2026-01-20T23:13:22+00:00,SAT-64159,285.80696558604086,32.74520557562296,4019.277472305469,0.07345078817779985,-2572.5572985124877,10.5,10499997427.442701,47.655,-122.3035,60.0,13.366666666666667
2026-01-20T23:13:23+00:00,SAT-64159,285.67308664545936,32.747110982878915,4019.3507272248785,0.08548096196284621,-2993.9048720494666,10.5,10499997006.095127,47.655,-122.3035,60.0,13.383333333333333
2026-01-20T23:13:24+00:00,SAT-64159,285.53920494914314,32.748766925827574,4019.4359802376093,0.09751028221667797,-3415.2225513128774,10.5,10499996584.777449,47.655,-122.3035,60.0,13.4
2026-01-20T23:13:25+00:00,SAT-64159,285.40532224321413,32.75017339649771,4019.533230492407,0.10953862591351933,-3836.506027419652,10.5,10499996163.493973,47.655,-122.3035,60.0,13.416666666666666
2026-01-20T23:13:26+00:00,SAT-64159,285.27144027330917,32.75133039478216,4019.642477015318,0.12156586929016763,-4257.750965658916,10.5,10499995742.249035,47.655,-122.3035,60.0,13.433333333333334
2026-01-20T23:13:27+00:00,SAT-64159,285.1375607854346,32.75223792842644,4019.7637187089567,0.13359188857274767,-4678.953030945997,10.5,10499995321.046968,47.655,-122.3035,60.0,13.45
2026-01-20T23:13:28+00:00,SAT-64159,285.0036855257093,32.752896013031396,4019.8969543524936,0.14561656132501857,-5100.107935045835,10.5,10499994899.892065,47.655,-122.3035,60.0,13.466666666666667
2026-01-20T23:13:29+00:00,SAT-64159,284.86981623908304,32.7533046720563,4020.0421826029883,0.15763976388592987,-5521.211346825355,10.5,10499994478.788652,47.655,-122.3035,60.0,13.483333333333333
2026-01-20T23:13:30+00:00,SAT-64159,284.7359546704733,32.75346393680725,4020.1994019941703,0.1696613729085109,-5942.258946151889,10.5,10499994057.741055,47.655,-122.3035,60.0,13.5
2026-01-20T23:13:31+00:00,SAT-64159,284.60210256432646,32.75337384643654,4020.3686109367513,0.18168126524094744,-6363.2464197279705,10.5,10499993636.75358,47.655,-122.3035,60.0,13.516666666666667
2026-01-20T23:13:32+00:00,SAT-64159,284.4682616643764,32.75303444793853,4020.549807718618,0.19369931830012305,-6784.169474174337,10.5,10499993215.830526,47.655,-122.3035,60.0,13.533333333333333
2026-01-20T23:13:33+00:00,SAT-64159,284.3344337132101,32.752445796141686,4020.7429905054023,0.20571540865775198,-7205.02378651032,10.5,10499992794.976213,47.655,-122.3035,60.0,13.55
2026-01-20T23:13:34+00:00,SAT-64159,284.20062045275654,32.75160795370414,4020.948157339637,0.21772941379729466,-7625.805065688456,10.5,10499992374.194935,47.655,-122.3035,60.0,13.566666666666666
2026-01-20T23:13:35+00:00,SAT-64159,284.06682362365297,32.75052099110441,4021.165306141664,0.22974121017509938,-8046.508984687478,10.5,10499991953.491014,47.655,-122.3035,60.0,13.583333333333334
2026-01-20T23:13:36+00:00,SAT-64159,283.9330449657338,32.74918498663791,4021.3944347086126,0.2417506764430238,-8467.131293382137,10.5,10499991532.868706,47.655,-122.3035,60.0,13.6
2026-01-20T23:13:37+00:00,SAT-64159,283.7992862167518,32.7476000263969,4021.6355407165847,0.2537576886747268,-8887.667651347758,10.5,10499991112.332348,47.655,-122.3035,60.0,13.616666666666667
2026-01-20T23:13:38+00:00,SAT-64159,283.6655491137247,32.74576620427626,4021.8886217180902,0.26576212540466726,-9308.113804347293,10.5,10499990691.886196,47.655,-122.3035,60.0,13.633333333333333
2026-01-20T23:13:39+00:00,SAT-64159,283.53183539154224,32.74368362194752,4022.1536751444937,0.27776386343275,-9728.465437392275,10.5,10499990271.534563,47.655,-122.3035,60.0,13.65
2026-01-20T23:13:40+00:00,SAT-64159,283.3981467837999,32.74135238886136,4022.43069830429,0.2897627814250629,-10148.718300855855,10.5,10499989851.281698,47.655,-122.3035,60.0,13.666666666666666
2026-01-20T23:13:41+00:00,SAT-64159,283.2644850218064,32.73877262222089,4022.719688384965,0.3017587568427047,-10568.868102907376,10.5,10499989431.131897,47.655,-122.3035,60.0,13.683333333333334
2026-01-20T23:13:42+00:00,SAT-64159,283.13085183511816,32.73594444697947,4023.020642451789,0.3137516666756545,-10988.910535215575,10.5,10499989011.089464,47.655,-122.3035,60.0,13.7
2026-01-20T23:13:43+00:00,SAT-64159,282.9972489516057,32.73286799583425,4023.333557447354,0.3257413916528642,-11408.841420403825,10.5,10499988591.158579,47.655,-122.3035,60.0,13.716666666666667
2026-01-20T23:13:44+00:00,SAT-64159,282.86367809585687,32.72954340917559,4023.6584301952958,0.3377278077717596,-11828.656415377454,10.5,10499988171.343584,47.655,-122.3035,60.0,13.733333333333333
2026-01-20T23:13:45+00:00,SAT-64159,282.7301409910634,32.72597083511945,4023.9952573955798,0.34971079396880145,-12248.351279979215,10.5,10499987751.64872,47.655,-122.3035,60.0,13.75
2026-01-20T23:13:46+00:00,SAT-64159,282.59663935772977,32.72215042946436,4024.344035627432,0.3616902291153984,-12667.921771773468,10.5,10499987332.078228,47.655,-122.3035,60.0,13.766666666666667
2026-01-20T23:13:47+00:00,SAT-64159,282.46317491365494,32.71808235567617,4024.7047613492696,0.3736659925906706,-13087.363666106776,10.5,10499986912.636333,47.655,-122.3035,60.0,13.783333333333333
2026-01-20T23:13:48+00:00,SAT-64159,282.3297493737096,32.7137667848654,4025.077430899213,0.3856379630932319,-13506.672714491488,10.5,10499986493.327286,47.655,-122.3035,60.0,13.8
2026-01-20T23:13:49+00:00,SAT-64159,282.19636445001765,32.70920389577803,4025.462040494405,0.3976060184424763,-13925.844637645958,10.5,10499986074.155363,47.655,-122.3035,60.0,13.816666666666666
2026-01-20T23:13:50+00:00,SAT-64159,282.06302185217453,32.704393874789695,4025.8585862301316,0.40957003848203655,-14344.875227185947,10.5,10499985655.124773,47.655,-122.3035,60.0,13.833333333333334
2026-01-20T23:13:51+00:00,SAT-64159,281.929723286464,32.69933691586363,4026.267064081844,0.42152990470421065,-14763.760332470445,10.5,10499985236.239668,47.655,-122.3035,60.0,13.85
2026-01-20T23:13:52+00:00,SAT-64159,281.79647045533665,32.69403322051043,4026.6874699068026,0.43348549374017453,-15182.495632601382,10.5,10499984817.504368,47.655,-122.3035,60.0,13.866666666666667
2026-01-20T23:13:53+00:00,SAT-64159,281.6632650588588,32.688482997829695,4027.1197994392264,0.44543668709340717,-15601.076977329347,10.5,10499984398.923023,47.655,-122.3035,60.0,13.883333333333333
2026-01-20T23:13:54+00:00,SAT-64159,281.53010879312853,32.6826864644293,4027.564048295154,0.4573833644525344,-16019.500152841107,10.5,10499983980.499847,47.655,-122.3035,60.0,13.9
2026-01-20T23:13:55+00:00,SAT-64159,281.3970033507752,32.6766438444266,4028.0202119706346,0.4693254052754505,-16437.760937242227,10.5,10499983562.239063,47.655,-122.3035,60.0,13.916666666666666
2026-01-20T23:13:56+00:00,SAT-64159,281.26395042096266,32.67035536943201,4028.4882858414962,0.48126269347002193,-16855.855264495116,10.5,10499983144.144735,47.655,-122.3035,60.0,13.933333333333334
2026-01-20T23:13:57+00:00,SAT-64159,281.1309516880864,32.663821278465356,4028.9682651677836,0.49319510387849125,-17273.77875104569,10.5,10499982726.221249,47.655,-122.3035,60.0,13.95
2026-01-20T23:13:58+00:00,SAT-64159,280.99800883422466,32.65704181805755,4029.460145084718,0.5051225220268964,-17691.527387531587,10.5,10499982308.472612,47.655,-122.3035,60.0,13.966666666666667
2026-01-20T23:13:59+00:00,SAT-64159,280.8651235361343,32.65001724208153,4029.9639206133534,0.5170448270194109,-18109.09693966956,10.5,10499981890.90306,47.655,-122.3035,60.0,13.983333333333333
2026-01-20T23:14:00+00:00,SAT-64159,280.73229746696194,32.64274781181633,4030.479586654167,0.5289619005704249,-18526.483264597206,10.5,10499981473.516735,47.655,-122.3035,60.0,14.0
2026-01-20T23:14:01+00:00,SAT-64159,280.5995322954683,32.63523379588661,4031.007137989669,0.5408736237595615,-18943.682197219903,10.5,10499981056.317802,47.655,-122.3035,60.0,14.016666666666667
2026-01-20T23:14:02+00:00,SAT-64159,280.4668296861499,32.627475470246885,4031.5465692837656,0.5527798797003399,-19360.68964367866,10.5,10499980639.310356,47.655,-122.3035,60.0,14.033333333333333
2026-01-20T23:14:03+00:00,SAT-64159,280.3341912986826,32.61947311812626,4032.097875083786,0.5646805495049099,-19777.50144001806,10.5,10499980222.49856,47.655,-122.3035,60.0,14.05
2026-01-20T23:14:04+00:00,SAT-64159,280.20161878835233,32.61122703003106,4032.6610498184928,0.5765755140963631,-20194.113415661086,10.5,10499979805.886585,47.655,-122.3035,60.0,14.066666666666666
2026-01-20T23:14:05+00:00,SAT-64159,280.06911380603606,32.602737503721926,4033.236087797885,0.5884646586836089,-20610.52155013817,10.5,10499979389.47845,47.655,-122.3035,60.0,14.083333333333334
2026-01-20T23:14:06+00:00,SAT-64159,279.93667799715604,32.594004844122274,4033.822983217479,0.6003478642344621,-21026.721674438697,10.5,10499978973.278326,47.655,-122.3035,60.0,14.1
2026-01-20T23:14:07+00:00,SAT-64159,279.80431300260443,32.58502936335353,4034.4217301540752,0.6122250147137102,-21442.709724518678,10.5,10499978557.290276,47.655,-122.3035,60.0,14.116666666666667
2026-01-20T23:14:08+00:00,SAT-64159,279.67202045802486,32.57581138066187,4035.0323225687494,0.6240959929502689,-21858.481596551115,10.5,10499978141.518404,47.655,-122.3035,60.0,14.133333333333333
2026-01-20T23:14:09+00:00,SAT-64159,279.53980199399723,32.566351222405814,4035.654754305719,0.6359606814660895,-22274.03317595782,10.5,10499977725.966824,47.655,-122.3035,60.0,14.15
2026-01-20T23:14:10+00:00,SAT-64159,279.407659236058,32.55664922203247,4036.2890190920343,0.6478189645573186,-22689.3604103004,10.5,10499977310.63959,47.655,-122.3035,60.0,14.166666666666666
2026-01-20T23:14:11+00:00,SAT-64159,279.2755938042551,32.546705720019496,4036.935110539353,0.6596707294855648,-23104.459351003523,10.5,10499976895.54065,47.655,-122.3035,60.0,14.183333333333334
2026-01-20T23:14:12+00:00,SAT-64159,279.1436073125376,32.53652106379764,4037.5930221468934,0.6715158560075557,-23519.32578663915,10.5,10499976480.674213,47.655,-122.3035,60.0,14.2
2026-01-20T23:14:13+00:00,SAT-64159,279.01170137021046,32.526095607837846,4038.2627472939516,0.683354230237848,-23933.95572845733,10.5,10499976066.044271,47.655,-122.3035,60.0,14.216666666666667
2026-01-20T23:14:14+00:00,SAT-64159,278.87987758058745,32.51542971351856,4038.944279246242,0.6951857411487182,-24348.345287797536,10.5,10499975651.654713,47.655,-122.3035,60.0,14.233333333333333
2026-01-20T23:14:15+00:00,SAT-64159,278.74813754044516,32.504523749049206,4039.637611158748,0.7070102673305295,-24762.490212380726,10.5,10499975237.509789,47.655,-122.3035,60.0,14.25
2026-01-20T23:14:16+00:00,SAT-64159,278.6164828419437,32.49337808960109,4040.3427360653654,0.7188276993849109,-25176.386670613185,10.5,10499974823.613329,47.655,-122.3035,60.0,14.266666666666667
2026-01-20T23:14:17+00:00,SAT-64159,278.4849150702968,32.481993117083654,4041.0596468908852,0.7306379209447821,-25590.030586827543,10.5,10499974409.969414,47.655,-122.3035,60.0,14.283333333333333
2026-01-20T23:14:18+00:00,SAT-64159,278.35343580505815,32.470369220221436,4041.788336444041,0.7424408182426068,-26003.41797640343,10.5,10499973996.582024,47.655,-122.3035,60.0,14.3
2026-01-20T23:14:19+00:00,SAT-64159,278.2220466195791,32.45850679447881,4042.5287974201015,0.7542362795208578,-26416.54492511952,10.5,10499973583.455074,47.655,-122.3035,60.0,14.316666666666666
2026-01-20T23:14:20+00:00,SAT-64159,278.0907490806227,32.44640624199144,4043.2810224028767,0.7660241898923911,-26829.407409142048,10.5,10499973170.59259,47.655,-122.3035,60.0,14.333333333333334
2026-01-20T23:14:21+00:00,SAT-64159,277.95954474887594,32.43406797158277,4044.045003861596,0.7778044371046733,-27242.00149691247,10.5,10499972757.998503,47.655,-122.3035,60.0,14.35
2026-01-20T23:14:22+00:00,SAT-64159,277.82843517844464,32.42149239868476,4044.8207341535353,0.7895769079847853,-27654.323224636442,10.5,10499972345.676775,47.655,-122.3035,60.0,14.366666666666667
2026-01-20T23:14:23+00:00,SAT-64159,277.69742191696633,32.40867994531669,4045.6082055230986,0.8013414929691849,-28066.36875493526,10.5,10499971933.631245,47.655,-122.3035,60.0,14.383333333333333
2026-01-20T23:14:24+00:00,SAT-64159,277.56650650499853,32.395631039989524,4046.40741010542,0.8130980763967088,-28478.13403686574,10.5,10499971521.865963,47.655,-122.3035,60.0,14.4
2026-01-20T23:14:25+00:00,SAT-64159,277.4356904769587,32.3823461177688,4047.2183399202795,0.8248465499977425,-28889.615278367997,10.5,10499971110.384722,47.655,-122.3035,60.0,14.416666666666666
2026-01-20T23:14:26+00:00,SAT-64159,277.3049753599046,32.36882562011547,4048.0409868794773,0.8365868000225372,-29300.808495444675,10.5,10499970699.191505,47.655,-122.3035,60.0,14.433333333333334
2026-01-20T23:14:27+00:00,SAT-64159,277.1743626743614,32.355069994937836,4048.8753427813663,0.8483187183361564,-29711.70990075288,10.5,10499970288.2901,47.655,-122.3035,60.0,14.45
2026-01-20T23:14:28+00:00,SAT-64159,277.04385393342125,32.34107969646015,4049.7213993164537,0.8600421911304061,-30122.315508248263,10.5,10499969877.684492,47.655,-122.3035,60.0,14.466666666666667
2026-01-20T23:14:29+00:00,SAT-64159,276.9134506435722,32.32685518527881,4050.5791480617413,0.8717571138517751,-30532.621656024578,10.5,10499969467.378344,47.655,-122.3035,60.0,14.483333333333333
2026-01-20T23:14:30+00:00,SAT-64159,276.78315430327774,32.3123969281669,4051.448580489956,0.8834633705966787,-30942.624284648038,10.5,10499969057.375715,47.655,-122.3035,60.0,14.5
2026-01-20T23:14:31+00:00,SAT-64159,276.65296640464413,32.297705398226306,4052.3296879582313,0.8951608547304456,-31352.319659321383,10.5,10499968647.68034,47.655,-122.3035,60.0,14.516666666666667
2026-01-20T23:14:32+00:00,SAT-64159,276.52288843200006,32.28278107469092,4053.2224617173492,0.9068494595274325,-31761.704042061127,10.5,10499968238.295958,47.655,-122.3035,60.0,14.533333333333333
2026-01-20T23:14:33+00:00,SAT-64159,276.3929218619003,32.26762444288759,4054.126892911651,0.9185290727793213,-32170.773502857344,10.5,10499967829.226498,47.655,-122.3035,60.0,14.55
2026-01-20T23:14:34+00:00,SAT-64159,276.26306816389547,32.25223599428809,4055.0429725735694,0.9301995877736828,-32579.524304189366,10.5,10499967420.475697,47.655,-122.3035,60.0,14.566666666666666
2026-01-20T23:14:35+00:00,SAT-64159,276.13332879970335,32.23661622637537,4055.970691629109,0.9418608942989942,-32987.95258598347,10.5,10499967012.047415,47.655,-122.3035,60.0,14.583333333333334
2026-01-20T23:14:36+00:00,SAT-64159,276.003705223671,32.22076564265997,4056.9100408943564,0.9535128911168614,-33396.05480244284,10.5,10499966603.945198,47.655,-122.3035,60.0,14.6
2026-01-20T23:14:37+00:00,SAT-64159,275.8741988815335,32.20468475248709,4057.86101108443,0.9651554681148647,-33803.82709696479,10.5,10499966196.172903,47.655,-122.3035,60.0,14.616666666666667
2026-01-20T23:14:38+00:00,SAT-64159,275.7448112116063,32.188374071142846,4058.82359280463,0.9767885133108439,-34211.265547460374,10.5,10499965788.734453,47.655,-122.3035,60.0,14.633333333333333
2026-01-20T23:14:39+00:00,SAT-64159,275.61554364499534,32.171834119847254,4059.7977765485725,0.988411928140149,-34618.366701778614,10.5,10499965381.633299,47.655,-122.3035,60.0,14.65
2026-01-20T23:14:40+00:00,SAT-64159,275.4863976037808,32.155065425478554,4060.783552711571,1.0000256013168807,-35025.12666221659,10.5,10499964974.873339,47.655,-122.3035,60.0,14.666666666666666
2026-01-20T23:14:41+00:00,SAT-64159,275.3573745026933,32.13806852074972,4061.7809115779505,1.011629434553877,-35431.54198634213,10.5,10499964568.458014,47.655,-122.3035,60.0,14.683333333333334
2026-01-20T23:14:42+00:00,SAT-64159,275.2284757474031,32.120843943939335,4062.789843334013,1.0232233132775652,-35837.60866130406,10.5,10499964162.391338,47.655,-122.3035,60.0,14.7
2026-01-20T23:14:43+00:00,SAT-64159,275.09970273659314,32.10339223913144,4063.810338051788,1.034807140084577,-36243.323275624425,10.5,10499963756.676723,47.655,-122.3035,60.0,14.716666666666667
2026-01-20T23:14:44+00:00,SAT-64159,274.97105685975265,32.08571395587194,4064.8423857061657,1.0463808067520541,-36648.68203888094,10.5,10499963351.31796,47.655,-122.3035,60.0,14.733333333333333
2026-01-20T23:14:45+00:00,SAT-64159,274.8425394985254,32.06780964931321,4065.8859761640997,1.0579442119450406,-37053.6814018948,10.5,10499962946.318598,47.655,-122.3035,60.0,14.75
2026-01-20T23:14:46+00:00,SAT-64159,274.7141520258441,32.049679880048515,4066.9410991914797,1.0694972515908001,-37458.31771959854,10.5,10499962541.68228,47.655,-122.3035,60.0,14.766666666666667
2026-01-20T23:14:47+00:00,SAT-64159,274.58589580625824,32.031325214116016,4068.0077444503995,1.0810398243894443,-37862.587444041594,10.5,10499962137.412556,47.655,-122.3035,60.0,14.783333333333333
2026-01-20T23:14:48+00:00,SAT-64159,274.457772195575,32.01274622290282,4069.0859015019237,1.0925718228072605,-38266.486808938454,10.5,10499961733.513191,47.655,-122.3035,60.0,14.8
2026-01-20T23:14:49+00:00,SAT-64159,274.3297825416059,31.99394348321111,4070.1755597998704,1.1040931507795313,-38670.012449696376,10.5,10499961329.98755,47.655,-122.3035,60.0,14.816666666666666
2026-01-20T23:14:50+00:00,SAT-64159,274.20192818278844,31.974917577009606,4071.276708702248,1.115603702421209,-39073.1606577731,10.5,10499960926.839342,47.655,-122.3035,60.0,14.833333333333334
2026-01-20T23:14:51+00:00,SAT-64159,274.07421044933426,31.955669091561077,4072.3893374614627,1.1271033809779227,-39475.928044421285,10.5,10499960524.071955,47.655,-122.3035,60.0,14.85
2026-01-20T23:14:52+00:00,SAT-64159,273.9466306621737,31.936198619214686,4073.5134352334244,1.1385920813061177,-39878.31092706887,10.5,10499960121.689074,47.655,-122.3035,60.0,14.866666666666667
2026-01-20T23:14:53+00:00,SAT-64159,273.8191901338938,31.91650675750736,4074.6489910691803,1.1500697039822516,-40280.305823482864,10.5,10499959719.694176,47.655,-122.3035,60.0,14.883333333333333
2026-01-20T23:14:54+00:00,SAT-64159,273.6918901680939,31.896594109017137,4075.7959939206185,1.1615361501184474,-40681.90927019151,10.5,10499959318.09073,47.655,-122.3035,60.0,14.9
2026-01-20T23:14:55+00:00,SAT-64159,273.5647320593091,31.87646128130607,4076.9544326410037,1.1729913231168647,-41083.11788392982,10.5,10499958916.882116,47.655,-122.3035,60.0,14.916666666666666
2026-01-20T23:14:56+00:00,SAT-64159,273.43771709277735,31.856108886832303,4078.124295987259,1.1844351195867993,-41483.928043518,10.5,10499958516.071957,47.655,-122.3035,60.0,14.933333333333334
2026-01-20T23:14:57+00:00,SAT-64159,273.3108465451791,31.83553754302478,4079.305572613194,1.1958674437450871,-41884.33639422448,10.5,10499958115.663607,47.655,-122.3035,60.0,14.95
2026-01-20T23:14:58+00:00,SAT-64159,273.1841216837891,31.814747872098867,4080.4982510770888,1.2072881939579392,-42284.33937640407,10.5,10499957715.660624,47.655,-122.3035,60.0,14.966666666666667
2026-01-20T23:14:59+00:00,SAT-64159,273.0575437671259,31.793740501114982,4081.7023198358625,1.2186972783382053,-42683.933771780066,10.5,10499957316.066229,47.655,-122.3035,60.0,14.983333333333333
