satellites_20260121_005943/SAT-65275.csv

timestamp,satellite,azimuth_deg,elevation_deg,distance_km,relative_velocity_kms,doppler_shift_hz,tx_freq_ghz,rx_freq_hz,ue_lat,ue_lon,ue_alt_m,time_minutes
2026-01-20T23:07:44+00:00,SAT-65275,304.210739191168,30.008818238910635,4157.870521034221,-1.7533056980465085,61408.18202133804,10.5,10500061408.182022,47.655,-122.3035,60.0,7.733333333333333
2026-01-20T23:07:45+00:00,SAT-65275,304.09455481677776,30.04265953152931,4156.121890818036,-1.7425809965724242,61032.55761027335,10.5,10500061032.55761,47.655,-122.3035,60.0,7.75
2026-01-20T23:07:46+00:00,SAT-65275,303.97816729189753,30.07632614297327,4154.383956704122,-1.7318405331145397,60656.381147862856,10.5,10500060656.381147,47.655,-122.3035,60.0,7.766666666666667
2026-01-20T23:07:47+00:00,SAT-65275,303.8615773042905,30.109817263001943,4152.656734412429,-1.7210843758413896,60279.65502165698,10.5,10500060279.655022,47.655,-122.3035,60.0,7.783333333333333
2026-01-20T23:07:48+00:00,SAT-65275,303.74478555184976,30.14313208280478,4150.940239594924,-1.7103126050583033,59902.38204428806,10.5,10500059902.382044,47.655,-122.3035,60.0,7.8
2026-01-20T23:07:49+00:00,SAT-65275,303.6277927417915,30.17626979529512,4149.234487823478,-1.6995252887254457,59524.564596008546,10.5,10500059524.564596,47.655,-122.3035,60.0,7.816666666666666
2026-01-20T23:07:50+00:00,SAT-65275,303.51059959158323,30.209229594898673,4147.53949460219,-1.688722504217751,59146.20538681591,10.5,10500059146.205387,47.655,-122.3035,60.0,7.833333333333333
2026-01-20T23:07:51+00:00,SAT-65275,303.39320682833284,30.242010677792567,4145.855275357983,-1.677904316537036,58767.306693348764,10.5,10500058767.306694,47.655,-122.3035,60.0,7.85
2026-01-20T23:07:52+00:00,SAT-65275,303.27561518971675,30.274612241696932,4144.181845452957,-1.6670708136597012,58387.87159691276,10.5,10500058387.871597,47.655,-122.3035,60.0,7.866666666666666
2026-01-20T23:07:53+00:00,SAT-65275,303.1578254224249,30.307033486380902,4142.519220161467,-1.6562220629380782,58007.90245647147,10.5,10500058007.902456,47.655,-122.3035,60.0,7.883333333333334
2026-01-20T23:07:54+00:00,SAT-65275,303.039838283652,30.339273613293855,4140.867414690697,-1.645358137573094,57627.40183583099,10.5,10500057627.401836,47.655,-122.3035,60.0,7.9
2026-01-20T23:07:55+00:00,SAT-65275,302.9216545407589,30.371331825727307,4139.226444174824,-1.6344791218611276,57246.3726874071,10.5,10500057246.372688,47.655,-122.3035,60.0,7.916666666666667
2026-01-20T23:07:56+00:00,SAT-65275,302.80327497051525,30.40320732908151,4137.5963236639545,-1.6235850848931332,56864.81743105725,10.5,10500056864.81743,47.655,-122.3035,60.0,7.933333333333334
2026-01-20T23:07:57+00:00,SAT-65275,302.6847003602493,30.43489933060671,4135.977068139287,-1.6126761144249422,56482.739140361875,10.5,10500056482.73914,47.655,-122.3035,60.0,7.95
2026-01-20T23:07:58+00:00,SAT-65275,302.56593150653265,30.466407039822567,4134.3686924945005,-1.6017522744963115,56100.140058264136,10.5,10500056100.140059,47.655,-122.3035,60.0,7.966666666666667
2026-01-20T23:07:59+00:00,SAT-65275,302.446969216993,30.497729668086205,4132.771211559403,-1.5908136589098714,55717.02347012895,10.5,10500055717.02347,47.655,-122.3035,60.0,7.983333333333333
2026-01-20T23:08:00+00:00,SAT-65275,302.3278143081312,30.52886642923743,4131.184640070251,-1.5798603353330514,55333.39174595593,10.5,10500055333.391747,47.655,-122.3035,60.0,8.0
2026-01-20T23:08:01+00:00,SAT-65275,302.2084676073375,30.559816539118845,4129.608992695812,-1.5688923860979624,54949.24776936385,10.5,10500054949.24777,47.655,-122.3035,60.0,8.016666666666667
2026-01-20T23:08:02+00:00,SAT-65275,302.0889299518345,30.590579215915522,4128.044284022743,-1.557909893879255,54564.5944359687,10.5,10500054564.594437,47.655,-122.3035,60.0,8.033333333333333
2026-01-20T23:08:03+00:00,SAT-65275,301.96920218870076,30.621153680209094,4126.490528555248,-1.5469129392755026,54179.43456867343,10.5,10500054179.434568,47.655,-122.3035,60.0,8.05
2026-01-20T23:08:04+00:00,SAT-65275,301.8492851750515,30.651539154983976,4124.9477407171435,-1.535901601216284,53793.770931925785,10.5,10500053793.770931,47.655,-122.3035,60.0,8.066666666666666
2026-01-20T23:08:05+00:00,SAT-65275,301.7291797782375,30.681734865637075,4123.41593485353,-1.524875961690662,53407.60639732955,10.5,10500053407.606398,47.655,-122.3035,60.0,8.083333333333334
2026-01-20T23:08:06+00:00,SAT-65275,301.6088868756535,30.711740040085868,4121.8951252277375,-1.5138361040227926,53020.94388324913,10.5,10500053020.943884,47.655,-122.3035,60.0,8.1
2026-01-20T23:08:07+00:00,SAT-65275,301.48840735465393,30.74155390884676,4120.385326019992,-1.50278211489413,52633.78642563571,10.5,10500052633.786427,47.655,-122.3035,60.0,8.116666666666667
2026-01-20T23:08:08+00:00,SAT-65275,301.3677421123388,30.771175705144664,4118.886551324072,-1.4917140728246292,52246.13677459027,10.5,10500052246.136774,47.655,-122.3035,60.0,8.133333333333333
2026-01-20T23:08:09+00:00,SAT-65275,301.24689205624884,30.800604664797806,4117.398815155441,-1.4806320595771956,51857.997793795585,10.5,10500051857.997793,47.655,-122.3035,60.0,8.15
2026-01-20T23:08:10+00:00,SAT-65275,301.1258581041491,30.829840026328608,4115.922131448023,-1.4695361675959873,51469.37272103712,10.5,10500051469.37272,47.655,-122.3035,60.0,8.166666666666666
2026-01-20T23:08:11+00:00,SAT-65275,301.0046411831816,30.858881031231817,4114.456514043541,-1.458426474057226,51080.264259352625,10.5,10500051080.26426,47.655,-122.3035,60.0,8.183333333333334
2026-01-20T23:08:12+00:00,SAT-65275,300.8832422311835,30.887726923704797,4113.001976706747,-1.44730306887312,50690.675557847964,10.5,10500050690.675558,47.655,-122.3035,60.0,8.2
2026-01-20T23:08:13+00:00,SAT-65275,300.7616621956458,30.916376950961087,4111.558533112724,-1.4361660383475177,50300.609639248956,10.5,10500050300.60964,47.655,-122.3035,60.0,8.216666666666667
2026-01-20T23:08:14+00:00,SAT-65275,300.639902034071,30.94483036319817,4110.126196850479,-1.4250154642728006,49910.06936827078,10.5,10500049910.069368,47.655,-122.3035,60.0,8.233333333333333
2026-01-20T23:08:15+00:00,SAT-65275,300.5179627143667,30.97308641355967,4108.704981427444,-1.4138514430607996,49519.058121663606,10.5,10500049519.05812,47.655,-122.3035,60.0,8.25
2026-01-20T23:08:16+00:00,SAT-65275,300.39584521366083,31.00114435847395,4107.2949002548985,-1.4026740508189497,49127.57856503171,10.5,10500049127.578566,47.655,-122.3035,60.0,8.266666666666667
2026-01-20T23:08:17+00:00,SAT-65275,300.2735505200541,31.02900345729535,4105.895966668215,-1.3914833848520236,48735.63410639986,10.5,10500048735.634106,47.655,-122.3035,60.0,8.283333333333333
2026-01-20T23:08:18+00:00,SAT-65275,300.15107963083693,31.05666297277802,4104.508193905723,-1.380279527082508,48343.22761504005,10.5,10500048343.227615,47.655,-122.3035,60.0,8.3
2026-01-20T23:08:19+00:00,SAT-65275,300.028433553863,31.084122170813632,4103.131595124046,-1.3690625754280883,47950.36252044382,10.5,10500047950.36252,47.655,-122.3035,60.0,8.316666666666666
2026-01-20T23:08:20+00:00,SAT-65275,299.905613306145,31.11138032080522,4101.766183382152,-1.3578326098286853,47557.04162244534,10.5,10500047557.041622,47.655,-122.3035,60.0,8.333333333333334
2026-01-20T23:08:21+00:00,SAT-65275,299.7826199155217,31.138436695346364,4100.411971659282,-1.3465897237027153,47163.26819295271,10.5,10500047163.268192,47.655,-122.3035,60.0,8.35
2026-01-20T23:08:22+00:00,SAT-65275,299.65945441946036,31.165290570546144,4099.06897284151,-1.3353340131215028,46769.04559679009,10.5,10500046769.045597,47.655,-122.3035,60.0,8.366666666666667
2026-01-20T23:08:23+00:00,SAT-65275,299.5361178648174,31.191941226133924,4097.73719971909,-1.3240655648808521,46374.37687391371,10.5,10500046374.376873,47.655,-122.3035,60.0,8.383333333333333
2026-01-20T23:08:24+00:00,SAT-65275,299.41261130874676,31.218387945312504,4096.416664995715,-1.3127844665348323,45979.26509083741,10.5,10500045979.26509,47.655,-122.3035,60.0,8.4
2026-01-20T23:08:25+00:00,SAT-65275,299.2889358186552,31.24463001482523,4095.107381287758,-1.3014908145781143,45583.71362721273,10.5,10500045583.713627,47.655,-122.3035,60.0,8.416666666666666
2026-01-20T23:08:26+00:00,SAT-65275,299.1650924713864,31.27066672518602,4093.809361115352,-1.2901847097144454,45187.72601011089,10.5,10500045187.72601,47.655,-122.3035,60.0,8.433333333333334
2026-01-20T23:08:27+00:00,SAT-65275,299.04108235282047,31.296497370816148,4092.522616898197,-1.2788662248804772,44791.304794081945,10.5,10500044791.304794,47.655,-122.3035,60.0,8.45
2026-01-20T23:08:28+00:00,SAT-65275,298.916906560595,31.322121249517224,4091.2471609832496,-1.2675354749176144,44394.45400135767,10.5,10500044394.454,47.655,-122.3035,60.0,8.466666666666667
2026-01-20T23:08:29+00:00,SAT-65275,298.79256620004946,31.347537663387275,4089.983005602932,-1.2561925399075704,43997.17643673841,10.5,10500043997.176437,47.655,-122.3035,60.0,8.483333333333333
2026-01-20T23:08:30+00:00,SAT-65275,298.6680623876379,31.37274591814856,4088.7301629097974,-1.2448375254355435,43599.47579826444,10.5,10500043599.475798,47.655,-122.3035,60.0,8.5
2026-01-20T23:08:31+00:00,SAT-65275,298.5433962484431,31.397745323723058,4087.4886449510964,-1.2334705148383949,43201.35500474513,10.5,10500043201.355005,47.655,-122.3035,60.0,8.516666666666667
2026-01-20T23:08:32+00:00,SAT-65275,298.418568918416,31.422535193820163,4086.258463690964,-1.2220916095125745,42802.8176075131,10.5,10500042802.817608,47.655,-122.3035,60.0,8.533333333333333
2026-01-20T23:08:33+00:00,SAT-65275,298.2935815425667,31.447114846360357,4085.0396309924104,-1.2107009105028455,42403.86714558336,10.5,10500042403.867146,47.655,-122.3035,60.0,8.55
2026-01-20T23:08:34+00:00,SAT-65275,298.1684352750212,31.471483603512034,4083.832158617669,-1.1992985055172674,42004.50669086314,10.5,10500042004.506691,47.655,-122.3035,60.0,8.566666666666666
2026-01-20T23:08:35+00:00,SAT-65275,298.04313128039587,31.495640791467245,4082.6360582414995,-1.1878844964757571,41604.73981301908,10.5,10500041604.739813,47.655,-122.3035,60.0,8.583333333333334
2026-01-20T23:08:36+00:00,SAT-65275,297.9176707323492,31.519585740780794,4081.4513414370144,-1.1764589798648537,41204.5698914179,10.5,10500041204.569891,47.655,-122.3035,60.0,8.6
2026-01-20T23:08:37+00:00,SAT-65275,297.7920548141653,31.54331778630689,4080.2780196810954,-1.1650220536891496,40804.00035859498,10.5,10500040804.000359,47.655,-122.3035,60.0,8.616666666666667
2026-01-20T23:08:38+00:00,SAT-65275,297.6662847185944,31.5668362672773,4079.116104352883,-1.153573818103006,40403.034722379714,10.5,10500040403.034723,47.655,-122.3035,60.0,8.633333333333333
2026-01-20T23:08:39+00:00,SAT-65275,297.54036164763505,31.590140527394578,4077.9656067316287,-1.1421143665944657,40001.676257118816,10.5,10500040001.676256,47.655,-122.3035,60.0,8.65
2026-01-20T23:08:40+00:00,SAT-65275,297.41428681328136,31.613229914739268,4076.826538003345,-1.1306438047472023,39599.928660799145,10.5,10500039599.928661,47.655,-122.3035,60.0,8.666666666666666
2026-01-20T23:08:41+00:00,SAT-65275,297.28806143618436,31.636103782070983,4075.698909248744,-1.1191622289166347,39197.79530819506,10.5,10500039197.79531,47.655,-122.3035,60.0,8.683333333333334
2026-01-20T23:08:42+00:00,SAT-65275,297.1616867467079,31.658761486680007,4074.5827314524377,-1.1076697390970345,38795.27970152892,10.5,10500038795.279701,47.655,-122.3035,60.0,8.7
2026-01-20T23:08:43+00:00,SAT-65275,297.03516398449693,31.68120239051516,4073.4780154993114,-1.0961664387975225,38392.38546612799,10.5,10500038392.385466,47.655,-122.3035,60.0,8.716666666666667
2026-01-20T23:08:44+00:00,SAT-65275,296.90849439810705,31.703425860298445,4072.384772171017,-1.0846524255393732,37989.116017599816,10.5,10500037989.116018,47.655,-122.3035,60.0,8.733333333333333
2026-01-20T23:08:45+00:00,SAT-65275,296.7816792456891,31.72543126745104,4071.303012151946,-1.073127804394483,37585.475036006654,10.5,10500037585.475037,47.655,-122.3035,60.0,8.75
2026-01-20T23:08:46+00:00,SAT-65275,296.65471979410984,31.74721798829491,4070.2327460216966,-1.0615926763867776,37181.466059633705,10.5,10500037181.466059,47.655,-122.3035,60.0,8.766666666666667
2026-01-20T23:08:47+00:00,SAT-65275,296.5276173194298,31.768785404016473,4069.1739842591137,-1.0500471390375312,36777.09250408854,10.5,10500036777.092505,47.655,-122.3035,60.0,8.783333333333333
2026-01-20T23:08:48+00:00,SAT-65275,296.4003731073388,31.790132900637563,4068.12673724578,-1.0384913018015276,36372.35820294065,10.5,10500036372.358204,47.655,-122.3035,60.0,8.8
2026-01-20T23:08:49+00:00,SAT-65275,296.27298845170566,31.811259869313382,4067.0910152541164,-1.0269252687652248,35967.26680173809,10.5,10500035967.266802,47.655,-122.3035,60.0,8.816666666666666
2026-01-20T23:08:50+00:00,SAT-65275,296.1454646552161,31.832165706263975,4066.0668284527346,-1.0153491346384256,35561.82161761878,10.5,10500035561.821617,47.655,-122.3035,60.0,8.833333333333334
2026-01-20T23:08:51+00:00,SAT-65275,296.0178030305496,31.85284981262511,4065.0541869157887,-1.0037630125203574,35156.02661179606,10.5,10500035156.026611,47.655,-122.3035,60.0,8.85
2026-01-20T23:08:52+00:00,SAT-65275,295.89000489808046,31.873311594877446,4064.0531006046353,-0.9921670005416506,34749.885221219716,10.5,10500034749.885221,47.655,-122.3035,60.0,8.866666666666667
2026-01-20T23:08:53+00:00,SAT-65275,295.76207158776333,31.89355046457934,4063.0635793827614,-0.9805612131203627,34343.40145329409,10.5,10500034343.401453,47.655,-122.3035,60.0,8.883333333333333
2026-01-20T23:08:54+00:00,SAT-65275,295.6340044370179,31.91356583875199,4062.085632999543,-0.9689457422198773,33936.578528965896,10.5,10500033936.57853,47.655,-122.3035,60.0,8.9
2026-01-20T23:08:55+00:00,SAT-65275,295.5058047936536,31.93335713945585,4061.119271112636,-0.9573207053680487,33529.42056455774,10.5,10500033529.420565,47.655,-122.3035,60.0,8.916666666666666
2026-01-20T23:08:56+00:00,SAT-65275,295.37747401251494,31.952923794367916,4060.1645032624815,-0.94568620470282,33121.93113737241,10.5,10500033121.931137,47.655,-122.3035,60.0,8.933333333333334
2026-01-20T23:08:57+00:00,SAT-65275,295.24901345748344,31.972265236506264,4059.2213388876585,-0.9340423409574156,32714.113775513535,10.5,10500032714.113775,47.655,-122.3035,60.0,8.95
2026-01-20T23:08:58+00:00,SAT-65275,295.1204245017088,31.9913809042415,4058.289787326277,-0.9223892292329398,32305.97251030867,10.5,10500032305.97251,47.655,-122.3035,60.0,8.966666666666667
2026-01-20T23:08:59+00:00,SAT-65275,294.991708525605,32.01027024164546,4057.3698578016547,-0.9107269753854718,31897.51104928548,10.5,10500031897.51105,47.655,-122.3035,60.0,8.983333333333333
2026-01-20T23:09:00+00:00,SAT-65275,294.86286691810864,32.028932698337655,4056.461559431537,-0.8990556840971032,31488.733058853617,10.5,10500031488.733059,47.655,-122.3035,60.0,9.0
2026-01-20T23:09:01+00:00,SAT-65275,294.7339010768305,32.04736772950698,4055.5649012292643,-0.8873754637248625,31079.642334134558,10.5,10500031079.642334,47.655,-122.3035,60.0,9.016666666666667
2026-01-20T23:09:02+00:00,SAT-65275,294.60481240755564,32.06557479602722,4054.6798921001096,-0.8756864261711198,30670.24279442266,10.5,10500030670.242794,47.655,-122.3035,60.0,9.033333333333333
2026-01-20T23:09:03+00:00,SAT-65275,294.47560232368124,32.08355336457882,4053.8065408377415,-0.8639886781864204,30260.538178573574,10.5,10500030260.53818,47.655,-122.3035,60.0,9.05
2026-01-20T23:09:04+00:00,SAT-65275,294.3462722469467,32.10130290758023,4052.944856129364,-0.85228232896229,29850.532310936404,10.5,10500029850.53231,47.655,-122.3035,60.0,9.066666666666666
2026-01-20T23:09:05+00:00,SAT-65275,294.2168236070735,32.11882290328229,4052.094846553279,-0.8405674862032031,29440.228963777445,10.5,10500029440.228964,47.655,-122.3035,60.0,9.083333333333334
2026-01-20T23:09:06+00:00,SAT-65275,294.08725784197884,32.13611283577707,4051.2565205803717,-0.8288442637193865,29029.632123212246,10.5,10500029029.632124,47.655,-122.3035,60.0,9.1
2026-01-20T23:09:07+00:00,SAT-65275,293.9575763967946,32.15317219517089,4050.4298865680225,-0.8171127693113679,28618.74556487129,10.5,10500028618.745565,47.655,-122.3035,60.0,9.116666666666667
2026-01-20T23:09:08+00:00,SAT-65275,293.82778072480124,32.170000477494746,4049.614952766096,-0.805373114224897,28207.5731850513,10.5,10500028207.573185,47.655,-122.3035,60.0,9.133333333333333
2026-01-20T23:09:09+00:00,SAT-65275,293.69787228685243,32.186597184820435,4048.8117273135085,-0.79362541077451,27796.11891748242,10.5,10500027796.118917,47.655,-122.3035,60.0,9.15
2026-01-20T23:09:10+00:00,SAT-65275,293.56785255117256,32.20296182532193,4048.020218237163,-0.781869765293504,27384.386486406514,10.5,10500027384.386486,47.655,-122.3035,60.0,9.166666666666666
2026-01-20T23:09:11+00:00,SAT-65275,293.4377229943367,32.21909391318932,4047.2404334579105,-0.7701062975982474,26972.380088299615,10.5,10500026972.380089,47.655,-122.3035,60.0,9.183333333333334
2026-01-20T23:09:12+00:00,SAT-65275,293.3074850989861,32.234992968953584,4046.4723807771056,-0.7583351134899312,26560.10342876697,10.5,10500026560.103428,47.655,-122.3035,60.0,9.2
2026-01-20T23:09:13+00:00,SAT-65275,293.1771403561557,32.2506585192288,4045.716067890585,-0.7465563266151356,26147.560488192546,10.5,10500026147.560488,47.655,-122.3035,60.0,9.216666666666667
2026-01-20T23:09:14+00:00,SAT-65275,293.04669026392355,32.26609009691715,4044.971502380841,-0.7347700508715008,25734.755255753495,10.5,10500025734.755257,47.655,-122.3035,60.0,9.233333333333333
2026-01-20T23:09:15+00:00,SAT-65275,292.91613632734425,32.28128724125248,4044.2386917167714,-0.7229763992596598,25321.69168920997,10.5,10500025321.691689,47.655,-122.3035,60.0,9.25
2026-01-20T23:09:16+00:00,SAT-65275,292.78548005855623,32.29624949781885,4043.517643254577,-0.7111754839472727,24908.373717147893,10.5,10500024908.373716,47.655,-122.3035,60.0,9.266666666666667
2026-01-20T23:09:17+00:00,SAT-65275,292.6547229769058,32.310976418570576,4042.808364238587,-0.6993674185870181,24494.805320164825,10.5,10500024494.80532,47.655,-122.3035,60.0,9.283333333333333
2026-01-20T23:09:18+00:00,SAT-65275,292.52386660866244,32.325467561901604,4042.1108617997825,-0.6875523188644539,24080.990550058355,10.5,10500024080.990551,47.655,-122.3035,60.0,9.3
2026-01-20T23:09:19+00:00,SAT-65275,292.39291248659356,32.339722492723496,4041.4251429537685,-0.6757302972760584,23666.933346931008,10.5,10500023666.933348,47.655,-122.3035,60.0,9.316666666666666
2026-01-20T23:09:20+00:00,SAT-65275,292.2618621505262,32.35374078243586,4040.7512146039517,-0.6639014695602443,23252.63776443157,10.5,10500023252.637764,47.655,-122.3035,60.0,9.333333333333334
2026-01-20T23:09:21+00:00,SAT-65275,292.13071714670593,32.367522009029045,4040.0890835383107,-0.6520659489504088,22838.10776847259,10.5,10500022838.107769,47.655,-122.3035,60.0,9.35
2026-01-20T23:09:22+00:00,SAT-65275,291.9994790282507,32.38106575706753,4039.438756431891,-0.6402238522115684,22423.34744865886,10.5,10500022423.347448,47.655,-122.3035,60.0,9.366666666666667
2026-01-20T23:09:23+00:00,SAT-65275,291.86814935441157,32.3943716177989,4038.8002398432845,-0.6283752947035118,22008.360845378153,10.5,10500022008.360846,47.655,-122.3035,60.0,9.383333333333333
2026-01-20T23:09:24+00:00,SAT-65275,291.73672969080013,32.407439189159184,4038.173540216034,-0.6165203906755676,21593.15196012523,10.5,10500021593.15196,47.655,-122.3035,60.0,9.4
2026-01-20T23:09:25+00:00,SAT-65275,291.6052216096028,32.4202680757823,4037.5586638797336,-0.6046592576494916,21177.724909009088,10.5,10500021177.724909,47.655,-122.3035,60.0,9.416666666666666
2026-01-20T23:09:26+00:00,SAT-65275,291.47362668885967,32.43285788910269,4036.9556170467713,-0.5927920122729011,20762.083777522723,10.5,10500020762.083778,47.655,-122.3035,60.0,9.433333333333334
2026-01-20T23:09:27+00:00,SAT-65275,291.34194651256354,32.44520824737106,4036.3644058131977,-0.580918768253363,20346.232548186086,10.5,10500020346.232548,47.655,-122.3035,60.0,9.45
2026-01-20T23:09:28+00:00,SAT-65275,291.2101826713154,32.45731877562315,4035.7850361616593,-0.5690396452944199,19930.175413523604,10.5,10500019930.175413,47.655,-122.3035,60.0,9.466666666666667
2026-01-20T23:09:29+00:00,SAT-65275,291.0783367609382,32.469189105838495,4035.2175139554192,-0.55715476026629,19513.916466824674,10.5,10500019513.916468,47.655,-122.3035,60.0,9.483333333333333
2026-01-20T23:09:30+00:00,SAT-65275,290.94641038303166,32.480818876913524,4034.6618449411803,-0.5452642279498996,19097.45972820285,10.5,10500019097.459728,47.655,-122.3035,60.0,9.5
2026-01-20T23:09:31+00:00,SAT-65275,290.81440514547904,32.492207734644985,4034.1180347511718,-0.5333681692913893,18680.80943370359,10.5,10500018680.809433,47.655,-122.3035,60.0,9.516666666666667
2026-01-20T23:09:32+00:00,SAT-65275,290.68232266088427,32.50335533189468,4033.5860888969983,-0.5214666995341656,18263.96961963846,10.5,10500018263.96962,47.655,-122.3035,60.0,9.533333333333333
2026-01-20T23:09:33+00:00,SAT-65275,290.5501645479342,32.514261328495365,4033.0660127753295,-0.5095599367742725,17846.944422230466,10.5,10500017846.944422,47.655,-122.3035,60.0,9.55
2026-01-20T23:09:34+00:00,SAT-65275,290.4179324306691,32.52492539134149,4032.5578116650536,-0.4976480016961172,17429.738068358045,10.5,10500017429.738068,47.655,-122.3035,60.0,9.566666666666666
2026-01-20T23:09:35+00:00,SAT-65275,290.28562793772886,32.53534719447357,4032.061490724695,-0.48573100959443627,17012.35459613057,10.5,10500017012.354595,47.655,-122.3035,60.0,9.583333333333334
2026-01-20T23:09:36+00:00,SAT-65275,290.15325270374274,32.545526418990214,4031.577054997793,-0.47380908232457564,16594.7982734377,10.5,10500016594.798273,47.655,-122.3035,60.0,9.6
2026-01-20T23:09:37+00:00,SAT-65275,290.02080836750986,32.555462753216595,4031.1045094063547,-0.46188233611588775,16177.07317112301,10.5,10500016177.073172,47.655,-122.3035,60.0,9.616666666666667
2026-01-20T23:09:38+00:00,SAT-65275,289.8882965734974,32.565155892610775,4030.643858756468,-0.4499508923292206,15759.183539756748,10.5,10500015759.18354,47.655,-122.3035,60.0,9.633333333333333
2026-01-20T23:09:39+00:00,SAT-65275,289.7557189703356,32.57460553990035,4030.1951077331855,-0.4380148678302182,15341.133472468113,10.5,10500015341.133472,47.655,-122.3035,60.0,9.65
2026-01-20T23:09:40+00:00,SAT-65275,289.62307721209913,32.58381140501096,4029.7582609050028,-0.42607438466023445,14922.927243661554,10.5,10500014922.927244,47.655,-122.3035,60.0,9.666666666666666
2026-01-20T23:09:41+00:00,SAT-65275,289.4903729567017,32.592773205203294,4029.3333227187013,-0.4141295614667321,14504.569008873086,10.5,10500014504.56901,47.655,-122.3035,60.0,9.683333333333334
2026-01-20T23:09:42+00:00,SAT-65275,289.35760786684887,32.601490665024926,4028.920297502732,-0.4021805176020741,14086.062948327331,10.5,10500014086.062948,47.655,-122.3035,60.0,9.7
2026-01-20T23:09:43+00:00,SAT-65275,289.22478360981427,32.609963516348245,4028.51918946651,-0.3902273738482461,13667.413292320329,10.5,10500013667.413292,47.655,-122.3035,60.0,9.716666666666667
2026-01-20T23:09:44+00:00,SAT-65275,289.09190185691125,32.618191498426405,4028.1300026989925,-0.37827025114173235,13248.624276559318,10.5,10500013248.624277,47.655,-122.3035,60.0,9.733333333333333
2026-01-20T23:09:45+00:00,SAT-65275,288.9589642833608,32.62617435791801,4027.75274116852,-0.36630926957486415,12829.70010718573,10.5,10500012829.700108,47.655,-122.3035,60.0,9.75
2026-01-20T23:09:46+00:00,SAT-65275,288.8259725685168,32.63391184889193,4027.387408723664,-0.35434454788048486,12410.644942725981,10.5,10500012410.644943,47.655,-122.3035,60.0,9.766666666666667
2026-01-20T23:09:47+00:00,SAT-65275,288.6929283963618,32.641403732818645,4027.0340090945783,-0.34237621054804324,11991.463143327153,10.5,10500011991.463142,47.655,-122.3035,60.0,9.783333333333333
2026-01-20T23:09:48+00:00,SAT-65275,288.5598334532907,32.648649778716674,4026.692545887258,-0.33040437525785943,11572.15883065185,10.5,10500011572.15883,47.655,-122.3035,60.0,9.8
2026-01-20T23:09:49+00:00,SAT-65275,288.4266894306291,32.655649763024094,4026.363022590334,-0.3184291662523874,11152.73635619635,10.5,10500011152.736357,47.655,-122.3035,60.0,9.816666666666666
2026-01-20T23:09:50+00:00,SAT-65275,288.29349802197805,32.66240346976241,4026.0454425685252,-0.3064507008353564,10733.199828433451,10.5,10500010733.19983,47.655,-122.3035,60.0,9.833333333333334
2026-01-20T23:09:51+00:00,SAT-65275,288.16026092605983,32.66891069040223,4025.7398090695588,-0.2944691034464098,10313.553605765836,10.5,10500010313.553606,47.655,-122.3035,60.0,9.85
2026-01-20T23:09:52+00:00,SAT-65275,288.0269798436385,32.675171224039666,4025.446125217055,-0.28248449582603546,9893.801952060358,10.5,10500009893.801952,47.655,-122.3035,60.0,9.866666666666667
2026-01-20T23:09:53+00:00,SAT-65275,287.8936564785464,32.681184877353054,4025.1643940132176,-0.27049699805131805,9473.94907292444,10.5,10500009473.949074,47.655,-122.3035,60.0,9.883333333333333
2026-01-20T23:09:54+00:00,SAT-65275,287.76029253843785,32.68695146458488,4024.8946183404946,-0.25850673228507615,9053.999247016747,10.5,10500009053.999247,47.655,-122.3035,60.0,9.9
2026-01-20T23:09:55+00:00,SAT-65275,287.62688973379545,32.692470807603414,4024.6368009594953,-0.2465138215210677,8633.956782098938,10.5,10500008633.956781,47.655,-122.3035,60.0,9.916666666666666
2026-01-20T23:09:56+00:00,SAT-65275,287.4934497774042,32.697742735936274,4024.390944508165,-0.2345183871841762,8213.825930984061,10.5,10500008213.825932,47.655,-122.3035,60.0,9.933333333333334
2026-01-20T23:09:57+00:00,SAT-65275,287.3599743850577,32.70276708675208,4024.157051503347,-0.2225205511322884,7793.610961650771,10.5,10500007793.610962,47.655,-122.3035,60.0,9.95
2026-01-20T23:09:58+00:00,SAT-65275,287.2264652753513,32.707543704883264,4023.9351243403507,-0.21052043606846052,7373.316171679127,10.5,10500007373.316172,47.655,-122.3035,60.0,9.966666666666667
2026-01-20T23:09:59+00:00,SAT-65275,287.0929241691143,32.71207244285933,4023.7251652921123,-0.1985181648563462,6952.945864273995,10.5,10500006952.945864,47.655,-122.3035,60.0,9.983333333333333
2026-01-20T23:10:00+00:00,SAT-65275,286.959352789196,32.71635316092265,4023.527176509029,-0.1865138591774799,6532.504301237422,10.5,10500006532.504301,47.655,-122.3035,60.0,10.0
2026-01-20T23:10:01+00:00,SAT-65275,286.82575286117435,32.72038572701536,4023.3411600201425,-0.1745076419539606,6111.995787821274,10.5,10500006111.995789,47.655,-122.3035,60.0,10.016666666666667
2026-01-20T23:10:02+00:00,SAT-65275,286.692126112509,32.72417001681849,4023.1671177319,-0.1624996358868115,5691.424621534411,10.5,10500005691.424622,47.655,-122.3035,60.0,10.033333333333333
2026-01-20T23:10:03+00:00,SAT-65275,286.5584742726054,32.72770591375743,4023.0050514283757,-0.15048996359828204,5270.795097126697,10.5,10500005270.795097,47.655,-122.3035,60.0,10.05
2026-01-20T23:10:04+00:00,SAT-65275,286.42479907282024,32.73099330901136,4022.854962771347,-0.13847874818631506,4850.111526008797,10.5,10500004850.111526,47.655,-122.3035,60.0,10.066666666666666
2026-01-20T23:10:05+00:00,SAT-65275,286.29110224599174,32.734032101533074,4022.7168532998226,-0.12646611279713452,4429.37822128238,10.5,10500004429.378222,47.655,-122.3035,60.0,10.083333333333334
2026-01-20T23:10:06+00:00,SAT-65275,286.15738552622895,32.73682219805911,4022.590724429993,-0.11445217922103387,4008.599448558695,10.5,10500004008.59945,47.655,-122.3035,60.0,10.1
2026-01-20T23:10:07+00:00,SAT-65275,286.02365065036986,32.73936351308746,4022.476577456583,-0.10243707176907667,3587.7795617370234,10.5,10500003587.779562,47.655,-122.3035,60.0,10.116666666666667
2026-01-20T23:10:08+00:00,SAT-65275,285.88989935519675,32.74165596894234,4022.374413550339,-0.09042091300506691,3166.922853520226,10.5,10500003166.922853,47.655,-122.3035,60.0,10.133333333333333
2026-01-20T23:10:09+00:00,SAT-65275,285.7561333792221,32.74369949574121,4022.284233759768,-0.078403825940042,2746.0336322751687,10.5,10500002746.033632,47.655,-122.3035,60.0,10.15
2026-01-20T23:10:10+00:00,SAT-65275,285.62235446225543,32.745494031410935,4022.2060390106976,-0.06638593389911913,2325.1162173691205,10.5,10500002325.116217,47.655,-122.3035,60.0,10.166666666666666
2026-01-20T23:10:11+00:00,SAT-65275,285.4885643448297,32.747039521701296,4022.1398301059553,-0.054367360249597776,1904.1749296467513,10.5,10500001904.17493,47.655,-122.3035,60.0,10.183333333333334
2026-01-20T23:10:12+00:00,SAT-65275,285.3547647678817,32.74833592019006,4022.085607725333,-0.042348227816506864,1483.2140709601242,10.5,10500001483.214071,47.655,-122.3035,60.0,10.2
2026-01-20T23:10:13+00:00,SAT-65275,285.22095747398936,32.749383188274514,4022.0433724261243,-0.030328660192795433,1062.237970057112,10.5,10500001062.23797,47.655,-122.3035,60.0,10.216666666666667
2026-01-20T23:10:14+00:00,SAT-65275,285.0871442054554,32.750181295193265,4022.0131246423584,-0.018308780500292787,641.250939184982,10.5,10500000641.250938,47.655,-122.3035,60.0,10.233333333333333
2026-01-20T23:10:15+00:00,SAT-65275,284.95332670553955,32.750730218017324,4021.9948646852727,-0.00628871210782303,220.25729924180354,10.5,10500000220.2573,47.655,-122.3035,60.0,10.25
2026-01-20T23:10:16+00:00,SAT-65275,284.81950671718323,32.75102994165894,4021.9885927430637,0.005731421751484407,-200.73863362695494,10.5,10499999799.261366,47.655,-122.3035,60.0,10.266666666666667
2026-01-20T23:10:17+00:00,SAT-65275,284.685685984569,32.75108045886816,4021.994308881024,0.01775149770169034,-621.7325382740235,10.5,10499999378.267462,47.655,-122.3035,60.0,10.283333333333333
2026-01-20T23:10:18+00:00,SAT-65275,284.5518662509793,32.750881770238244,4022.0120130413984,0.029771392539142086,-1042.720099586334,10.5,10499998957.2799,47.655,-122.3035,60.0,10.3
2026-01-20T23:10:19+00:00,SAT-65275,284.41804925971996,32.7504338842017,4022.0417050435576,0.04179098289044156,-1463.696996505617,10.5,10499998536.303003,47.655,-122.3035,60.0,10.316666666666666
2026-01-20T23:10:20+00:00,SAT-65275,284.28423675433373,32.74973681703188,4022.083384583827,0.053810145403027684,-1884.6589087034026,10.5,10499998115.341091,47.655,-122.3035,60.0,10.333333333333334
2026-01-20T23:10:21+00:00,SAT-65275,284.15043047802055,32.748790592842106,4022.1370512355093,0.06582875702977946,-2305.601526549024,10.5,10499997694.398474,47.655,-122.3035,60.0,10.35
2026-01-20T23:10:22+00:00,SAT-65275,284.0166321730032,32.74759524357777,4022.2027044491865,0.07784669450097562,-2726.5205326154137,10.5,10499997273.479467,47.655,-122.3035,60.0,10.366666666666667
2026-01-20T23:10:23+00:00,SAT-65275,283.8828435811203,32.746150809016335,4022.2803435525025,0.08986383428770285,-3147.411600397499,10.5,10499996852.5884,47.655,-122.3035,60.0,10.383333333333333
2026-01-20T23:10:24+00:00,SAT-65275,283.7490664440421,32.74445733677024,4022.369967749899,0.10188005357662126,-3568.2704284526176,10.5,10499996431.729572,47.655,-122.3035,60.0,10.4
2026-01-20T23:10:25+00:00,SAT-65275,283.6153025019516,32.74251488226802,4022.4715761233324,0.11389522921998232,-3989.0927036257012,10.5,10499996010.907297,47.655,-122.3035,60.0,10.416666666666666
2026-01-20T23:10:26+00:00,SAT-65275,283.4815534941736,32.74032350875574,4022.585167631941,0.12590923806648,-4409.874112637083,10.5,10499995590.125887,47.655,-122.3035,60.0,10.433333333333334
2026-01-20T23:10:27+00:00,SAT-65275,283.34782115904363,32.73788328729121,4022.7107411120396,0.13792195675135593,-4830.610334731094,10.5,10499995169.389666,47.655,-122.3035,60.0,10.45
2026-01-20T23:10:28+00:00,SAT-65275,283.21410723400135,32.735194296742236,4022.8482952769064,0.14993326305588733,-5251.297089291075,10.5,10499994748.702911,47.655,-122.3035,60.0,10.466666666666667
2026-01-20T23:10:29+00:00,SAT-65275,283.080413454382,32.732256623756435,4022.997828717927,0.1619430330171412,-5671.930034610753,10.5,10499994328.069965,47.655,-122.3035,60.0,10.483333333333333
2026-01-20T23:10:30+00:00,SAT-65275,282.946741555018,32.72907036278806,4023.1593399028566,0.1739511453296657,-6092.50492206008,10.5,10499993907.495077,47.655,-122.3035,60.0,10.5
2026-01-20T23:10:31+00:00,SAT-65275,282.81309326784924,32.72563561603639,4023.3328271784653,0.1859574755136683,-6513.017391830174,10.5,10499993486.982609,47.655,-122.3035,60.0,10.516666666666667
2026-01-20T23:10:32+00:00,SAT-65275,282.6794703244866,32.72195249350063,4023.5182887673773,0.19796190194555158,-6933.463184148187,10.5,10499993066.536816,47.655,-122.3035,60.0,10.533333333333333
2026-01-20T23:10:33+00:00,SAT-65275,282.5458744538286,32.71802111291154,4023.7157227709176,0.20996430175607142,-7353.837995613452,10.5,10499992646.162004,47.655,-122.3035,60.0,10.55
2026-01-20T23:10:34+00:00,SAT-65275,282.41230738301334,32.71384159974688,4023.9251271678695,0.2219645526482393,-7774.137542868116,10.5,10499992225.862457,47.655,-122.3035,60.0,10.566666666666666
2026-01-20T23:10:35+00:00,SAT-65275,282.27877083696546,32.709414087208444,4024.1464998150436,0.2339625320008223,-8194.357531197913,10.5,10499991805.64247,47.655,-122.3035,60.0,10.583333333333334
2026-01-20T23:10:36+00:00,SAT-65275,282.1452665385002,32.70473871621561,4024.3798384469587,0.24595811655883756,-8614.493643691978,10.5,10499991385.506357,47.655,-122.3035,60.0,10.6
2026-01-20T23:10:37+00:00,SAT-65275,282.0117962086005,32.69981563540745,4024.625140675207,0.257951186403765,-9034.541680296483,10.5,10499990965.45832,47.655,-122.3035,60.0,10.616666666666667
2026-01-20T23:10:38+00:00,SAT-65275,281.87836156451044,32.69464500105952,4024.882403991781,0.2699416177657951,-9454.49730606915,10.5,10499990545.502693,47.655,-122.3035,60.0,10.633333333333333
2026-01-20T23:10:39+00:00,SAT-65275,281.74496432182343,32.68922697714977,4025.1516257652324,0.28192928857257243,-9874.356245519728,10.5,10499990125.643755,47.655,-122.3035,60.0,10.65
2026-01-20T23:10:40+00:00,SAT-65275,281.61160619342377,32.68356173530846,4025.4328032423687,0.2939140776329945,-10294.114254023169,10.5,10499989705.885746,47.655,-122.3035,60.0,10.666666666666666
2026-01-20T23:10:41+00:00,SAT-65275,281.478288889023,32.67764945478527,4025.725933549128,0.3058958632411323,-10713.767068923025,10.5,10499989286.232931,47.655,-122.3035,60.0,10.683333333333334
2026-01-20T23:10:42+00:00,SAT-65275,281.3450141153785,32.671490322443276,4026.031013690067,0.31787452335359895,-11133.310415743643,10.5,10499988866.689585,47.655,-122.3035,60.0,10.7
2026-01-20T23:10:43+00:00,SAT-65275,281.2117835763692,32.665084532749944,4026.348040548025,0.3298499359371718,-11552.740020365369,10.5,10499988447.25998,47.655,-122.3035,60.0,10.716666666666667
2026-01-20T23:10:44+00:00,SAT-65275,281.0785989728829,32.65843228775904,4026.6770108841333,0.3418219817883961,-11972.051707778983,10.5,10499988027.948292,47.655,-122.3035,60.0,10.733333333333333
2026-01-20T23:10:45+00:00,SAT-65275,280.94546200162847,32.65153379703459,4027.017921340637,0.35379053850558984,-12391.241190959825,10.5,10499987608.758808,47.655,-122.3035,60.0,10.75
2026-01-20T23:10:46+00:00,SAT-65275,280.8123743564085,32.644389277698146,4027.3707684377064,0.3657554842237512,-12810.304201680041,10.5,10499987189.695799,47.655,-122.3035,60.0,10.766666666666667
2026-01-20T23:10:47+00:00,SAT-65275,280.6793377277686,32.63699895439864,4027.735548573972,0.37771669889069837,-13229.236535204407,10.5,10499986770.763464,47.655,-122.3035,60.0,10.783333333333333
2026-01-20T23:10:48+00:00,SAT-65275,280.5463538022652,32.62936305925502,4028.1122580283327,0.3896740624578069,-13648.033986922286,10.5,10499986351.966013,47.655,-122.3035,60.0,10.8
2026-01-20T23:10:49+00:00,SAT-65275,280.4134242624321,32.621481831835204,4028.500892959957,0.40162745353170287,-14066.692305124236,10.5,10499985933.307695,47.655,-122.3035,60.0,10.816666666666666
2026-01-20T23:10:50+00:00,SAT-65275,280.28055078721417,32.61335551916332,4028.901449406946,0.413576751760355,-14485.207274573024,10.5,10499985514.792725,47.655,-122.3035,60.0,10.833333333333334
2026-01-20T23:10:51+00:00,SAT-65275,280.14773505151766,32.604984375676295,4029.313923287368,0.4255218383163907,-14903.574733431427,10.5,10499985096.425266,47.655,-122.3035,60.0,10.85
2026-01-20T23:10:52+00:00,SAT-65275,280.0149787256785,32.596368663169486,4029.7383104007827,0.4374625909190846,-15321.790398911198,10.5,10499984678.2096,47.655,-122.3035,60.0,10.866666666666667
2026-01-20T23:10:53+00:00,SAT-65275,279.88228347650943,32.58750865084596,4030.1746064247927,0.4493988925091609,-15739.850171101334,10.5,10499984260.149828,47.655,-122.3035,60.0,10.883333333333333
2026-01-20T23:10:54+00:00,SAT-65275,279.74965096560595,32.57840461518367,4030.6228069202552,0.46133062108998896,-16157.749777163786,10.5,10499983842.250223,47.655,-122.3035,60.0,10.9
2026-01-20T23:10:55+00:00,SAT-65275,279.6170828508049,32.56905684001434,4031.082907326356,0.473257659079843,-16575.485098889152,10.5,10499983424.5149,47.655,-122.3035,60.0,10.916666666666666
2026-01-20T23:10:56+00:00,SAT-65275,279.48458078482224,32.55946561640695,4031.554902965011,0.4851798862379918,-16993.051924938398,10.5,10499983006.948074,47.655,-122.3035,60.0,10.933333333333334
2026-01-20T23:10:57+00:00,SAT-65275,279.35214641596724,32.54963124269731,4032.038789038219,0.4970971831698897,-17410.446073609502,10.5,10499982589.553926,47.655,-122.3035,60.0,10.95
2026-01-20T23:10:58+00:00,SAT-65275,279.2197813878409,32.53955402444492,4032.5345606289,0.5090094339323117,-17827.663484080284,10.5,10499982172.336515,47.655,-122.3035,60.0,10.966666666666667
2026-01-20T23:10:59+00:00,SAT-65275,279.08748733836006,32.52923427433394,4033.0422127043425,0.5209165160341293,-18244.69986619329,10.5,10499981755.300135,47.655,-122.3035,60.0,10.983333333333333
2026-01-20T23:11:00+00:00,SAT-65275,278.95526590146386,32.51867231228299,4033.561740109667,0.5328183144245511,-18661.551190383136,10.5,10499981338.448809,47.655,-122.3035,60.0,11.0
2026-01-20T23:11:01+00:00,SAT-65275,278.8231187050902,32.50786846526216,4034.093137575253,0.5447147093832628,-19078.213263538004,10.5,10499980921.786736,47.655,-122.3035,60.0,11.016666666666667
2026-01-20T23:11:02+00:00,SAT-65275,278.69104737234386,32.49682306736178,4034.636399712078,0.5566055835994201,-19494.681976935895,10.5,10499980505.318024,47.655,-122.3035,60.0,11.033333333333333
2026-01-20T23:11:03+00:00,SAT-65275,278.55905352085455,32.48553645971446,4035.1915210141215,0.5684908189759625,-19910.953194318205,10.5,10499980089.046806,47.655,-122.3035,60.0,11.05
2026-01-20T23:11:04+00:00,SAT-65275,278.4271387628954,32.47400899048085,4035.7584958575794,0.5803703005063138,-20327.022887668158,10.5,10499979672.977112,47.655,-122.3035,60.0,11.066666666666666
2026-01-20T23:11:05+00:00,SAT-65275,278.2953047046292,32.462241014755826,4036.337318503952,0.592243906997847,-20742.88681230731,10.5,10499979257.113188,47.655,-122.3035,60.0,11.083333333333334
2026-01-20T23:11:06+00:00,SAT-65275,278.1635529474984,32.45023289466716,4036.927983093864,0.6041115243948653,-21158.540973522708,10.5,10499978841.459026,47.655,-122.3035,60.0,11.1
2026-01-20T23:11:07+00:00,SAT-65275,278.0318850865226,32.437984999195955,4037.5304836541936,0.6159730365757585,-21573.981304244367,10.5,10499978426.018696,47.655,-122.3035,60.0,11.116666666666667
2026-01-20T23:11:08+00:00,SAT-65275,277.9003027107474,32.425497704186576,4038.144814096005,0.6278283269589774,-21989.203721293292,10.5,10499978010.796278,47.655,-122.3035,60.0,11.133333333333333
2026-01-20T23:11:09+00:00,SAT-65275,277.7688074033322,32.41277139232721,4038.770968214092,0.6396772774418713,-22404.204088215083,10.5,10499977595.795912,47.655,-122.3035,60.0,11.15
2026-01-20T23:11:10+00:00,SAT-65275,277.63740074177935,32.39980645314612,4039.408939685461,0.6515197732689246,-22818.97838578617,10.5,10499977181.021614,47.655,-122.3035,60.0,11.166666666666666
2026-01-20T23:11:11+00:00,SAT-65275,277.5060842971981,32.38660328291075,4040.058722072668,0.6633557021088301,-23233.522679689013,10.5,10499976766.47732,47.655,-122.3035,60.0,11.183333333333334
2026-01-20T23:11:12+00:00,SAT-65275,277.3748596337981,32.373162284543,4040.720308826238,0.6751849441137102,-23647.832772343983,10.5,10499976352.167227,47.655,-122.3035,60.0,11.2
2026-01-20T23:11:13+00:00,SAT-65275,277.2437283103504,32.359483867741375,4041.393693277167,0.6870073859210801,-24061.904693317338,10.5,10499975938.095306,47.655,-122.3035,60.0,11.216666666666667
2026-01-20T23:11:14+00:00,SAT-65275,277.1126918788527,32.34556844881225,4042.078868643393,0.6988229162770582,-24475.734546027543,10.5,10499975524.265453,47.655,-122.3035,60.0,11.233333333333333
2026-01-20T23:11:15+00:00,SAT-65275,276.98175188410266,32.33141645059085,4042.775828031893,0.7106314165138534,-24889.318174226588,10.5,10499975110.681826,47.655,-122.3035,60.0,11.25
2026-01-20T23:11:16+00:00,SAT-65275,276.8509098650904,32.31702830255961,4043.4845644312963,0.7224327743164216,-25302.651644166534,10.5,10499974697.348356,47.655,-122.3035,60.0,11.266666666666667
2026-01-20T23:11:17+00:00,SAT-65275,276.7201673537336,32.30240444068088,4044.2050707182143,0.7342268748006676,-25715.730932120412,10.5,10499974284.269068,47.655,-122.3035,60.0,11.283333333333333
2026-01-20T23:11:18+00:00,SAT-65275,276.5895258753309,32.287545307413104,4044.937339654682,0.7460136075670276,-26128.55217142851,10.5,10499973871.447828,47.655,-122.3035,60.0,11.3
2026-01-20T23:11:19+00:00,SAT-65275,276.45898694772586,32.27245135158188,4045.6813638926287,0.7577928577984916,-26541.11134071345,10.5,10499973458.888659,47.655,-122.3035,60.0,11.316666666666666
2026-01-20T23:11:20+00:00,SAT-65275,276.32855208206274,32.25712302843321,4046.4371359694737,0.769564511023639,-26953.404430701885,10.5,10499973046.59557,47.655,-122.3035,60.0,11.333333333333334
2026-01-20T23:11:21+00:00,SAT-65275,276.1982227826912,32.24156079959027,4047.2046483084678,0.7813284602932097,-27365.427695578324,10.5,10499972634.572304,47.655,-122.3035,60.0,11.35
2026-01-20T23:11:22+00:00,SAT-65275,276.068000545843,32.22576513285791,4047.9838932262,0.7930845849680282,-27777.17691004854,10.5,10499972222.82309,47.655,-122.3035,60.0,11.366666666666667
2026-01-20T23:11:23+00:00,SAT-65275,275.9378868619208,32.20973650246918,4048.7748629189414,0.8048327825732016,-28188.64848500831,10.5,10499971811.351515,47.655,-122.3035,60.0,11.383333333333333
2026-01-20T23:11:24+00:00,SAT-65275,275.8078832124236,32.1934753886679,4049.577549480761,0.816572935646944,-28599.838306449026,10.5,10499971400.161694,47.655,-122.3035,60.0,11.4
2026-01-20T23:11:25+00:00,SAT-65275,275.6779910724349,32.17698227798418,4050.3919448885795,0.8283049334893337,-29010.742497191182,10.5,10499970989.257504,47.655,-122.3035,60.0,11.416666666666666
2026-01-20T23:11:26+00:00,SAT-65275,275.5482119094265,32.160257663048974,4051.218041008913,0.8400286688222927,-29421.357299902695,10.5,10499970578.6427,47.655,-122.3035,60.0,11.433333333333334
2026-01-20T23:11:27+00:00,SAT-65275,275.4185471827439,32.143302042487505,4052.055829601285,0.8517440280134709,-29831.678734698005,10.5,10499970168.321266,47.655,-122.3035,60.0,11.45
2026-01-20T23:11:28+00:00,SAT-65275,275.28899834456695,32.12611592100946,4052.905302311891,0.863450904397196,-30241.703065694055,10.5,10499969758.296934,47.655,-122.3035,60.0,11.466666666666667
2026-01-20T23:11:29+00:00,SAT-65275,275.15956683881086,32.10869980922228,4053.7664506805427,0.875149184352298,-30651.426313396878,10.5,10499969348.573687,47.655,-122.3035,60.0,11.483333333333333
2026-01-20T23:11:30+00:00,SAT-65275,275.03025410216543,32.09105422373677,4054.639266133737,0.8868387619835655,-31060.84476890822,10.5,10499968939.155231,47.655,-122.3035,60.0,11.5
2026-01-20T23:11:31+00:00,SAT-65275,274.9010615629067,32.07317968696312,4055.523739992355,0.8985195264055761,-31469.95454855155,10.5,10499968530.045452,47.655,-122.3035,60.0,11.516666666666667
2026-01-20T23:11:32+00:00,SAT-65275,274.77199064162573,32.05507672717457,4056.4198634666905,0.9101913689838138,-31878.751847486586,10.5,10499968121.248152,47.655,-122.3035,60.0,11.533333333333333
2026-01-20T23:11:33+00:00,SAT-65275,274.64304275086863,32.03674587841669,4057.32762765869,0.9218541830998693,-32287.23293148565,10.5,10499967712.767069,47.655,-122.3035,60.0,11.55
2026-01-20T23:11:34+00:00,SAT-65275,274.5142192948424,32.018187680425235,4058.2470235639685,0.9335078624290855,-32695.394076609482,10.5,10499967304.605923,47.655,-122.3035,60.0,11.566666666666666
2026-01-20T23:11:35+00:00,SAT-65275,274.38552166935557,31.99940267857506,4059.178042072098,0.9451522923714613,-33103.231269081305,10.5,10499966896.76873,47.655,-122.3035,60.0,11.583333333333334
2026-01-20T23:11:36+00:00,SAT-65275,274.2569512629732,31.98039142401207,4060.120673958356,0.9567873753599826,-33510.74109169156,10.5,10499966489.25891,47.655,-122.3035,60.0,11.6
2026-01-20T23:11:37+00:00,SAT-65275,274.128509454603,31.96115447325186,4061.0749099007153,0.9684129990872284,-33917.91961095932,10.5,10499966082.080389,47.655,-122.3035,60.0,11.616666666666667
2026-01-20T23:11:38+00:00,SAT-65275,274.0001976155616,31.94169238844717,4062.0407404651382,0.9800290594204929,-34324.763179716734,10.5,10499965675.23682,47.655,-122.3035,60.0,11.633333333333333
2026-01-20T23:11:39+00:00,SAT-65275,273.872017108409,31.922005737169368,4063.0181561137333,0.9916354484118645,-34731.26801717132,10.5,10499965268.731983,47.655,-122.3035,60.0,11.65
2026-01-20T23:11:40+00:00,SAT-65275,273.7439692874709,31.902095092447663,4064.0071472009495,1.0032320621049893,-35137.430482331845,10.5,10499964862.569517,47.655,-122.3035,60.0,11.666666666666666
2026-01-20T23:11:41+00:00,SAT-65275,273.61605549829,31.881961032639246,4065.0077039775556,1.0148187988127153,-35543.24701368408,10.5,10499964456.752987,47.655,-122.3035,60.0,11.683333333333334
2026-01-20T23:11:42+00:00,SAT-65275,273.4882770773451,31.861604141339726,4066.0198165929046,1.0263955459049017,-35948.71366644409,10.5,10499964051.286333,47.655,-122.3035,60.0,11.7
2026-01-20T23:11:43+00:00,SAT-65275,273.36063535342646,31.841025007562532,4067.043475084021,1.0379622081782642,-36353.82710619016,10.5,10499963646.172894,47.655,-122.3035,60.0,11.716666666666667
2026-01-20T23:11:44+00:00,SAT-65275,273.23313164543276,31.820224225335906,4068.0786693929767,1.0495186760723096,-36758.58349565035,10.5,10499963241.416504,47.655,-122.3035,60.0,11.733333333333333
2026-01-20T23:11:45+00:00,SAT-65275,273.1057672641586,31.79920239395064,4069.12538935258,1.0610648480853864,-37162.979279807485,10.5,10499962837.02072,47.655,-122.3035,60.0,11.75
2026-01-20T23:11:46+00:00,SAT-65275,272.9785435113023,31.777960117752837,4070.1836246944035,1.0726006212465782,-37567.01085218452,10.5,10499962432.989147,47.655,-122.3035,60.0,11.766666666666667
2026-01-20T23:11:47+00:00,SAT-65275,272.8514616796385,31.756498006124765,4071.253365047327,1.0841258931277489,-37970.67462531484,10.5,10499962029.325375,47.655,-122.3035,60.0,11.783333333333333
2026-01-20T23:11:48+00:00,SAT-65275,272.72452305294325,31.734816673429176,4072.334599938073,1.0956405616717617,-38373.96702472582,10.5,10499961626.032976,47.655,-122.3035,60.0,11.8
2026-01-20T23:11:49+00:00,SAT-65275,272.59772890596423,31.712916738955098,4073.4273187915805,1.1071445244677596,-38776.88446355603,10.5,10499961223.115536,47.655,-122.3035,60.0,11.816666666666666
2026-01-20T23:11:50+00:00,SAT-65275,272.47108050444876,31.69079882687918,4074.5315109306493,1.1186376829622735,-39179.42349004614,10.5,10499960820.57651,47.655,-122.3035,60.0,11.833333333333334
2026-01-20T23:11:51+00:00,SAT-65275,272.34457910471167,31.66846356613941,4075.647165579791,1.130119934750036,-39581.58051753049,10.5,10499960418.419483,47.655,-122.3035,60.0,11.85
2026-01-20T23:11:52+00:00,SAT-65275,272.2182259540779,31.645911590467875,4076.7742718613813,1.1415911768387865,-39983.351938784464,10.5,10499960016.648062,47.655,-122.3035,60.0,11.866666666666667
2026-01-20T23:11:53+00:00,SAT-65275,272.0920222909431,31.623143538355897,4077.912818795082,1.1530513157653857,-40384.73448033355,10.5,10499959615.26552,47.655,-122.3035,60.0,11.883333333333333
2026-01-20T23:11:54+00:00,SAT-65275,271.965969343718,31.60016005281172,4079.0627953073385,1.1645002467145873,-40785.72447110449,10.5,10499959214.275528,47.655,-122.3035,60.0,11.9
2026-01-20T23:11:55+00:00,SAT-65275,271.8400683321012,31.576961781545464,4080.2241902200617,1.175937872656566,-41186.31851270235,10.5,10499958813.681488,47.655,-122.3035,60.0,11.916666666666666
2026-01-20T23:11:56+00:00,SAT-65275,271.71432046621607,31.55354937676362,4081.3969922583915,1.1873640941271222,-41586.51312147013,10.5,10499958413.48688,47.655,-122.3035,60.0,11.933333333333334
2026-01-20T23:11:57+00:00,SAT-65275,271.58872694689205,31.529923495169864,4082.5811900482677,1.1987788170003972,-41986.3050007221,10.5,10499958013.695,47.655,-122.3035,60.0,11.95
2026-01-20T23:11:58+00:00,SAT-65275,271.4632889651015,31.506084797809883,4083.776772121756,1.2101819370745674,-42385.690500869634,10.5,10499957614.3095,47.655,-122.3035,60.0,11.966666666666667
2026-01-20T23:11:59+00:00,SAT-65275,271.33800770304424,31.482033950228775,4084.983726906998,1.2215733630494765,-42784.66642419505,10.5,10499957215.333576,47.655,-122.3035,60.0,11.983333333333333
2026-01-20T23:12:00+00:00,SAT-65275,271.2128843327925,31.45777162216046,4086.2020427410794,1.2329529993203454,-43183.22942221457,10.5,10499956816.770578,47.655,-122.3035,60.0,12.0
2026-01-20T23:12:01+00:00,SAT-65275,271.0879200167661,31.433298487566486,4087.431707865735,1.2443207410958161,-43581.3758246916,10.5,10499956418.624176,47.655,-122.3035,60.0,12.016666666666667
2026-01-20T23:12:02+00:00,SAT-65275,270.9631159086882,31.40861522477831,4088.672710418188,1.2556765034274624,-43979.10265637288,10.5,10499956020.897343,47.655,-122.3035,60.0,12.033333333333333
2026-01-20T23:12:03+00:00,SAT-65275,270.8384731515679,31.38372251604125,4089.9250384509396,1.2670201823441922,-44376.406275751004,10.5,10499955623.593723,47.655,-122.3035,60.0,12.05
2026-01-20T23:12:04+00:00,SAT-65275,270.71399287964425,31.358621047857113,4091.188679912798,1.2783516920696896,-44773.28367857653,10.5,10499955226.716322,47.655,-122.3035,60.0,12.066666666666666
2026-01-20T23:12:05+00:00,SAT-65275,270.58967621658746,31.333311510562762,4092.463622667022,1.289670928564761,-45169.73122095683,10.5,10499954830.26878,47.655,-122.3035,60.0,12.083333333333334
2026-01-20T23:12:06+00:00,SAT-65275,270.4655242773308,31.307794598658088,4093.74985447311,1.3009778049416139,-45565.745859713876,10.5,10499954434.25414,47.655,-122.3035,60.0,12.1
2026-01-20T23:12:07+00:00,SAT-65275,270.34153816638315,31.282071010402966,4095.0473630039055,1.312272227238036,-45961.324303893525,10.5,10499954038.675695,47.655,-122.3035,60.0,12.116666666666667
2026-01-20T23:12:08+00:00,SAT-65275,270.2177189785689,31.256141447918996,4096.356135838538,1.3235541005704134,-46356.46323027026,10.5,10499953643.53677,47.655,-122.3035,60.0,12.133333333333333
2026-01-20T23:12:09+00:00,SAT-65275,270.0940677991245,31.230006617155915,4097.676160461507,1.3348233327486965,-46751.15940995858,10.5,10499953248.84059,47.655,-122.3035,60.0,12.15
2026-01-20T23:12:10+00:00,SAT-65275,269.97058570345973,31.203667227790717,4099.007424265368,1.3460798351027659,-47145.40973735584,10.5,10499952854.590263,47.655,-122.3035,60.0,12.166666666666666
2026-01-20T23:12:11+00:00,SAT-65275,269.84727375684815,31.177123993105827,4100.349914554244,1.3573235144693307,-47539.210949489505,10.5,10499952460.789051,47.655,-122.3035,60.0,12.183333333333334
2026-01-20T23:12:12+00:00,SAT-65275,269.7241330148929,31.15037763003535,4101.703618539341,1.3685542767743717,-47932.55975148948,10.5,10499952067.440248,47.655,-122.3035,60.0,12.2
2026-01-20T23:12:13+00:00,SAT-65275,269.60116452361234,31.123428859132364,4103.068523338044,1.379772039444881,-48325.45325129977,10.5,10499951674.54675,47.655,-122.3035,60.0,12.216666666666667
2026-01-20T23:12:14+00:00,SAT-65275,269.4783693184234,31.096278404289666,4104.444615985384,1.390976704048346,-48717.888001397405,10.5,10499951282.112,47.655,-122.3035,60.0,12.233333333333333
2026-01-20T23:12:15+00:00,SAT-65275,269.3557484256157,31.068926993011928,4105.831883418221,1.4021681901173149,-49109.861183471825,10.5,10499950890.138817,47.655,-122.3035,60.0,12.25
2026-01-20T23:12:16+00:00,SAT-65275,269.2333028607466,31.041375356003304,4107.230312493165,1.4133464012445298,-49501.36942093307,10.5,10499950498.630579,47.655,-122.3035,60.0,12.266666666666667
2026-01-20T23:12:17+00:00,SAT-65275,269.1110336301126,31.013624227442733,4108.639889970673,1.4245112537490647,-49892.40978292115,10.5,10499950107.590218,47.655,-122.3035,60.0,12.283333333333333
2026-01-20T23:12:18+00:00,SAT-65275,268.9889417296449,30.985674344679197,4110.060602527745,1.435662661095832,-50282.97923861126,10.5,10499949717.020761,47.655,-122.3035,60.0,12.3
2026-01-20T23:12:19+00:00,SAT-65275,268.86702814519776,30.957526448240216,4111.4924367550775,1.4468005305728402,-50673.07454083725,10.5,10499949326.925459,47.655,-122.3035,60.0,12.316666666666666
2026-01-20T23:12:20+00:00,SAT-65275,268.7452938531162,30.929181281910115,4112.935379150903,1.4579247798733894,-51062.69280687038,10.5,10499948937.307194,47.655,-122.3035,60.0,12.333333333333334
2026-01-20T23:12:21+00:00,SAT-65275,268.6237398193591,30.900639592468874,4114.389416131363,1.4690353197159722,-51451.83090969456,10.5,10499948548.16909,47.655,-122.3035,60.0,12.35
2026-01-20T23:12:22+00:00,SAT-65275,268.50236700015114,30.871902129790602,4115.85453402356,1.480132071194895,-51840.486085698656,10.5,10499948159.513914,47.655,-122.3035,60.0,12.366666666666667
2026-01-20T23:12:23+00:00,SAT-65275,268.3811763411275,30.842969646579895,4117.330719075898,1.4912149413638778,-52228.65507951076,10.5,10499947771.344921,47.655,-122.3035,60.0,12.383333333333333
2026-01-20T23:12:24+00:00,SAT-65275,268.2601687785596,30.813842898613654,4118.817957444086,1.502283853800389,-52616.33521449057,10.5,10499947383.664785,47.655,-122.3035,60.0,12.4
2026-01-20T23:12:25+00:00,SAT-65275,268.13934523802016,30.784522644356365,4120.316235207609,1.5133387151464903,-53003.52322084817,10.5,10499946996.47678,47.655,-122.3035,60.0,12.416666666666666
2026-01-20T23:12:26+00:00,SAT-65275,268.01870663580274,30.75500964525648,4121.825538352848,1.5243794465396874,-53390.21633648542,10.5,10499946609.783663,47.655,-122.3035,60.0,12.433333333333334
2026-01-20T23:12:27+00:00,SAT-65275,267.8982538777815,30.725304665404725,4123.345852787531,1.535405967624336,-53776.41174700775,10.5,10499946223.588253,47.655,-122.3035,60.0,12.45
2026-01-20T23:12:28+00:00,SAT-65275,267.77798785958714,30.695408471520306,4124.877164339241,1.5464181896906757,-54162.10634542412,10.5,10499945837.893654,47.655,-122.3035,60.0,12.466666666666667
2026-01-20T23:12:29+00:00,SAT-65275,267.65790946728737,30.66532183306698,4126.419458747093,1.5574160396958368,-54547.29757346426,10.5,10499945452.702427,47.655,-122.3035,60.0,12.483333333333333
2026-01-20T23:12:30+00:00,SAT-65275,267.5380195762282,30.6350455218977,4127.972721677349,1.5683994288583996,-54931.98232162729,10.5,10499945068.01768,47.655,-122.3035,60.0,12.5
2026-01-20T23:12:31+00:00,SAT-65275,267.4183190522912,30.604580312519182,4129.536938707731,1.5793682776201168,-55316.15780344689,10.5,10499944683.842197,47.655,-122.3035,60.0,12.516666666666667
2026-01-20T23:12:32+00:00,SAT-65275,267.2988087512084,30.57392698186167,4131.112095336611,1.590322509266739,-55699.821332065534,10.5,10499944300.178667,47.655,-122.3035,60.0,12.533333333333333
2026-01-20T23:12:33+00:00,SAT-65275,267.17948951840765,30.543086309175305,4132.698176985852,1.601262038341113,-56082.969914412206,10.5,10499943917.030087,47.655,-122.3035,60.0,12.55
2026-01-20T23:12:34+00:00,SAT-65275,267.0603621897124,30.512059076159524,4134.295168992091,1.6121867966198158,-56465.601161014085,10.5,10499943534.398838,47.655,-122.3035,60.0,12.566666666666666
2026-01-20T23:12:35+00:00,SAT-65275,266.94142759010003,30.480846066571583,4135.903056623921,1.623096689119623,-56847.711745156856,10.5,10499943152.288256,47.655,-122.3035,60.0,12.583333333333334
2026-01-20T23:12:36+00:00,SAT-65275,266.82268653574175,30.44944806671536,4137.521825055202,1.6339916504473884,-57229.29937649592,10.5,10499942770.700623,47.655,-122.3035,60.0,12.6
2026-01-20T23:12:37+00:00,SAT-65275,266.7041398318447,30.417865864804487,4139.151459394581,1.644871600675897,-57610.36125564213,10.5,10499942389.638744,47.655,-122.3035,60.0,12.616666666666667
2026-01-20T23:12:38+00:00,SAT-65275,266.5857882737944,30.386100251208347,4140.791944670989,1.655736464057534,-57990.89472959359,10.5,10499942009.10527,47.655,-122.3035,60.0,12.633333333333333
2026-01-20T23:12:39+00:00,SAT-65275,266.46763264689014,30.354152018320676,4142.443265837809,1.6665861524507284,-58370.89671125966,10.5,10499941629.103289,47.655,-122.3035,60.0,12.65
2026-01-20T23:12:40+00:00,SAT-65275,266.34967372727886,30.322021960763255,4144.10540776052,1.6774206070143032,-58750.36513977341,10.5,10499941249.634861,47.655,-122.3035,60.0,12.666666666666666
2026-01-20T23:12:41+00:00,SAT-65275,266.23191227991657,30.2897108747571,4145.778355245916,1.6882397418885944,-59129.297007966234,10.5,10499940870.702991,47.655,-122.3035,60.0,12.683333333333334
2026-01-20T23:12:42+00:00,SAT-65275,266.1143490605367,30.257219558614313,4147.462093015159,1.699043483587057,-59507.68974202846,10.5,10499940492.310259,47.655,-122.3035,60.0,12.7
2026-01-20T23:12:43+00:00,SAT-65275,265.9969848148368,30.224548812447736,4149.1566057161235,1.709831763363819,-59885.54093418887,10.5,10499940114.459066,47.655,-122.3035,60.0,12.716666666666667
2026-01-20T23:12:44+00:00,SAT-65275,265.87982027819237,30.19169943803426,4150.861877928118,1.720604498013648,-60262.847670248266,10.5,10499939737.15233,47.655,-122.3035,60.0,12.733333333333333
2026-01-20T23:12:45+00:00,SAT-65275,265.76285617672045,30.158672239053693,4152.577894147471,1.7313616240172038,-60639.607725490685,10.5,10499939360.392275,47.655,-122.3035,60.0,12.75
2026-01-20T23:12:46+00:00,SAT-65275,265.6460932259733,30.125468020658907,4154.304638807157,1.7421030619249995,-61015.81831725899,10.5,10499938984.181683,47.655,-122.3035,60.0,12.766666666666667
2026-01-20T23:12:47+00:00,SAT-65275,265.52953213208264,30.092087589743578,4156.042096260917,1.7528287467895975,-61391.4771708192,10.5,10499938608.52283,47.655,-122.3035,60.0,12.783333333333333
2026-01-20T23:12:48+00:00,SAT-65275,265.4131735908432,30.058531754615924,4157.790250797715,1.7635385986055176,-61766.58148404098,10.5,10499938233.418516,47.655,-122.3035,60.0,12.8
2026-01-20T23:12:49+00:00,SAT-65275,265.2970182887631,30.024801325246827,4159.549086626725,1.7742325524161737,-62141.12898186993,10.5,10499937858.871017,47.655,-122.3035,60.0,12.816666666666666
