satellites_20260121_005943/SAT-52503.csv

timestamp,satellite,azimuth_deg,elevation_deg,distance_km,relative_velocity_kms,doppler_shift_hz,tx_freq_ghz,rx_freq_hz,ue_lat,ue_lon,ue_alt_m,time_minutes
2026-01-20T23:08:11+00:00,SAT-52503,206.64239938047754,30.055680342774426,1528.9105714128682,-5.736092022178221,200902.20626187776,10.5,10500200902.206263,47.655,-122.3035,60.0,8.183333333333334
2026-01-20T23:08:12+00:00,SAT-52503,206.66073808830564,30.22436690171859,1523.1897756360822,-5.7264516717866245,200564.5604125223,10.5,10500200564.560413,47.655,-122.3035,60.0,8.2
2026-01-20T23:08:13+00:00,SAT-52503,206.67950050470677,30.39411773933566,1517.478594502087,-5.716695761018767,200222.8671499703,10.5,10500200222.86715,47.655,-122.3035,60.0,8.216666666666667
2026-01-20T23:08:14+00:00,SAT-52503,206.6986936577425,30.56494280646819,1511.7771432630975,-5.706822718020276,199877.0714212327,10.5,10500199877.07142,47.655,-122.3035,60.0,8.233333333333333
2026-01-20T23:08:15+00:00,SAT-52503,206.7183247315607,30.73685213989709,1506.085538738992,-5.696831007138548,199527.11944125942,10.5,10500199527.119442,47.655,-122.3035,60.0,8.25
2026-01-20T23:08:16+00:00,SAT-52503,206.73840107095359,30.90985586401885,1500.403899281206,-5.68671908790432,199172.9572563008,10.5,10500199172.957256,47.655,-122.3035,60.0,8.266666666666667
2026-01-20T23:08:17+00:00,SAT-52503,206.75893018589946,31.083964191293724,1494.7323447775361,-5.6764853121095555,198814.52713913948,10.5,10500198814.52714,47.655,-122.3035,60.0,8.283333333333333
2026-01-20T23:08:18+00:00,SAT-52503,206.77991975586588,31.259187419560245,1489.0709967595922,-5.666128119305604,198451.774436263,10.5,10500198451.774437,47.655,-122.3035,60.0,8.3
2026-01-20T23:08:19+00:00,SAT-52503,206.80137763503623,31.4355359351944,1483.4199783152715,-5.655645837305347,198084.64058060508,10.5,10500198084.640581,47.655,-122.3035,60.0,8.316666666666666
2026-01-20T23:08:20+00:00,SAT-52503,206.82331185689142,31.613020210195536,1477.7794142001987,-5.645036810806506,197713.06759647807,10.5,10500197713.067596,47.655,-122.3035,60.0,8.333333333333334
2026-01-20T23:08:21+00:00,SAT-52503,206.8457306395049,31.7916508031255,1472.1494308208876,-5.634299366666002,197336.99688333395,10.5,10500197336.996883,47.655,-122.3035,60.0,8.35
2026-01-20T23:08:22+00:00,SAT-52503,206.86864239084542,31.9714383589613,1466.530156252533,-5.623431804370072,196956.36888198755,10.5,10500196956.368881,47.655,-122.3035,60.0,8.366666666666667
2026-01-20T23:08:23+00:00,SAT-52503,206.8920557142408,32.152393608597606,1460.9217202663076,-5.612432364549798,196571.1219718973,10.5,10500196571.121971,47.655,-122.3035,60.0,8.383333333333333
2026-01-20T23:08:24+00:00,SAT-52503,206.9159794138927,32.334527367293866,1455.3242543880635,-5.601299328972337,196181.19597328076,10.5,10500196181.195972,47.655,-122.3035,60.0,8.4
2026-01-20T23:08:25+00:00,SAT-52503,206.94042250102623,32.51785053623558,1449.7378918573017,-5.590030896435677,195786.52780042455,10.5,10500195786.5278,47.655,-122.3035,60.0,8.416666666666666
2026-01-20T23:08:26+00:00,SAT-52503,206.96539419968445,32.70237410009213,1444.1627677099232,-5.578625276525536,195387.05474544704,10.5,10500195387.054745,47.655,-122.3035,60.0,8.433333333333334
2026-01-20T23:08:27+00:00,SAT-52503,206.99090395318154,32.888109127505324,1438.5990187674684,-5.567080658332653,194982.71338264574,10.5,10500194982.713383,47.655,-122.3035,60.0,8.45
2026-01-20T23:08:28+00:00,SAT-52503,207.01696143062162,33.07506677054118,1433.046783657558,-5.555395164416207,194573.43795610152,10.5,10500194573.437956,47.655,-122.3035,60.0,8.466666666666667
2026-01-20T23:08:29+00:00,SAT-52503,207.04357653343368,33.26325826251435,1427.5062028802467,-5.5435669448280365,194159.16367280457,10.5,10500194159.163673,47.655,-122.3035,60.0,8.483333333333333
2026-01-20T23:08:30+00:00,SAT-52503,207.0707594025974,33.45269491887988,1421.9774187806051,-5.531594086518648,193739.82352966935,10.5,10500193739.82353,47.655,-122.3035,60.0,8.5
2026-01-20T23:08:31+00:00,SAT-52503,207.09852042569506,33.64338813502649,1416.4605756116505,-5.519474665614997,193315.35014452387,10.5,10500193315.350145,47.655,-122.3035,60.0,8.516666666666667
2026-01-20T23:08:32+00:00,SAT-52503,207.12687024446234,33.835349385737466,1410.9558195451436,-5.507206738850872,192885.67545596545,10.5,10500192885.675455,47.655,-122.3035,60.0,8.533333333333333
2026-01-20T23:08:33+00:00,SAT-52503,207.15581976257857,34.028590224286425,1405.4632986909298,-5.494788350108971,192450.73095249178,10.5,10500192450.730953,47.655,-122.3035,60.0,8.55
2026-01-20T23:08:34+00:00,SAT-52503,207.18538015380557,34.22312228170756,1399.9831631097545,-5.482217457420455,192010.4451157166,10.5,10500192010.445116,47.655,-122.3035,60.0,8.566666666666666
2026-01-20T23:08:35+00:00,SAT-52503,207.21556286997733,34.41895726338322,1394.515564898887,-5.469492068177838,191564.74815609705,10.5,10500191564.748156,47.655,-122.3035,60.0,8.583333333333334
2026-01-20T23:08:36+00:00,SAT-52503,207.24637965007727,34.61610695028911,1389.060658142891,-5.456610121494312,191113.5678926595,10.5,10500191113.567892,47.655,-122.3035,60.0,8.6
2026-01-20T23:08:37+00:00,SAT-52503,207.27784252898766,34.814583196018425,1383.6185989817209,-5.443569544234713,190656.83171544125,10.5,10500190656.831715,47.655,-122.3035,60.0,8.616666666666667
2026-01-20T23:08:38+00:00,SAT-52503,207.3099638468675,35.014397925671396,1378.1895456229374,-5.430368223416911,190194.4656188701,10.5,10500190194.465618,47.655,-122.3035,60.0,8.633333333333333
2026-01-20T23:08:39+00:00,SAT-52503,207.34275625874542,35.21556313364081,1372.7736583814494,-5.417004019168102,189726.3946555489,10.5,10500189726.394655,47.655,-122.3035,60.0,8.65
2026-01-20T23:08:40+00:00,SAT-52503,207.37623274453242,35.418090881747446,1367.3710997063326,-5.403474812829846,189252.54462109713,10.5,10500189252.54462,47.655,-122.3035,60.0,8.666666666666666
2026-01-20T23:08:41+00:00,SAT-52503,207.41040661974853,35.62199329904974,1361.9820341596703,-5.3897784012155805,188772.83835060187,10.5,10500188772.83835,47.655,-122.3035,60.0,8.683333333333334
2026-01-20T23:08:42+00:00,SAT-52503,207.4452915459761,35.82728257763919,1356.6066285008578,-5.37591253351295,188287.19701109352,10.5,10500188287.197012,47.655,-122.3035,60.0,8.7
2026-01-20T23:08:43+00:00,SAT-52503,207.480901541917,36.033970969568166,1351.245051734101,-5.361875041959835,187795.54467837303,10.5,10500187795.544678,47.655,-122.3035,60.0,8.716666666666667
2026-01-20T23:08:44+00:00,SAT-52503,207.51725099582322,36.24207078867724,1345.8974750255863,-5.347663630453624,187297.80093321446,10.5,10500187297.800934,47.655,-122.3035,60.0,8.733333333333333
2026-01-20T23:08:45+00:00,SAT-52503,207.5543546769373,36.451594404247444,1340.5640718314805,-5.333275984783585,186793.88472216882,10.5,10500186793.884722,47.655,-122.3035,60.0,8.75
2026-01-20T23:08:46+00:00,SAT-52503,207.59222774812173,36.66255423863958,1335.2450179159898,-5.3187098383762015,186283.71666024407,10.5,10500186283.71666,47.655,-122.3035,60.0,8.766666666666667
2026-01-20T23:08:47+00:00,SAT-52503,207.63088577952723,36.87496276740086,1329.9404913038493,-5.3039627951455195,185767.21282637454,10.5,10500185767.212826,47.655,-122.3035,60.0,8.783333333333333
2026-01-20T23:08:48+00:00,SAT-52503,207.6703447614416,37.08883251227428,1324.6506724094909,-5.289032511367977,185244.2911334473,10.5,10500185244.291134,47.655,-122.3035,60.0,8.8
2026-01-20T23:08:49+00:00,SAT-52503,207.71062111906107,37.30417604116963,1319.3757439848198,-5.2739166010988905,184714.86801558678,10.5,10500184714.868015,47.655,-122.3035,60.0,8.816666666666666
2026-01-20T23:08:50+00:00,SAT-52503,207.751731727129,37.5210059642804,1314.115891161324,-5.258612588282909,184178.8567508611,10.5,10500184178.85675,47.655,-122.3035,60.0,8.833333333333334
2026-01-20T23:08:51+00:00,SAT-52503,207.79369392475505,37.73933492798845,1308.871301539943,-5.243118078849931,183636.17348880833,10.5,10500183636.173489,47.655,-122.3035,60.0,8.85
2026-01-20T23:08:52+00:00,SAT-52503,207.8365255322744,37.959175615623224,1303.6421651093033,-5.227430565288852,183086.73040578276,10.5,10500183086.730406,47.655,-122.3035,60.0,8.866666666666667
2026-01-20T23:08:53+00:00,SAT-52503,207.88024486717018,38.1805407400338,1298.4286743588552,-5.211547512577107,182530.4387145711,10.5,10500182530.438715,47.655,-122.3035,60.0,8.883333333333333
2026-01-20T23:08:54+00:00,SAT-52503,207.92487076134512,38.40344303940666,1293.2310243063118,-5.195466443111559,181967.2116390312,10.5,10500181967.21164,47.655,-122.3035,60.0,8.9
2026-01-20T23:08:55+00:00,SAT-52503,207.97042257990506,38.62789527650454,1288.0494124403817,-5.179184757921621,181396.9581522195,10.5,10500181396.958153,47.655,-122.3035,60.0,8.916666666666666
2026-01-20T23:08:56+00:00,SAT-52503,208.0169202391115,38.853910230141196,1282.8840388418148,-5.16269988415869,180819.58814209478,10.5,10500180819.588142,47.655,-122.3035,60.0,8.933333333333334
2026-01-20T23:08:57+00:00,SAT-52503,208.06438422643672,39.08150069262871,1277.735106157347,-5.146009189972901,180235.009430142,10.5,10500180235.00943,47.655,-122.3035,60.0,8.95
2026-01-20T23:08:58+00:00,SAT-52503,208.11283562066532,39.31067946335344,1272.6028196585473,-5.129110062604136,179643.13050645,10.5,10500179643.130507,47.655,-122.3035,60.0,8.966666666666667
2026-01-20T23:08:59+00:00,SAT-52503,208.16229611361646,39.541459345498694,1267.487387222777,-5.111999826657497,179043.8576673724,10.5,10500179043.857668,47.655,-122.3035,60.0,8.983333333333333
2026-01-20T23:09:00+00:00,SAT-52503,208.21278803200488,39.7738531389264,1262.3890193956572,-5.09467576480665,178437.09574064676,10.5,10500178437.095741,47.655,-122.3035,60.0,9.0
2026-01-20T23:09:01+00:00,SAT-52503,208.2643343604177,40.00787363361091,1257.30792943289,-5.077135203326452,177822.75108110876,10.5,10500177822.751081,47.655,-122.3035,60.0,9.016666666666667
2026-01-20T23:09:02+00:00,SAT-52503,208.31695876620907,40.24353360671358,1252.2443332567725,-5.059375356278361,177200.72611340604,10.5,10500177200.726114,47.655,-122.3035,60.0,9.033333333333333
2026-01-20T23:09:03+00:00,SAT-52503,208.37068562383328,40.48084581223894,1247.1984495681108,-5.041393509137095,176570.92576338095,10.5,10500176570.925764,47.655,-122.3035,60.0,9.05
2026-01-20T23:09:04+00:00,SAT-52503,208.42554004222,40.719822978818414,1242.170499774998,-5.0231868136352755,175933.25027266162,10.5,10500175933.250273,47.655,-122.3035,60.0,9.066666666666666
2026-01-20T23:09:05+00:00,SAT-52503,208.48154789111732,40.96047779763319,1237.160708126199,-5.004752488792301,175287.60223954386,10.5,10500175287.60224,47.655,-122.3035,60.0,9.083333333333334
2026-01-20T23:09:06+00:00,SAT-52503,208.53873583085107,41.20282291938401,1232.1693016440436,-4.986087687697482,174633.88195317294,10.5,10500174633.881952,47.655,-122.3035,60.0,9.1
2026-01-20T23:09:07+00:00,SAT-52503,208.59713134191972,41.44687094465717,1227.19651019018,-4.9671895472218255,173971.9891346605,10.5,10500173971.989134,47.655,-122.3035,60.0,9.116666666666667
2026-01-20T23:09:08+00:00,SAT-52503,208.65676275649986,41.692634416266245,1222.2425664817506,-4.94805517888659,173301.82261726278,10.5,10500173301.822617,47.655,-122.3035,60.0,9.133333333333333
2026-01-20T23:09:09+00:00,SAT-52503,208.7176592912716,41.940125810743815,1217.3077061166746,-4.928681692845413,172623.28118633604,10.5,10500172623.281187,47.655,-122.3035,60.0,9.15
2026-01-20T23:09:10+00:00,SAT-52503,208.7798510820565,42.1893575306428,1212.39216757501,-4.909066135627644,171936.261398845,10.5,10500171936.261398,47.655,-122.3035,60.0,9.166666666666666
2026-01-20T23:09:11+00:00,SAT-52503,208.8433692192645,42.44034189329959,1207.496192282411,-4.889205575332754,171240.66056723119,10.5,10500171240.660566,47.655,-122.3035,60.0,9.183333333333334
2026-01-20T23:09:12+00:00,SAT-52503,208.908245786079,42.69309112341741,1202.620024588612,-4.869097043369286,170536.37471886468,10.5,10500170536.37472,47.655,-122.3035,60.0,9.2
2026-01-20T23:09:13+00:00,SAT-52503,208.97451389769415,42.94761734228584,1197.7639118040254,-4.848737534912505,169823.29861207283,10.5,10500169823.298613,47.655,-122.3035,60.0,9.216666666666667
2026-01-20T23:09:14+00:00,SAT-52503,209.0422077423528,43.20393255649606,1192.9281042358723,-4.82812407710801,169101.32812491932,10.5,10500169101.328125,47.655,-122.3035,60.0,9.233333333333333
2026-01-20T23:09:15+00:00,SAT-52503,209.11136262535624,43.462048649737234,1188.1128551563033,-4.807253595590085,168370.35558011231,10.5,10500168370.35558,47.655,-122.3035,60.0,9.25
2026-01-20T23:09:16+00:00,SAT-52503,209.18201501319066,43.721977367047515,1183.318420903635,-4.786123100058156,167630.2762446767,10.5,10500167630.276245,47.655,-122.3035,60.0,9.266666666666667
2026-01-20T23:09:17+00:00,SAT-52503,209.25420258255554,43.9837303083539,1178.5450607985101,-4.764729517498886,166880.9824886866,10.5,10500166880.982489,47.655,-122.3035,60.0,9.283333333333333
2026-01-20T23:09:18+00:00,SAT-52503,209.32796426927243,44.247318912608094,1173.7930372263913,-4.743069759994627,166122.36616020402,10.5,10500166122.36616,47.655,-122.3035,60.0,9.3
2026-01-20T23:09:19+00:00,SAT-52503,209.40334032056023,44.512754444883264,1169.0626156524233,-4.7211407561591034,165354.31968628973,10.5,10500165354.319687,47.655,-122.3035,60.0,9.316666666666666
2026-01-20T23:09:20+00:00,SAT-52503,209.48037235043495,44.78004798461812,1164.3540646049473,-4.698939420499892,164576.7349999474,10.5,10500164576.735,47.655,-122.3035,60.0,9.333333333333334
2026-01-20T23:09:21+00:00,SAT-52503,209.55910339735934,45.04921041161542,1159.6676556895686,-4.676462620693134,163789.50239394585,10.5,10500163789.502394,47.655,-122.3035,60.0,9.35
2026-01-20T23:09:22+00:00,SAT-52503,209.6395779841983,45.320252389451504,1155.003663635864,-4.653707262682652,162992.5135013498,10.5,10500162992.513502,47.655,-122.3035,60.0,9.366666666666667
2026-01-20T23:09:23+00:00,SAT-52503,209.72184218266005,45.593184353057275,1150.3623662592154,-4.630670179617152,162185.65740563124,10.5,10500162185.657406,47.655,-122.3035,60.0,9.383333333333333
2026-01-20T23:09:24+00:00,SAT-52503,209.80594367901713,45.868016489178245,1145.7440445334105,-4.607348293719242,161368.8263100069,10.5,10500161368.82631,47.655,-122.3035,60.0,9.4
2026-01-20T23:09:25+00:00,SAT-52503,209.89193184617272,46.14475872553732,1141.148982501808,-4.5837384367625145,160541.9092497864,10.5,10500160541.90925,47.655,-122.3035,60.0,9.416666666666666
2026-01-20T23:09:26+00:00,SAT-52503,209.97985781607656,46.42342070872328,1136.5774673675435,-4.559837457156879,159704.79584295358,10.5,10500159704.795843,47.655,-122.3035,60.0,9.433333333333334
2026-01-20T23:09:27+00:00,SAT-52503,210.06977455786478,46.704011787472,1132.029789476939,-4.535642208804327,158857.37589984815,10.5,10500158857.3759,47.655,-122.3035,60.0,9.45
2026-01-20T23:09:28+00:00,SAT-52503,210.1617369599245,46.98654099450019,1127.5062423140248,-4.511149563431765,157999.53985511384,10.5,10500157999.539856,47.655,-122.3035,60.0,9.466666666666667
2026-01-20T23:09:29+00:00,SAT-52503,210.2558019165229,47.27101702826905,1123.0071224827623,-4.486356363489084,157131.17711798934,10.5,10500157131.177118,47.655,-122.3035,60.0,9.483333333333333
2026-01-20T23:09:30+00:00,SAT-52503,210.35202841803923,47.55744823088615,1118.5327297362423,-4.46125945300636,156252.17715305826,10.5,10500156252.177153,47.655,-122.3035,60.0,9.5
2026-01-20T23:09:31+00:00,SAT-52503,210.4504776466402,47.84584256691215,1114.0833669751107,-4.435855713184477,155362.43072678303,10.5,10500155362.430727,47.655,-122.3035,60.0,9.516666666666667
2026-01-20T23:09:32+00:00,SAT-52503,210.55121307791129,48.13620760346014,1109.6593402104945,-4.410142003712777,154461.8278522009,10.5,10500154461.827852,47.655,-122.3035,60.0,9.533333333333333
2026-01-20T23:09:33+00:00,SAT-52503,210.65430058668804,48.428550485521555,1105.2609585854586,-4.384115209004987,153550.25940830162,10.5,10500153550.259409,47.655,-122.3035,60.0,9.55
2026-01-20T23:09:34+00:00,SAT-52503,210.75980855972236,48.722877913142504,1100.8885343503441,-4.357772201398511,152627.61585111113,10.5,10500152627.61585,47.655,-122.3035,60.0,9.566666666666666
2026-01-20T23:09:35+00:00,SAT-52503,210.86780801364105,49.019196115031505,1096.542382874816,-4.331109878503512,151693.78852181422,10.5,10500151693.788523,47.655,-122.3035,60.0,9.583333333333334
2026-01-20T23:09:36+00:00,SAT-52503,210.97837272038223,49.31751082340345,1092.2228226226553,-4.304125190564432,150748.67060507086,10.5,10500150748.670605,47.655,-122.3035,60.0,9.6
2026-01-20T23:09:37+00:00,SAT-52503,211.09157934038524,49.61782724953817,1087.9301750992656,-4.2768150351908005,149792.15344204358,10.5,10500149792.153442,47.655,-122.3035,60.0,9.616666666666667
2026-01-20T23:09:38+00:00,SAT-52503,211.2075075604932,49.920150050759084,1083.6647649041686,-4.249176386725702,148824.13106142875,10.5,10500148824.131062,47.655,-122.3035,60.0,9.633333333333333
2026-01-20T23:09:39+00:00,SAT-52503,211.32624024312983,50.22448330491666,1079.4269196544744,-4.221206220235546,147844.4975172565,10.5,10500147844.497517,47.655,-122.3035,60.0,9.65
2026-01-20T23:09:40+00:00,SAT-52503,211.44786358198985,50.530830478203974,1075.2169699841593,-4.192901533328828,146853.14765307636,10.5,10500146853.147654,47.655,-122.3035,60.0,9.666666666666666
2026-01-20T23:09:41+00:00,SAT-52503,211.57246726725293,50.839194392921485,1071.0352495215861,-4.164259381929979,145849.97835490838,10.5,10500145849.978355,47.655,-122.3035,60.0,9.683333333333334
2026-01-20T23:09:42+00:00,SAT-52503,211.70014466152702,51.14957719628147,1066.8820948313412,-4.13527681324873,144834.88620354707,10.5,10500144834.886204,47.655,-122.3035,60.0,9.7
2026-01-20T23:09:43+00:00,SAT-52503,211.83099298403303,51.461980322643235,1062.7578454229279,-4.10595092110517,143807.7694122788,10.5,10500143807.769413,47.655,-122.3035,60.0,9.716666666666667
2026-01-20T23:09:44+00:00,SAT-52503,211.96511350734778,51.77640445796134,1058.6628437042789,-4.076278865178826,142768.52850106615,10.5,10500142768.528502,47.655,-122.3035,60.0,9.733333333333333
2026-01-20T23:09:45+00:00,SAT-52503,212.10261176655897,52.0928495039443,1054.597434916074,-4.04625781481277,141717.06432832972,10.5,10500141717.06433,47.655,-122.3035,60.0,9.75
2026-01-20T23:09:46+00:00,SAT-52503,212.24359777909544,52.41131453598516,1050.5619671221004,-4.015884980018839,140653.27917688247,10.5,10500140653.279177,47.655,-122.3035,60.0,9.766666666666667
2026-01-20T23:09:47+00:00,SAT-52503,212.3881862788204,52.73179776131257,1046.556791168695,-3.985157661032486,139577.07848954992,10.5,10500139577.07849,47.655,-122.3035,60.0,9.783333333333333
2026-01-20T23:09:48+00:00,SAT-52503,212.5364969662832,53.054296478932834,1042.5822605947587,-3.9540731670428535,138488.3680227538,10.5,10500138488.368023,47.655,-122.3035,60.0,9.8
2026-01-20T23:09:49+00:00,SAT-52503,212.68865477132115,53.37880703087709,1038.6387316228281,-3.922628873738246,137387.05586199765,10.5,10500137387.055862,47.655,-122.3035,60.0,9.816666666666666
2026-01-20T23:09:50+00:00,SAT-52503,212.8447901340406,53.70532475551048,1034.7265630927532,-3.8908222244803667,136273.05246299374,10.5,10500136273.052464,47.655,-122.3035,60.0,9.833333333333334
2026-01-20T23:09:51+00:00,SAT-52503,213.00503930345764,54.03384393845221,1030.8461163942047,-3.8586507063141866,135146.26981142722,10.5,10500135146.269812,47.655,-122.3035,60.0,9.85
2026-01-20T23:09:52+00:00,SAT-52503,213.1695446538771,54.36435775874851,1026.9977554231073,-3.8261119048780423,134006.62334613982,10.5,10500134006.623346,47.655,-122.3035,60.0,9.866666666666667
2026-01-20T23:09:53+00:00,SAT-52503,213.33845502370934,54.696858236814585,1023.181846483309,-3.7932034467331412,132854.02993926546,10.5,10500132854.02994,47.655,-122.3035,60.0,9.883333333333333
2026-01-20T23:09:54+00:00,SAT-52503,213.51192607341395,55.03133617442337,1019.3987582457671,-3.759923029531489,131688.40895283842,10.5,10500131688.408953,47.655,-122.3035,60.0,9.9
2026-01-20T23:09:55+00:00,SAT-52503,213.69012066771745,55.367781093924116,1015.6488616776477,-3.726268468991532,130509.68388407919,10.5,10500130509.683884,47.655,-122.3035,60.0,9.916666666666666
2026-01-20T23:09:56+00:00,SAT-52503,213.8732092849727,55.70618117822245,1011.9325299245735,-3.692237623806018,129317.77973535006,10.5,10500129317.779736,47.655,-122.3035,60.0,9.933333333333334
2026-01-20T23:09:57+00:00,SAT-52503,214.0613704495825,56.04652320044093,1008.2501382677642,-3.6578284470719287,128112.62481544899,10.5,10500128112.624815,47.655,-122.3035,60.0,9.95
2026-01-20T23:09:58+00:00,SAT-52503,214.25479119538022,56.388792454128286,1004.6020640298846,-3.623039001924976,126894.15128719565,10.5,10500126894.151287,47.655,-122.3035,60.0,9.966666666666667
2026-01-20T23:09:59+00:00,SAT-52503,214.4536675606177,56.732972680810256,1000.9886864652981,-3.5878674287413825,125662.29401869915,10.5,10500125662.294018,47.655,-122.3035,60.0,9.983333333333333
2026-01-20T23:10:00+00:00,SAT-52503,214.65820511424482,57.07904599000752,997.4103866830333,-3.55231196511206,124416.99128293825,10.5,10500124416.991283,47.655,-122.3035,60.0,10.0
2026-01-20T23:10:01+00:00,SAT-52503,214.86861951857213,57.426992776251474,993.8675475498281,-3.516370981888865,123158.18602025368,10.5,10500123158.18602,47.655,-122.3035,60.0,10.016666666666667
2026-01-20T23:10:02+00:00,SAT-52503,215.08513713226108,57.77679163448131,990.3605535572243,-3.480042925203067,121885.8238075896,10.5,10500121885.823807,47.655,-122.3035,60.0,10.033333333333333
2026-01-20T23:10:03+00:00,SAT-52503,215.30799565082054,58.128419264300945,986.8897907464885,-3.443326383717444,120599.85521394659,10.5,10500120599.855213,47.655,-122.3035,60.0,10.05
2026-01-20T23:10:04+00:00,SAT-52503,215.53744479524818,58.48185037487224,983.4556465664609,-3.406220043399418,119300.2342163454,10.5,10500119300.234217,47.655,-122.3035,60.0,10.066666666666666
2026-01-20T23:10:05+00:00,SAT-52503,215.77374704522217,58.8370575789636,980.0585097765106,-3.3687227210708053,117986.91937488118,10.5,10500117986.919374,47.655,-122.3035,60.0,10.083333333333334
2026-01-20T23:10:06+00:00,SAT-52503,216.01717842537505,59.19401128344921,976.6987703160294,-3.3308333793535416,116659.87435618606,10.5,10500116659.874355,47.655,-122.3035,60.0,10.1
2026-01-20T23:10:07+00:00,SAT-52503,216.26802934761116,59.552679574074034,973.3768191590208,-3.2925510943127283,115319.06680015162,10.5,10500115319.066801,47.655,-122.3035,60.0,10.116666666666667
2026-01-20T23:10:08+00:00,SAT-52503,216.5266055100789,59.913028088822294,970.0930482009596,-3.2538750747680925,113964.46899629799,10.5,10500113964.468996,47.655,-122.3035,60.0,10.133333333333333
2026-01-20T23:10:09+00:00,SAT-52503,216.7932288607849,60.27501988458113,966.8478501263908,-3.214804693811238,112596.05898764136,10.5,10500112596.058989,47.655,-122.3035,60.0,10.15
2026-01-20T23:10:10+00:00,SAT-52503,217.06823863199034,60.63861529794359,963.6416182450964,-3.175339469309824,111213.81988786774,10.5,10500111213.819887,47.655,-122.3035,60.0,10.166666666666666
2026-01-20T23:10:11+00:00,SAT-52503,217.35199244655408,61.003771793859855,960.4747463477048,-3.135479056046808,109817.73960601598,10.5,10500109817.739607,47.655,-122.3035,60.0,10.183333333333334
2026-01-20T23:10:12+00:00,SAT-52503,217.6448675022441,61.37044380232976,957.3476285691406,-3.0952232888134104,108407.81235577584,10.5,10500108407.812355,47.655,-122.3035,60.0,10.2
2026-01-20T23:10:13+00:00,SAT-52503,217.9472618445368,61.73858254813387,954.2606592090975,-3.054572144584988,106984.03733072689,10.5,10500106984.03733,47.655,-122.3035,60.0,10.216666666666667
2026-01-20T23:10:14+00:00,SAT-52503,218.2595957268495,62.10813586326131,951.2142325902313,-3.013525788820111,105546.42032592816,10.5,10500105546.420326,47.655,-122.3035,60.0,10.233333333333333
2026-01-20T23:10:15+00:00,SAT-52503,218.58231307270032,62.47904799074484,948.2087428701815,-2.9720845421353177,104094.97257072703,10.5,10500104094.97257,47.655,-122.3035,60.0,10.25
2026-01-20T23:10:16+00:00,SAT-52503,218.9158830390194,62.85125936921563,945.2445838868251,-2.930248910243583,102629.71177733105,10.5,10500102629.711777,47.655,-122.3035,60.0,10.266666666666667
2026-01-20T23:10:17+00:00,SAT-52503,219.2608016942597,63.22470640439979,942.3221489736756,-2.888019583939832,101150.66214030054,10.5,10500101150.66214,47.655,-122.3035,60.0,10.283333333333333
2026-01-20T23:10:18+00:00,SAT-52503,219.61759381615192,63.599321222509644,939.4418307752929,-2.8453974479602264,99657.85464683831,10.5,10500099657.854647,47.655,-122.3035,60.0,10.3
2026-01-20T23:10:19+00:00,SAT-52503,219.9868148181121,63.975031405035644,936.6040210538605,-2.802383549043731,98151.32595817064,10.5,10500098151.325958,47.655,-122.3035,60.0,10.316666666666666
2026-01-20T23:10:20+00:00,SAT-52503,220.3690528070954,64.35175969767108,933.8091105276143,-2.758979157161667,96631.12055406511,10.5,10500096631.120554,47.655,-122.3035,60.0,10.333333333333334
2026-01-20T23:10:21+00:00,SAT-52503,220.76493079321898,64.72942370362944,931.0574886482051,-2.715185744851081,95097.29000899801,10.5,10500095097.290009,47.655,-122.3035,60.0,10.35
2026-01-20T23:10:22+00:00,SAT-52503,221.17510904973471,65.1079355486486,928.3495433986735,-2.671004971766012,93549.89245107403,10.5,10500093549.89245,47.655,-122.3035,60.0,10.366666666666667
2026-01-20T23:10:23+00:00,SAT-52503,221.60028763131095,65.48720151566785,925.6856611068323,-2.626438711499801,91988.99350145731,10.5,10500091988.993502,47.655,-122.3035,60.0,10.383333333333333
2026-01-20T23:10:24+00:00,SAT-52503,222.04120906481205,65.86712165233425,923.0662262318964,-2.5814890523240464,90414.66630025259,10.5,10500090414.6663,47.655,-122.3035,60.0,10.4
2026-01-20T23:10:25+00:00,SAT-52503,222.49866121649,66.2475893450768,920.4916211503786,-2.5361583033746515,88826.99172316684,10.5,10500088826.991724,47.655,-122.3035,60.0,10.416666666666666
2026-01-20T23:10:26+00:00,SAT-52503,222.9734803429911,66.62849085740123,917.962225935813,-2.490448990742221,87226.0582445784,10.5,10500087226.058245,47.655,-122.3035,60.0,10.433333333333334
2026-01-20T23:10:27+00:00,SAT-52503,223.46655432940042,67.00970482756556,915.4784181423794,-2.444363849168636,85611.96164671588,10.5,10500085611.961647,47.655,-122.3035,60.0,10.45
2026-01-20T23:10:28+00:00,SAT-52503,223.9788261159152,67.39110172112728,913.0405725968086,-2.397905865312567,83984.80653499947,10.5,10500083984.806536,47.655,-122.3035,60.0,10.466666666666667
2026-01-20T23:10:29+00:00,SAT-52503,224.5112973242741,67.77254324246442,910.6490611471369,-2.3510782421887,82344.70509255223,10.5,10500082344.705093,47.655,-122.3035,60.0,10.483333333333333
2026-01-20T23:10:30+00:00,SAT-52503,225.0650320651929,68.15388168900519,908.3042524469272,-2.303884400768885,80691.77713627904,10.5,10500080691.777136,47.655,-122.3035,60.0,10.5
2026-01-20T23:10:31+00:00,SAT-52503,225.64116092487663,68.53495924903864,906.0065117378938,-2.256328027257372,79026.15177264535,10.5,10500079026.151773,47.655,-122.3035,60.0,10.516666666666667
2026-01-20T23:10:32+00:00,SAT-52503,226.2408851286827,68.91560724603738,903.7562005853757,-2.208413025687883,77347.96573742616,10.5,10500077347.965738,47.655,-122.3035,60.0,10.533333333333333
2026-01-20T23:10:33+00:00,SAT-52503,226.86548083727854,69.29564530911016,901.5536766610898,-2.1601435337383967,75657.36394960666,10.5,10500075657.363949,47.655,-122.3035,60.0,10.55
2026-01-20T23:10:34+00:00,SAT-52503,227.5163035571433,69.67488047440771,899.3992935101079,-2.1115239389141345,73954.50007817878,10.5,10500073954.500078,47.655,-122.3035,60.0,10.566666666666666
2026-01-20T23:10:35+00:00,SAT-52503,228.19479262218542,70.05310621257554,897.2934003016976,-2.0625588743604646,72239.53639549157,10.5,10500072239.536396,47.655,-122.3035,60.0,10.583333333333334
2026-01-20T23:10:36+00:00,SAT-52503,228.902475680624,70.43010137356494,895.2363415843354,-2.0132532026163874,70512.6432082293,10.5,10500070512.643208,47.655,-122.3035,60.0,10.6
2026-01-20T23:10:37+00:00,SAT-52503,229.6409731015091,70.80562904130421,893.228457056926,-1.9636120427652894,68773.99980834588,10.5,10500068773.99981,47.655,-122.3035,60.0,10.616666666666667
2026-01-20T23:10:38+00:00,SAT-52503,230.41200221073944,71.17943530135499,891.2700813129414,-1.913640750286439,67023.79376737893,10.5,10500067023.793768,47.655,-122.3035,60.0,10.633333333333333
2026-01-20T23:10:39+00:00,SAT-52503,231.21738120606952,71.55124790895947,889.3615436046558,-1.8633449265524733,65262.221269092,10.5,10500065262.22127,47.655,-122.3035,60.0,10.65
2026-01-20T23:10:40+00:00,SAT-52503,232.05903259035267,71.92077485986381,887.5031675979075,-1.8127304162684779,63489.48701978026,10.5,10500063489.48702,47.655,-122.3035,60.0,10.666666666666666
2026-01-20T23:10:41+00:00,SAT-52503,232.93898590433633,72.28770286029712,885.6952711294156,-1.7618033086856169,61705.80429077698,10.5,10500061705.80429,47.655,-122.3035,60.0,10.683333333333334
2026-01-20T23:10:42+00:00,SAT-52503,233.8593794941563,72.65169569760855,883.9381659628865,-1.7105699300801134,59911.39465503562,10.5,10500059911.394655,47.655,-122.3035,60.0,10.7
2026-01-20T23:10:43+00:00,SAT-52503,234.8224609809207,73.0123925135484,882.2321575526199,-1.6590368504945328,58106.48822323807,10.5,10500058106.488224,47.655,-122.3035,60.0,10.716666666666667
2026-01-20T23:10:44+00:00,SAT-52503,235.83058603991,73.36940599090435,880.5775448003934,-1.6072108823579645,56291.32359546759,10.5,10500056291.323595,47.655,-122.3035,60.0,10.733333333333333
2026-01-20T23:10:45+00:00,SAT-52503,236.8862150045442,73.7223204650132,878.9746198137217,-1.5550990632865955,54466.14725881214,10.5,10500054466.147259,47.655,-122.3035,60.0,10.75
2026-01-20T23:10:46+00:00,SAT-52503,237.99190670959956,74.07068997640994,877.4236676812707,-1.502708678189618,52631.21436160675,10.5,10500052631.214361,47.655,-122.3035,60.0,10.766666666666667
2026-01-20T23:10:47+00:00,SAT-52503,239.15030892345752,74.41403630163319,875.9249662262229,-1.4500472353701948,50786.78787638829,10.5,10500050786.787876,47.655,-122.3035,60.0,10.783333333333333
2026-01-20T23:10:48+00:00,SAT-52503,240.3641445562622,74.75184699120678,874.4787857834802,-1.3971224654078847,48933.138560753214,10.5,10500048933.138561,47.655,-122.3035,60.0,10.8
2026-01-20T23:10:49+00:00,SAT-52503,241.6361927638372,75.0835734717418,873.0853889779801,-1.34394232869211,47070.54522121152,10.5,10500047070.545221,47.655,-122.3035,60.0,10.816666666666666
2026-01-20T23:10:50+00:00,SAT-52503,242.96926396203406,75.40862928217217,871.7450304954979,-1.2905150053610577,45199.29436080446,10.5,10500045199.294361,47.655,-122.3035,60.0,10.833333333333334
2026-01-20T23:10:51+00:00,SAT-52503,244.36616765947377,75.72638852636096,870.4579568634845,-1.2368488851757822,43319.679824452796,10.5,10500043319.679825,47.655,-122.3035,60.0,10.85
2026-01-20T23:10:52+00:00,SAT-52503,245.82967197837178,76.03618464929527,869.2244062420025,-1.1829525744407592,41432.00304134393,10.5,10500041432.003042,47.655,-122.3035,60.0,10.866666666666667
2026-01-20T23:10:53+00:00,SAT-52503,247.362453763603,76.33730967194872,868.0446082077602,-1.1288348695839558,39536.5720995941,10.5,10500039536.5721,47.655,-122.3035,60.0,10.883333333333333
2026-01-20T23:10:54+00:00,SAT-52503,248.9670382160007,76.62901403235963,866.9187835644951,-1.0745047774017642,37633.70245531168,10.5,10500037633.702456,47.655,-122.3035,60.0,10.9
2026-01-20T23:10:55+00:00,SAT-52503,250.6457272974477,76.91050722568976,865.8471441331665,-1.0199714917445468,35723.716116026306,10.5,10500035723.716116,47.655,-122.3035,60.0,10.916666666666666
2026-01-20T23:10:56+00:00,SAT-52503,252.4005164187111,77.18095943639547,864.8298925653999,-0.9652443927581178,33806.941614122385,10.5,10500033806.941614,47.655,-122.3035,60.0,10.933333333333334
2026-01-20T23:10:57+00:00,SAT-52503,254.2329995732038,77.43950439022291,863.8672221576892,-0.9103330339965624,31883.713555475457,10.5,10500031883.713556,47.655,-122.3035,60.0,10.95
2026-01-20T23:10:58+00:00,SAT-52503,256.1442638368493,77.6852436535838,862.9593166784499,-0.8552471427233543,29954.372629998652,10.5,10500029954.37263,47.655,-122.3035,60.0,10.966666666666667
2026-01-20T23:10:59+00:00,SAT-52503,258.13477525272344,77.91725260887455,862.1063501947738,-0.7999966084147907,28019.26520898435,10.5,10500028019.26521,47.655,-122.3035,60.0,10.983333333333333
2026-01-20T23:11:00+00:00,SAT-52503,260.2042593741004,78.13458830191655,861.3084869106481,-0.744591472067938,26078.742970623192,10.5,10500026078.742971,47.655,-122.3035,60.0,11.0
2026-01-20T23:11:01+00:00,SAT-52503,262.3515812451529,78.33629930923429,860.5658810158391,-0.6890419246819436,24133.1628468132,10.5,10500024133.162848,47.655,-122.3035,60.0,11.016666666666667
2026-01-20T23:11:02+00:00,SAT-52503,264.5746311991239,78.52143769258501,859.8786765362895,-0.6333582913000615,22182.886464244028,10.5,10500022182.886465,47.655,-122.3035,60.0,11.033333333333333
2026-01-20T23:11:03+00:00,SAT-52503,266.8702242694809,78.68907298545017,859.2470072004329,-0.5775510258117099,20228.279962342996,10.5,10500020228.279963,47.655,-122.3035,60.0,11.05
2026-01-20T23:11:04+00:00,SAT-52503,269.2340222191335,78.83830801440261,858.67099631069,-0.5216307009505762,18269.71364296646,10.5,10500018269.713642,47.655,-122.3035,60.0,11.066666666666666
2026-01-20T23:11:05+00:00,SAT-52503,271.66048767429834,78.9682961798486,858.1507566249421,-0.465607996730078,16307.561565360726,10.5,10500016307.561565,47.655,-122.3035,60.0,11.083333333333334
2026-01-20T23:11:06+00:00,SAT-52503,274.1428794559297,79.07825963533027,857.6863902495367,-0.40949369452654133,14342.201338929894,10.5,10500014342.20134,47.655,-122.3035,60.0,11.1
2026-01-20T23:11:07+00:00,SAT-52503,276.6732966920365,79.16750762833745,857.2779885381955,-0.35329866425630696,12374.013674123928,10.5,10500012374.013674,47.655,-122.3035,60.0,11.116666666666667
2026-01-20T23:11:08+00:00,SAT-52503,279.2427764428993,79.23545411795656,856.9256320037105,-0.29703385285985223,10403.381979103851,10.5,10500010403.381979,47.655,-122.3035,60.0,11.133333333333333
2026-01-20T23:11:09+00:00,SAT-52503,281.841445657123,79.28163370325382,856.629390241125,-0.24071027714402354,8430.692109046477,10.5,10500008430.692108,47.655,-122.3035,60.0,11.15
2026-01-20T23:11:10+00:00,SAT-52503,284.45872359206845,79.30571489705291,856.3893218580533,-0.18433901021815915,6456.331891080033,10.5,10500006456.331892,47.655,-122.3035,60.0,11.166666666666666
2026-01-20T23:11:11+00:00,SAT-52503,287.08356581663566,79.30750987623496,856.2054744185291,-0.12793117388934264,4480.690857933783,10.5,10500004480.690859,47.655,-122.3035,60.0,11.183333333333334
2026-01-20T23:11:12+00:00,SAT-52503,289.7047366181336,79.28698003827594,856.0778843944368,-0.07149792376394014,2504.15972613084,10.5,10500002504.159725,47.655,-122.3035,60.0,11.2
2026-01-20T23:11:13+00:00,SAT-52503,292.31109330289473,79.24423697067753,856.0065771318028,-0.015050442126933482,527.1301465922853,10.5,10500000527.130146,47.655,-122.3035,60.0,11.216666666666667
2026-01-20T23:11:14+00:00,SAT-52503,294.89186473326373,79.17953876756972,855.9915668241882,0.04140007571966259,-1450.0057738492446,10.5,10499998549.994226,47.655,-122.3035,60.0,11.233333333333333
2026-01-20T23:11:15+00:00,SAT-52503,297.4369068644496,79.093281964331,856.0328564997061,0.09784243080918763,-3426.855800009719,10.5,10499996573.1442,47.655,-122.3035,60.0,11.25
2026-01-20T23:11:16+00:00,SAT-52503,299.93692084371,78.98598966104578,856.1304380173664,0.15426543312587485,-5403.028010203265,10.5,10499994596.97199,47.655,-122.3035,60.0,11.266666666666667
2026-01-20T23:11:17+00:00,SAT-52503,302.38362320796534,78.85829663470011,856.2842920760039,0.21065791047773288,-7378.13110700802,10.5,10499992621.868893,47.655,-122.3035,60.0,11.283333333333333
2026-01-20T23:11:18+00:00,SAT-52503,304.76986248142623,78.71093238120093,856.4943882320538,0.2670087218922026,-9351.774886438694,10.5,10499990648.225113,47.655,-122.3035,60.0,11.3
2026-01-20T23:11:19+00:00,SAT-52503,307.08968152304635,78.54470305703005,856.7606849306875,0.32330676688201976,-11323.570562476283,10.5,10499988676.429438,47.655,-122.3035,60.0,11.316666666666666
2026-01-20T23:11:20+00:00,SAT-52503,309.3383290456494,78.36047324494554,857.0831295461912,0.37954099639595357,-13293.13115060924,10.5,10499986706.868849,47.655,-122.3035,60.0,11.333333333333334
2026-01-20T23:11:21+00:00,SAT-52503,311.51222707627414,78.15914833843927,857.4616584332634,0.4357004253980082,-15260.071908410337,10.5,10499984739.928091,47.655,-122.3035,60.0,11.35
2026-01-20T23:11:22+00:00,SAT-52503,313.60890305936937,77.94165817354322,857.8961969908604,0.4917741402513475,-17224.010594152936,10.5,10499982775.989407,47.655,-122.3035,60.0,11.366666666666667
2026-01-20T23:11:23+00:00,SAT-52503,315.6268960552249,77.70894235462042,858.3866597334044,0.5477513098796917,-19184.567857730304,10.5,10499980815.432142,47.655,-122.3035,60.0,11.383333333333333
2026-01-20T23:11:24+00:00,SAT-52503,317.56564630370406,77.46193753640534,858.9329503731243,0.6036212009521593,-21141.367772493042,10.5,10499978858.632227,47.655,-122.3035,60.0,11.4
2026-01-20T23:11:25+00:00,SAT-52503,319.4253764410739,77.20156676641365,859.5349619175406,0.6593731794800969,-23094.03789117676,10.5,10499976905.962109,47.655,-122.3035,60.0,11.416666666666666
2026-01-20T23:11:26+00:00,SAT-52503,321.2069712120615,76.92873087114184,860.1925767685422,0.7149967268971494,-25042.209809094227,10.5,10499974957.790192,47.655,-122.3035,60.0,11.433333333333334
2026-01-20T23:11:27+00:00,SAT-52503,322.9118610581565,76.64430176185896,860.9056668375009,0.7704814465100962,-26985.519390070884,10.5,10499973014.48061,47.655,-122.3035,60.0,11.45
2026-01-20T23:11:28+00:00,SAT-52503,324.541913339241,76.34911748404048,861.6740936668203,0.8258170765720407,-28923.60722432326,10.5,10499971076.392776,47.655,-122.3035,60.0,11.466666666666667
2026-01-20T23:11:29+00:00,SAT-52503,326.09933362672416,76.04397879241353,862.4977085645215,0.8809934930504295,-30856.118725406726,10.5,10499969143.881275,47.655,-122.3035,60.0,11.483333333333333
2026-01-20T23:11:30+00:00,SAT-52503,327.5865783235986,75.72964702742,863.3763527415905,0.9360007204656022,-32782.704509827345,10.5,10499967217.29549,47.655,-122.3035,60.0,11.5
2026-01-20T23:11:31+00:00,SAT-52503,329.006279017665,75.40684306548597,864.3098574601348,0.9908289485395618,-34703.02098015221,10.5,10499965296.97902,47.655,-122.3035,60.0,11.516666666666667
2026-01-20T23:11:32+00:00,SAT-52503,330.3611783096779,75.07624713153899,865.2980441981449,1.0454685252836786,-36616.73008291165,10.5,10499963383.269917,47.655,-122.3035,60.0,11.533333333333333
2026-01-20T23:11:33+00:00,SAT-52503,331.6540763811302,74.73849929327616,866.3407248073611,1.0999099771128835,-38523.50001308331,10.5,10499961476.499987,47.655,-122.3035,60.0,11.55
2026-01-20T23:11:34+00:00,SAT-52503,332.8877873785203,74.39420046353302,867.4377016912018,1.1541440058752526,-40423.00511005568,10.5,10499959576.99489,47.655,-122.3035,60.0,11.566666666666666
2026-01-20T23:11:35+00:00,SAT-52503,334.0651044835042,74.04391377922444,868.588767979728,1.208161510803288,-42314.92662645477,10.5,10499957685.073374,47.655,-122.3035,60.0,11.583333333333334
2026-01-20T23:11:36+00:00,SAT-52503,335.1887725660029,73.68816623360529,869.7937077265026,1.2619535749561397,-44198.9522532934,10.5,10499955801.047747,47.655,-122.3035,60.0,11.6
2026-01-20T23:11:37+00:00,SAT-52503,336.26146728171574,73.32745047919877,871.0522960919254,1.315511490697043,-46074.7770122988,10.5,10499953925.222988,47.655,-122.3035,60.0,11.616666666666667
2026-01-20T23:11:38+00:00,SAT-52503,337.2857796275038,72.96222671533323,872.3642995519806,1.368826748339437,-47942.10285825165,10.5,10499952057.897142,47.655,-122.3035,60.0,11.633333333333333
2026-01-20T23:11:39+00:00,SAT-52503,338.26420498994804,72.59292461357838,873.7294760956578,1.4218910583911049,-49800.63945807003,10.5,10499950199.360542,47.655,-122.3035,60.0,11.65
2026-01-20T23:11:40+00:00,SAT-52503,339.19913589458275,72.21994522771168,875.14757544456,1.4746963411919578,-51650.10382788067,10.5,10499948349.896172,47.655,-122.3035,60.0,11.666666666666666
2026-01-20T23:11:41+00:00,SAT-52503,340.09285771712024,71.84366286507453,876.6183392621753,1.5272347373401605,-53490.220698186095,10.5,10499946509.779303,47.655,-122.3035,60.0,11.683333333333334
2026-01-20T23:11:42+00:00,SAT-52503,340.9475467648796,71.46442689048325,878.1415013735492,1.5794986192390132,-55320.72291828516,10.5,10499944679.277082,47.655,-122.3035,60.0,11.7
2026-01-20T23:11:43+00:00,SAT-52503,341.7652702137,71.08256344718492,879.7167879964702,1.6314805811512176,-57141.35110793143,10.5,10499942858.648891,47.655,-122.3035,60.0,11.716666666666667
2026-01-20T23:11:44+00:00,SAT-52503,342.54798746179665,70.69837709024826,881.3439179627384,1.683173458326108,-58951.854327249726,10.5,10499941048.145672,47.655,-122.3035,60.0,11.733333333333333
2026-01-20T23:11:45+00:00,SAT-52503,343.2975525645731,70.31215232000237,883.022602958509,1.734570302675111,-60751.98922478785,10.5,10499939248.010775,47.655,-122.3035,60.0,11.75
2026-01-20T23:11:46+00:00,SAT-52503,344.01571744297775,69.92415502356094,884.752547740377,1.7856644305970037,-62541.521712559355,10.5,10499937458.478287,47.655,-122.3035,60.0,11.766666666666667
2026-01-20T23:11:47+00:00,SAT-52503,344.7041356658053,69.53463380857684,886.533450399159,1.836449372235473,-64320.22518882869,10.5,10499935679.77481,47.655,-122.3035,60.0,11.783333333333333
2026-01-20T23:11:48+00:00,SAT-52503,345.3643665783911,69.14382125365738,888.3650025730686,1.886918912399194,-66087.88197130543,10.5,10499933912.118029,47.655,-122.3035,60.0,11.8
2026-01-20T23:11:49+00:00,SAT-52503,345.9978796703011,68.75193505842354,890.2468897017013,1.9370670732868036,-67844.28269209973,10.5,10499932155.717308,47.655,-122.3035,60.0,11.816666666666666
2026-01-20T23:11:50+00:00,SAT-52503,346.60605904323836,68.35917911050545,892.1787912627927,1.9868881291128293,-69589.22680998435,10.5,10499930410.77319,47.655,-122.3035,60.0,11.833333333333334
2026-01-20T23:11:51+00:00,SAT-52503,347.1902079028238,67.96574446752032,894.1603810235613,2.036376578772455,-71322.52165299894,10.5,10499928677.478348,47.655,-122.3035,60.0,11.85
2026-01-20T23:11:52+00:00,SAT-52503,347.7515529942305,67.57181026749028,896.1913272647903,2.085527189397227,-73043.98394395527,10.5,10499926956.016056,47.655,-122.3035,60.0,11.866666666666667
2026-01-20T23:11:53+00:00,SAT-52503,348.29124895273617,67.17754455892118,898.2712930483492,2.1343349505883364,-74753.43819749306,10.5,10499925246.561802,47.655,-122.3035,60.0,11.883333333333333
2026-01-20T23:11:54+00:00,SAT-52503,348.8103825070773,66.78310507314457,900.3999364390692,2.1827951097032083,-76450.71795596568,10.5,10499923549.282043,47.655,-122.3035,60.0,11.9
2026-01-20T23:11:55+00:00,SAT-52503,349.30997653314694,66.38863992822009,902.5769107618133,2.230903150859037,-78135.66505405512,10.5,10499921864.334946,47.655,-122.3035,60.0,11.916666666666666
2026-01-20T23:11:56+00:00,SAT-52503,349.79099392603985,65.99428827992378,904.8018648376033,2.2786547975595215,-79808.12971077135,10.5,10499920191.870289,47.655,-122.3035,60.0,11.933333333333334
2026-01-20T23:11:57+00:00,SAT-52503,350.2543412870935,65.6001809198062,907.0744432223694,2.3260460083409438,-81467.97037695962,10.5,10499918532.029623,47.655,-122.3035,60.0,11.95
2026-01-20T23:11:58+00:00,SAT-52503,350.7008724195092,65.20644082580863,909.3942864413548,2.373072998074711,-83115.05448140549,10.5,10499916884.945518,47.655,-122.3035,60.0,11.966666666666667
2026-01-20T23:11:59+00:00,SAT-52503,351.1313916364816,64.81318366521064,911.761031244768,2.419732197008909,-84749.2569962969,10.5,10499915250.743004,47.655,-122.3035,60.0,11.983333333333333
2026-01-20T23:12:00+00:00,SAT-52503,351.54665687221376,64.42051826400606,914.1743108225847,2.4660202769959936,-86370.46135582881,10.5,10499913629.538645,47.655,-122.3035,60.0,12.0
2026-01-20T23:12:01+00:00,SAT-52503,351.9473826134364,64.0285470347538,916.6337550455089,2.5119341470589633,-87978.55930091182,10.5,10499912021.440699,47.655,-122.3035,60.0,12.016666666666667
2026-01-20T23:12:02+00:00,SAT-52503,352.3342426510559,63.637366371369126,919.138990701509,2.557470929293604,-89573.45003516681,10.5,10499910426.549965,47.655,-122.3035,60.0,12.033333333333333
2026-01-20T23:12:03+00:00,SAT-52503,352.70787265646516,63.2470670166291,921.6896417083244,2.6026279858216728,-91155.04116893948,10.5,10499908844.958832,47.655,-122.3035,60.0,12.05
2026-01-20T23:12:04+00:00,SAT-52503,353.06887259834457,62.85773439709012,924.2853293528506,2.6474028942649723,-92723.24786029878,10.5,10499907276.75214,47.655,-122.3035,60.0,12.066666666666666
2026-01-20T23:12:05+00:00,SAT-52503,353.41780900012503,62.46944893585931,926.9256725060642,2.691793445091434,-94277.99272208528,10.5,10499905722.007278,47.655,-122.3035,60.0,12.083333333333334
2026-01-20T23:12:06+00:00,SAT-52503,353.75521705025596,62.08228634186822,929.6102878353021,2.7357976486229485,-95819.2060673553,10.5,10499904180.793932,47.655,-122.3035,60.0,12.1
2026-01-20T23:12:07+00:00,SAT-52503,354.0816025747199,61.69631787641232,932.3387900235286,2.77941373468928,-97346.82589725936,10.5,10499902653.174103,47.655,-122.3035,60.0,12.116666666666667
2026-01-20T23:12:08+00:00,SAT-52503,354.3974438789343,61.31161059987953,935.1107919882587,2.82264011395355,-98860.7965464971,10.5,10499901139.203453,47.655,-122.3035,60.0,12.133333333333333
2026-01-20T23:12:09+00:00,SAT-52503,354.70319346296475,60.92822760559237,937.9259050619085,2.865475430673331,-100361.0705312339,10.5,10499899638.929468,47.655,-122.3035,60.0,12.15
2026-01-20T23:12:10+00:00,SAT-52503,354.9992796282979,60.54622822962737,940.7837392247666,2.9079185059152177,-101847.60656023503,10.5,10499898152.39344,47.655,-122.3035,60.0,12.166666666666666
2026-01-20T23:12:11+00:00,SAT-52503,355.28610797119927,60.16566825308322,943.6839032813328,2.9499683716501472,-103320.37072902797,10.5,10499896679.62927,47.655,-122.3035,60.0,12.183333333333334
2026-01-20T23:12:12+00:00,SAT-52503,355.56406277989333,59.78660008564983,946.6260050706585,2.991624226895432,-104779.33498381081,10.5,10499895220.665016,47.655,-122.3035,60.0,12.2
2026-01-20T23:12:13+00:00,SAT-52503,355.83350833423054,59.40907294194981,949.6096516329488,3.0328854701202466,-106224.47825642962,10.5,10499893775.521744,47.655,-122.3035,60.0,12.216666666666667
2026-01-20T23:12:14+00:00,SAT-52503,356.09479012179355,59.03313300172029,952.6344494084822,3.073751688490306,-107655.78608768141,10.5,10499892344.213913,47.655,-122.3035,60.0,12.233333333333333
2026-01-20T23:12:15+00:00,SAT-52503,356.34823597193844,58.65882356055427,955.7000044258031,3.114222617965238,-109073.24922975547,10.5,10499890926.75077,47.655,-122.3035,60.0,12.25
2026-01-20T23:12:16+00:00,SAT-52503,356.5941571113324,58.28618517533896,958.8059224501204,3.1542981889520956,-110476.86524521242,10.5,10499889523.134754,47.655,-122.3035,60.0,12.266666666666667
2026-01-20T23:12:17+00:00,SAT-52503,356.83284915343813,57.91525579478526,961.9518091772353,3.1939784895172334,-111866.6372185085,10.5,10499888133.362782,47.655,-122.3035,60.0,12.283333333333333
2026-01-20T23:12:18+00:00,SAT-52503,357.0645930198143,57.546070885825245,965.1372703907805,3.2332637831541784,-113242.57437830164,10.5,10499886757.425621,47.655,-122.3035,60.0,12.3
2026-01-20T23:12:19+00:00,SAT-52503,357.28965580225974,57.17866354998792,968.3619121371796,3.2721544382279872,-114604.68962629428,10.5,10499885395.310373,47.655,-122.3035,60.0,12.316666666666666
2026-01-20T23:12:20+00:00,SAT-52503,357.5082915638887,56.81306464030504,971.625340830239,3.310651048131742,-115953.00374562222,10.5,10499884046.996254,47.655,-122.3035,60.0,12.333333333333334
2026-01-20T23:12:21+00:00,SAT-52503,357.7207420962092,56.4493028578689,974.9271634755758,3.3487542977524405,-117287.54072392517,10.5,10499882712.459276,47.655,-122.3035,60.0,12.35
2026-01-20T23:12:22+00:00,SAT-52503,357.9272376184465,56.08740485701279,978.2669877618674,3.3864650372995717,-118608.33033913582,10.5,10499881391.66966,47.655,-122.3035,60.0,12.366666666666667
2026-01-20T23:12:23+00:00,SAT-52503,358.12799743671525,55.72739533633612,981.6444222257344,3.4237842404266674,-119915.40669271942,10.5,10499880084.593307,47.655,-122.3035,60.0,12.383333333333333
2026-01-20T23:12:24+00:00,SAT-52503,358.32323055853396,55.36929712875899,985.0590763748531,3.4607130188166972,-121208.80872051598,10.5,10499878791.19128,47.655,-122.3035,60.0,12.4
2026-01-20T23:12:25+00:00,SAT-52503,358.51313626918267,55.01313128489142,988.5105608256196,3.4972526163728666,-122488.57998927745,10.5,10499877511.420012,47.655,-122.3035,60.0,12.416666666666666
2026-01-20T23:12:26+00:00,SAT-52503,358.6979046713265,54.65891715225555,991.9984874350155,3.5334043964010564,-123754.76824774256,10.5,10499876245.231752,47.655,-122.3035,60.0,12.433333333333334
2026-01-20T23:12:27+00:00,SAT-52503,358.87771719012386,54.306672451367334,995.5224694196929,3.569169813829262,-125007.42445364402,10.5,10499874992.575546,47.655,-122.3035,60.0,12.45
2026-01-20T23:12:28+00:00,SAT-52503,359.05274704556086,53.956413350281714,999.0821214473518,3.6045504861194972,-126246.60525734346,10.5,10499873753.394743,47.655,-122.3035,60.0,12.466666666666667
2026-01-20T23:12:29+00:00,SAT-52503,359.2231596990061,53.60815452828574,1002.6770597988417,3.639548100193441,-127472.36974197374,10.5,10499872527.630259,47.655,-122.3035,60.0,12.483333333333333
2026-01-20T23:12:30+00:00,SAT-52503,359.38911326786206,53.261909245034886,1006.3069024374347,3.67416443679459,-128684.78027670461,10.5,10499871315.219723,47.655,-122.3035,60.0,12.5
2026-01-20T23:12:31+00:00,SAT-52503,359.5507589161872,52.917689403692634,1009.9712691023979,3.708401422329849,-129883.90433245461,10.5,10499870116.095667,47.655,-122.3035,60.0,12.516666666666667
2026-01-20T23:12:32+00:00,SAT-52503,359.7082412238752,52.5755056060242,1013.6697814542681,3.742261036117138,-131069.81123330977,10.5,10499868930.188766,47.655,-122.3035,60.0,12.533333333333333
2026-01-20T23:12:33+00:00,SAT-52503,359.8616985296269,52.23536721311894,1017.4020631276222,3.775745355844375,-132242.57374868964,10.5,10499867757.42625,47.655,-122.3035,60.0,12.55
2026-01-20T23:12:34+00:00,SAT-52503,0.011263255432365867,51.89728239887609,1021.1677398291844,3.808856547835172,-133402.26775241058,10.5,10499866597.732248,47.655,-122.3035,60.0,12.566666666666666
2026-01-20T23:12:35+00:00,SAT-52503,0.15706221141970797,51.561258201691906,1024.9664394262254,3.841596869082591,-134548.97229391677,10.5,10499865451.027706,47.655,-122.3035,60.0,12.583333333333334
2026-01-20T23:12:36+00:00,SAT-52503,0.2992168828032383,51.22730057341109,1028.7977920369904,3.873968626659294,-135682.76817665168,10.5,10499864317.231823,47.655,-122.3035,60.0,12.6
2026-01-20T23:12:37+00:00,SAT-52503,0.4378436986085714,50.89541442933133,1032.6614300806452,3.9059742401304773,-136803.7401440233,10.5,10499863196.259855,47.655,-122.3035,60.0,12.616666666666667
2026-01-20T23:12:38+00:00,SAT-52503,0.573054287070518,50.56560369050511,1036.5569883894686,3.9376161508122594,-137911.97370124876,10.5,10499862088.026299,47.655,-122.3035,60.0,12.633333333333333
2026-01-20T23:12:39+00:00,SAT-52503,0.7049557131549287,50.23787133157131,1040.4841042305454,3.96889690133589,-139007.55790202983,10.5,10499860992.442099,47.655,-122.3035,60.0,12.65
2026-01-20T23:12:40+00:00,SAT-52503,0.8336507052629248,49.91221941973074,1044.442417406811,3.9998190817913266,-140090.58346227286,10.5,10499859909.416538,47.655,-122.3035,60.0,12.666666666666666
2026-01-20T23:12:41+00:00,SAT-52503,0.9592378672770883,49.588649156283445,1048.4315703043844,4.0303853288339075,-141161.14272880083,10.5,10499858838.857271,47.655,-122.3035,60.0,12.683333333333334
2026-01-20T23:12:42+00:00,SAT-52503,1.0818118786748123,49.26716091625412,1052.451207939008,4.060598353193148,-142219.33064282776,10.5,10499857780.669357,47.655,-122.3035,60.0,12.7
2026-01-20T23:12:43+00:00,SAT-52503,1.2014636843464797,48.947754284009946,1056.500978029926,4.090460904906311,-143265.24352229122,10.5,10499856734.756477,47.655,-122.3035,60.0,12.716666666666667
2026-01-20T23:12:44+00:00,SAT-52503,1.3182806728020093,48.63042808995095,1060.5805310390858,4.119975766340043,-144298.9788174406,10.5,10499855701.021183,47.655,-122.3035,60.0,12.733333333333333
2026-01-20T23:12:45+00:00,SAT-52503,1.4323468444484344,48.31518044601997,1064.6895202033825,4.149145801647784,-145320.6368430447,10.5,10499854679.363157,47.655,-122.3035,60.0,12.75
2026-01-20T23:12:46+00:00,SAT-52503,1.5437429720233924,48.00200877587482,1068.8276016162256,4.1779738687016295,-146330.3176938731,10.5,10499853669.682306,47.655,-122.3035,60.0,12.766666666666667
2026-01-20T23:12:47+00:00,SAT-52503,1.6525467499444741,47.69090985026391,1072.9944342212775,4.206462878825184,-147328.1233367933,10.5,10499852671.876663,47.655,-122.3035,60.0,12.783333333333333
2026-01-20T23:12:48+00:00,SAT-52503,1.7588329372780502,47.38187981635439,1077.189679865759,4.234615818417158,-148314.15836812067,10.5,10499851685.84163,47.655,-122.3035,60.0,12.8
2026-01-20T23:12:49+00:00,SAT-52503,1.862673493518012,47.074914224274956,1081.4130033753272,4.262435622124635,-149288.52557160953,10.5,10499850711.474428,47.655,-122.3035,60.0,12.816666666666666
2026-01-20T23:12:50+00:00,SAT-52503,1.9641377041009698,46.770008061462576,1085.6640725024597,4.2899253087297105,-150251.3306777783,10.5,10499849748.669323,47.655,-122.3035,60.0,12.833333333333334
2026-01-20T23:12:51+00:00,SAT-52503,2.0632923026265697,46.4671557758971,1089.9425580103662,4.317087942910922,-151202.68102463297,10.5,10499848797.318975,47.655,-122.3035,60.0,12.85
2026-01-20T23:12:52+00:00,SAT-52503,2.1602015857142867,46.16635130101217,1094.2481337187626,4.343926523225379,-152142.68163432745,10.5,10499847857.318365,47.655,-122.3035,60.0,12.866666666666667
2026-01-20T23:12:53+00:00,SAT-52503,2.254927519421935,45.86758808718143,1098.5804764379259,4.3704441791675555,-153071.44211499585,10.5,10499846928.557884,47.655,-122.3035,60.0,12.883333333333333
2026-01-20T23:12:54+00:00,SAT-52503,2.347529844555627,45.57085911842369,1102.9392660992823,4.396643964021825,-153989.06940557246,10.5,10499846010.930593,47.655,-122.3035,60.0,12.9
2026-01-20T23:12:55+00:00,SAT-52503,2.438066172092357,45.27615694230629,1107.3241856794002,4.422528986030688,-154895.67236985738,10.5,10499845104.327631,47.655,-122.3035,60.0,12.916666666666666
2026-01-20T23:12:56+00:00,SAT-52503,2.5265920766095227,44.98347368977451,1111.7349212548013,4.448102389874478,-155791.36114785788,10.5,10499844208.638853,47.655,-122.3035,60.0,12.933333333333334
2026-01-20T23:12:57+00:00,SAT-52503,2.6131611845368967,44.69280109541493,1116.1711620383028,4.473367260189392,-156676.24377658166,10.5,10499843323.756224,47.655,-122.3035,60.0,12.95
2026-01-20T23:12:58+00:00,SAT-52503,2.697825256144129,44.40413052298988,1120.6326003191318,4.498326771224244,-157550.43143164917,10.5,10499842449.56857,47.655,-122.3035,60.0,12.966666666666667
2026-01-20T23:12:59+00:00,SAT-52503,2.7806342663521604,44.117452980351814,1125.1189315522993,4.52298404819315,-158414.0335712784,10.5,10499841585.966429,47.655,-122.3035,60.0,12.983333333333333
2026-01-20T23:13:00+00:00,SAT-52503,2.8616364789133844,43.832759142436394,1129.6298543096973,4.547342228717145,-159267.1600882302,10.5,10499840732.839912,47.655,-122.3035,60.0,13.0
2026-01-20T23:13:01+00:00,SAT-52503,2.9408785181482693,43.550039369416375,1134.1650702924712,4.571404462888338,-160109.92131205497,10.5,10499839890.078688,47.655,-122.3035,60.0,13.016666666666667
2026-01-20T23:13:02+00:00,SAT-52503,3.018405437179193,43.269283724049664,1138.7242843434585,4.595173925539866,-160942.42843883883,10.5,10499839057.571562,47.655,-122.3035,60.0,13.033333333333333
2026-01-20T23:13:03+00:00,SAT-52503,3.094260783062596,42.9904819875805,1143.3072044718635,4.618653714235516,-161764.7899583682,10.5,10499838235.210041,47.655,-122.3035,60.0,13.05
2026-01-20T23:13:04+00:00,SAT-52503,3.1684866571093657,42.71362368100133,1147.9135417761945,4.641847002915103,-162577.1170354412,10.5,10499837422.882965,47.655,-122.3035,60.0,13.066666666666666
2026-01-20T23:13:05+00:00,SAT-52503,3.2411237748726793,42.438698076309656,1152.5430105204352,4.664756920416351,-163379.51925518984,10.5,10499836620.480745,47.655,-122.3035,60.0,13.083333333333334
2026-01-20T23:13:06+00:00,SAT-52503,3.3122115213298726,42.16569421439261,1157.1953280890637,4.687386593417812,-164172.10612712285,10.5,10499835827.893873,47.655,-122.3035,60.0,13.1
2026-01-20T23:13:07+00:00,SAT-52503,3.3817880041692265,41.89460091963581,1161.8702149848991,4.709739160931516,-164954.98759271964,10.5,10499835045.012407,47.655,-122.3035,60.0,13.116666666666667
2026-01-20T23:13:08+00:00,SAT-52503,3.449890104788318,41.62540681307761,1166.5673948414017,4.73181772051477,-165728.2721415396,10.5,10499834271.727858,47.655,-122.3035,60.0,13.133333333333333
2026-01-20T23:13:09+00:00,SAT-52503,3.5165535261678222,41.358100328012796,1171.2865943813283,4.753625353668947,-166492.06770079568,10.5,10499833507.932299,47.655,-122.3035,60.0,13.15
2026-01-20T23:13:10+00:00,SAT-52503,3.5818128389271506,41.09266972345811,1176.0275434007208,4.775165218536485,-167246.4848819949,10.5,10499832753.515118,47.655,-122.3035,60.0,13.166666666666666
2026-01-20T23:13:11+00:00,SAT-52503,3.645701526515006,40.829103092016354,1180.7899748453412,4.796440322324649,-167991.6290102562,10.5,10499832008.370989,47.655,-122.3035,60.0,13.183333333333334
2026-01-20T23:13:12+00:00,SAT-52503,3.7082520252886035,40.567388379686754,1185.5736246601396,4.817453758278755,-168727.60842411497,10.5,10499831272.391577,47.655,-122.3035,60.0,13.2
2026-01-20T23:13:13+00:00,SAT-52503,3.7694957659601647,40.30751339208538,1190.378231875063,4.838208600707088,-169454.53079885163,10.5,10499830545.469202,47.655,-122.3035,60.0,13.216666666666667
2026-01-20T23:13:14+00:00,SAT-52503,3.829463211764474,40.04946580600279,1195.2035385861682,4.858707832349689,-170172.50060263937,10.5,10499829827.499397,47.655,-122.3035,60.0,13.233333333333333
2026-01-20T23:13:15+00:00,SAT-52503,3.8881838940656177,39.79323318422235,1200.049289864298,4.8789545018942135,-170881.62461341586,10.5,10499829118.375387,47.655,-122.3035,60.0,13.25
2026-01-20T23:13:16+00:00,SAT-52503,3.94568644833305,39.53880298149595,1204.915233820854,4.8989515993332535,-171582.00755336936,10.5,10499828417.992447,47.655,-122.3035,60.0,13.266666666666667
2026-01-20T23:13:17+00:00,SAT-52503,4.0019986470075155,39.286162556696155,1209.8011215492556,4.918702098837249,-172273.75359052932,10.5,10499827726.24641,47.655,-122.3035,60.0,13.283333333333333
2026-01-20T23:13:18+00:00,SAT-52503,4.057147431460024,39.03529918219949,1214.7067071091628,4.938208973304056,-172956.96684835412,10.5,10499827043.033152,47.655,-122.3035,60.0,13.3
2026-01-20T23:13:19+00:00,SAT-52503,4.111158942727187,38.78620005215958,1219.6317475252047,4.957475148499234,-173631.7497995295,10.5,10499826368.2502,47.655,-122.3035,60.0,13.316666666666666
2026-01-20T23:13:20+00:00,SAT-52503,4.164058550410616,38.538852292647135,1224.5760027399745,4.97650354262374,-174298.20465179704,10.5,10499825701.79535,47.655,-122.3035,60.0,13.333333333333334
2026-01-20T23:13:21+00:00,SAT-52503,4.215870880790285,38.29324296940203,1229.5392356064847,4.995297064882535,-174956.4332978204,10.5,10499825043.566702,47.655,-122.3035,60.0,13.35
2026-01-20T23:13:22+00:00,SAT-52503,4.26661984369949,38.049359095309775,1234.5212118791942,5.013858585531127,-175606.53626608854,10.5,10499824393.463734,47.655,-122.3035,60.0,13.366666666666667
2026-01-20T23:13:23+00:00,SAT-52503,4.31632865796636,37.80718763897112,1239.521700175164,5.032190929494103,-176248.61249741007,10.5,10499823751.387503,47.655,-122.3035,60.0,13.383333333333333
2026-01-20T23:13:24+00:00,SAT-52503,4.365019875732991,37.56671553315871,1244.540471928846,5.050296964145875,-176882.76241936575,10.5,10499823117.237581,47.655,-122.3035,60.0,13.4
2026-01-20T23:13:25+00:00,SAT-52503,4.4127154066331595,37.327929678790596,1249.5773014344209,5.068179472090554,-177509.083490522,10.5,10499822490.91651,47.655,-122.3035,60.0,13.416666666666666
