satellites_20260121_005943/SAT-52473.csv

timestamp,satellite,azimuth_deg,elevation_deg,distance_km,relative_velocity_kms,doppler_shift_hz,tx_freq_ghz,rx_freq_hz,ue_lat,ue_lon,ue_alt_m,time_minutes
2026-01-20T23:04:15+00:00,SAT-52473,187.31195287310712,30.03897867233652,1050.373786795929,-5.054095436759313,177015.8009978116,10.5,10500177015.800999,47.655,-122.3035,60.0,4.25
2026-01-20T23:04:16+00:00,SAT-52473,187.30090093092355,30.327186786187514,1045.3331689470008,-5.032128909680634,176246.44030119883,10.5,10500176246.440302,47.655,-122.3035,60.0,4.266666666666667
2026-01-20T23:04:17+00:00,SAT-52473,187.2900031098828,30.617934279638963,1040.314459047746,-5.009837563632702,175465.7030703,10.5,10500175465.70307,47.655,-122.3035,60.0,4.283333333333333
2026-01-20T23:04:18+00:00,SAT-52473,187.27926300643662,30.91124672686243,1035.3179810509496,-4.987216570934041,174673.42021928862,10.5,10500174673.42022,47.655,-122.3035,60.0,4.3
2026-01-20T23:04:19+00:00,SAT-52473,187.26868433342136,31.2071497525484,1030.3440637242047,-4.964261069792349,173869.421467633,10.5,10500173869.421467,47.655,-122.3035,60.0,4.316666666666666
2026-01-20T23:04:20+00:00,SAT-52473,187.2582709248047,31.505669020446316,1025.3930406839318,-4.940966142538979,173053.5345777754,10.5,10500173053.534578,47.655,-122.3035,60.0,4.333333333333333
2026-01-20T23:04:21+00:00,SAT-52473,187.2480267406584,31.806830219866583,1020.4652504511063,-4.917326862875457,172225.58700990505,10.5,10500172225.58701,47.655,-122.3035,60.0,4.35
2026-01-20T23:04:22+00:00,SAT-52473,187.23795587228255,32.110659054285954,1015.5610364598651,-4.893338212028782,171385.40298536202,10.5,10500171385.402985,47.655,-122.3035,60.0,4.366666666666666
2026-01-20T23:04:23+00:00,SAT-52473,187.22806254782358,32.417181224159265,1010.6807471497351,-4.868995166291142,170532.80655264846,10.5,10500170532.806553,47.655,-122.3035,60.0,4.383333333333334
2026-01-20T23:04:24+00:00,SAT-52473,187.21835113792173,32.72642241414936,1005.824735970554,-4.844292656526098,169667.6201691639,10.5,10500169667.620169,47.655,-122.3035,60.0,4.4
2026-01-20T23:04:25+00:00,SAT-52473,187.20882616177735,33.038408277106676,1000.9933614277787,-4.819225564588316,168789.66457580903,10.5,10500168789.664576,47.655,-122.3035,60.0,4.416666666666667
2026-01-20T23:04:26+00:00,SAT-52473,187.19949229355282,33.35316441694821,996.1869871313627,-4.793788795203105,167898.76131451112,10.5,10500167898.761314,47.655,-122.3035,60.0,4.433333333333334
2026-01-20T23:04:27+00:00,SAT-52473,187.19035436888208,33.67071637518512,991.4059817729468,-4.767977132944751,166994.72771900048,10.5,10500166994.727718,47.655,-122.3035,60.0,4.45
2026-01-20T23:04:28+00:00,SAT-52473,187.1814173921477,33.99108960742667,986.6507192456899,-4.7417853937751895,166077.3822223356,10.5,10500166077.382223,47.655,-122.3035,60.0,4.466666666666667
2026-01-20T23:04:29+00:00,SAT-52473,187.172686543722,34.31430946854397,981.9215786129647,-4.715208367758876,165146.5423505357,10.5,10500165146.54235,47.655,-122.3035,60.0,4.483333333333333
2026-01-20T23:04:30+00:00,SAT-52473,187.16416718774457,34.64040119328601,977.2189441341866,-4.688240793103041,164202.02381336066,10.5,10500164202.023813,47.655,-122.3035,60.0,4.5
2026-01-20T23:04:31+00:00,SAT-52473,187.15586488042655,34.969389874068796,972.5432053165318,-4.660877412603508,163243.64248128227,10.5,10500163243.64248,47.655,-122.3035,60.0,4.516666666666667
2026-01-20T23:04:32+00:00,SAT-52473,187.14778537864086,35.3013004414959,967.8947569103619,-4.633112953773043,162271.213689495,10.5,10500162271.21369,47.655,-122.3035,60.0,4.533333333333333
2026-01-20T23:04:33+00:00,SAT-52473,187.13993464902512,35.63615764244939,963.2739989244657,-4.604942113544701,161284.55170216243,10.5,10500161284.551702,47.655,-122.3035,60.0,4.55
2026-01-20T23:04:34+00:00,SAT-52473,187.1323188776672,35.97398601601896,958.6813366565569,-4.5763595803776065,160283.47048665537,10.5,10500160283.470488,47.655,-122.3035,60.0,4.566666666666666
2026-01-20T23:04:35+00:00,SAT-52473,187.1249444802619,36.31480986971558,954.1171807017271,-4.5473600611571525,159267.7846557104,10.5,10500159267.784657,47.655,-122.3035,60.0,4.583333333333333
2026-01-20T23:04:36+00:00,SAT-52473,187.11781811277677,36.658653256499285,949.5819469340663,-4.517938225151836,158237.3075045613,10.5,10500158237.307505,47.655,-122.3035,60.0,4.6
2026-01-20T23:04:37+00:00,SAT-52473,187.11094668288558,37.00553994648972,945.0760565441816,-4.488088791588148,157191.8540781822,10.5,10500157191.854078,47.655,-122.3035,60.0,4.616666666666666
2026-01-20T23:04:38+00:00,SAT-52473,187.10433736185706,37.35549340388261,940.599935989371,-4.457806429078346,156131.23764882248,10.5,10500156131.237648,47.655,-122.3035,60.0,4.633333333333334
2026-01-20T23:04:39+00:00,SAT-52473,187.0979975973331,37.708536754980656,936.1540170441035,-4.427085883166575,155055.2741832119,10.5,10500155055.274183,47.655,-122.3035,60.0,4.65
2026-01-20T23:04:40+00:00,SAT-52473,187.09193512663956,38.06469276466489,931.738736723292,-4.395921840209713,153963.77757509158,10.5,10500153963.777575,47.655,-122.3035,60.0,4.666666666666667
2026-01-20T23:04:41+00:00,SAT-52473,187.08615799112874,38.42398380088289,927.3545373413228,-4.364309096655832,152856.56557406203,10.5,10500152856.565575,47.655,-122.3035,60.0,4.683333333333334
2026-01-20T23:04:42+00:00,SAT-52473,187.0806745510531,38.786431811089685,923.0018664022582,-4.3322423922565205,151733.453943973,10.5,10500151733.453943,47.655,-122.3035,60.0,4.7
2026-01-20T23:04:43+00:00,SAT-52473,187.07549350170663,39.15205828398751,918.681176656381,-4.299716553652045,150594.26149188343,10.5,10500150594.261492,47.655,-122.3035,60.0,4.716666666666667
2026-01-20T23:04:44+00:00,SAT-52473,187.07062389023122,39.5208842212795,914.3929260135386,-4.266726436169394,149438.80802958237,10.5,10500149438.80803,47.655,-122.3035,60.0,4.733333333333333
2026-01-20T23:04:45+00:00,SAT-52473,187.06607513356732,39.892930103283746,910.1375775145324,-4.2332669352913985,148266.91477528657,10.5,10500148266.914776,47.655,-122.3035,60.0,4.75
2026-01-20T23:04:46+00:00,SAT-52473,187.06185703758402,40.268215854002094,905.9155992910684,-4.199332996598012,147078.40470182584,10.5,10500147078.404701,47.655,-122.3035,60.0,4.766666666666667
2026-01-20T23:04:47+00:00,SAT-52473,187.057979817291,40.64676080533581,901.7274645157946,-4.164919615696823,145873.10253420932,10.5,10500145873.102533,47.655,-122.3035,60.0,4.783333333333333
2026-01-20T23:04:48+00:00,SAT-52473,187.0544541184369,41.028583659783905,897.5736513524064,-4.130021888799426,144650.8365210241,10.5,10500144650.836521,47.655,-122.3035,60.0,4.8
2026-01-20T23:04:49+00:00,SAT-52473,187.05129104031616,41.41370245594893,893.4546428553105,-4.0946349469584264,143411.4361311367,10.5,10500143411.43613,47.655,-122.3035,60.0,4.816666666666666
2026-01-20T23:04:50+00:00,SAT-52473,187.04850216026966,41.802134526677065,889.3709269348772,-4.05875402506868,142154.73447040867,10.5,10500142154.73447,47.655,-122.3035,60.0,4.833333333333333
2026-01-20T23:04:51+00:00,SAT-52473,187.04609955960422,42.19389646161483,885.3229962538754,-4.022374424709327,140880.56698026718,10.5,10500140880.56698,47.655,-122.3035,60.0,4.85
2026-01-20T23:04:52+00:00,SAT-52473,187.04409585132348,42.589004064747066,881.3113481609653,-3.9854915829899022,139588.77384898716,10.5,10500139588.77385,47.655,-122.3035,60.0,4.866666666666666
2026-01-20T23:04:53+00:00,SAT-52473,187.04250420963416,42.987472316760446,877.33648455553,-3.9481009868079426,138279.19700862988,10.5,10500138279.197008,47.655,-122.3035,60.0,4.883333333333334
2026-01-20T23:04:54+00:00,SAT-52473,187.04133840151633,43.38931532741407,873.3989118380202,-3.9101983056451637,136951.684786127,10.5,10500136951.684786,47.655,-122.3035,60.0,4.9
2026-01-20T23:04:55+00:00,SAT-52473,187.04061282034237,43.794546299220116,869.4991407278568,-3.8717792595726213,135606.08728026281,10.5,10500135606.08728,47.655,-122.3035,60.0,4.916666666666667
2026-01-20T23:04:56+00:00,SAT-52473,187.04034252197445,44.20317747629562,865.6376862129763,-3.8328397554133304,134242.26113066517,10.5,10500134242.261131,47.655,-122.3035,60.0,4.933333333333334
2026-01-20T23:04:57+00:00,SAT-52473,187.0405432632014,44.61522010512045,861.8150673635774,-3.793375804537338,132860.0666386412,10.5,10500132860.066639,47.655,-122.3035,60.0,4.95
2026-01-20T23:04:58+00:00,SAT-52473,187.04123154301823,45.030684385212474,858.0318072278521,-3.7533836123502056,131459.3709014426,10.5,10500131459.370901,47.655,-122.3035,60.0,4.966666666666667
2026-01-20T23:04:59+00:00,SAT-52473,187.04242464676577,45.44957942749225,854.2884326384683,-3.7128594861380204,130040.04458460797,10.5,10500130040.044584,47.655,-122.3035,60.0,4.983333333333333
2026-01-20T23:05:00+00:00,SAT-52473,187.04414069354766,45.871913201008425,850.58547411096,-3.67179996045907,128601.96631370971,10.5,10500128601.966314,47.655,-122.3035,60.0,5.0
2026-01-20T23:05:01+00:00,SAT-52473,187.04639868702023,46.297692491524806,846.9234656170622,-3.6302017187746958,127145.01992953506,10.5,10500127145.01993,47.655,-122.3035,60.0,5.016666666666667
2026-01-20T23:05:02+00:00,SAT-52473,187.04921857002216,46.726922849916605,843.3029444362041,-3.5880616591203096,125669.09678816286,10.5,10500125669.096788,47.655,-122.3035,60.0,5.033333333333333
2026-01-20T23:05:03+00:00,SAT-52473,187.0526212832512,47.15960854622092,839.7244509415082,-3.5453768546084605,124174.09437761384,10.5,10500124174.094378,47.655,-122.3035,60.0,5.05
2026-01-20T23:05:04+00:00,SAT-52473,187.05662882842392,47.595752517454045,836.1885284251787,-3.5021446140799073,122659.91844210778,10.5,10500122659.918442,47.655,-122.3035,60.0,5.066666666666666
2026-01-20T23:05:05+00:00,SAT-52473,187.06126433627804,48.035356320904796,832.695722863403,-3.4583624631810714,121126.48231931588,10.5,10500121126.482319,47.655,-122.3035,60.0,5.083333333333333
2026-01-20T23:05:06+00:00,SAT-52473,187.06655213985786,48.47842008361915,829.2465827001238,-3.41402817851768,119573.70813656574,10.5,10500119573.708138,47.655,-122.3035,60.0,5.1
2026-01-20T23:05:07+00:00,SAT-52473,187.07251785361436,48.924942454623896,825.8416585967487,-3.3691397525104754,118001.52557993968,10.5,10500118001.52558,47.655,-122.3035,60.0,5.116666666666666
2026-01-20T23:05:08+00:00,SAT-52473,187.07918845878783,49.3749205510974,822.4815032169117,-3.3236954783470716,116409.87486964815,10.5,10500116409.87487,47.655,-122.3035,60.0,5.133333333333334
2026-01-20T23:05:09+00:00,SAT-52473,187.08659239576644,49.82834991401206,819.1666709265069,-3.2776938884835514,114798.70460609549,10.5,10500114798.704607,47.655,-122.3035,60.0,5.15
2026-01-20T23:05:10+00:00,SAT-52473,187.09475966395863,50.28522445445812,815.8977175550592,-3.231133812697652,113167.97380314801,10.5,10500113167.973803,47.655,-122.3035,60.0,5.166666666666667
2026-01-20T23:05:11+00:00,SAT-52473,187.10372193004733,50.74553640625095,812.6752000991954,-3.1840143731188792,111517.65171406757,10.5,10500111517.651714,47.655,-122.3035,60.0,5.183333333333334
2026-01-20T23:05:12+00:00,SAT-52473,187.11351264533624,51.2092762766844,809.4996764310716,-3.13633499497024,109847.71820773263,10.5,10500109847.718208,47.655,-122.3035,60.0,5.2
2026-01-20T23:05:13+00:00,SAT-52473,187.12416717317777,51.67643279763847,806.3717049960879,-3.0880954310596116,108158.1646264294,10.5,10500108158.164627,47.655,-122.3035,60.0,5.216666666666667
2026-01-20T23:05:14+00:00,SAT-52473,187.135722927438,52.14699287904087,803.2918444861778,-3.039295762281097,106448.99380341155,10.5,10500106448.993803,47.655,-122.3035,60.0,5.233333333333333
2026-01-20T23:05:15+00:00,SAT-52473,187.14821952324425,52.620941561664154,800.260653512596,-2.989936385452182,104720.21963690598,10.5,10500104720.219637,47.655,-122.3035,60.0,5.25
2026-01-20T23:05:16+00:00,SAT-52473,187.16169894106005,53.098261966868236,797.2786902908384,-2.940018090058608,102971.86977804286,10.5,10500102971.869778,47.655,-122.3035,60.0,5.266666666666667
2026-01-20T23:05:17+00:00,SAT-52473,187.17620570585962,53.578935257385474,794.3465122490201,-2.8895420032323367,101203.98370375126,10.5,10500101203.983704,47.655,-122.3035,60.0,5.283333333333333
2026-01-20T23:05:18+00:00,SAT-52473,187.19178708264846,54.06294058910535,791.4646756911296,-2.8385096472957527,99416.61473220051,10.5,10500099416.614733,47.655,-122.3035,60.0,5.3
2026-01-20T23:05:19+00:00,SAT-52473,187.2084932904534,54.550255071434485,788.6337354028933,-2.7869228962677033,97609.82849945774,10.5,10500097609.828499,47.655,-122.3035,60.0,5.316666666666666
2026-01-20T23:05:20+00:00,SAT-52473,187.22637773639974,55.04085371999715,785.8542443010157,-2.734784059618884,95783.70589295572,10.5,10500095783.705893,47.655,-122.3035,60.0,5.333333333333333
2026-01-20T23:05:21+00:00,SAT-52473,187.24549727279063,55.534709423178725,783.1267529988891,-2.682095832297441,93938.34130117821,10.5,10500093938.341301,47.655,-122.3035,60.0,5.35
2026-01-20T23:05:22+00:00,SAT-52473,187.2659124790748,56.03179290014518,780.4518094221444,-2.628861334150818,92073.84399437955,10.5,10500092073.843994,47.655,-122.3035,60.0,5.366666666666666
2026-01-20T23:05:23+00:00,SAT-52473,187.28768797221218,56.53207266582829,777.8299583848848,-2.5750840912517283,90190.33747054153,10.5,10500090190.337471,47.655,-122.3035,60.0,5.383333333333334
2026-01-20T23:05:24+00:00,SAT-52473,187.31089274828548,57.03551499247747,775.261741184543,-2.5207681007978207,88287.96172843386,10.5,10500088287.96173,47.655,-122.3035,60.0,5.4
2026-01-20T23:05:25+00:00,SAT-52473,187.33560055978333,57.5420838838342,772.747695132014,-2.4659177733366198,86366.87124408748,10.5,10500086366.871244,47.655,-122.3035,60.0,5.416666666666667
2026-01-20T23:05:26+00:00,SAT-52473,187.36189033210718,58.05174103906176,770.2883531394062,-2.410537980034919,84427.23662636854,10.5,10500084427.236626,47.655,-122.3035,60.0,5.433333333333334
2026-01-20T23:05:27+00:00,SAT-52473,187.38984662481758,58.56444582620596,767.8842432606514,-2.354634042131062,82469.24424755259,10.5,10500082469.244247,47.655,-122.3035,60.0,5.45
2026-01-20T23:05:28+00:00,SAT-52473,187.41956014298412,59.08015525448374,765.5358882426327,-2.2982117708246035,80493.09764042942,10.5,10500080493.097641,47.655,-122.3035,60.0,5.466666666666667
2026-01-20T23:05:29+00:00,SAT-52473,187.4511283055248,59.59882395607711,763.2438050365303,-2.241277425017579,78499.01601822344,10.5,10500078499.016018,47.655,-122.3035,60.0,5.483333333333333
2026-01-20T23:05:30+00:00,SAT-52473,187.48465587725929,60.12040416030001,761.0085043513128,-2.1838377381361895,76487.23521400259,10.5,10500076487.235214,47.655,-122.3035,60.0,5.5
2026-01-20T23:05:31+00:00,SAT-52473,187.52025567388918,60.6448456745549,758.8304901804784,-2.1258999420490174,74458.00851839535,10.5,10500074458.008518,47.655,-122.3035,60.0,5.516666666666667
2026-01-20T23:05:32+00:00,SAT-52473,187.55804934992213,61.17209587245528,756.7102593049414,-2.0674717314070232,72411.60543062675,10.5,10500072411.60543,47.655,-122.3035,60.0,5.533333333333333
2026-01-20T23:05:33+00:00,SAT-52473,187.59816828035247,61.702099675423234,754.6483008314847,-2.008561318797465,70348.31359024176,10.5,10500070348.313591,47.655,-122.3035,60.0,5.55
2026-01-20T23:05:34+00:00,SAT-52473,187.64075455075664,62.23479954948305,752.645095676204,-1.949177359385702,68268.43613774257,10.5,10500068268.436138,47.655,-122.3035,60.0,5.566666666666666
2026-01-20T23:05:35+00:00,SAT-52473,187.68596206950107,62.770135485280996,750.7011161231101,-1.8893290432443728,66172.29494834694,10.5,10500066172.294949,47.655,-122.3035,60.0,5.583333333333333
2026-01-20T23:05:36+00:00,SAT-52473,187.73395782284948,63.30804500341042,748.8168252906477,-1.8290260182858034,64060.22793275518,10.5,10500064060.227932,47.655,-122.3035,60.0,5.6
2026-01-20T23:05:37+00:00,SAT-52473,187.78492329197735,63.84846314235284,746.9926766750773,-1.768278437794787,61932.5907019491,10.5,10500061932.590702,47.655,-122.3035,60.0,5.616666666666666
2026-01-20T23:05:38+00:00,SAT-52473,187.83905605891545,64.39132246094776,745.22911364645,-1.7070969301841725,59789.75550790478,10.5,10500059789.755508,47.655,-122.3035,60.0,5.633333333333334
2026-01-20T23:05:39+00:00,SAT-52473,187.89657163000933,64.93655303490632,743.5265689747463,-1.6454926065191835,57632.11150712612,10.5,10500057632.111507,47.655,-122.3035,60.0,5.65
2026-01-20T23:05:40+00:00,SAT-52473,187.9577055128409,65.48408245731324,741.8854643485112,-1.5834770608607198,55460.064772668695,10.5,10500055460.064774,47.655,-122.3035,60.0,5.666666666666667
2026-01-20T23:05:41+00:00,SAT-52473,188.02271558859994,66.03383584156587,740.306209893146,-1.5210623608127278,53274.03796306858,10.5,10500053274.037964,47.655,-122.3035,60.0,5.683333333333334
2026-01-20T23:05:42+00:00,SAT-52473,188.0918848295971,66.58573582321955,738.7892036986289,-1.4582610269920238,51074.46960328885,10.5,10500051074.469603,47.655,-122.3035,60.0,5.7
2026-01-20T23:05:43+00:00,SAT-52473,188.16552442175262,67.1397025564939,737.3348313677088,-1.395086046794572,48861.81456687281,10.5,10500048861.814568,47.655,-122.3035,60.0,5.716666666666667
2026-01-20T23:05:44+00:00,SAT-52473,188.2439773651386,67.69565371605933,735.9434655503724,-1.3315508579788413,46636.5435009637,10.5,10500046636.5435,47.655,-122.3035,60.0,5.733333333333333
2026-01-20T23:05:45+00:00,SAT-52473,188.32762263941845,68.25350449425463,734.6154654946815,-1.2676693224996038,44399.14190985365,10.5,10500044399.14191,47.655,-122.3035,60.0,5.75
2026-01-20T23:05:46+00:00,SAT-52473,188.41688003893307,68.81316758714625,733.3511766237086,-1.2034557491915598,42150.11094946017,10.5,10500042150.110949,47.655,-122.3035,60.0,5.766666666666667
2026-01-20T23:05:47+00:00,SAT-52473,188.51221580983756,69.3745531886244,732.1509300898481,-1.1389248410386164,39889.96558047325,10.5,10500039889.96558,47.655,-122.3035,60.0,5.783333333333333
2026-01-20T23:05:48+00:00,SAT-52473,188.61414924339033,69.93756895962541,731.015042381719,-1.0740917116328377,37619.2351448174,10.5,10500037619.235146,47.655,-122.3035,60.0,5.8
2026-01-20T23:05:49+00:00,SAT-52473,188.7232604246811,70.5021199989132,729.9438149146505,-1.008971856480103,35338.46236065445,10.5,10500035338.46236,47.655,-122.3035,60.0,5.816666666666666
2026-01-20T23:05:50+00:00,SAT-52473,188.84019937639957,71.06810879380303,728.9375336497876,-0.9435811428426998,33048.20296662816,10.5,10500033048.202967,47.655,-122.3035,60.0,5.833333333333333
2026-01-20T23:05:51+00:00,SAT-52473,188.96569690059317,71.63543515533905,727.9964687233258,-0.8779357885380458,30749.024979305785,10.5,10500030749.024979,47.655,-122.3035,60.0,5.85
2026-01-20T23:05:52+00:00,SAT-52473,189.10057749585886,72.20399612759294,727.1208740968906,-0.8120523434466056,28441.508045507133,10.5,10500028441.508045,47.655,-122.3035,60.0,5.866666666666666
2026-01-20T23:05:53+00:00,SAT-52473,189.24577482815548,72.77368586652688,726.3109872263599,-0.7459476755826022,26126.242954441914,10.5,10500026126.242954,47.655,-122.3035,60.0,5.883333333333334
2026-01-20T23:05:54+00:00,SAT-52473,189.40235036279344,73.34439548307682,725.5670287445788,-0.6796389462068767,23803.830766056846,10.5,10500023803.830767,47.655,-122.3035,60.0,5.9
2026-01-20T23:05:55+00:00,SAT-52473,189.571515934229,73.91601283448651,724.8892021688952,-0.6131435934501414,21474.8822374527,10.5,10500021474.882238,47.655,-122.3035,60.0,5.916666666666667
2026-01-20T23:05:56+00:00,SAT-52473,189.75466125792366,74.48842225587832,724.2776936250275,-0.5464793038192577,19140.016824913604,10.5,10500019140.016825,47.655,-122.3035,60.0,5.933333333333334
2026-01-20T23:05:57+00:00,SAT-52473,189.95338768729343,75.06150420617409,723.7326715993518,-0.4796639966280497,16799.862138608307,10.5,10500016799.862139,47.655,-122.3035,60.0,5.95
2026-01-20T23:05:58+00:00,SAT-52473,190.16954993097664,75.63513481507609,723.2542867067148,-0.4127157968724723,14455.052992563807,10.5,10500014455.052992,47.655,-122.3035,60.0,5.966666666666667
2026-01-20T23:05:59+00:00,SAT-52473,190.40530799749362,76.20918529286875,722.8426714853007,-0.3456530116459107,12106.230578629376,10.5,10500012106.23058,47.655,-122.3035,60.0,5.983333333333333
2026-01-20T23:06:00+00:00,SAT-52473,190.66319240210555,76.7835211627297,722.4979402150191,-0.2784941066525656,9754.041643875973,10.5,10500009754.041643,47.655,-122.3035,60.0,6.0
2026-01-20T23:06:01+00:00,SAT-52473,190.94618674184804,77.35800126223604,722.2201887593176,-0.21125768227690908,7399.137652447365,10.5,10500007399.137653,47.655,-122.3035,60.0,6.016666666666667
2026-01-20T23:06:02+00:00,SAT-52473,191.25783325298556,77.9324764377495,722.0094944308601,-0.14396244485008264,5042.173779187827,10.5,10500005042.173779,47.655,-122.3035,60.0,6.033333333333333
2026-01-20T23:06:03+00:00,SAT-52473,191.6023691221125,78.50678781867936,721.8659158858629,-0.07662718193707557,2683.8080440946037,10.5,10500002683.808044,47.655,-122.3035,60.0,6.05
2026-01-20T23:06:04+00:00,SAT-52473,191.98490445761732,79.08076452279876,721.7894930430776,-0.009270739287306703,324.70050502978427,10.5,10500000324.700504,47.655,-122.3035,60.0,6.066666666666666
2026-01-20T23:06:05+00:00,SAT-52473,192.41165745643985,79.65422059287064,721.7802470257619,0.05808800901020034,-2034.4877875717057,10.5,10499997965.512213,47.655,-122.3035,60.0,6.083333333333333
2026-01-20T23:06:06+00:00,SAT-52473,192.89026919102244,80.2269508257623,721.8381801334147,0.12543018555206667,-4393.095667192201,10.5,10499995606.904333,47.655,-122.3035,60.0,6.1
2026-01-20T23:06:07+00:00,SAT-52473,193.43023102276868,80.79872506404328,721.963275838472,0.1927369353086534,-6750.462750937053,10.5,10499993249.537249,47.655,-122.3035,60.0,6.116666666666666
2026-01-20T23:06:08+00:00,SAT-52473,194.0434739855826,81.369280219216,722.1554988086198,0.25998945286896125,-9105.930393766253,10.5,10499990894.069607,47.655,-122.3035,60.0,6.133333333333334
2026-01-20T23:06:09+00:00,SAT-52473,194.7451955353956,81.9383089957083,722.4147949562811,0.32716900808222343,-11458.842586571494,10.5,10499988541.157413,47.655,-122.3035,60.0,6.15
2026-01-20T23:06:10+00:00,SAT-52473,195.5550411654831,82.50544359838011,722.7410915136751,0.3942569733460039,-13808.546911920783,10.5,10499986191.453089,47.655,-122.3035,60.0,6.166666666666667
2026-01-20T23:06:11+00:00,SAT-52473,196.49882845009796,83.07023170944852,723.1342971350922,0.46123484442923196,-16154.395273369204,10.5,10499983845.604727,47.655,-122.3035,60.0,6.183333333333334
2026-01-20T23:06:12+00:00,SAT-52473,197.611120320462,83.63210018148128,723.5943020199363,0.5280842723490162,-18495.745011919782,10.5,10499981504.254988,47.655,-122.3035,60.0,6.2
2026-01-20T23:06:13+00:00,SAT-52473,198.93916295967017,84.19029866887746,724.120978067559,0.5947870820470867,-20831.95956015148,10.5,10499979168.04044,47.655,-122.3035,60.0,6.216666666666667
2026-01-20T23:06:14+00:00,SAT-52473,200.54907783007303,84.7438093171282,724.7141790507206,0.661325303235049,-23162.40952255048,10.5,10499976837.590477,47.655,-122.3035,60.0,6.233333333333333
2026-01-20T23:06:15+00:00,SAT-52473,202.53588466455844,85.29119695499516,725.3737408198136,0.7276811845697782,-25486.47317199244,10.5,10499974513.526829,47.655,-122.3035,60.0,6.25
2026-01-20T23:06:16+00:00,SAT-52473,205.0402129047338,85.83035065374048,726.0994815212246,0.7938372220322826,-27803.537443690355,10.5,10499972196.462557,47.655,-122.3035,60.0,6.266666666666667
2026-01-20T23:06:17+00:00,SAT-52473,208.27692330684906,86.35801844386441,726.8912018439981,0.8597761855772251,-30112.998868573482,10.5,10499969887.001131,47.655,-122.3035,60.0,6.283333333333333
2026-01-20T23:06:18+00:00,SAT-52473,212.58488203129062,86.86893183077538,727.7486852930805,0.9254811288732079,-32414.263914433377,10.5,10499967585.736086,47.655,-122.3035,60.0,6.3
2026-01-20T23:06:19+00:00,SAT-52473,218.51166587557498,87.35409402688562,728.6716984722767,0.9909354195155491,-34706.750044103064,10.5,10499965293.249956,47.655,-122.3035,60.0,6.316666666666666
2026-01-20T23:06:20+00:00,SAT-52473,226.9376900751578,87.79739534209627,729.6599913973401,1.0561227488696097,-36989.88606021203,10.5,10499963010.11394,47.655,-122.3035,60.0,6.333333333333333
2026-01-20T23:06:21+00:00,SAT-52473,239.13976046444287,88.16946213943494,730.7132978188795,1.1210271687833195,-39263.11339101417,10.5,10499960736.886608,47.655,-122.3035,60.0,6.35
2026-01-20T23:06:22+00:00,SAT-52473,256.24141432579245,88.42077327172521,731.8313355818793,1.1856330788184093,-41525.88564317151,10.5,10499958474.114357,47.655,-122.3035,60.0,6.366666666666666
2026-01-20T23:06:23+00:00,SAT-52473,277.08767228952854,88.49159783156291,733.0138069724876,1.2499252739600502,-43777.67027274758,10.5,10499956222.329727,47.655,-122.3035,60.0,6.383333333333334
2026-01-20T23:06:24+00:00,SAT-52473,297.06322431197975,88.3601835750963,734.2603991123839,1.3138889360424237,-46017.94828489464,10.5,10499953982.051716,47.655,-122.3035,60.0,6.4
2026-01-20T23:06:25+00:00,SAT-52473,312.483716721634,88.0689575211625,735.5707843445967,1.377509663254436,-48246.21526726859,10.5,10499951753.784733,47.655,-122.3035,60.0,6.416666666666667
2026-01-20T23:06:26+00:00,SAT-52473,323.26730814554963,87.67868264957971,736.9446206487492,1.4407734800022323,-50461.98173545593,10.5,10499949538.018265,47.655,-122.3035,60.0,6.433333333333334
2026-01-20T23:06:27+00:00,SAT-52473,330.7354698539303,87.23216958489029,738.3815520661382,1.5036668301602907,-52664.77289659852,10.5,10499947335.227104,47.655,-122.3035,60.0,6.45
2026-01-20T23:06:28+00:00,SAT-52473,336.0433232897407,86.75364265171582,739.8812091180846,1.566176622031975,-54854.130224102366,10.5,10499945145.869776,47.655,-122.3035,60.0,6.466666666666667
2026-01-20T23:06:29+00:00,SAT-52473,339.94540488464514,86.25635767682247,741.4432092691245,1.6282902097461491,-57029.61080606827,10.5,10499942970.389194,47.655,-122.3035,60.0,6.483333333333333
2026-01-20T23:06:30+00:00,SAT-52473,342.90748760260584,85.74780647510521,743.0671573716446,1.6899954073582433,-59190.78783917091,10.5,10499940809.21216,47.655,-122.3035,60.0,6.5
2026-01-20T23:06:31+00:00,SAT-52473,345.21966717850364,85.23243938939657,744.7526461245833,1.7512805089113386,-61337.25133128284,10.5,10499938662.748669,47.655,-122.3035,60.0,6.516666666666667
2026-01-20T23:06:32+00:00,SAT-52473,347.06778483543604,84.71303753741225,746.4992565521376,1.8121342748076208,-63468.60762414517,10.5,10499936531.392376,47.655,-122.3035,60.0,6.533333333333333
2026-01-20T23:06:33+00:00,SAT-52473,348.57479609380437,84.19142196933421,748.306558468879,1.8725459520984187,-65584.48010401046,10.5,10499934415.519896,47.655,-122.3035,60.0,6.55
2026-01-20T23:06:34+00:00,SAT-52473,349.82462607443557,83.6688358645382,750.1741109651051,1.9325052693177671,-67684.50902069242,10.5,10499932315.49098,47.655,-122.3035,60.0,6.566666666666666
2026-01-20T23:06:35+00:00,SAT-52473,350.87621396887414,83.146159865749,752.1014628870381,1.9920024489472614,-69768.35192413762,10.5,10499930231.648075,47.655,-122.3035,60.0,6.583333333333333
2026-01-20T23:06:36+00:00,SAT-52473,351.772019458025,82.62403858867434,754.0881533294548,2.051028192214823,-71835.68313201408,10.5,10499928164.316868,47.655,-122.3035,60.0,6.6
2026-01-20T23:06:37+00:00,SAT-52473,352.5433297616232,82.10295783247139,756.133712113157,2.109573696214715,-73886.19432932667,10.5,10499926113.80567,47.655,-122.3035,60.0,6.616666666666666
2026-01-20T23:06:38+00:00,SAT-52473,353.2136662494893,81.58329332526617,758.2376602795152,2.167630643109145,-75919.59419021149,10.5,10499924080.40581,47.655,-122.3035,60.0,6.633333333333334
2026-01-20T23:06:39+00:00,SAT-52473,353.80102972924186,81.06534244892023,760.3995105742426,2.2251912097417503,-77935.60871464078,10.5,10499922064.391285,47.655,-122.3035,60.0,6.65
2026-01-20T23:06:40+00:00,SAT-52473,354.319416561107,80.5493454466258,762.6187679407585,2.2822480466685757,-79933.9804939991,10.5,10499920066.019506,47.655,-122.3035,60.0,6.666666666666667
2026-01-20T23:06:41+00:00,SAT-52473,354.7798651802452,80.03549995153026,764.894929992636,2.338794295124611,-81914.46930532326,10.5,10499918085.530695,47.655,-122.3035,60.0,6.683333333333334
2026-01-20T23:06:42+00:00,SAT-52473,355.1911930664813,79.52397115086548,767.2274875029735,2.3948235619857074,-83876.8512343627,10.5,10499916123.148766,47.655,-122.3035,60.0,6.7
2026-01-20T23:06:43+00:00,SAT-52473,355.5605252251643,79.01489904439956,769.6159248687941,2.450329948501926,-85820.91968194285,10.5,10499914179.080318,47.655,-122.3035,60.0,6.716666666666667
2026-01-20T23:06:44+00:00,SAT-52473,355.8936794815419,78.50840371137156,772.0597206040999,2.5053079940143603,-87746.48339269022,10.5,10499912253.516607,47.655,-122.3035,60.0,6.733333333333333
2026-01-20T23:06:45+00:00,SAT-52473,356.19545163596024,78.00458920986368,774.558347776797,2.5597527209037403,-89653.36802932272,10.5,10499910346.631971,47.655,-122.3035,60.0,6.75
2026-01-20T23:06:46+00:00,SAT-52473,356.46982944706275,77.50354649070107,777.1112744904449,2.613659591676867,-91541.41466963489,10.5,10499908458.585331,47.655,-122.3035,60.0,6.766666666666667
2026-01-20T23:06:47+00:00,SAT-52473,356.7201552372268,77.00535561956825,779.7179643232106,2.6670245302245554,-93410.48055104118,10.5,10499906589.51945,47.655,-122.3035,60.0,6.783333333333333
2026-01-20T23:06:48+00:00,SAT-52473,356.9492509069694,76.51008748376951,782.3778767880214,2.7198438680631614,-95260.43718772668,10.5,10499904739.562813,47.655,-122.3035,60.0,6.8
2026-01-20T23:06:49+00:00,SAT-52473,357.15951507605627,76.0178051319689,785.0904677391029,2.7721143918418236,-97091.17203455181,10.5,10499902908.827965,47.655,-122.3035,60.0,6.816666666666666
2026-01-20T23:06:50+00:00,SAT-52473,357.35299932563004,75.5285648223906,787.8551898258997,2.8238332983666696,-98902.5869118096,10.5,10499901097.413088,47.655,-122.3035,60.0,6.833333333333333
2026-01-20T23:06:51+00:00,SAT-52473,357.5314685816428,75.04241686608142,790.6714929021374,2.8749982012658566,-100694.5982386638,10.5,10499899305.401762,47.655,-122.3035,60.0,6.85
2026-01-20T23:06:52+00:00,SAT-52473,357.69644935160335,74.5594063054881,793.5388244415333,2.9256070937936074,-102467.13573038878,10.5,10499897532.86427,47.655,-122.3035,60.0,6.866666666666666
2026-01-20T23:06:53+00:00,SAT-52473,357.84926856222523,74.07957347326514,796.4566299164102,2.975658369675984,-104220.14312847667,10.5,10499895779.85687,47.655,-122.3035,60.0,6.883333333333334
2026-01-20T23:06:54+00:00,SAT-52473,357.99108506546446,73.6029544488526,799.4243531971003,3.0251508163049405,-105953.5779622644,10.5,10499894046.422037,47.655,-122.3035,60.0,6.9
2026-01-20T23:06:55+00:00,SAT-52473,358.12291537288866,73.12958143899482,802.4414369445618,3.0740835549776455,-107667.4094558619,10.5,10499892332.590544,47.655,-122.3035,60.0,6.916666666666667
2026-01-20T23:06:56+00:00,SAT-52473,358.24565481031067,72.65948310628022,805.5073229433928,3.122456096093978,-109361.6204614019,10.5,10499890638.37954,47.655,-122.3035,60.0,6.933333333333334
2026-01-20T23:06:57+00:00,SAT-52473,358.36009501915294,72.19268483944728,808.6214524898973,3.1702682604513264,-111036.20470245095,10.5,10499888963.795298,47.655,-122.3035,60.0,6.95
2026-01-20T23:06:58+00:00,SAT-52473,358.4669385131637,71.72920899613042,811.783266701654,3.217520238791687,-112691.16885960058,10.5,10499887308.83114,47.655,-122.3035,60.0,6.966666666666667
2026-01-20T23:06:59+00:00,SAT-52473,358.56681085674643,71.26907510403514,814.9922068864755,3.264212516568614,-114326.52993548774,10.5,10499885673.470064,47.655,-122.3035,60.0,6.983333333333333
2026-01-20T23:07:00+00:00,SAT-52473,358.66027090087096,70.81230004675933,818.2477148363333,3.3103458939980195,-115942.31595705856,10.5,10499884057.684044,47.655,-122.3035,60.0,7.0
2026-01-20T23:07:01+00:00,SAT-52473,358.7478194311194,70.35889822435371,821.5492331412808,3.355921468555718,-117538.56536255838,10.5,10499882461.434637,47.655,-122.3035,60.0,7.016666666666667
2026-01-20T23:07:02+00:00,SAT-52473,358.8299065063664,69.90888169798627,824.8962054859203,3.4009406384037155,-119115.32712153491,10.5,10499880884.672878,47.655,-122.3035,60.0,7.033333333333333
2026-01-20T23:07:03+00:00,SAT-52473,358.90693771395286,69.46226031866503,828.2880769492882,3.44540506189018,-120672.65931635576,10.5,10499879327.340683,47.655,-122.3035,60.0,7.05
2026-01-20T23:07:04+00:00,SAT-52473,358.9792795220903,69.0190418483143,831.7242942643467,3.4893166569910306,-122210.62912265064,10.5,10499877789.370878,47.655,-122.3035,60.0,7.066666666666666
2026-01-20T23:07:05+00:00,SAT-52473,359.04726387873825,68.57923206944656,835.2043060769191,3.5326776013489467,-123729.31281067764,10.5,10499876270.68719,47.655,-122.3035,60.0,7.083333333333333
2026-01-20T23:07:06+00:00,SAT-52473,359.11119217766685,68.14283488511182,838.7275632046645,3.575490312507938,-125228.79505305417,10.5,10499874771.204947,47.655,-122.3035,60.0,7.1
2026-01-20T23:07:07+00:00,SAT-52473,359.1713386905255,67.70985241292892,842.293518876339,3.6177574239141896,-126709.16808420508,10.5,10499873290.831915,47.655,-122.3035,60.0,7.116666666666666
2026-01-20T23:07:08+00:00,SAT-52473,359.227953546706,67.28028507457965,845.9016289471228,3.6594818043971427,-128170.53238267255,10.5,10499871829.467617,47.655,-122.3035,60.0,7.133333333333334
2026-01-20T23:07:09+00:00,SAT-52473,359.2812653298453,66.85413167629515,849.5513521333748,3.700666519663209,-129612.99532246303,10.5,10499870387.004677,47.655,-122.3035,60.0,7.15
2026-01-20T23:07:10+00:00,SAT-52473,359.33148334608677,66.43138948816512,853.2421502089857,3.7413148178348816,-131036.6706665658,10.5,10499868963.329334,47.655,-122.3035,60.0,7.166666666666667
2026-01-20T23:07:11+00:00,SAT-52473,359.37879961200804,66.01205431966315,856.9734881873063,3.7814301695166264,-132441.67997022986,10.5,10499867558.32003,47.655,-122.3035,60.0,7.183333333333334
2026-01-20T23:07:12+00:00,SAT-52473,359.4233906024795,65.59612058585319,860.7448345430375,3.8210161616942195,-133828.14886487005,10.5,10499866171.851135,47.655,-122.3035,60.0,7.2
2026-01-20T23:07:13+00:00,SAT-52473,359.46541878954855,65.1835813811687,864.5556613283006,3.8600766031814513,-135196.21075125659,10.5,10499864803.78925,47.655,-122.3035,60.0,7.216666666666667
2026-01-20T23:07:14+00:00,SAT-52473,359.50503400375953,64.77442853729836,868.4054443938736,3.8986154104351,-136546.0028002724,10.5,10499863453.9972,47.655,-122.3035,60.0,7.233333333333333
2026-01-20T23:07:15+00:00,SAT-52473,359.54237463845953,64.36865268998439,872.2936634965475,3.936636683877328,-137877.66862604645,10.5,10499862122.331373,47.655,-122.3035,60.0,7.25
2026-01-20T23:07:16+00:00,SAT-52473,359.5775687201966,63.96624333398596,876.2198024826012,3.974144635331313,-139191.35574444232,10.5,10499860808.644255,47.655,-122.3035,60.0,7.266666666666667
2026-01-20T23:07:17+00:00,SAT-52473,359.6107348604803,63.56718888259519,880.183349398905,4.011143569911719,-140487.21493878626,10.5,10499859512.78506,47.655,-122.3035,60.0,7.283333333333333
2026-01-20T23:07:18+00:00,SAT-52473,359.6419831045468,63.17147672564716,884.1837965859636,4.047637999363556,-141765.4042294731,10.5,10499858234.59577,47.655,-122.3035,60.0,7.3
2026-01-20T23:07:19+00:00,SAT-52473,359.671415691293,62.77909327332338,888.2206408839954,4.0836324447152235,-143026.08196204135,10.5,10499856973.918037,47.655,-122.3035,60.0,7.316666666666666
2026-01-20T23:07:20+00:00,SAT-52473,359.6991277318895,62.39002401701928,892.2933836421914,4.1191315930688965,-144269.41229863564,10.5,10499855730.587702,47.655,-122.3035,60.0,7.333333333333333
2026-01-20T23:07:21+00:00,SAT-52473,359.72520782044705,62.004253571912365,896.4015308843456,4.154140175755206,-145495.56095046815,10.5,10499854504.439049,47.655,-122.3035,60.0,7.35
2026-01-20T23:07:22+00:00,SAT-52473,359.74973858194835,61.62176572899532,900.5445933529653,4.188663046577618,-146704.6979182678,10.5,10499853295.302082,47.655,-122.3035,60.0,7.366666666666666
2026-01-20T23:07:23+00:00,SAT-52473,359.7727971666367,61.2425434971696,904.7220866314187,4.222705094162055,-147896.99442239333,10.5,10499852103.005577,47.655,-122.3035,60.0,7.383333333333334
2026-01-20T23:07:24+00:00,SAT-52473,359.7944556953783,60.86656915132152,908.933531178663,4.256271329981702,-149072.62598583408,10.5,10499850927.374014,47.655,-122.3035,60.0,7.4
2026-01-20T23:07:25+00:00,SAT-52473,359.8147816630818,60.49382427009428,913.1784524517649,4.2893667672745375,-150231.76819339013,10.5,10499849768.231806,47.655,-122.3035,60.0,7.416666666666667
2026-01-20T23:07:26+00:00,SAT-52473,359.8338383030078,60.12428978255306,917.4563809076599,4.321996506608738,-151374.59968853436,10.5,10499848625.40031,47.655,-122.3035,60.0,7.433333333333334
2026-01-20T23:07:27+00:00,SAT-52473,359.8516849179446,59.75794600502374,921.7668520902511,4.354165687461531,-152501.30047749926,10.5,10499847498.699522,47.655,-122.3035,60.0,7.45
2026-01-20T23:07:28+00:00,SAT-52473,359.8683771806115,59.39477268037573,926.1094066692127,4.385879491303581,-153612.05203730508,10.5,10499846387.947962,47.655,-122.3035,60.0,7.466666666666667
2026-01-20T23:07:29+00:00,SAT-52473,359.88396740708623,59.034749015065806,930.4835904818727,4.4171431410266075,-154707.0372957127,10.5,10499845292.962704,47.655,-122.3035,60.0,7.483333333333333
2026-01-20T23:07:30+00:00,SAT-52473,359.898504805854,58.67785371448547,934.8889545745234,4.44796185524706,-155786.43903074483,10.5,10499844213.560968,47.655,-122.3035,60.0,7.5
2026-01-20T23:07:31+00:00,SAT-52473,359.9120357048802,58.32406502020588,939.3250551981564,4.478340940117539,-156850.44308631058,10.5,10499843149.556913,47.655,-122.3035,60.0,7.516666666666667
2026-01-20T23:07:32+00:00,SAT-52473,359.9246037594831,57.97336073813916,943.791453895767,4.508285648358833,-157899.233434911,10.5,10499842100.766565,47.655,-122.3035,60.0,7.533333333333333
2026-01-20T23:07:33+00:00,SAT-52473,359.9362501418994,57.62571827638757,948.2877174490635,4.537801318104545,-158932.99704056507,10.5,10499841067.00296,47.655,-122.3035,60.0,7.55
2026-01-20T23:07:34+00:00,SAT-52473,359.9470137155136,57.28111467049109,952.8134179636531,4.566893203588307,-159951.91792876,10.5,10499840048.082071,47.655,-122.3035,60.0,7.566666666666666
2026-01-20T23:07:35+00:00,SAT-52473,359.9569311940117,56.93952662030229,957.3681327853652,4.595566667605721,-160956.18392728234,10.5,10499839043.816072,47.655,-122.3035,60.0,7.583333333333333
2026-01-20T23:07:36+00:00,SAT-52473,359.9660372882859,56.600930510592526,961.951444608524,4.62382699851153,-161945.98025668497,10.5,10499838054.019743,47.655,-122.3035,60.0,7.6
2026-01-20T23:07:37+00:00,SAT-52473,359.97436484080475,56.26530244423458,966.5629414017061,4.651679515500654,-162921.49321767417,10.5,10499837078.506783,47.655,-122.3035,60.0,7.616666666666666
2026-01-20T23:07:38+00:00,SAT-52473,359.98194494970033,55.9326182659832,971.2022164384988,4.679129493798363,-163882.90757095302,10.5,10499836117.092428,47.655,-122.3035,60.0,7.633333333333334
2026-01-20T23:07:39+00:00,SAT-52473,359.98880708287777,55.602853590436574,975.868868253647,4.706182243576642,-164830.4093012064,10.5,10499835169.590698,47.655,-122.3035,60.0,7.65
2026-01-20T23:07:40+00:00,SAT-52473,359.9949791835158,55.27598382303387,980.5625006779073,4.732843028320881,-165764.18275795734,10.5,10499834235.817242,47.655,-122.3035,60.0,7.666666666666667
2026-01-20T23:07:41+00:00,SAT-52473,0.00048776728426893105,54.95198418567015,985.2827227914861,4.759117108008996,-166684.41216788202,10.5,10499833315.587831,47.655,-122.3035,60.0,7.683333333333334
2026-01-20T23:07:42+00:00,SAT-52473,0.005358012303936483,54.63082973804516,990.0291489205405,4.785009693065185,-167591.28002207595,10.5,10499832408.719978,47.655,-122.3035,60.0,7.7
2026-01-20T23:07:43+00:00,SAT-52473,0.009613842345836577,54.312495400987714,994.8013985877575,4.810526004494529,-168484.96918222192,10.5,10499831515.030817,47.655,-122.3035,60.0,7.716666666666667
2026-01-20T23:07:44+00:00,SAT-52473,0.013278003976727723,53.99695597460281,999.5990965229067,4.835671216488083,-169365.6608703774,10.5,10499830634.33913,47.655,-122.3035,60.0,7.733333333333333
2026-01-20T23:07:45+00:00,SAT-52473,0.01637213802695903,53.68418615923146,1004.4218726161507,4.860450476433636,-170233.53536983635,10.5,10499829766.46463,47.655,-122.3035,60.0,7.75
2026-01-20T23:07:46+00:00,SAT-52473,0.018916845909062913,53.37416057402366,1009.2693618913139,4.884868899530509,-171088.7718365161,10.5,10499828911.228163,47.655,-122.3035,60.0,7.766666666666667
2026-01-20T23:07:47+00:00,SAT-52473,0.02093175124936276,53.06685377485767,1014.141204473779,4.9089315613242945,-171931.54803749293,10.5,10499828068.451963,47.655,-122.3035,60.0,7.783333333333333
2026-01-20T23:07:48+00:00,SAT-52473,0.02243555715211027,52.7622402717882,1019.0370455509398,4.932643522910754,-172762.04123374887,10.5,10499827237.958767,47.655,-122.3035,60.0,7.8
2026-01-20T23:07:49+00:00,SAT-52473,0.023446099577081814,52.460294543978186,1023.9565353577893,4.956009762844541,-173580.42579532697,10.5,10499826419.574205,47.655,-122.3035,60.0,7.816666666666666
2026-01-20T23:07:50+00:00,SAT-52473,0.02398039686882398,52.16099105801114,1028.8993290945998,4.979035262721994,-174386.87619880328,10.5,10499825613.1238,47.655,-122.3035,60.0,7.833333333333333
2026-01-20T23:07:51+00:00,SAT-52473,0.024054696151217348,51.86430427999624,1033.8650869299545,5.001724935629651,-175181.56452125072,10.5,10499824818.435478,47.655,-122.3035,60.0,7.85
2026-01-20T23:07:52+00:00,SAT-52473,0.02368451641588483,51.57020869130697,1038.8534739324225,5.0240836814299215,-175964.66237657712,10.5,10499824035.337624,47.655,-122.3035,60.0,7.866666666666666
2026-01-20T23:07:53+00:00,SAT-52473,0.02288468889472259,51.27867880018329,1043.8641600573685,5.04611629421337,-176736.33767411314,10.5,10499823263.662327,47.655,-122.3035,60.0,7.883333333333334
2026-01-20T23:07:54+00:00,SAT-52473,0.02166939461115235,50.989689158029606,1048.896820041464,5.06782758673455,-177496.7589768812,10.5,10499822503.241024,47.655,-122.3035,60.0,7.9
2026-01-20T23:07:55+00:00,SAT-52473,0.02005219969938218,50.70321436766855,1053.9511334213007,5.089222306766784,-178246.092571986,10.5,10499821753.907429,47.655,-122.3035,60.0,7.916666666666667
2026-01-20T23:07:56+00:00,SAT-52473,0.01804608830184481,50.41922909587617,1059.0267844685825,5.1103051188949316,-178984.50183292062,10.5,10499821015.498167,47.655,-122.3035,60.0,7.933333333333334
2026-01-20T23:07:57+00:00,SAT-52473,0.015663493399169903,50.137708086158774,1064.1234621071605,5.131080686035874,-179712.1500747583,10.5,10499820287.849926,47.655,-122.3035,60.0,7.95
2026-01-20T23:07:58+00:00,SAT-52473,0.012916325761872993,49.85862616631973,1069.2408599113671,5.151553585587595,-180429.19761733882,10.5,10499819570.802383,47.655,-122.3035,60.0,7.966666666666667
2026-01-20T23:07:59+00:00,SAT-52473,0.009816001032069739,49.58195826011937,1074.3786760207263,5.171728361484214,-181135.80360845584,10.5,10499818864.196392,47.655,-122.3035,60.0,7.983333333333333
2026-01-20T23:08:00+00:00,SAT-52473,0.0063734651648670836,49.30767939543927,1079.53661310658,5.1916094972120685,-181832.12507876605,10.5,10499818167.874922,47.655,-122.3035,60.0,8.0
2026-01-20T23:08:01+00:00,SAT-52473,0.0025992183301126654,49.03576471337407,1084.7143783117995,5.211201441327294,-182518.3178355227,10.5,10499817481.682165,47.655,-122.3035,60.0,8.016666666666667
2026-01-20T23:08:02+00:00,SAT-52473,359.99850333733895,48.766189475434985,1089.91168321595,5.230508563039838,-183194.53490693984,10.5,10499816805.465094,47.655,-122.3035,60.0,8.033333333333333
2026-01-20T23:08:03+00:00,SAT-52473,359.99409549675516,48.49892907257395,1095.128243756155,5.249535191878987,-183860.92793144705,10.5,10499816139.07207,47.655,-122.3035,60.0,8.05
2026-01-20T23:08:04+00:00,SAT-52473,359.98938498874315,48.23395903161518,1100.3637801875223,5.268285616784043,-184517.6471258408,10.5,10499815482.352875,47.655,-122.3035,60.0,8.066666666666666
2026-01-20T23:08:05+00:00,SAT-52473,359.98438074175976,47.97125502132071,1105.6180170426614,5.286764041088371,-185164.83970863567,10.5,10499814835.160292,47.655,-122.3035,60.0,8.083333333333334
2026-01-20T23:08:06+00:00,SAT-52473,359.97909133814477,47.71079286027425,1110.890683046307,5.3049746512576474,-185802.65230756838,10.5,10499814197.347692,47.655,-122.3035,60.0,8.1
2026-01-20T23:08:07+00:00,SAT-52473,359.97352503073853,47.452548520866735,1116.1815110984944,5.322921550998029,-186431.2286517872,10.5,10499813568.771349,47.655,-122.3035,60.0,8.116666666666667
2026-01-20T23:08:08+00:00,SAT-52473,359.96768975849255,47.19649813619883,1121.4902381920233,5.340608790387303,-187050.71059214798,10.5,10499812949.289408,47.655,-122.3035,60.0,8.133333333333333
2026-01-20T23:08:09+00:00,SAT-52473,359.96159316126386,46.942618005092086,1126.8166053589696,5.358040382886404,-187661.2386970297,10.5,10499812338.761303,47.655,-122.3035,60.0,8.15
2026-01-20T23:08:10+00:00,SAT-52473,359.9552425937278,46.69088459594851,1132.1603576341683,5.375220288643,-188262.95166755494,10.5,10499811737.048332,47.655,-122.3035,60.0,8.166666666666666
2026-01-20T23:08:11+00:00,SAT-52473,359.9486451385708,46.441274551085165,1137.5212440020416,5.392152393444449,-188855.98560043398,10.5,10499811144.0144,47.655,-122.3035,60.0,8.183333333333334
2026-01-20T23:08:12+00:00,SAT-52473,359.9418076188979,46.19376469171787,1142.899017322437,5.408840535130375,-189440.47491304448,10.5,10499810559.525087,47.655,-122.3035,60.0,8.2
2026-01-20T23:08:13+00:00,SAT-52473,359.9347366100366,45.9483320213434,1148.2934342828069,5.425288491099858,-190016.55190588054,10.5,10499809983.448093,47.655,-122.3035,60.0,8.216666666666667
2026-01-20T23:08:14+00:00,SAT-52473,359.9274384506425,45.704953729423586,1153.7042553379306,5.4415000472914645,-190584.34917852527,10.5,10499809415.650822,47.655,-122.3035,60.0,8.233333333333333
2026-01-20T23:08:15+00:00,SAT-52473,359.9199192532393,45.46360719168587,1159.1312447184291,5.457478808034351,-191143.9929698321,10.5,10499808856.00703,47.655,-122.3035,60.0,8.25
2026-01-20T23:08:16+00:00,SAT-52473,359.91218491421654,45.22426997869481,1164.574170249642,5.473228447667488,-191695.61197069412,10.5,10499808304.38803,47.655,-122.3035,60.0,8.266666666666667
2026-01-20T23:08:17+00:00,SAT-52473,359.9042411232729,44.986919852857106,1170.0328034214492,5.488752543807745,-192239.33148438754,10.5,10499807760.668516,47.655,-122.3035,60.0,8.283333333333333
2026-01-20T23:08:18+00:00,SAT-52473,359.896093372362,44.7515347727138,1175.5069192918068,5.504054589309324,-192775.2738454411,10.5,10499807224.726154,47.655,-122.3035,60.0,8.3
2026-01-20T23:08:19+00:00,SAT-52473,359.88774696423593,44.51809289635118,1180.9962964022113,5.519138075945692,-193303.56135053196,10.5,10499806696.43865,47.655,-122.3035,60.0,8.316666666666666
2026-01-20T23:08:20+00:00,SAT-52473,359.87920702046665,44.28657258100107,1186.5007167766212,5.534006400858022,-193824.31298191377,10.5,10499806175.687017,47.655,-122.3035,60.0,8.333333333333334
2026-01-20T23:08:21+00:00,SAT-52473,359.8704784891415,44.056952386457596,1192.0199658270767,5.5486629476185225,-194337.6472465978,10.5,10499805662.352753,47.655,-122.3035,60.0,8.35
2026-01-20T23:08:22+00:00,SAT-52473,359.86156615210393,43.829211074854115,1197.5538323401684,5.563111011025355,-194843.67954235268,10.5,10499805156.320457,47.655,-122.3035,60.0,8.366666666666667
2026-01-20T23:08:23+00:00,SAT-52473,359.85247463189296,43.60332761340801,1203.1021083884975,5.577353872045985,-195342.52478253757,10.5,10499804657.475218,47.655,-122.3035,60.0,8.383333333333333
2026-01-20T23:08:24+00:00,SAT-52473,359.84320839827825,43.3792811738933,1208.6645893168848,5.591394724054682,-195834.29481262722,10.5,10499804165.705187,47.655,-122.3035,60.0,8.4
2026-01-20T23:08:25+00:00,SAT-52473,359.8337717745444,43.15705113496325,1214.2410736550087,5.605236753148002,-196319.1012232003,10.5,10499803680.898777,47.655,-122.3035,60.0,8.416666666666666
2026-01-20T23:08:26+00:00,SAT-52473,359.8241689433842,42.93661708107504,1219.8313631101485,5.618883043642856,-196797.05204008165,10.5,10499803202.94796,47.655,-122.3035,60.0,8.433333333333334
2026-01-20T23:08:27+00:00,SAT-52473,359.81440395261336,42.71795880504603,1225.4352624656747,5.632336668609504,-197268.25489519085,10.5,10499802731.745106,47.655,-122.3035,60.0,8.45
2026-01-20T23:08:28+00:00,SAT-52473,359.8044807205052,42.50105630686852,1231.0525795698345,5.6456006734860456,-197732.8164526523,10.5,10499802267.183548,47.655,-122.3035,60.0,8.466666666666667
2026-01-20T23:08:29+00:00,SAT-52473,359.7944030409249,42.28588979310053,1236.6831253081914,5.658677987063977,-198190.83929113307,10.5,10499801809.16071,47.655,-122.3035,60.0,8.483333333333333
2026-01-20T23:08:30+00:00,SAT-52473,359.78417458824714,42.07243967955237,1242.32671348729,5.671571534611053,-198642.42586588374,10.5,10499801357.574135,47.655,-122.3035,60.0,8.5
2026-01-20T23:08:31+00:00,SAT-52473,359.7737989220019,41.86068658947134,1247.983160831142,5.68428420921481,-199087.67750506752,10.5,10499800912.322495,47.655,-122.3035,60.0,8.516666666666667
2026-01-20T23:08:32+00:00,SAT-52473,359.76327949128626,41.65061135278773,1253.652286949132,5.696818839229553,-199526.69326961625,10.5,10499800473.30673,47.655,-122.3035,60.0,8.533333333333333
2026-01-20T23:08:33+00:00,SAT-52473,359.75261963902847,41.44219500647837,1259.3339142714572,5.709178186244767,-199959.56988207507,10.5,10499800040.430119,47.655,-122.3035,60.0,8.55
2026-01-20T23:08:34+00:00,SAT-52473,359.74182260604164,41.23541879487974,1265.0278679825387,5.72136499270275,-200386.40339437383,10.5,10499799613.596605,47.655,-122.3035,60.0,8.566666666666666
2026-01-20T23:08:35+00:00,SAT-52473,359.73089153487604,41.030264168154616,1270.7339760019274,5.7333819555863075,-200807.2882662586,10.5,10499799192.711733,47.655,-122.3035,60.0,8.583333333333334
2026-01-20T23:08:36+00:00,SAT-52473,359.71982947348505,40.82671278167827,1276.4520689389653,5.7452317434146325,-201222.31796055936,10.5,10499798777.68204,47.655,-122.3035,60.0,8.6
2026-01-20T23:08:37+00:00,SAT-52473,359.70863937875396,40.624746494748585,1282.1819800643977,5.756916911631071,-201631.5819797116,10.5,10499798368.41802,47.655,-122.3035,60.0,8.616666666666667
2026-01-20T23:08:38+00:00,SAT-52473,359.69732411991436,40.4243473722024,1287.9235451975976,5.768440077471883,-202035.1719904,10.5,10499797964.828009,47.655,-122.3035,60.0,8.633333333333333
2026-01-20T23:08:39+00:00,SAT-52473,359.68588648167525,40.225497679807184,1293.6766027681965,5.779803716222467,-202433.17468758972,10.5,10499797566.825312,47.655,-122.3035,60.0,8.65
2026-01-20T23:08:40+00:00,SAT-52473,359.6743291673897,40.028179886754984,1299.440993674509,5.791010341809697,-202825.67811963375,10.5,10499797174.32188,47.655,-122.3035,60.0,8.666666666666666
2026-01-20T23:08:41+00:00,SAT-52473,359.662654801918,39.83237666180302,1305.2165613220739,5.802062386161216,-203212.7674629252,10.5,10499796787.232536,47.655,-122.3035,60.0,8.683333333333334
2026-01-20T23:08:42+00:00,SAT-52473,359.6508659344847,39.638070873567024,1311.003151541872,5.81296220261458,-203594.52514129988,10.5,10499796405.47486,47.655,-122.3035,60.0,8.7
2026-01-20T23:08:43+00:00,SAT-52473,359.63896504143213,39.44524559056509,1316.8006125119462,5.823712212757196,-203971.03596899213,10.5,10499796028.964031,47.655,-122.3035,60.0,8.716666666666667
2026-01-20T23:08:44+00:00,SAT-52473,359.6269545286547,39.2538840763465,1322.6087948254694,5.8343146951723215,-204342.37975162597,10.5,10499795657.620249,47.655,-122.3035,60.0,8.733333333333333
2026-01-20T23:08:45+00:00,SAT-52473,359.6148367342184,39.063969791645526,1328.4275513481211,5.844771939047471,-204708.6366662314,10.5,10499795291.363335,47.655,-122.3035,60.0,8.75
2026-01-20T23:08:46+00:00,SAT-52473,359.6026139306469,38.87548639136641,1334.2567372286646,5.855086181013376,-205069.88504907768,10.5,10499794930.11495,47.655,-122.3035,60.0,8.766666666666667
2026-01-20T23:08:47+00:00,SAT-52473,359.59028832723476,38.68841772364628,1340.0962098465284,5.8652596346634205,-205426.20242956854,10.5,10499794573.797571,47.655,-122.3035,60.0,8.783333333333333
2026-01-20T23:08:48+00:00,SAT-52473,359.5778620721814,38.502747827933895,1345.945828788833,5.8752944674451415,-205777.664720885,10.5,10499794222.33528,47.655,-122.3035,60.0,8.8
2026-01-20T23:08:49+00:00,SAT-52473,359.5653372547133,38.31846093379422,1351.8054558043648,5.885192804349395,-206124.34634919552,10.5,10499793875.65365,47.655,-122.3035,60.0,8.816666666666666
2026-01-20T23:08:50+00:00,SAT-52473,359.55271590707696,38.135541459566404,1357.674954761236,5.894956725182999,-206466.32015813247,10.5,10499793533.679842,47.655,-122.3035,60.0,8.833333333333334
2026-01-20T23:08:51+00:00,SAT-52473,359.54000000648267,37.95397401107466,1363.5541916018185,5.904588314553157,-206803.65915945807,10.5,10499793196.340841,47.655,-122.3035,60.0,8.85
2026-01-20T23:08:52+00:00,SAT-52473,359.5271914768911,37.77374337879192,1369.4430343475328,5.9140895974246925,-207136.43427600592,10.5,10499792863.565723,47.655,-122.3035,60.0,8.866666666666667
2026-01-20T23:08:53+00:00,SAT-52473,359.51429219082434,37.59483453700155,1375.3413530393643,5.9234625384682476,-207464.71431885255,10.5,10499792535.28568,47.655,-122.3035,60.0,8.883333333333333
2026-01-20T23:08:54+00:00,SAT-52473,359.50130397108705,37.417232642931886,1381.24901967773,5.932709115918854,-207788.5685741566,10.5,10499792211.431425,47.655,-122.3035,60.0,8.9
2026-01-20T23:08:55+00:00,SAT-52473,359.4882285923573,37.2409230336461,1387.1659082360065,5.941831247836287,-208108.06422048484,10.5,10499791891.93578,47.655,-122.3035,60.0,8.916666666666666
2026-01-20T23:08:56+00:00,SAT-52473,359.47506778277005,37.065891225179456,1393.0918946005152,5.950830831159217,-208423.2676966536,10.5,10499791576.732304,47.655,-122.3035,60.0,8.933333333333334
2026-01-20T23:08:57+00:00,SAT-52473,359.46182322542984,36.89212291048517,1399.0268565494582,5.959709704472522,-208734.2433976824,10.5,10499791265.756603,47.655,-122.3035,60.0,8.95
2026-01-20T23:08:58+00:00,SAT-52473,359.4484965598852,36.71960395847937,1404.9706736947187,5.9684697319723075,-209041.05661560447,10.5,10499790958.943384,47.655,-122.3035,60.0,8.966666666666667
2026-01-20T23:08:59+00:00,SAT-52473,359.4350893834473,36.54832041063789,1410.9232275074057,5.977112679335765,-209343.76919190388,10.5,10499790656.230808,47.655,-122.3035,60.0,8.983333333333333
2026-01-20T23:09:00+00:00,SAT-52473,359.42160325262523,36.37825848121139,1416.8844012195966,5.985640319048202,-209642.44320651365,10.5,10499790357.556793,47.655,-122.3035,60.0,9.0
2026-01-20T23:09:01+00:00,SAT-52473,359.40803968437194,36.209404554373315,1422.8540798311274,5.994054397131666,-209937.13981251157,10.5,10499790062.860188,47.655,-122.3035,60.0,9.016666666666667
2026-01-20T23:09:02+00:00,SAT-52473,359.3944001573028,36.04174518236461,1428.8321500831998,6.002356621223892,-210227.9188185944,10.5,10499789772.08118,47.655,-122.3035,60.0,9.033333333333333
2026-01-20T23:09:03+00:00,SAT-52473,359.3806861129258,35.87526708397519,1434.8185004201005,6.010548659069141,-210514.83863622072,10.5,10499789485.161364,47.655,-122.3035,60.0,9.05
2026-01-20T23:09:04+00:00,SAT-52473,359.3668989567879,35.70995714306523,1440.8130209494122,6.018632160654729,-210797.95705492582,10.5,10499789202.042946,47.655,-122.3035,60.0,9.066666666666666
2026-01-20T23:09:05+00:00,SAT-52473,359.35304005958886,35.54580240647763,1446.8156034243052,6.026608757666468,-211077.33122324882,10.5,10499788922.668777,47.655,-122.3035,60.0,9.083333333333334
2026-01-20T23:09:06+00:00,SAT-52473,359.33911075821163,35.38279008199318,1452.8261412252843,6.034480040212208,-211353.01683349282,10.5,10499788646.983166,47.655,-122.3035,60.0,9.1
2026-01-20T23:09:07+00:00,SAT-52473,359.3251123567937,35.22090753692932,1458.8445293187228,6.042247585076051,-211625.0691113068,10.5,10499788374.93089,47.655,-122.3035,60.0,9.116666666666667
2026-01-20T23:09:08+00:00,SAT-52473,359.3110461276797,35.06014229599044,1464.870664243572,6.049912902258719,-211893.54094330338,10.5,10499788106.459057,47.655,-122.3035,60.0,9.133333333333333
2026-01-20T23:09:09+00:00,SAT-52473,359.2969133124551,34.9004820405495,1470.904444044758,6.057477542629176,-212158.4866474738,10.5,10499787841.513353,47.655,-122.3035,60.0,9.15
2026-01-20T23:09:10+00:00,SAT-52473,359.2827151227449,34.74191460508702,1476.94576831394,6.0649429693882135,-212419.95747129916,10.5,10499787580.042528,47.655,-122.3035,60.0,9.166666666666666
2026-01-20T23:09:11+00:00,SAT-52473,359.2684527412203,34.58442797705824,1482.9945381020766,6.072310677448274,-212678.00577293668,10.5,10499787321.994226,47.655,-122.3035,60.0,9.183333333333334
2026-01-20T23:09:12+00:00,SAT-52473,359.2541273223429,34.42801029363198,1489.0506559510518,6.0795820536877425,-212932.68012673387,10.5,10499787067.319874,47.655,-122.3035,60.0,9.2
2026-01-20T23:09:13+00:00,SAT-52473,359.2397399933491,34.27264984207828,1495.1140257859297,6.0867585599723215,-213184.0317334113,10.5,10499786815.968267,47.655,-122.3035,60.0,9.216666666666667
2026-01-20T23:09:14+00:00,SAT-52473,359.2252918548632,34.118335055444604,1501.184552989742,6.093841576563884,-213432.1089355783,10.5,10499786567.891064,47.655,-122.3035,60.0,9.233333333333333
2026-01-20T23:09:15+00:00,SAT-52473,359.21078398178173,33.96505451229842,1507.2621443221017,6.100832470619852,-213676.95961687082,10.5,10499786323.040382,47.655,-122.3035,60.0,9.25
2026-01-20T23:09:16+00:00,SAT-52473,359.1962174239865,33.812796934714775,1513.3467079061334,6.107732554909244,-213918.62975601296,10.5,10499786081.370243,47.655,-122.3035,60.0,9.266666666666667
2026-01-20T23:09:17+00:00,SAT-52473,359.18159320711544,33.66155118731286,1519.4381531742295,6.114543193255055,-214157.16711985486,10.5,10499785842.83288,47.655,-122.3035,60.0,9.283333333333333
2026-01-20T23:09:18+00:00,SAT-52473,359.16691233314543,33.511306273696434,1525.5363909189691,6.121265679211779,-214392.6170141468,10.5,10499785607.382986,47.655,-122.3035,60.0,9.3
2026-01-20T23:09:19+00:00,SAT-52473,359.1521757811208,33.36205133594454,1531.6413332230366,6.127901264543767,-214625.0232809711,10.5,10499785374.976719,47.655,-122.3035,60.0,9.316666666666666
2026-01-20T23:09:20+00:00,SAT-52473,359.1373845078571,33.21377565338254,1537.7528934175414,6.134451230771887,-214854.43080460955,10.5,10499785145.569195,47.655,-122.3035,60.0,9.333333333333334
2026-01-20T23:09:21+00:00,SAT-52473,359.1225394484576,33.066468639639254,1543.870986111698,6.140916786642731,-215080.88192048072,10.5,10499784919.11808,47.655,-122.3035,60.0,9.35
2026-01-20T23:09:22+00:00,SAT-52473,359.10764151702483,32.92011984221617,1549.9955271202427,6.1472991882710115,-215304.4206230352,10.5,10499784695.579376,47.655,-122.3035,60.0,9.366666666666667
2026-01-20T23:09:23+00:00,SAT-52473,359.0926916071135,32.77471893919062,1556.1264335106787,6.153599571251944,-215525.08668562106,10.5,10499784474.913315,47.655,-122.3035,60.0,9.383333333333333
2026-01-20T23:09:24+00:00,SAT-52473,359.07769059247477,32.63025573994008,1562.2636234830738,6.159819172764987,-215742.92343949617,10.5,10499784257.076561,47.655,-122.3035,60.0,9.4
2026-01-20T23:09:25+00:00,SAT-52473,359.06263932738875,32.48672018062518,1568.407016471378,6.165959088090064,-215957.9692459964,10.5,10499784042.030754,47.655,-122.3035,60.0,9.416666666666666
2026-01-20T23:09:26+00:00,SAT-52473,359.04753864741286,32.34410232543391,1574.5565330018999,6.172020494722064,-216170.2653459737,10.5,10499783829.734653,47.655,-122.3035,60.0,9.433333333333334
2026-01-20T23:09:27+00:00,SAT-52473,359.03238936969933,32.20239236259225,1580.7120947753028,6.178004476633783,-216379.84970474045,10.5,10499783620.150295,47.655,-122.3035,60.0,9.45
2026-01-20T23:09:28+00:00,SAT-52473,359.0171922936429,32.06158060449392,1586.873624573332,6.1839121727602056,-216586.76221261764,10.5,10499783413.237787,47.655,-122.3035,60.0,9.466666666666667
2026-01-20T23:09:29+00:00,SAT-52473,359.0019482012052,31.92165748442738,1593.0410463136316,6.189744609466148,-216791.03881724254,10.5,10499783208.961184,47.655,-122.3035,60.0,9.483333333333333
2026-01-20T23:09:30+00:00,SAT-52473,358.986657857568,31.78261355714858,1599.2142849374725,6.195502883920586,-216992.71794611376,10.5,10499783007.282053,47.655,-122.3035,60.0,9.5
