satellites_20260121_005943/SAT-55791.csv

timestamp,satellite,azimuth_deg,elevation_deg,distance_km,relative_velocity_kms,doppler_shift_hz,tx_freq_ghz,rx_freq_hz,ue_lat,ue_lon,ue_alt_m,time_minutes
2026-01-20T23:00:00+00:00,SAT-55791,57.14577556418023,37.21797774453433,716.3325176000474,1.9495260377541372,-68280.6483291132,10.5,10499931719.351671,47.655,-122.3035,60.0,0.0
2026-01-20T23:00:01+00:00,SAT-55791,56.550383203793984,37.54237935803427,718.2768449017009,2.0145214166142056,-70557.06142697278,10.5,10499929442.938574,47.655,-122.3035,60.0,0.016666666666666666
2026-01-20T23:00:02+00:00,SAT-55791,55.95272621210203,37.86181312584809,720.285994261204,2.0789720863970063,-72814.39650882933,10.5,10499927185.60349,47.655,-122.3035,60.0,0.03333333333333333
2026-01-20T23:00:03+00:00,SAT-55791,55.35291308174378,38.17622471784715,722.3594224220374,2.142866927391102,-75052.264115352,10.5,10499924947.735884,47.655,-122.3035,60.0,0.05
2026-01-20T23:00:04+00:00,SAT-55791,54.75105492903535,38.485564001987235,724.4965750376222,2.2061955188709543,-77270.29926865279,10.5,10499922729.700731,47.655,-122.3035,60.0,0.06666666666666667
2026-01-20T23:00:05+00:00,SAT-55791,54.147265373531965,38.78978506112333,726.6968873684427,2.268948036159558,-79468.15786698463,10.5,10499920531.842133,47.655,-122.3035,60.0,0.08333333333333333
2026-01-20T23:00:06+00:00,SAT-55791,53.541660437020425,39.088846188937225,728.9597848765059,2.331115329641491,-81645.51945211263,10.5,10499918354.480547,47.655,-122.3035,60.0,0.1
2026-01-20T23:00:07+00:00,SAT-55791,52.934358413835994,39.382709887749954,731.2846838986015,2.3926888775426916,-83802.08555546205,10.5,10499916197.914444,47.655,-122.3035,60.0,0.11666666666666667
2026-01-20T23:00:08+00:00,SAT-55791,52.32547974536751,39.67134285325311,733.6709922724708,2.453660779659537,-85937.57947848421,10.5,10499914062.42052,47.655,-122.3035,60.0,0.13333333333333333
2026-01-20T23:00:09+00:00,SAT-55791,51.715146887944506,39.95471595152587,736.118109956718,2.5140237958336185,-88051.74764020578,10.5,10499911948.25236,47.655,-122.3035,60.0,0.15
2026-01-20T23:00:10+00:00,SAT-55791,51.103484163533956,40.23280419330831,738.6254296890961,2.573771247621381,-90144.35613328371,10.5,10499909855.643867,47.655,-122.3035,60.0,0.16666666666666666
2026-01-20T23:00:11+00:00,SAT-55791,50.490617626023,40.50558669167105,741.1923375467238,2.6328971200318447,-92215.19428729046,10.5,10499907784.805714,47.655,-122.3035,60.0,0.18333333333333332
2026-01-20T23:00:12+00:00,SAT-55791,49.876674895850755,40.77304662388173,743.8182136077688,2.6913959572012818,-94264.07101480005,10.5,10499905735.928986,47.655,-122.3035,60.0,0.2
2026-01-20T23:00:13+00:00,SAT-55791,49.2617850116086,41.03517117712568,746.5024325090842,2.749262917429354,-96290.8167389862,10.5,10499903709.183262,47.655,-122.3035,60.0,0.21666666666666667
2026-01-20T23:00:14+00:00,SAT-55791,48.646078261898694,41.29195149409687,749.2443640587338,2.8064936970871774,-98295.28072856109,10.5,10499901704.71927,47.655,-122.3035,60.0,0.23333333333333334
2026-01-20T23:00:15+00:00,SAT-55791,48.02968602728059,41.54338260671504,752.0433737726287,2.8630845900551463,-100277.33317953927,10.5,10499899722.66682,47.655,-122.3035,60.0,0.25
2026-01-20T23:00:16+00:00,SAT-55791,47.41274060290383,41.789463370210655,754.8988234704437,2.9190324298165042,-102236.86318710957,10.5,10499897763.136812,47.655,-122.3035,60.0,0.26666666666666666
2026-01-20T23:00:17+00:00,SAT-55791,46.79537502805291,42.030196387609166,757.8100718137807,2.9743345618951866,-104173.7777802918,10.5,10499895826.22222,47.655,-122.3035,60.0,0.2833333333333333
2026-01-20T23:00:18+00:00,SAT-55791,46.177722915483635,42.26558792849629,760.7764748168443,3.0289888777228224,-106088.00310810233,10.5,10499893911.996891,47.655,-122.3035,60.0,0.3
2026-01-20T23:00:19+00:00,SAT-55791,45.55991826921821,42.495647846221814,763.7973863908932,3.082993759373013,-107979.48250391489,10.5,10499892020.517496,47.655,-122.3035,60.0,0.31666666666666665
2026-01-20T23:00:20+00:00,SAT-55791,44.94209530906089,42.72038948778801,766.8721588335745,3.1363480808415347,-109848.17653029854,10.5,10499890151.82347,47.655,-122.3035,60.0,0.3333333333333333
2026-01-20T23:00:21+00:00,SAT-55791,44.324388291150235,42.9398296006323,770.0001433195338,3.1890511879175363,-111694.06227402203,10.5,10499888305.937725,47.655,-122.3035,60.0,0.35
2026-01-20T23:00:22+00:00,SAT-55791,43.70693132903689,43.15398823549373,773.1806903709502,3.2411028816914236,-113517.13276842992,10.5,10499886482.867231,47.655,-122.3035,60.0,0.36666666666666664
2026-01-20T23:00:23+00:00,SAT-55791,43.089858215557754,43.36288864547942,776.4131503116237,3.292503414116069,-115317.39683797758,10.5,10499884682.603163,47.655,-122.3035,60.0,0.38333333333333336
2026-01-20T23:00:24+00:00,SAT-55791,42.473302243373055,43.56655718297934,779.6968737166355,3.343253450351157,-117094.87777937078,10.5,10499882905.122221,47.655,-122.3035,60.0,0.4
2026-01-20T23:00:25+00:00,SAT-55791,41.857396031230934,43.76502319237485,783.0312118244524,3.393354047278448,-118849.61260907938,10.5,10499881150.38739,47.655,-122.3035,60.0,0.4166666666666667
2026-01-20T23:00:26+00:00,SAT-55791,41.242271353031946,43.95831890033732,786.4155169276048,3.4428066978612315,-120581.65361699302,10.5,10499879418.346382,47.655,-122.3035,60.0,0.43333333333333335
2026-01-20T23:00:27+00:00,SAT-55791,40.62805895915008,44.14647930696583,789.8491428076051,3.4916132270713365,-122291.06472134477,10.5,10499877708.935278,47.655,-122.3035,60.0,0.45
2026-01-20T23:00:28+00:00,SAT-55791,40.01488841637198,44.32954207084139,793.3314450660708,3.5397758358605618,-123977.92300877662,10.5,10499876022.076992,47.655,-122.3035,60.0,0.4666666666666667
2026-01-20T23:00:29+00:00,SAT-55791,39.40288794115648,44.50754739564676,796.8617814997025,3.587297063101111,-125642.31740133258,10.5,10499874357.682598,47.655,-122.3035,60.0,0.48333333333333334
2026-01-20T23:00:30+00:00,SAT-55791,38.79218424096012,44.680537914679356,800.4395124373019,3.6341797665381517,-127284.34798933666,10.5,10499872715.65201,47.655,-122.3035,60.0,0.5
2026-01-20T23:00:31+00:00,SAT-55791,38.18290236088403,44.8485585744423,804.0640010577961,3.6804271440716474,-128904.12677677267,10.5,10499871095.873222,47.655,-122.3035,60.0,0.5166666666666667
2026-01-20T23:00:32+00:00,SAT-55791,37.57516552948266,45.01165651936956,807.7346137294835,3.7260426193741276,-130501.77367513475,10.5,10499869498.226324,47.655,-122.3035,60.0,0.5333333333333333
2026-01-20T23:00:33+00:00,SAT-55791,36.96909502619483,45.1698809723712,811.450720235206,3.771029970626058,-132077.42101228447,10.5,10499867922.578987,47.655,-122.3035,60.0,0.55
2026-01-20T23:00:34+00:00,SAT-55791,36.36481003169138,45.32328312121424,815.2116941259103,3.815393185218733,-133631.20844353162,10.5,10499866368.791557,47.655,-122.3035,60.0,0.5666666666666667
2026-01-20T23:00:35+00:00,SAT-55791,35.762427505306825,45.471916000332776,819.0169129293018,3.859136517763367,-135163.28498335788,10.5,10499864836.715017,47.655,-122.3035,60.0,0.5833333333333334
2026-01-20T23:00:36+00:00,SAT-55791,35.162062057791296,45.61583437591107,822.8657584163511,3.9022644497145613,-136673.80759125997,10.5,10499863326.19241,47.655,-122.3035,60.0,0.6
2026-01-20T23:00:37+00:00,SAT-55791,34.56382583485255,45.755094631209005,826.7576168275331,3.9447816772975393,-138162.94074891025,10.5,10499861837.059252,47.655,-122.3035,60.0,0.6166666666666667
2026-01-20T23:00:38+00:00,SAT-55791,33.96782840779411,45.88975465289095,830.6918790870245,3.9866931164326758,-139630.85663263447,10.5,10499860369.143368,47.655,-122.3035,60.0,0.6333333333333333
2026-01-20T23:00:39+00:00,SAT-55791,33.37417666869762,46.019873719447965,834.6679410218135,4.028003837864413,-141077.73284135232,10.5,10499858922.267159,47.655,-122.3035,60.0,0.65
2026-01-20T23:00:40+00:00,SAT-55791,32.78297474073515,46.14551238966904,838.6852035161102,4.068719122213916,-142503.75432475394,10.5,10499857496.245676,47.655,-122.3035,60.0,0.6666666666666666
2026-01-20T23:00:41+00:00,SAT-55791,32.19432388620038,46.26673239495597,842.7430727206648,4.108844400286373,-143909.11129260936,10.5,10499856090.888708,47.655,-122.3035,60.0,0.6833333333333333
2026-01-20T23:00:42+00:00,SAT-55791,31.608322429353635,46.383596532093755,846.8409602025504,4.1483852330670885,-145293.99851414684,10.5,10499854706.001486,47.655,-122.3035,60.0,0.7
2026-01-20T23:00:43+00:00,SAT-55791,31.02506568772523,46.49616855839481,850.978283074996,4.187347374967899,-146658.61753321008,10.5,10499853341.382467,47.655,-122.3035,60.0,0.7166666666666667
2026-01-20T23:00:44+00:00,SAT-55791,30.444645901321028,46.604513090589506,855.1544641902973,4.225736633041668,-148003.1717373541,10.5,10499851996.828262,47.655,-122.3035,60.0,0.7333333333333333
2026-01-20T23:00:45+00:00,SAT-55791,29.867152187047605,46.708695503439756,859.3689321923175,4.2635589842757184,-149327.87046595762,10.5,10499850672.129534,47.655,-122.3035,60.0,0.75
2026-01-20T23:00:46+00:00,SAT-55791,29.29267048364525,46.808781833688585,863.6211216859685,4.300820482849982,-150632.92576201103,10.5,10499849367.074238,47.655,-122.3035,60.0,0.7666666666666667
2026-01-20T23:00:47+00:00,SAT-55791,28.721283515245933,46.9048386850539,867.9104733141976,4.337527298971603,-151918.55373226845,10.5,10499848081.446268,47.655,-122.3035,60.0,0.7833333333333333
2026-01-20T23:00:48+00:00,SAT-55791,28.153070756167438,46.99693313690313,872.2364338737053,4.3736856479003885,-153184.97206141884,10.5,10499846815.027939,47.655,-122.3035,60.0,0.8
2026-01-20T23:00:49+00:00,SAT-55791,27.58810841087767,47.08513265478195,876.5984563598779,4.409301847761986,-154432.402036948,10.5,10499845567.597963,47.655,-122.3035,60.0,0.8166666666666667
2026-01-20T23:00:50+00:00,SAT-55791,27.026469392635075,47.16950500514197,880.9960000693792,4.444382300270986,-155661.06787398018,10.5,10499844338.932125,47.655,-122.3035,60.0,0.8333333333333334
2026-01-20T23:00:51+00:00,SAT-55791,26.468223310725,47.250118172772474,885.4285306835162,4.478933384631523,-156871.19299922814,10.5,10499843128.807001,47.655,-122.3035,60.0,0.85
2026-01-20T23:00:52+00:00,SAT-55791,25.913436476346707,47.3270402799384,889.8955202457886,4.512961614996725,-158063.00556588924,10.5,10499841936.994434,47.655,-122.3035,60.0,0.8666666666666667
2026-01-20T23:00:53+00:00,SAT-55791,25.36217189487589,47.40033951111143,894.3964472964786,4.546473497640919,-159236.73345121194,10.5,10499840763.266548,47.655,-122.3035,60.0,0.8833333333333333
2026-01-20T23:00:54+00:00,SAT-55791,24.81448928103333,47.47008403880364,898.9307968647926,4.5794755682991655,-160392.6055642842,10.5,10499839607.394436,47.655,-122.3035,60.0,0.9
2026-01-20T23:00:55+00:00,SAT-55791,24.27044507448088,47.53634195336195,903.4980604982429,4.611974397987526,-161530.85204988383,10.5,10499838469.14795,47.655,-122.3035,60.0,0.9166666666666666
2026-01-20T23:00:56+00:00,SAT-55791,23.73009245987978,47.59918119597219,908.0977362978358,4.643976560656265,-162651.70315555698,10.5,10499837348.296844,47.655,-122.3035,60.0,0.9333333333333333
2026-01-20T23:00:57+00:00,SAT-55791,23.193481395289208,47.658669494666555,912.7293289209971,4.6754886812771055,-163755.39091583688,10.5,10499836244.609085,47.655,-122.3035,60.0,0.95
2026-01-20T23:00:58+00:00,SAT-55791,22.66065863989599,47.714874303829504,917.3923496324574,4.706517300674421,-164842.14441806078,10.5,10499835157.855581,47.655,-122.3035,60.0,0.9666666666666667
2026-01-20T23:00:59+00:00,SAT-55791,22.131667800667497,47.76786274591447,922.0863162203301,4.7370690558655015,-165912.19611864875,10.5,10499834087.80388,47.655,-122.3035,60.0,0.9833333333333333
2026-01-20T23:01:00+00:00,SAT-55791,21.606549363381284,47.81770155766062,926.8107530920466,4.7671505038761355,-166965.77567238006,10.5,10499833034.224327,47.655,-122.3035,60.0,1.0
2026-01-20T23:01:01+00:00,SAT-55791,21.085340746367145,47.86445703816774,931.565191194579,4.796768234764486,-168003.11389096754,10.5,10499831996.886108,47.655,-122.3035,60.0,1.0166666666666666
2026-01-20T23:01:02+00:00,SAT-55791,20.568076345737474,47.90819500068173,936.3491680473842,4.8259287676977785,-169024.43910322344,10.5,10499830975.560896,47.655,-122.3035,60.0,1.0333333333333334
2026-01-20T23:01:03+00:00,SAT-55791,20.054787594436448,47.948980726936895,941.1622276717013,4.854638657593069,-170029.98089007038,10.5,10499829970.01911,47.655,-122.3035,60.0,1.05
2026-01-20T23:01:04+00:00,SAT-55791,19.545503013297527,47.98687892489345,946.0039206262074,4.882904380103935,-171019.96605628857,10.5,10499828980.033943,47.655,-122.3035,60.0,1.0666666666666667
2026-01-20T23:01:05+00:00,SAT-55791,19.04024827644106,48.02195368882036,950.8738039279646,4.910732425253735,-171994.62190994882,10.5,10499828005.37809,47.655,-122.3035,60.0,1.0833333333333333
2026-01-20T23:01:06+00:00,SAT-55791,18.53904626953955,48.05426846260232,955.7714410667509,4.938129177900551,-172954.17207578913,10.5,10499827045.827925,47.655,-122.3035,60.0,1.1
2026-01-20T23:01:07+00:00,SAT-55791,18.04191716195369,48.083886005352156,960.6964019001771,4.965101069618028,-173898.84181472403,10.5,10499826101.158186,47.655,-122.3035,60.0,1.1166666666666667
2026-01-20T23:01:08+00:00,SAT-55791,17.548878465895598,48.11086836012277,965.6482627002761,4.99165441853321,-174828.85241428827,10.5,10499825171.147585,47.655,-122.3035,60.0,1.1333333333333333
2026-01-20T23:01:09+00:00,SAT-55791,17.059945112569757,48.1352768248262,970.6266060403599,5.017795544899537,-175744.4252364919,10.5,10499824255.574764,47.655,-122.3035,60.0,1.15
2026-01-20T23:01:10+00:00,SAT-55791,16.575129518668394,48.15717192583079,975.6310207971397,5.043530666681179,-176645.77806074222,10.5,10499823354.22194,47.655,-122.3035,60.0,1.1666666666666667
2026-01-20T23:01:11+00:00,SAT-55791,16.09444166362918,48.17661339385932,980.6611020487097,5.068866007007095,-177533.1288473391,10.5,10499822466.871153,47.655,-122.3035,60.0,1.1833333333333333
2026-01-20T23:01:12+00:00,SAT-55791,15.617889157845068,48.19366014232504,985.7164510796981,5.09380770349712,-178406.69256169134,10.5,10499821593.307438,47.655,-122.3035,60.0,1.2
2026-01-20T23:01:13+00:00,SAT-55791,15.145477319825888,48.20837024782476,990.796675295986,5.118361833147968,-179266.68204592945,10.5,10499820733.317955,47.655,-122.3035,60.0,1.2166666666666666
2026-01-20T23:01:14+00:00,SAT-55791,14.677209251496999,48.22080093277188,995.9013881642455,5.1425344265186625,-180113.30851573974,10.5,10499819886.691484,47.655,-122.3035,60.0,1.2333333333333334
2026-01-20T23:01:15+00:00,SAT-55791,14.213085912346726,48.23100855019736,1001.0302091656268,5.166331449824805,-180946.7809332297,10.5,10499819053.219067,47.655,-122.3035,60.0,1.25
2026-01-20T23:01:16+00:00,SAT-55791,13.753106195340935,48.23904857040885,1006.1827637315855,5.189758806073058,-181767.30604666218,10.5,10499818232.693953,47.655,-122.3035,60.0,1.2666666666666666
2026-01-20T23:01:17+00:00,SAT-55791,13.297267002433193,48.24497556965603,1011.3586831808423,5.212822330649664,-182575.0882359471,10.5,10499817424.911764,47.655,-122.3035,60.0,1.2833333333333334
2026-01-20T23:01:18+00:00,SAT-55791,12.845563320276135,48.24884322049857,1016.5576046519435,5.235527806437313,-183370.33004209792,10.5,10499816629.669958,47.655,-122.3035,60.0,1.3
2026-01-20T23:01:19+00:00,SAT-55791,12.397988294054432,48.250704283976674,1021.7791710508969,5.25788094126658,-184153.23137748547,10.5,10499815846.768623,47.655,-122.3035,60.0,1.3166666666666667
2026-01-20T23:01:20+00:00,SAT-55791,11.954533302719168,48.25061060336284,1027.0230309763203,5.2798873613473125,-184923.98929577734,10.5,10499815076.010704,47.655,-122.3035,60.0,1.3333333333333333
2026-01-20T23:01:21+00:00,SAT-55791,11.515188033862461,48.24861309955375,1032.2888386380373,5.301552660991578,-185682.79973344613,10.5,10499814317.200266,47.655,-122.3035,60.0,1.35
2026-01-20T23:01:22+00:00,SAT-55791,11.07994055378847,48.2447617677721,1037.5762538252661,5.322882309791004,-186429.85425872705,10.5,10499813570.14574,47.655,-122.3035,60.0,1.3666666666666667
2026-01-20T23:01:23+00:00,SAT-55791,10.648777383941825,48.23910567593992,1042.8849417822312,5.343881772104852,-187165.3442565955,10.5,10499812834.655743,47.655,-122.3035,60.0,1.3833333333333333
2026-01-20T23:01:24+00:00,SAT-55791,10.221683566897754,48.23169296396656,1048.2145732029437,5.364556390424579,-187889.4568437011,10.5,10499812110.543156,47.655,-122.3035,60.0,1.4
2026-01-20T23:01:25+00:00,SAT-55791,9.798642740208086,48.222570844688,1053.5648241096605,5.384911459580159,-188602.37746738666,10.5,10499811397.622532,47.655,-122.3035,60.0,1.4166666666666667
2026-01-20T23:01:26+00:00,SAT-55791,9.379637203296012,48.211785605676525,1058.9353758053485,5.404952193402132,-189304.28873805222,10.5,10499810695.711262,47.655,-122.3035,60.0,1.4333333333333333
2026-01-20T23:01:27+00:00,SAT-55791,8.964647985496477,48.19938261228817,1064.3259147929014,5.424683747844213,-189995.3712390064,10.5,10499810004.628761,47.655,-122.3035,60.0,1.45
2026-01-20T23:01:28+00:00,SAT-55791,8.553654911018958,48.18540631162675,1069.736132717418,5.444111197737058,-190675.8027122854,10.5,10499809324.197289,47.655,-122.3035,60.0,1.4666666666666666
2026-01-20T23:01:29+00:00,SAT-55791,8.146636664161901,48.16990023753771,1075.1657262852943,5.463239531817115,-191345.75788454196,10.5,10499808654.242115,47.655,-122.3035,60.0,1.4833333333333334
2026-01-20T23:01:30+00:00,SAT-55791,7.7435708533481975,48.15290701652363,1080.61439717836,5.482073704065084,-192005.41026513543,10.5,10499807994.589735,47.655,-122.3035,60.0,1.5
2026-01-20T23:01:31+00:00,SAT-55791,7.344434069910811,48.13446837424995,1086.0818520192142,5.500618549616372,-192654.92920096047,10.5,10499807345.070799,47.655,-122.3035,60.0,1.5166666666666666
2026-01-20T23:01:32+00:00,SAT-55791,6.949201951322786,48.11462514319102,1091.5678022526984,5.518878850156029,-193294.48216685394,10.5,10499806705.517834,47.655,-122.3035,60.0,1.5333333333333334
2026-01-20T23:01:33+00:00,SAT-55791,6.557849238078472,48.093417270687006,1097.0719640925875,5.536859363810065,-193924.23581251563,10.5,10499806075.764187,47.655,-122.3035,60.0,1.55
2026-01-20T23:01:34+00:00,SAT-55791,6.17034982713578,48.07088382741809,1102.5940584980938,5.554564676425615,-194544.35075371029,10.5,10499805455.649246,47.655,-122.3035,60.0,1.5666666666666667
2026-01-20T23:01:35+00:00,SAT-55791,5.786676833612012,48.04706301736933,1108.1338110020492,5.571999418332509,-195154.98916417485,10.5,10499804845.010836,47.655,-122.3035,60.0,1.5833333333333333
2026-01-20T23:01:36+00:00,SAT-55791,5.406802636408128,48.021992187005544,1113.690951755266,5.589168033116242,-195756.30667706972,10.5,10499804243.693323,47.655,-122.3035,60.0,1.6
2026-01-20T23:01:37+00:00,SAT-55791,5.030698937383919,47.99570783639446,1119.265215340294,5.606075005251764,-196348.46035767693,10.5,10499803651.539642,47.655,-122.3035,60.0,1.6166666666666667
2026-01-20T23:01:38+00:00,SAT-55791,4.658336804071583,47.96824562930344,1124.8563408121984,5.622724652360902,-196931.60142737636,10.5,10499803068.398573,47.655,-122.3035,60.0,1.6333333333333333
2026-01-20T23:01:39+00:00,SAT-55791,4.289686724109302,47.93964040505589,1130.464071532153,5.63912131053152,-197505.8817543067,10.5,10499802494.118246,47.655,-122.3035,60.0,1.65
2026-01-20T23:01:40+00:00,SAT-55791,3.9247186462814674,47.90992618947491,1136.0881551858563,5.6552691487832565,-198071.4473551706,10.5,10499801928.552645,47.655,-122.3035,60.0,1.6666666666666667
2026-01-20T23:01:41+00:00,SAT-55791,3.5634020314586508,47.87913620748248,1141.7283436169096,5.671172380840919,-198628.44581243483,10.5,10499801371.554188,47.655,-122.3035,60.0,1.6833333333333333
2026-01-20T23:01:42+00:00,SAT-55791,3.20570588894802,47.84730289440541,1147.3843928714016,5.686835044578921,-199177.0185495416,10.5,10499800822.981451,47.655,-122.3035,60.0,1.7
2026-01-20T23:01:43+00:00,SAT-55791,2.851598824643715,47.814457909162755,1153.0560630225284,5.702261179781314,-199717.30705681661,10.5,10499800282.692944,47.655,-122.3035,60.0,1.7166666666666666
2026-01-20T23:01:44+00:00,SAT-55791,2.5010490768876537,47.78063214632716,1158.7431181724967,5.717454749780905,-200249.4501469397,10.5,10499799750.549852,47.655,-122.3035,60.0,1.7333333333333334
2026-01-20T23:01:45+00:00,SAT-55791,2.1540245554917132,47.74585574895811,1164.4453263762784,5.732419618220902,-200773.58314103913,10.5,10499799226.416859,47.655,-122.3035,60.0,1.75
2026-01-20T23:01:46+00:00,SAT-55791,1.8104928806169278,47.71015812172591,1170.162459542184,5.747159647092551,-201289.84130238454,10.5,10499798710.158697,47.655,-122.3035,60.0,1.7666666666666666
2026-01-20T23:01:47+00:00,SAT-55791,1.4704214143880392,47.67356794345813,1175.8942934302179,5.761678545769457,-201798.3545489303,10.5,10499798201.64545,47.655,-122.3035,60.0,1.7833333333333334
2026-01-20T23:01:48+00:00,SAT-55791,1.1337772998124491,47.636113180874005,1181.6406074998652,5.775980048921867,-202299.25368462605,10.5,10499797700.746315,47.655,-122.3035,60.0,1.8
2026-01-20T23:01:49+00:00,SAT-55791,0.8005274880809122,47.59782110104086,1187.4011849353233,5.790067764056584,-202792.66505961976,10.5,10499797207.33494,47.655,-122.3035,60.0,1.8166666666666667
2026-01-20T23:01:50+00:00,SAT-55791,0.4706387731180107,47.55871828504477,1193.1758125186757,5.803945281115823,-203278.7144088733,10.5,10499796721.285591,47.655,-122.3035,60.0,1.8333333333333333
2026-01-20T23:01:51+00:00,SAT-55791,0.1440778186200128,47.51883064083295,1198.9642806123752,5.817616094909158,-203757.52413540092,10.5,10499796242.475864,47.655,-122.3035,60.0,1.85
2026-01-20T23:01:52+00:00,SAT-55791,359.8208111881396,47.47818341661595,1204.7663830643646,5.8310836533674655,-204229.21500032663,10.5,10499795770.785,47.655,-122.3035,60.0,1.8666666666666667
2026-01-20T23:01:53+00:00,SAT-55791,359.50080537105515,47.43680121396452,1210.581917161323,5.844351355984974,-204693.90606831817,10.5,10499795306.093931,47.655,-122.3035,60.0,1.8833333333333333
2026-01-20T23:01:54+00:00,SAT-55791,359.1840268076198,47.39470800076575,1216.4106835803586,5.85742253275406,-205151.71396979448,10.5,10499794848.28603,47.655,-122.3035,60.0,1.9
2026-01-20T23:01:55+00:00,SAT-55791,358.8704419137448,47.35192712437602,1222.252486319692,5.870300446041859,-205602.7529666524,10.5,10499794397.247034,47.655,-122.3035,60.0,1.9166666666666667
2026-01-20T23:01:56+00:00,SAT-55791,358.5600171045891,47.30848132464595,1228.107132631211,5.8829883105546505,-206047.13565150404,10.5,10499793952.86435,47.655,-122.3035,60.0,1.9333333333333333
2026-01-20T23:01:57+00:00,SAT-55791,358.25271881588395,47.2643927467338,1233.9744329729376,5.895489295533632,-206484.973024582,10.5,10499793515.026976,47.655,-122.3035,60.0,1.95
2026-01-20T23:01:58+00:00,SAT-55791,357.948513524182,47.219682953740815,1239.8542009636833,5.907806508957664,-206916.37394045273,10.5,10499793083.62606,47.655,-122.3035,60.0,1.9666666666666666
2026-01-20T23:01:59+00:00,SAT-55791,357.6473677667405,47.1743729394462,1245.7462533219502,5.919942973866582,-207341.44427875872,10.5,10499792658.555721,47.655,-122.3035,60.0,1.9833333333333334
2026-01-20T23:02:00+00:00,SAT-55791,357.3492481615427,47.12848314108876,1251.6504097812199,5.9319017000519505,-207760.28945513195,10.5,10499792239.710545,47.655,-122.3035,60.0,2.0
2026-01-20T23:02:01+00:00,SAT-55791,357.0541214228212,47.08203345139943,1257.5664930767384,5.943685629223451,-208173.01250068884,10.5,10499791826.9875,47.655,-122.3035,60.0,2.0166666666666666
2026-01-20T23:02:02+00:00,SAT-55791,356.7619543783473,47.03504323097417,1263.4943288776171,5.955297670999733,-208579.71532258225,10.5,10499791420.284678,47.655,-122.3035,60.0,2.033333333333333
2026-01-20T23:02:03+00:00,SAT-55791,356.4727139840227,46.98753132020117,1269.4337457548274,5.966740612063376,-208980.49552222373,10.5,10499791019.504478,47.655,-122.3035,60.0,2.05
2026-01-20T23:02:04+00:00,SAT-55791,356.18636734182843,46.93951605184734,1275.3845750585922,5.978017291075132,-209375.45252152038,10.5,10499790624.547478,47.655,-122.3035,60.0,2.066666666666667
2026-01-20T23:02:05+00:00,SAT-55791,355.90288170883053,46.89101526188909,1281.3466509702246,5.989130425036076,-209764.68148134268,10.5,10499790235.31852,47.655,-122.3035,60.0,2.0833333333333335
2026-01-20T23:02:06+00:00,SAT-55791,355.6222245133779,46.842046301781444,1287.3198103807936,6.000082697151682,-210148.2763788963,10.5,10499789851.723621,47.655,-122.3035,60.0,2.1
2026-01-20T23:02:07+00:00,SAT-55791,355.3443633664169,46.792626049756805,1293.30389285742,6.010876747999472,-210526.32969837575,10.5,10499789473.670301,47.655,-122.3035,60.0,2.1166666666666667
2026-01-20T23:02:08+00:00,SAT-55791,355.0692660725415,46.74277092201015,1299.2987406007578,6.021515185911448,-210898.93279460087,10.5,10499789101.067205,47.655,-122.3035,60.0,2.1333333333333333
2026-01-20T23:02:09+00:00,SAT-55791,354.7969006398126,46.6924968836401,1305.3041984128402,6.032000542025595,-211266.17431873066,10.5,10499788733.825682,47.655,-122.3035,60.0,2.15
2026-01-20T23:02:10+00:00,SAT-55791,354.52723529090576,46.64181945980882,1311.320113620087,6.0423353114613505,-211628.1416604022,10.5,10499788371.85834,47.655,-122.3035,60.0,2.1666666666666665
2026-01-20T23:02:11+00:00,SAT-55791,354.26023847169375,46.59075374636464,1317.3463360373846,6.052521986616382,-211984.92211392458,10.5,10499788015.077887,47.655,-122.3035,60.0,2.183333333333333
2026-01-20T23:02:12+00:00,SAT-55791,353.995878857972,46.53931441992139,1323.38271796537,6.062562921238378,-212336.59811749822,10.5,10499787663.401882,47.655,-122.3035,60.0,2.2
2026-01-20T23:02:13+00:00,SAT-55791,353.7341253670759,46.487515749107516,1329.4291140521516,6.072460540920534,-212683.25462565708,10.5,10499787316.745375,47.655,-122.3035,60.0,2.216666666666667
2026-01-20T23:02:14+00:00,SAT-55791,353.4749471603563,46.435371603554806,1335.485381364963,6.082217128763161,-213024.97160223153,10.5,10499786975.028399,47.655,-122.3035,60.0,2.2333333333333334
2026-01-20T23:02:15+00:00,SAT-55791,353.2183136537817,46.3828954648165,1341.5513792480497,6.0918349943420305,-213361.82993833462,10.5,10499786638.170061,47.655,-122.3035,60.0,2.25
2026-01-20T23:02:16+00:00,SAT-55791,352.9641945212273,46.3301004354247,1347.6269693490733,6.101316369021446,-213693.90778578285,10.5,10499786306.092215,47.655,-122.3035,60.0,2.2666666666666666
2026-01-20T23:02:17+00:00,SAT-55791,352.712559701428,46.27699924880864,1353.7120155411108,6.1106634334344525,-214021.2815195696,10.5,10499785978.718481,47.655,-122.3035,60.0,2.283333333333333
2026-01-20T23:02:18+00:00,SAT-55791,352.46337940335604,46.22360427873455,1359.806383872056,6.119878396086896,-214344.02849091156,10.5,10499785655.97151,47.655,-122.3035,60.0,2.3
2026-01-20T23:02:19+00:00,SAT-55791,352.21662410807033,46.16992754783087,1365.9099425924198,6.1289633273078055,-214662.22121148877,10.5,10499785337.778788,47.655,-122.3035,60.0,2.316666666666667
2026-01-20T23:02:20+00:00,SAT-55791,351.9722645766207,46.115980737499456,1372.0225620175215,6.137920379695806,-214975.93507441055,10.5,10499785024.064926,47.655,-122.3035,60.0,2.3333333333333335
2026-01-20T23:02:21+00:00,SAT-55791,351.7302718490464,46.06177519552915,1378.1441146095383,6.1467515098931935,-215285.2386095668,10.5,10499784714.76139,47.655,-122.3035,60.0,2.35
2026-01-20T23:02:22+00:00,SAT-55791,351.49061725349156,46.00732194624543,1384.2744747820718,6.155458806633918,-215590.20497325566,10.5,10499784409.795027,47.655,-122.3035,60.0,2.3666666666666667
2026-01-20T23:02:23+00:00,SAT-55791,351.25327240271935,45.952631697244854,1390.413519031888,6.164044195747676,-215890.90161617938,10.5,10499784109.098383,47.655,-122.3035,60.0,2.3833333333333333
2026-01-20T23:02:24+00:00,SAT-55791,351.0182092012197,45.89771484885521,1396.561125776447,6.17250963014592,-216187.3969375579,10.5,10499783812.603062,47.655,-122.3035,60.0,2.4
2026-01-20T23:02:25+00:00,SAT-55791,350.78539984493074,45.84258150157542,1402.7171753809123,6.180857033894822,-216479.7583263273,10.5,10499783520.241674,47.655,-122.3035,60.0,2.4166666666666665
2026-01-20T23:02:26+00:00,SAT-55791,350.5548168228293,45.78724146384361,1408.8815501293836,6.189088221557492,-216768.0493361633,10.5,10499783231.950665,47.655,-122.3035,60.0,2.433333333333333
2026-01-20T23:02:27+00:00,SAT-55791,350.3264329209166,45.73170426048173,1415.0541341156836,6.197205086310247,-217052.33627410867,10.5,10499782947.663727,47.655,-122.3035,60.0,2.45
2026-01-20T23:02:28+00:00,SAT-55791,350.1002212194565,45.67597913905729,1421.2348133217636,6.205209386322353,-217332.68071868806,10.5,10499782667.31928,47.655,-122.3035,60.0,2.466666666666667
2026-01-20T23:02:29+00:00,SAT-55791,349.87615509727704,45.62007507824509,1427.4234754830559,6.213102912301588,-217609.14538806267,10.5,10499782390.854612,47.655,-122.3035,60.0,2.4833333333333334
2026-01-20T23:02:30+00:00,SAT-55791,349.6542082301584,45.56400079429945,1433.6200101209245,6.220887394965979,-217881.79089929868,10.5,10499782118.2091,47.655,-122.3035,60.0,2.5
2026-01-20T23:02:31+00:00,SAT-55791,349.43435459200236,45.5077647483592,1439.8243084828373,6.228564550917748,-218150.6773750671,10.5,10499781849.322624,47.655,-122.3035,60.0,2.5166666666666666
2026-01-20T23:02:32+00:00,SAT-55791,349.2165684543999,45.451375153061456,1446.036263528286,6.236136022580887,-218415.8623400036,10.5,10499781584.13766,47.655,-122.3035,60.0,2.533333333333333
2026-01-20T23:02:33+00:00,SAT-55791,349.00082438783926,45.39483997964348,1452.2557698548067,6.243603481574321,-218677.4043412739,10.5,10499781322.59566,47.655,-122.3035,60.0,2.55
2026-01-20T23:02:34+00:00,SAT-55791,348.78709725941144,45.338166963830055,1458.4827237270968,6.2509685533553805,-218935.36030926934,10.5,10499781064.63969,47.655,-122.3035,60.0,2.566666666666667
2026-01-20T23:02:35+00:00,SAT-55791,348.57536223276884,45.281363612351385,1464.7170230309766,6.2582327977059276,-219189.78487414864,10.5,10499780810.215126,47.655,-122.3035,60.0,2.5833333333333335
2026-01-20T23:02:36+00:00,SAT-55791,348.3655947685752,45.22443720945425,1470.9585672078888,6.265397782077374,-219440.73293469052,10.5,10499780559.267065,47.655,-122.3035,60.0,2.6
2026-01-20T23:02:37+00:00,SAT-55791,348.1577706223206,45.1673948226115,1477.207257262547,6.272465020596167,-219688.25752200797,10.5,10499780311.742477,47.655,-122.3035,60.0,2.6166666666666667
2026-01-20T23:02:38+00:00,SAT-55791,347.9518658441039,45.11024330860211,1483.462995709755,6.2794360633636055,-219932.4129272053,10.5,10499780067.587072,47.655,-122.3035,60.0,2.6333333333333333
2026-01-20T23:02:39+00:00,SAT-55791,347.747856775349,45.052989318648045,1489.725686610283,6.286312337769286,-220173.24914350416,10.5,10499779826.750856,47.655,-122.3035,60.0,2.65
2026-01-20T23:02:40+00:00,SAT-55791,347.5457200504215,44.995639304915755,1495.9952354484847,6.293095302693375,-220410.81726705894,10.5,10499779589.182734,47.655,-122.3035,60.0,2.6666666666666665
2026-01-20T23:02:41+00:00,SAT-55791,347.34543259322027,44.93819952542231,1502.2715491637045,6.299786387395468,-220645.16735658643,10.5,10499779354.832644,47.655,-122.3035,60.0,2.683333333333333
2026-01-20T23:02:42+00:00,SAT-55791,347.14697161573156,44.88067604932954,1508.5545361207335,6.306387010723511,-220876.3491061435,10.5,10499779123.650894,47.655,-122.3035,60.0,2.7
2026-01-20T23:02:43+00:00,SAT-55791,346.9503146157608,44.82307476200122,1514.8441060994285,6.312898496318867,-221104.40887524962,10.5,10499778895.591125,47.655,-122.3035,60.0,2.716666666666667
2026-01-20T23:02:44+00:00,SAT-55791,346.7554393770927,44.76540137073334,1521.140170199757,6.319322225507874,-221329.3950437962,10.5,10499778670.604956,47.655,-122.3035,60.0,2.7333333333333334
2026-01-20T23:02:45+00:00,SAT-55791,346.5623239651664,44.707661408818616,1527.4426408993304,6.325659538590322,-221551.35455475128,10.5,10499778448.645445,47.655,-122.3035,60.0,2.75
2026-01-20T23:02:46+00:00,SAT-55791,346.37094672546095,44.64986024052061,1533.7514320124844,6.33191169300356,-221770.3314488898,10.5,10499778229.66855,47.655,-122.3035,60.0,2.7666666666666666
2026-01-20T23:02:47+00:00,SAT-55791,346.1812862830438,44.59200306630551,1540.0664586076398,6.338079977081398,-221986.37084911147,10.5,10499778013.62915,47.655,-122.3035,60.0,2.783333333333333
2026-01-20T23:02:48+00:00,SAT-55791,345.99332153876037,44.534094926845874,1546.3876370381156,6.344165684531815,-222199.51806654208,10.5,10499777800.481934,47.655,-122.3035,60.0,2.8
2026-01-20T23:02:49+00:00,SAT-55791,345.80703166621663,44.47614070714281,1552.7148849474888,6.350170009538875,-222409.81492655893,10.5,10499777590.185074,47.655,-122.3035,60.0,2.816666666666667
2026-01-20T23:02:50+00:00,SAT-55791,345.62239611147993,44.418145141617664,1559.0481211703357,6.356094179930539,-222617.30443289087,10.5,10499777382.695566,47.655,-122.3035,60.0,2.8333333333333335
2026-01-20T23:02:51+00:00,SAT-55791,345.43939458916975,44.360112817723895,1565.3872657657864,6.3619393688277,-222822.027673194,10.5,10499777177.972326,47.655,-122.3035,60.0,2.85
2026-01-20T23:02:52+00:00,SAT-55791,345.2580070808252,44.30204818036753,1571.7322399629638,6.367706761662373,-223024.02616631176,10.5,10499776975.973833,47.655,-122.3035,60.0,2.8666666666666667
2026-01-20T23:02:53+00:00,SAT-55791,345.07821383152105,44.24395553553177,1578.0829661732616,6.373397500986542,-223223.33992924762,10.5,10499776776.66007,47.655,-122.3035,60.0,2.8833333333333333
2026-01-20T23:02:54+00:00,SAT-55791,344.8999953478401,44.18583905437266,1584.4393679475788,6.379012726125248,-223420.00886598392,10.5,10499776579.991135,47.655,-122.3035,60.0,2.9
2026-01-20T23:02:55+00:00,SAT-55791,344.72333239485835,44.1277027767972,1590.8013699731011,6.384553501240377,-223614.07024797122,10.5,10499776385.929752,47.655,-122.3035,60.0,2.9166666666666665
2026-01-20T23:02:56+00:00,SAT-55791,344.5482059948639,44.06955061567969,1597.1688979983383,6.390020986864473,-223805.5647219683,10.5,10499776194.435278,47.655,-122.3035,60.0,2.933333333333333
2026-01-20T23:02:57+00:00,SAT-55791,344.37459742175423,44.011386359268364,1603.5418789292378,6.395416192278797,-223994.5276372742,10.5,10499776005.472363,47.655,-122.3035,60.0,2.95
2026-01-20T23:02:58+00:00,SAT-55791,344.20248820166205,43.953213675964996,1609.9202406783372,6.400740201909223,-224180.99697507016,10.5,10499775819.003025,47.655,-122.3035,60.0,2.966666666666667
2026-01-20T23:02:59+00:00,SAT-55791,344.03186010787823,43.89503611675985,1616.303912239708,6.405994026403108,-224365.00813250153,10.5,10499775634.991867,47.655,-122.3035,60.0,2.9833333333333334
2026-01-20T23:03:00+00:00,SAT-55791,343.8626951594478,43.83685711907103,1622.692823615374,6.411178692154742,-224546.59705823817,10.5,10499775453.402943,47.655,-122.3035,60.0,3.0
2026-01-20T23:03:01+00:00,SAT-55791,343.6949756176196,43.77868000958683,1629.0869058310163,6.416295218188468,-224725.79944282296,10.5,10499775274.200558,47.655,-122.3035,60.0,3.0166666666666666
2026-01-20T23:03:02+00:00,SAT-55791,343.52868398277843,43.72050800729231,1635.486090928623,6.421344529715325,-224902.64769106006,10.5,10499775097.352308,47.655,-122.3035,60.0,3.033333333333333
2026-01-20T23:03:03+00:00,SAT-55791,343.36380299353925,43.66234422722149,1641.8903118729258,6.426327644882216,-225077.17746276082,10.5,10499774922.822536,47.655,-122.3035,60.0,3.05
2026-01-20T23:03:04+00:00,SAT-55791,343.2003156212839,43.60419168233203,1648.2995026440883,6.431245482721495,-225249.4209463258,10.5,10499774750.579054,47.655,-122.3035,60.0,3.066666666666667
2026-01-20T23:03:05+00:00,SAT-55791,343.0382050693639,43.54605328716562,1654.7135981388558,6.436098984201049,-225419.41109843066,10.5,10499774580.588902,47.655,-122.3035,60.0,3.0833333333333335
2026-01-20T23:03:06+00:00,SAT-55791,342.8774547693649,43.48793186026306,1661.1325341924323,6.440889047388405,-225587.17937319906,10.5,10499774412.820627,47.655,-122.3035,60.0,3.1
2026-01-20T23:03:07+00:00,SAT-55791,342.7180483789689,43.42983012711446,1667.5562475356944,6.445616587089566,-225752.75781100683,10.5,10499774247.24219,47.655,-122.3035,60.0,3.1166666666666667
2026-01-20T23:03:08+00:00,SAT-55791,342.55996977837873,43.37175072249367,1673.9846758118852,6.450282486549068,-225916.17734681378,10.5,10499774083.822653,47.655,-122.3035,60.0,3.1333333333333333
2026-01-20T23:03:09+00:00,SAT-55791,342.40320306793024,43.31369619316386,1680.4177575451365,6.4548875969544754,-226077.46779280883,10.5,10499773922.532207,47.655,-122.3035,60.0,3.15
2026-01-20T23:03:10+00:00,SAT-55791,342.2477325656585,43.25566900053877,1686.8554321084994,6.4594327828150515,-226236.65942776334,10.5,10499773763.340572,47.655,-122.3035,60.0,3.1666666666666665
2026-01-20T23:03:11+00:00,SAT-55791,342.09354280392927,43.19767152282095,1693.2976397372267,6.463918893635389,-226393.7820049215,10.5,10499773606.217995,47.655,-122.3035,60.0,3.183333333333333
2026-01-20T23:03:12+00:00,SAT-55791,341.94061852665794,43.139706057372,1699.7443215138126,6.468346731765921,-226548.86362598947,10.5,10499773451.136374,47.655,-122.3035,60.0,3.2
2026-01-20T23:03:13+00:00,SAT-55791,341.7889446873142,43.08177482331105,1706.1954193209604,6.472717140844604,-226701.93383873702,10.5,10499773298.066162,47.655,-122.3035,60.0,3.216666666666667
2026-01-20T23:03:14+00:00,SAT-55791,341.63850644496216,43.02387996321546,1712.6508758827626,6.477030862164094,-226853.01860636866,10.5,10499773146.981394,47.655,-122.3035,60.0,3.2333333333333334
2026-01-20T23:03:15+00:00,SAT-55791,341.4892891634631,42.96602354612774,1719.1106346626277,6.48128873411828,-227002.14729298477,10.5,10499772997.852707,47.655,-122.3035,60.0,3.25
2026-01-20T23:03:16+00:00,SAT-55791,341.34127840637456,42.908207568619034,1725.5746399601217,6.485491504685706,-227149.34609595788,10.5,10499772850.653904,47.655,-122.3035,60.0,3.2666666666666666
2026-01-20T23:03:17+00:00,SAT-55791,341.1944599359524,42.850433957558344,1732.042836820795,6.48963992520145,-227294.64133022062,10.5,10499772705.35867,47.655,-122.3035,60.0,3.283333333333333
2026-01-20T23:03:18+00:00,SAT-55791,341.048819710096,42.79270457195803,1738.5151710395292,6.493734728924234,-227438.05867759505,10.5,10499772561.941322,47.655,-122.3035,60.0,3.3
2026-01-20T23:03:19+00:00,SAT-55791,340.9043438798337,42.7350212049522,1744.9915891425096,6.497776697598718,-227579.62551808608,10.5,10499772420.374481,47.655,-122.3035,60.0,3.316666666666667
2026-01-20T23:03:20+00:00,SAT-55791,340.76101878541994,42.67738558511248,1751.4720384355815,6.501766489764902,-227719.36491654994,10.5,10499772280.635084,47.655,-122.3035,60.0,3.3333333333333335
2026-01-20T23:03:21+00:00,SAT-55791,340.6188309560342,42.619799379316206,1757.9564668813737,6.505704868408039,-227857.30359595775,10.5,10499772142.696404,47.655,-122.3035,60.0,3.35
2026-01-20T23:03:22+00:00,SAT-55791,340.47776710478723,42.56226419344012,1764.4448232034658,6.509592468051183,-227993.46377999085,10.5,10499772006.53622,47.655,-122.3035,60.0,3.3666666666666667
2026-01-20T23:03:23+00:00,SAT-55791,340.3378141285408,42.50478157517893,1770.937056758269,6.5134300229379845,-228127.8711849677,10.5,10499771872.128815,47.655,-122.3035,60.0,3.3833333333333333
2026-01-20T23:03:24+00:00,SAT-55791,340.1989591031204,42.44735301468904,1777.433117634479,6.5172182005175285,-228260.54918777858,10.5,10499771739.450811,47.655,-122.3035,60.0,3.4
2026-01-20T23:03:25+00:00,SAT-55791,340.06118928193644,42.38997994673972,1783.9329565864618,6.520957634215624,-228391.51997367476,10.5,10499771608.480026,47.655,-122.3035,60.0,3.4166666666666665
2026-01-20T23:03:26+00:00,SAT-55791,339.9244920939039,42.3326637525252,1790.4365250003195,6.5246490029701745,-228520.80732193345,10.5,10499771479.192678,47.655,-122.3035,60.0,3.433333333333333
2026-01-20T23:03:27+00:00,SAT-55791,339.78885513991366,42.275405760674694,1796.9437749392819,6.528292918508289,-228648.4326578257,10.5,10499771351.567343,47.655,-122.3035,60.0,3.45
2026-01-20T23:03:28+00:00,SAT-55791,339.654266191441,42.2182072492925,1803.454659076674,6.53189004972367,-228774.4194088383,10.5,10499771225.580591,47.655,-122.3035,60.0,3.466666666666667
2026-01-20T23:03:29+00:00,SAT-55791,339.5207131868881,42.1610694467801,1809.9691307529317,6.535440970628185,-228898.78767929494,10.5,10499771101.21232,47.655,-122.3035,60.0,3.4833333333333334
2026-01-20T23:03:30+00:00,SAT-55791,339.3881842307497,42.103993534054496,1816.4871438809716,6.538946329680272,-229021.5601809531,10.5,10499770978.43982,47.655,-122.3035,60.0,3.5
2026-01-20T23:03:31+00:00,SAT-55791,339.2566675897057,42.046980645133495,1823.0086530204394,6.542406703057322,-229142.75709398228,10.5,10499770857.242907,47.655,-122.3035,60.0,3.5166666666666666
2026-01-20T23:03:32+00:00,SAT-55791,339.1261516914114,41.990031869070506,1829.533613305622,6.545822686220874,-229262.3992739643,10.5,10499770737.600725,47.655,-122.3035,60.0,3.533333333333333
2026-01-20T23:03:33+00:00,SAT-55791,338.9966251216944,41.933148250972316,1836.0619804646797,6.549194852354138,-229380.50679619983,10.5,10499770619.493204,47.655,-122.3035,60.0,3.55
2026-01-20T23:03:34+00:00,SAT-55791,338.86807662244627,41.87633079341274,1842.5937107974275,6.552523789246061,-229497.10024754406,10.5,10499770502.899752,47.655,-122.3035,60.0,3.566666666666667
2026-01-20T23:03:35+00:00,SAT-55791,338.74049508900555,41.819580457418496,1849.1287611899022,6.555810051589802,-229612.1990556978,10.5,10499770387.800943,47.655,-122.3035,60.0,3.5833333333333335
2026-01-20T23:03:36+00:00,SAT-55791,338.613869568295,41.76289816391507,1855.6670890813543,6.559054152520632,-229725.82119282882,10.5,10499770274.178806,47.655,-122.3035,60.0,3.6
2026-01-20T23:03:37+00:00,SAT-55791,338.48818925725305,41.70628479516493,1862.2086524228016,6.562256707385711,-229837.98821099754,10.5,10499770162.01179,47.655,-122.3035,60.0,3.6166666666666667
2026-01-20T23:03:38+00:00,SAT-55791,338.36344349864146,41.64974119491373,1868.7534097789678,6.565418177932176,-229948.71628254186,10.5,10499770051.283718,47.655,-122.3035,60.0,3.6333333333333333
2026-01-20T23:03:39+00:00,SAT-55791,338.2396217815087,41.59326817078825,1875.3013201750919,6.568539162550938,-230058.02636564276,10.5,10499769941.973635,47.655,-122.3035,60.0,3.65
2026-01-20T23:03:40+00:00,SAT-55791,338.1167137364912,41.536866494067525,1881.8523432332095,6.57162009978052,-230165.93381977428,10.5,10499769834.06618,47.655,-122.3035,60.0,3.6666666666666665
2026-01-20T23:03:41+00:00,SAT-55791,337.9947091363692,41.48053690208951,1888.406439012724,6.5746615603443495,-230272.45863408502,10.5,10499769727.541367,47.655,-122.3035,60.0,3.683333333333333
2026-01-20T23:03:42+00:00,SAT-55791,337.87359789157415,41.42428009799673,1894.9635681422405,6.577664017044106,-230377.61736808976,10.5,10499769622.382631,47.655,-122.3035,60.0,3.7
2026-01-20T23:03:43+00:00,SAT-55791,337.7533700497048,41.36809675252944,1901.523691721906,6.580627968100589,-230481.4274715883,10.5,10499769518.572529,47.655,-122.3035,60.0,3.716666666666667
2026-01-20T23:03:44+00:00,SAT-55791,337.6340157929312,41.31198750468868,1908.0867713487585,6.583553898595591,-230583.90593419698,10.5,10499769416.094067,47.655,-122.3035,60.0,3.7333333333333334
2026-01-20T23:03:45+00:00,SAT-55791,337.5155254361242,41.25595296270935,1914.6527691036245,6.586442280280044,-230685.06927862897,10.5,10499769314.930721,47.655,-122.3035,60.0,3.75
2026-01-20T23:03:46+00:00,SAT-55791,337.39788942497626,41.19999370501658,1921.2216475378236,6.58929361103348,-230784.93494273143,10.5,10499769215.065058,47.655,-122.3035,60.0,3.7666666666666666
2026-01-20T23:03:47+00:00,SAT-55791,337.28109833354347,41.144110280808476,1927.7933696992277,6.592108290923703,-230883.51693857118,10.5,10499769116.48306,47.655,-122.3035,60.0,3.783333333333333
2026-01-20T23:03:48+00:00,SAT-55791,337.16514286377975,41.088303211718575,1934.367899034709,6.594886859756088,-230980.8341724158,10.5,10499769019.165827,47.655,-122.3035,60.0,3.8
2026-01-20T23:03:49+00:00,SAT-55791,337.05001384132277,41.032572991335265,1940.9451995295055,6.597629674830985,-231076.89915843494,10.5,10499768923.100842,47.655,-122.3035,60.0,3.816666666666667
2026-01-20T23:03:50+00:00,SAT-55791,336.93570221643,40.97692008757485,1947.525235525204,6.600337262307812,-231171.73032495705,10.5,10499768828.269674,47.655,-122.3035,60.0,3.8333333333333335
2026-01-20T23:03:51+00:00,SAT-55791,336.8221990593905,40.92134494189235,1954.1079718881454,6.603009993458132,-231265.34067548288,10.5,10499768734.659325,47.655,-122.3035,60.0,3.85
2026-01-20T23:03:52+00:00,SAT-55791,336.7094955610295,40.86584797137879,1960.6933738549542,6.605648318238642,-231357.74596939908,10.5,10499768642.25403,47.655,-122.3035,60.0,3.8666666666666667
2026-01-20T23:03:53+00:00,SAT-55791,336.597583029619,40.81042956873158,1967.281407111011,6.608252668378728,-231448.96132769505,10.5,10499768551.038671,47.655,-122.3035,60.0,3.8833333333333333
2026-01-20T23:03:54+00:00,SAT-55791,336.48645288929646,40.75509010308948,1973.872037772274,6.610823441057223,-231539.00066125358,10.5,10499768460.999338,47.655,-122.3035,60.0,3.9
2026-01-20T23:03:55+00:00,SAT-55791,336.3760966788048,40.699829920974075,1980.465232350822,6.613361054932865,-231627.87863327464,10.5,10499768372.121367,47.655,-122.3035,60.0,3.9166666666666665
2026-01-20T23:03:56+00:00,SAT-55791,336.2665060493339,40.64464934673492,1987.0609577762748,6.615865877398742,-231715.6081114182,10.5,10499768284.391888,47.655,-122.3035,60.0,3.933333333333333
2026-01-20T23:03:57+00:00,SAT-55791,336.15767276355706,40.58954868360122,1993.659181344667,6.618338377286576,-231802.20551615424,10.5,10499768197.794483,47.655,-122.3035,60.0,3.95
2026-01-20T23:03:58+00:00,SAT-55791,336.04958869235617,40.53452821338612,2000.2598708196142,6.6207788696799135,-231887.68188304154,10.5,10499768112.318117,47.655,-122.3035,60.0,3.966666666666667
2026-01-20T23:03:59+00:00,SAT-55791,335.94224581541215,40.479588198410866,2006.862994278975,6.623187771615515,-231972.05181847137,10.5,10499768027.948181,47.655,-122.3035,60.0,3.9833333333333334
2026-01-20T23:04:00+00:00,SAT-55791,335.83563621799044,40.42472888116718,2013.468520216533,6.625565454713328,-232055.32833814633,10.5,10499767944.671661,47.655,-122.3035,60.0,4.0
2026-01-20T23:04:01+00:00,SAT-55791,335.7297520899677,40.369950485253725,2020.0764174967003,6.627912290107194,-232137.52444074338,10.5,10499767862.47556,47.655,-122.3035,60.0,4.016666666666667
2026-01-20T23:04:02+00:00,SAT-55791,335.6245857241858,40.3152532159129,2026.686655354034,6.630228643719662,-232218.65294241812,10.5,10499767781.347057,47.655,-122.3035,60.0,4.033333333333333
2026-01-20T23:04:03+00:00,SAT-55791,335.5201295149395,40.260637260580346,2033.299203388037,6.632514869679541,-232298.7262462593,10.5,10499767701.273754,47.655,-122.3035,60.0,4.05
2026-01-20T23:04:04+00:00,SAT-55791,335.4163759565273,40.206102789491595,2039.9140315513973,6.634771334405151,-232377.7571857865,10.5,10499767622.242815,47.655,-122.3035,60.0,4.066666666666666
2026-01-20T23:04:05+00:00,SAT-55791,335.31331764156084,40.1516499560477,2046.5311101622442,6.63699839250582,-232455.75818091835,10.5,10499767544.24182,47.655,-122.3035,60.0,4.083333333333333
2026-01-20T23:04:06+00:00,SAT-55791,335.2109472595543,40.09727889739901,2053.15040989237,6.639196359753735,-232532.74029133253,10.5,10499767467.259708,47.655,-122.3035,60.0,4.1
2026-01-20T23:04:07+00:00,SAT-55791,335.1092575959903,40.042989735223905,2059.7719017284976,6.6413655918110015,-232608.7159738205,10.5,10499767391.284027,47.655,-122.3035,60.0,4.116666666666666
2026-01-20T23:04:08+00:00,SAT-55791,335.00824153024604,39.988782575834456,2066.395557012064,6.643506428319873,-232683.69712409066,10.5,10499767316.302876,47.655,-122.3035,60.0,4.133333333333334
2026-01-20T23:04:09+00:00,SAT-55791,334.9078920343754,39.93465751073842,2073.0213474232414,6.645619214839046,-232757.6958450702,10.5,10499767242.304155,47.655,-122.3035,60.0,4.15
2026-01-20T23:04:10+00:00,SAT-55791,334.8082021715747,39.88061461701254,2079.649244986841,6.647704201252303,-232830.72088874623,10.5,10499767169.279112,47.655,-122.3035,60.0,4.166666666666667
2026-01-20T23:04:11+00:00,SAT-55791,334.70916509607315,39.82665395851768,2086.27922197689,6.649761797471411,-232902.7866119628,10.5,10499767097.213388,47.655,-122.3035,60.0,4.183333333333334
2026-01-20T23:04:12+00:00,SAT-55791,334.61077404954915,39.77277558493322,2092.9112510762347,6.651792255170361,-232973.90182940752,10.5,10499767026.098171,47.655,-122.3035,60.0,4.2
2026-01-20T23:04:13+00:00,SAT-55791,334.51302236191975,39.71897953348193,2099.5453052187245,6.653795934984945,-233044.0791720715,10.5,10499766955.920828,47.655,-122.3035,60.0,4.216666666666667
2026-01-20T23:04:14+00:00,SAT-55791,334.4159034484995,39.66526582838158,2106.181357697883,6.655773090637534,-233113.32752638528,10.5,10499766886.672474,47.655,-122.3035,60.0,4.233333333333333
2026-01-20T23:04:15+00:00,SAT-55791,334.3194108101149,39.611634482104826,2112.8193820602787,6.657724050764373,-233181.65840258033,10.5,10499766818.341597,47.655,-122.3035,60.0,4.25
2026-01-20T23:04:16+00:00,SAT-55791,334.2235380307713,39.558085495103434,2119.4593521802412,6.659649106182537,-233249.0819863008,10.5,10499766750.918015,47.655,-122.3035,60.0,4.266666666666667
2026-01-20T23:04:17+00:00,SAT-55791,334.1282787769075,39.5046188564547,2126.1012422221406,6.661548542006108,-233315.60826344785,10.5,10499766684.391737,47.655,-122.3035,60.0,4.283333333333333
2026-01-20T23:04:18+00:00,SAT-55791,334.03362679614247,39.45123454425869,2132.7450266347014,6.663422663364648,-233381.24792094942,10.5,10499766618.752079,47.655,-122.3035,60.0,4.3
2026-01-20T23:04:19+00:00,SAT-55791,333.93957591582347,39.397932525771424,2139.3906801709636,6.665271729950835,-233446.01005434155,10.5,10499766553.989946,47.655,-122.3035,60.0,4.316666666666666
2026-01-20T23:04:20+00:00,SAT-55791,333.84612004233543,39.34471275811341,2146.0381778429683,6.667096049550691,-233509.90544359275,10.5,10499766490.094557,47.655,-122.3035,60.0,4.333333333333333
2026-01-20T23:04:21+00:00,SAT-55791,333.75325315931497,39.29157518815999,2152.68749496972,6.668895851178716,-233572.94210975952,10.5,10499766427.05789,47.655,-122.3035,60.0,4.35
2026-01-20T23:04:22+00:00,SAT-55791,333.66096932742175,39.23851975349645,2159.338607098629,6.670671468685492,-233635.13174570142,10.5,10499766364.868254,47.655,-122.3035,60.0,4.366666666666666
2026-01-20T23:04:23+00:00,SAT-55791,333.5692626818869,39.18554638182791,2165.991490110064,6.672423100268599,-233696.4812931361,10.5,10499766303.518707,47.655,-122.3035,60.0,4.383333333333334
2026-01-20T23:04:24+00:00,SAT-55791,333.47812743301694,39.13265499238706,2172.6461200820654,6.674151077885754,-233757.00237862693,10.5,10499766242.997622,47.655,-122.3035,60.0,4.4
2026-01-20T23:04:25+00:00,SAT-55791,333.3875578634417,39.079845495088456,2179.302473423744,6.675855597342852,-233816.70186012465,10.5,10499766183.29814,47.655,-122.3035,60.0,4.416666666666667
2026-01-20T23:04:26+00:00,SAT-55791,333.29754832862926,39.02711779192669,2185.9605267394936,6.677536960358028,-233875.5903050746,10.5,10499766124.409695,47.655,-122.3035,60.0,4.433333333333334
2026-01-20T23:04:27+00:00,SAT-55791,333.20809325453115,38.97447177634304,2192.620256934624,6.679195395588501,-233933.67572201986,10.5,10499766066.324278,47.655,-122.3035,60.0,4.45
2026-01-20T23:04:28+00:00,SAT-55791,333.1191871373658,38.92190733408334,2199.281641142491,6.680831157054966,-233990.96700783962,10.5,10499766009.032991,47.655,-122.3035,60.0,4.466666666666667
2026-01-20T23:04:29+00:00,SAT-55791,333.0308245422654,38.8694243432235,2205.944656749794,6.682444489510216,-234047.47273481198,10.5,10499765952.527266,47.655,-122.3035,60.0,4.483333333333333
2026-01-20T23:04:30+00:00,SAT-55791,332.9430001023275,38.817022674477705,2212.609281387332,6.684035622626643,-234103.20094703566,10.5,10499765896.799053,47.655,-122.3035,60.0,4.5
2026-01-20T23:04:31+00:00,SAT-55791,332.8557085177775,38.76470219154839,2219.275492914965,6.685604833792629,-234158.16135982517,10.5,10499765841.83864,47.655,-122.3035,60.0,4.516666666666667
2026-01-20T23:04:32+00:00,SAT-55791,332.768944554369,38.71246275096123,2225.9432694692005,6.687152300559834,-234212.36019179062,10.5,10499765787.639809,47.655,-122.3035,60.0,4.533333333333333
2026-01-20T23:04:33+00:00,SAT-55791,332.6827030435976,38.66030420308001,2232.612589363626,6.688678299408958,-234265.80712645568,10.5,10499765734.192873,47.655,-122.3035,60.0,4.55
2026-01-20T23:04:34+00:00,SAT-55791,332.5969788805244,38.608226391516396,2239.2834311875695,6.690183029539788,-234318.50914063948,10.5,10499765681.49086,47.655,-122.3035,60.0,4.566666666666666
2026-01-20T23:04:35+00:00,SAT-55791,332.51176702373897,38.55622915395452,2245.955773729031,6.691666744210689,-234370.47510452126,10.5,10499765629.524895,47.655,-122.3035,60.0,4.583333333333333
2026-01-20T23:04:36+00:00,SAT-55791,332.4270624937746,38.504312321906745,2252.62959602859,6.693129630261287,-234421.71156201503,10.5,10499765578.288439,47.655,-122.3035,60.0,4.6
2026-01-20T23:04:37+00:00,SAT-55791,332.3428603729317,38.45247572144073,2259.3048773131704,6.694571917060057,-234472.22654657508,10.5,10499765527.773453,47.655,-122.3035,60.0,4.616666666666666
2026-01-20T23:04:38+00:00,SAT-55791,332.2591558038636,38.40071917302244,2265.981597038452,6.6959938547886,-234522.0288206193,10.5,10499765477.97118,47.655,-122.3035,60.0,4.633333333333334
2026-01-20T23:04:39+00:00,SAT-55791,332.1759439884783,38.34904249151589,2272.6597349096282,6.697395597522124,-234571.1237805132,10.5,10499765428.876219,47.655,-122.3035,60.0,4.65
2026-01-20T23:04:40+00:00,SAT-55791,332.0932201880685,38.29744548714328,2279.3392707855564,6.698777400894918,-234619.5203796509,10.5,10499765380.47962,47.655,-122.3035,60.0,4.666666666666667
2026-01-20T23:04:41+00:00,SAT-55791,332.01097972135966,38.245927964821725,2286.020184780049,6.700139442241379,-234667.22482903313,10.5,10499765332.775171,47.655,-122.3035,60.0,4.683333333333334
2026-01-20T23:04:42+00:00,SAT-55791,331.929217964472,38.194489724963404,2292.702457183778,6.7014819479037815,-234714.2450561238,10.5,10499765285.754944,47.655,-122.3035,60.0,4.7
2026-01-20T23:04:43+00:00,SAT-55791,331.84793034956164,38.143130563237996,2299.386068513154,6.7028050895061675,-234760.5870719228,10.5,10499765239.412928,47.655,-122.3035,60.0,4.716666666666667
2026-01-20T23:04:44+00:00,SAT-55791,331.7671123645589,38.09185027116455,2306.0709994557546,6.704109105584535,-234806.25923096974,10.5,10499765193.740768,47.655,-122.3035,60.0,4.733333333333333
2026-01-20T23:04:45+00:00,SAT-55791,331.68675955165344,38.04064863571818,2312.7572309370576,6.705394156069543,-234851.26713471292,10.5,10499765148.732864,47.655,-122.3035,60.0,4.75
2026-01-20T23:04:46+00:00,SAT-55791,331.60686750729695,37.9895254401135,2319.4447440420445,6.706660445450026,-234895.61794521616,10.5,10499765104.382055,47.655,-122.3035,60.0,4.766666666666667
2026-01-20T23:04:47+00:00,SAT-55791,331.5274318809692,37.93848046357494,2326.13352005964,6.707908162739009,-234939.31828251528,10.5,10499765060.681717,47.655,-122.3035,60.0,4.783333333333333
2026-01-20T23:04:48+00:00,SAT-55791,331.4484483745122,37.88751348160969,2332.8235404672782,6.709137484318743,-234982.37432426267,10.5,10499765017.625675,47.655,-122.3035,60.0,4.8
2026-01-20T23:04:49+00:00,SAT-55791,331.36991274154906,37.836624266222756,2339.514786918305,6.710348628614457,-235024.79372063387,10.5,10499764975.20628,47.655,-122.3035,60.0,4.816666666666666
2026-01-20T23:04:50+00:00,SAT-55791,331.2918207862331,37.785812585728515,2346.20724128391,6.7115417434932025,-235066.58165055848,10.5,10499764933.41835,47.655,-122.3035,60.0,4.833333333333333
2026-01-20T23:04:51+00:00,SAT-55791,331.2141683632816,37.7350782054194,2352.900885582754,6.712717019899753,-235107.74480173015,10.5,10499764892.255198,47.655,-122.3035,60.0,4.85
2026-01-20T23:04:52+00:00,SAT-55791,331.1369513767614,37.68442088735178,2359.595702023934,6.713874628957802,-235148.2891676245,10.5,10499764851.710833,47.655,-122.3035,60.0,4.866666666666666
2026-01-20T23:04:53+00:00,SAT-55791,331.0601657795865,37.633840390618104,2366.291672987215,6.715014757319191,-235188.22128557856,10.5,10499764811.778715,47.655,-122.3035,60.0,4.883333333333334
2026-01-20T23:04:54+00:00,SAT-55791,330.983807572655,37.583336471332004,2372.9887810385144,6.716137582802906,-235227.5473835653,10.5,10499764772.452616,47.655,-122.3035,60.0,4.9
2026-01-20T23:04:55+00:00,SAT-55791,330.9078728042225,37.53290888281447,2379.6870089210965,6.717243240992829,-235266.2722103059,10.5,10499764733.727789,47.655,-122.3035,60.0,4.916666666666667
2026-01-20T23:04:56+00:00,SAT-55791,330.83235756965917,37.482557376024076,2386.3863395134467,6.718331933998305,-235304.40284452453,10.5,10499764695.597155,47.655,-122.3035,60.0,4.933333333333334
2026-01-20T23:04:57+00:00,SAT-55791,330.75725801007883,37.432281699144866,2393.086755895621,6.719403815960869,-235341.94468490974,10.5,10499764658.055315,47.655,-122.3035,60.0,4.95
2026-01-20T23:04:58+00:00,SAT-55791,330.68257031218144,37.3820815980552,2399.7882413014063,6.7204590614672215,-235378.90384622628,10.5,10499764621.096153,47.655,-122.3035,60.0,4.966666666666667
2026-01-20T23:04:59+00:00,SAT-55791,330.60829070737117,37.33195681627046,2406.4907791387095,6.721497797156583,-235415.28476391532,10.5,10499764584.715237,47.655,-122.3035,60.0,4.983333333333333
2026-01-20T23:05:00+00:00,SAT-55791,330.534415471594,37.28190709540301,2413.1943529417404,6.7225202222236575,-235451.094414618,10.5,10499764548.905586,47.655,-122.3035,60.0,5.0
2026-01-20T23:05:01+00:00,SAT-55791,330.4609409239847,37.231932174693966,2419.898946443371,6.723526470469498,-235486.33748461318,10.5,10499764513.662516,47.655,-122.3035,60.0,5.016666666666667
2026-01-20T23:05:02+00:00,SAT-55791,330.3878634268899,37.18203179160624,2426.6045435099195,6.724516696441701,-235521.01938681144,10.5,10499764478.980614,47.655,-122.3035,60.0,5.033333333333333
2026-01-20T23:05:03+00:00,SAT-55791,330.31517938502776,37.132205681749944,2433.311128161837,6.725491070361872,-235555.14608309345,10.5,10499764444.853916,47.655,-122.3035,60.0,5.05
2026-01-20T23:05:04+00:00,SAT-55791,330.2428852447643,37.08245357884133,2440.018684589345,6.726449707927259,-235588.72162566616,10.5,10499764411.278374,47.655,-122.3035,60.0,5.066666666666666
2026-01-20T23:05:05+00:00,SAT-55791,330.1709774939996,37.03277521520675,2446.7271970980514,6.727392827300852,-235621.75365552038,10.5,10499764378.246344,47.655,-122.3035,60.0,5.083333333333333
2026-01-20T23:05:06+00:00,SAT-55791,330.09945266064824,36.983170321068386,2453.4366502111457,6.728320471143635,-235654.24366682424,10.5,10499764345.756332,47.655,-122.3035,60.0,5.1
2026-01-20T23:05:07+00:00,SAT-55791,330.028307313681,36.93363862596782,2460.1470284943666,6.729232888331337,-235686.2003762584,10.5,10499764313.799623,47.655,-122.3035,60.0,5.116666666666666
2026-01-20T23:05:08+00:00,SAT-55791,329.9575380606507,36.88417985725638,2466.858316761662,6.730130152189398,-235717.6263519901,10.5,10499764282.373648,47.655,-122.3035,60.0,5.133333333333334
2026-01-20T23:05:09+00:00,SAT-55791,329.88714154874714,36.83479374151284,2473.5704999001123,6.731012438587269,-235748.5277537113,10.5,10499764251.472246,47.655,-122.3035,60.0,5.15
2026-01-20T23:05:10+00:00,SAT-55791,329.81711446330957,36.785480003822585,2480.2835629721967,6.731879869164303,-235778.90884174674,10.5,10499764221.091158,47.655,-122.3035,60.0,5.166666666666667
2026-01-20T23:05:11+00:00,SAT-55791,329.7474535277729,36.7362383682617,2486.99749116171,6.732732581489493,-235808.7744343444,10.5,10499764191.225565,47.655,-122.3035,60.0,5.183333333333334
2026-01-20T23:05:12+00:00,SAT-55791,329.67815550300185,36.68706855783451,2493.712269789649,6.73357072233518,-235838.12967209265,10.5,10499764161.870327,47.655,-122.3035,60.0,5.2
2026-01-20T23:05:13+00:00,SAT-55791,329.6092171866555,36.63797029447089,2500.427884323391,6.7343944261158395,-235866.97926275487,10.5,10499764133.020737,47.655,-122.3035,60.0,5.216666666666667
2026-01-20T23:05:14+00:00,SAT-55791,329.54063541282295,36.5889432991719,2507.1443203643703,6.73520380693799,-235895.32720282406,10.5,10499764104.672796,47.655,-122.3035,60.0,5.233333333333333
