satellites_20260121_005943/SAT-52575.csv

timestamp,satellite,azimuth_deg,elevation_deg,distance_km,relative_velocity_kms,doppler_shift_hz,tx_freq_ghz,rx_freq_hz,ue_lat,ue_lon,ue_alt_m,time_minutes
2026-01-20T23:12:06+00:00,SAT-52575,211.85438234152898,30.1834763954442,1190.3912806730661,-5.661623465482236,198294.00240470187,10.5,10500198294.002405,47.655,-122.3035,60.0,12.1
2026-01-20T23:12:07+00:00,SAT-52575,211.95065336897932,30.399199231986877,1184.7447548701587,-5.645339107728183,197723.6553133899,10.5,10500197723.655313,47.655,-122.3035,60.0,12.116666666666667
2026-01-20T23:12:08+00:00,SAT-52575,212.04858284810393,30.616610217961583,1179.114470000051,-5.628813499115575,197144.85859652126,10.5,10500197144.858597,47.655,-122.3035,60.0,12.133333333333333
2026-01-20T23:12:09+00:00,SAT-52575,212.1482051429749,30.83572517499414,1173.5006666702664,-5.61204275627389,196557.4762420336,10.5,10500196557.476242,47.655,-122.3035,60.0,12.15
2026-01-20T23:12:10+00:00,SAT-52575,212.24955554398736,31.056559928179023,1167.9035893613427,-5.59502292360441,195961.36970812757,10.5,10500195961.369709,47.655,-122.3035,60.0,12.166666666666666
2026-01-20T23:12:11+00:00,SAT-52575,212.35267029784663,31.279130295927143,1162.3234864988676,-5.577750003679646,195356.39898798347,10.5,10500195356.398989,47.655,-122.3035,60.0,12.183333333333334
2026-01-20T23:12:12+00:00,SAT-52575,212.45758663926208,31.503452080453783,1156.7606104951979,-5.560219917229918,194742.42120832187,10.5,10500194742.421207,47.655,-122.3035,60.0,12.2
2026-01-20T23:12:13+00:00,SAT-52575,212.56434282307254,31.729541056090174,1151.2152178310805,-5.54242852458414,194119.29138035042,10.5,10500194119.29138,47.655,-122.3035,60.0,12.216666666666667
2026-01-20T23:12:14+00:00,SAT-52575,212.6729781579873,31.957412957808533,1145.6875691158953,-5.524371649451572,193486.86323270184,10.5,10500193486.863234,47.655,-122.3035,60.0,12.233333333333333
2026-01-20T23:12:15+00:00,SAT-52575,212.7835330421128,32.187083470070874,1140.1779291241755,-5.506045032244511,192844.98757659664,10.5,10500192844.987577,47.655,-122.3035,60.0,12.25
2026-01-20T23:12:16+00:00,SAT-52575,212.89604899887672,32.41856821311579,1134.6865668786838,-5.487444380410217,192193.5140686804,10.5,10500192193.514069,47.655,-122.3035,60.0,12.266666666666667
2026-01-20T23:12:17+00:00,SAT-52575,213.01056871539615,32.65188273059469,1129.213755683288,-5.468565290598573,191532.2884850059,10.5,10500191532.288485,47.655,-122.3035,60.0,12.283333333333333
2026-01-20T23:12:18+00:00,SAT-52575,213.1271360806547,32.88704247321084,1123.7597732334646,-5.449403372129633,190861.15704538886,10.5,10500190861.157045,47.655,-122.3035,60.0,12.3
2026-01-20T23:12:19+00:00,SAT-52575,213.24579622779828,33.12406278676249,1118.3249016036602,-5.429954087438287,190179.96082510526,10.5,10500190179.960825,47.655,-122.3035,60.0,12.316666666666666
2026-01-20T23:12:20+00:00,SAT-52575,213.3665955746048,33.362958892600716,1112.9094273937887,-5.410212916641533,189488.54151873325,10.5,10500189488.54152,47.655,-122.3035,60.0,12.333333333333334
2026-01-20T23:12:21+00:00,SAT-52575,213.48958186913342,33.60374587423631,1107.5136417115916,-5.390175241803493,188786.7373866246,10.5,10500188786.737387,47.655,-122.3035,60.0,12.35
2026-01-20T23:12:22+00:00,SAT-52575,213.61480423459392,33.84643865812001,1102.137840270433,-5.369836378454192,188074.3843588254,10.5,10500188074.38436,47.655,-122.3035,60.0,12.366666666666667
2026-01-20T23:12:23+00:00,SAT-52575,213.7423132166202,34.091051994748234,1096.7823234556545,-5.3491916163739415,187351.31746351797,10.5,10500187351.317463,47.655,-122.3035,60.0,12.383333333333333
2026-01-20T23:12:24+00:00,SAT-52575,213.87216083339192,34.33760044065907,1091.4473963502576,-5.328236138665683,186617.36799259196,10.5,10500186617.367992,47.655,-122.3035,60.0,12.4
2026-01-20T23:12:25+00:00,SAT-52575,214.00440062574222,34.58609833570974,1086.133368841295,-5.3069651090887575,185872.36656044214,10.5,10500185872.36656,47.655,-122.3035,60.0,12.416666666666666
2026-01-20T23:12:26+00:00,SAT-52575,214.139087711353,34.83655978322368,1080.8405556391638,-5.285373629360052,185116.14160847416,10.5,10500185116.14161,47.655,-122.3035,60.0,12.433333333333334
2026-01-20T23:12:27+00:00,SAT-52575,214.27627884005744,35.088998627084074,1075.569276339482,-5.263456725581736,184348.51892974647,10.5,10500184348.51893,47.655,-122.3035,60.0,12.45
2026-01-20T23:12:28+00:00,SAT-52575,214.41603245092145,35.343428426973524,1070.3198554985017,-5.241209368711847,183569.32238593674,10.5,10500183569.322386,47.655,-122.3035,60.0,12.466666666666667
2026-01-20T23:12:29+00:00,SAT-52575,214.5584087320706,35.59986243327461,1065.0926226881065,-5.218626494090351,182778.374591227,10.5,10500182778.374592,47.655,-122.3035,60.0,12.483333333333333
2026-01-20T23:12:30+00:00,SAT-52575,214.70346968345467,35.85831356165467,1059.8879125313338,-5.195702966285577,181975.49568107733,10.5,10500181975.495682,47.655,-122.3035,60.0,12.5
2026-01-20T23:12:31+00:00,SAT-52575,214.8512791810789,36.118794364560245,1054.7060647729581,-5.172433599652975,181160.50403228035,10.5,10500181160.504032,47.655,-122.3035,60.0,12.516666666666667
2026-01-20T23:12:32+00:00,SAT-52575,215.00190304432985,36.381317002275935,1049.547424329571,-5.148813158342623,180333.21626322414,10.5,10500180333.216263,47.655,-122.3035,60.0,12.533333333333333
2026-01-20T23:12:33+00:00,SAT-52575,215.1554091059744,36.64589321248093,1044.4123413396508,-5.124836356393107,179493.4472371804,10.5,10500179493.447237,47.655,-122.3035,60.0,12.55
2026-01-20T23:12:34+00:00,SAT-52575,215.3118672848901,36.9125342782557,1039.3011712135412,-5.10049785235342,178641.00987394058,10.5,10500178641.009874,47.655,-122.3035,60.0,12.566666666666666
2026-01-20T23:12:35+00:00,SAT-52575,215.4713496615082,37.18125099415249,1034.2142746887941,-5.075792247852706,177775.71509972215,10.5,10500177775.7151,47.655,-122.3035,60.0,12.583333333333334
2026-01-20T23:12:36+00:00,SAT-52575,215.63393055612832,37.45205363045638,1029.1520178869357,-5.050714132229959,176897.3734102896,10.5,10500176897.373411,47.655,-122.3035,60.0,12.6
2026-01-20T23:12:37+00:00,SAT-52575,215.7996866117673,37.724951898008975,1024.114772325725,-5.025258024953983,176005.79285425795,10.5,10500176005.792854,47.655,-122.3035,60.0,12.616666666666667
2026-01-20T23:12:38+00:00,SAT-52575,215.96869687840655,37.999954908154656,1019.1029149888376,-4.9994184082206266,175100.78017478538,10.5,10500175100.780174,47.655,-122.3035,60.0,12.633333333333333
2026-01-20T23:12:39+00:00,SAT-52575,216.14104290156942,38.27707113241565,1014.1168283630388,-4.973189699249456,174182.13983928604,10.5,10500174182.13984,47.655,-122.3035,60.0,12.65
2026-01-20T23:12:40+00:00,SAT-52575,216.3168088133735,38.55630835859053,1009.1569005029875,-4.946566340066116,173249.6771839878,10.5,10500173249.677183,47.655,-122.3035,60.0,12.666666666666666
2026-01-20T23:12:41+00:00,SAT-52575,216.49608143033925,38.83767364969147,1004.2235250064948,-4.919542684239207,172303.19444697862,10.5,10500172303.194447,47.655,-122.3035,60.0,12.683333333333334
2026-01-20T23:12:42+00:00,SAT-52575,216.67895035093554,39.12117329440906,999.317101102747,-4.892113061841184,171342.49304341216,10.5,10500171342.493044,47.655,-122.3035,60.0,12.7
2026-01-20T23:12:43+00:00,SAT-52575,216.86550805922207,39.40681275879111,994.4380336757373,-4.864271798062157,170367.37421744165,10.5,10500170367.374218,47.655,-122.3035,60.0,12.716666666666667
2026-01-20T23:12:44+00:00,SAT-52575,217.05585003320786,39.69459663662292,989.5867332691366,-4.836013160459871,169377.63719469102,10.5,10500169377.637196,47.655,-122.3035,60.0,12.733333333333333
2026-01-20T23:12:45+00:00,SAT-52575,217.25007485534363,39.98452859421623,984.7636161437713,-4.80733142191973,168373.08138738154,10.5,10500168373.081387,47.655,-122.3035,60.0,12.75
2026-01-20T23:12:46+00:00,SAT-52575,217.4482843296821,40.276611316224944,979.96910427231,-4.778220825043845,167353.50514708538,10.5,10500167353.505148,47.655,-122.3035,60.0,12.766666666666667
2026-01-20T23:12:47+00:00,SAT-52575,217.6505836020725,40.57084644663039,975.2036253694663,-4.748675588992954,166318.7060043586,10.5,10500166318.706005,47.655,-122.3035,60.0,12.783333333333333
2026-01-20T23:12:48+00:00,SAT-52575,217.85708128512135,40.86723452722815,970.4676129153773,-4.718689935293296,165268.48157260718,10.5,10500165268.481573,47.655,-122.3035,60.0,12.8
2026-01-20T23:12:49+00:00,SAT-52575,218.0678895889031,41.16577493467821,965.7615061532449,-4.688258073310939,164202.62903933646,10.5,10500164202.62904,47.655,-122.3035,60.0,12.816666666666666
2026-01-20T23:12:50+00:00,SAT-52575,218.2831244559141,41.46646581359342,961.0857501014627,-4.6573742163364225,163120.94572950344,10.5,10500163120.94573,47.655,-122.3035,60.0,12.833333333333334
2026-01-20T23:12:51+00:00,SAT-52575,218.5029057016604,41.76930400734262,956.4407955497031,-4.626032559496511,162023.22833189272,10.5,10500162023.228333,47.655,-122.3035,60.0,12.85
2026-01-20T23:12:52+00:00,SAT-52575,218.72735715929534,42.07428498407851,951.8270990770319,-4.594227349850915,160909.2753542006,10.5,10500160909.275354,47.655,-122.3035,60.0,12.866666666666667
2026-01-20T23:12:53+00:00,SAT-52575,218.95660683279286,42.381402763756874,947.245123000114,-4.561952793106903,159778.8838557856,10.5,10500159778.883856,47.655,-122.3035,60.0,12.883333333333333
2026-01-20T23:12:54+00:00,SAT-52575,219.19078705095762,42.690649835434066,942.6953354144554,-4.529203164398751,158631.85332763405,10.5,10500158631.853327,47.655,-122.3035,60.0,12.9
2026-01-20T23:12:55+00:00,SAT-52575,219.43003463228712,43.0020170780177,938.1782101251617,-4.495972706511409,157467.9821277218,10.5,10500157467.982128,47.655,-122.3035,60.0,12.916666666666666
2026-01-20T23:12:56+00:00,SAT-52575,219.67449105020668,43.31549367025641,933.694226679201,-4.462255780028938,156287.07273984805,10.5,10500156287.07274,47.655,-122.3035,60.0,12.933333333333334
2026-01-20T23:12:57+00:00,SAT-52575,219.9243026118532,43.63106700684403,929.2438702479187,-4.428046682052019,155088.9254243554,10.5,10500155088.925425,47.655,-122.3035,60.0,12.95
2026-01-20T23:12:58+00:00,SAT-52575,220.17962063276727,43.94872259777385,924.8276316903522,-4.393339825325474,153873.3444919334,10.5,10500153873.344492,47.655,-122.3035,60.0,12.966666666666667
2026-01-20T23:12:59+00:00,SAT-52575,220.44060162706492,44.268443975617615,920.4460074378943,-4.358129643876075,152640.1349986556,10.5,10500152640.134998,47.655,-122.3035,60.0,12.983333333333333
2026-01-20T23:13:00+00:00,SAT-52575,220.70740749818825,44.59021259166916,916.0994994730686,-4.322410653339513,151389.10485888502,10.5,10500151389.104858,47.655,-122.3035,60.0,13.0
2026-01-20T23:13:01+00:00,SAT-52575,220.9802057389068,44.914007711580695,911.788615248138,-4.286177395394818,150120.06289913267,10.5,10500150120.062899,47.655,-122.3035,60.0,13.016666666666667
2026-01-20T23:13:02+00:00,SAT-52575,221.2591696335839,45.23980630196905,907.5138676591308,-4.249424540488789,148832.82245590142,10.5,10500148832.822456,47.655,-122.3035,60.0,13.033333333333333
2026-01-20T23:13:03+00:00,SAT-52575,221.5444784725379,45.567582919482135,903.2757749174167,-4.212146788881923,147527.19790989603,10.5,10500147527.19791,47.655,-122.3035,60.0,13.05
2026-01-20T23:13:04+00:00,SAT-52575,221.83631776555066,45.89730958714281,899.0748605199718,-4.1743389713666454,146203.00821360148,10.5,10500146203.008213,47.655,-122.3035,60.0,13.066666666666666
2026-01-20T23:13:05+00:00,SAT-52575,222.13487946729836,46.22895567278852,894.9116531191955,-4.135996004757166,144860.07533234957,10.5,10500144860.075333,47.655,-122.3035,60.0,13.083333333333334
2026-01-20T23:13:06+00:00,SAT-52575,222.4403622049951,46.5624877584701,890.7866864371176,-4.097112906006935,143498.22473877185,10.5,10500143498.22474,47.655,-122.3035,60.0,13.1
2026-01-20T23:13:07+00:00,SAT-52575,222.75297151164634,46.89786950497626,886.7004991655267,-4.057684835155633,142117.2869169849,10.5,10500142117.286917,47.655,-122.3035,60.0,13.116666666666667
2026-01-20T23:13:08+00:00,SAT-52575,223.0729200669148,47.235061513755305,882.653634823265,-4.017707054894436,140717.09594639495,10.5,10500140717.095947,47.655,-122.3035,60.0,13.133333333333333
2026-01-20T23:13:09+00:00,SAT-52575,223.4004279388658,47.574021179292075,878.6466416538502,-3.977174993466352,139297.4917047336,10.5,10500139297.491705,47.655,-122.3035,60.0,13.15
2026-01-20T23:13:10+00:00,SAT-52575,223.7357228339126,47.91470254020219,874.6800724603664,-3.9360842039367165,137858.3184415384,10.5,10500137858.318441,47.655,-122.3035,60.0,13.166666666666666
2026-01-20T23:13:11+00:00,SAT-52575,224.07904034612693,48.25705612027796,870.7544844809735,-3.8944304253264495,136399.426919298,10.5,10500136399.42692,47.655,-122.3035,60.0,13.183333333333334
2026-01-20T23:13:12+00:00,SAT-52575,224.43062421343825,48.60102876792146,866.8704392034479,-3.8522095497087565,134920.67326103963,10.5,10500134920.673262,47.655,-122.3035,60.0,13.2
2026-01-20T23:13:13+00:00,SAT-52575,224.79072657184727,48.946563485766774,863.0285022125383,-3.8094176495438625,133421.9199077068,10.5,10500133421.919909,47.655,-122.3035,60.0,13.216666666666667
2026-01-20T23:13:14+00:00,SAT-52575,225.15960821151566,49.29359925546164,859.2292430100599,-3.7660510240292853,131903.03724154225,10.5,10500131903.037241,47.655,-122.3035,60.0,13.233333333333333
2026-01-20T23:13:15+00:00,SAT-52575,225.53753883566694,49.642070859357,855.4732347887615,-3.7221061313387676,130363.90121280857,10.5,10500130363.901213,47.655,-122.3035,60.0,13.25
2026-01-20T23:13:16+00:00,SAT-52575,225.92479730959548,49.99190868862722,851.7610542737729,-3.677579699473399,128804.3972222633,10.5,10500128804.397223,47.655,-122.3035,60.0,13.266666666666667
2026-01-20T23:13:17+00:00,SAT-52575,226.32167191549047,50.34303855392646,848.0932814534981,-3.632468640669519,127224.4171233619,10.5,10500127224.417124,47.655,-122.3035,60.0,13.283333333333333
2026-01-20T23:13:18+00:00,SAT-52575,226.7284605913413,50.69538148051042,844.4704993958703,-3.5867701486514116,125623.86262845818,10.5,10500125623.862629,47.655,-122.3035,60.0,13.3
2026-01-20T23:13:19+00:00,SAT-52575,227.1454711703854,51.048853504714465,840.8932939676154,-3.540481645807946,124002.64345870713,10.5,10500124002.64346,47.655,-122.3035,60.0,13.316666666666666
2026-01-20T23:13:20+00:00,SAT-52575,227.5730216024692,51.403365457688196,837.3622536061963,-3.4936008483350496,122360.67962562962,10.5,10500122360.679626,47.655,-122.3035,60.0,13.333333333333334
2026-01-20T23:13:21+00:00,SAT-52575,228.01144016724757,51.75882274765534,833.8779690267901,-3.446125734092972,120697.90030533791,10.5,10500120697.900305,47.655,-122.3035,60.0,13.35
2026-01-20T23:13:22+00:00,SAT-52575,228.4610656644931,52.11512513130827,830.4410329613214,-3.398054588775751,119014.24545558575,10.5,10500119014.245455,47.655,-122.3035,60.0,13.366666666666667
2026-01-20T23:13:23+00:00,SAT-52575,228.92224758680283,52.472166482155735,827.052039851449,-3.3493860064785252,117309.66583563792,10.5,10500117309.665836,47.655,-122.3035,60.0,13.383333333333333
2026-01-20T23:13:24+00:00,SAT-52575,229.3953462648059,52.82983455152702,823.7115855409878,-3.3001188898764227,115584.12301253568,10.5,10500115584.123013,47.655,-122.3035,60.0,13.4
2026-01-20T23:13:25+00:00,SAT-52575,229.88073297931342,53.18801072228232,820.4202669681509,-3.250252507465352,113837.59136591155,10.5,10500113837.591366,47.655,-122.3035,60.0,13.416666666666666
2026-01-20T23:13:26+00:00,SAT-52575,230.37879004296772,53.54656976170227,817.1786818007056,-3.199786430263995,112070.0558710251,10.5,10500112070.055872,47.655,-122.3035,60.0,13.433333333333334
2026-01-20T23:13:27+00:00,SAT-52575,230.88991082744343,53.90537956102091,813.9874281342555,-3.1487206579239673,110281.5165156745,10.5,10500110281.516516,47.655,-122.3035,60.0,13.45
2026-01-20T23:13:28+00:00,SAT-52575,231.4144997575712,54.26430088277543,810.8471040647528,-3.0970554834882167,108471.98356346335,10.5,10500108471.983564,47.655,-122.3035,60.0,13.466666666666667
2026-01-20T23:13:29+00:00,SAT-52575,231.95297222374285,54.62318708778201,807.7583073958872,-3.0447916536831614,106641.48316790942,10.5,10500106641.483168,47.655,-122.3035,60.0,13.483333333333333
2026-01-20T23:13:30+00:00,SAT-52575,232.50575445083552,54.981883875475745,804.7216351866139,-2.9919302924629902,104790.05469464276,10.5,10500104790.054695,47.655,-122.3035,60.0,13.5
2026-01-20T23:13:31+00:00,SAT-52575,233.07328327601317,55.34022901215312,801.7376833749307,-2.9384729223653188,102917.75146937101,10.5,10500102917.751469,47.655,-122.3035,60.0,13.516666666666667
2026-01-20T23:13:32+00:00,SAT-52575,233.65600583962419,55.69805205902193,798.8070463803584,-2.884421526959198,101024.6429650728,10.5,10500101024.642965,47.655,-122.3035,60.0,13.533333333333333
2026-01-20T23:13:33+00:00,SAT-52575,234.25437918643593,56.05517410662876,795.9303166441377,-2.8297784877005863,99110.8125904093,10.5,10500099110.81259,47.655,-122.3035,60.0,13.55
2026-01-20T23:13:34+00:00,SAT-52575,234.86886973999128,56.41140750219878,793.1080842324044,-2.7745466699471484,97176.36070232646,10.5,10500097176.360703,47.655,-122.3035,60.0,13.566666666666666
2026-01-20T23:13:35+00:00,SAT-52575,235.49995266557562,56.76655558975656,790.340936353577,-2.718729384600623,95221.40326260823,10.5,10500095221.403263,47.655,-122.3035,60.0,13.583333333333334
2026-01-20T23:13:36+00:00,SAT-52575,236.14811108189724,57.12041245013529,787.629456914002,-2.6623304010581696,93246.07229148767,10.5,10500093246.072292,47.655,-122.3035,60.0,13.6
2026-01-20T23:13:37+00:00,SAT-52575,236.81383511479385,57.472762649417874,784.9742260606802,-2.6053539991760566,91250.51768763507,10.5,10500091250.517687,47.655,-122.3035,60.0,13.616666666666667
2026-01-20T23:13:38+00:00,SAT-52575,237.4976207861705,57.82338100398034,782.3758196721685,-2.5478049277929617,89234.9057754685,10.5,10500089234.905775,47.655,-122.3035,60.0,13.633333333333333
2026-01-20T23:13:39+00:00,SAT-52575,238.19996869742684,58.17203235322791,779.8348088908496,-2.489688438522009,87199.42048869387,10.5,10500087199.420488,47.655,-122.3035,60.0,13.65
2026-01-20T23:13:40+00:00,SAT-52575,238.92138250592308,58.518471353431224,777.351759621497,-2.431010301848251,85144.26393410683,10.5,10500085144.263933,47.655,-122.3035,60.0,13.666666666666666
2026-01-20T23:13:41+00:00,SAT-52575,239.66236717140592,58.86244229468482,774.927232013787,-2.3717767979462794,83069.6560699867,10.5,10500083069.65607,47.655,-122.3035,60.0,13.683333333333334
2026-01-20T23:13:42+00:00,SAT-52575,240.4234269447879,59.20367894213842,772.5617799539685,-2.3119947256979505,80975.83502193535,10.5,10500080975.835022,47.655,-122.3035,60.0,13.7
2026-01-20T23:13:43+00:00,SAT-52575,241.2050630832411,59.54190440909084,770.2559505475392,-2.2516714189202234,78863.05765124467,10.5,10500078863.057652,47.655,-122.3035,60.0,13.716666666666667
2026-01-20T23:13:44+00:00,SAT-52575,242.00777127411004,59.87683106876811,768.010283585736,-2.1908147411075007,76731.59937075121,10.5,10500076731.599371,47.655,-122.3035,60.0,13.733333333333333
2026-01-20T23:13:45+00:00,SAT-52575,242.83203874111837,60.20816050803319,765.8253110172715,-2.1294331023126527,74581.75473608097,10.5,10500074581.754736,47.655,-122.3035,60.0,13.75
2026-01-20T23:13:46+00:00,SAT-52575,243.67834102218322,60.535583533137604,763.7015564032317,-2.0675354336988065,72413.83655434544,10.5,10500072413.836554,47.655,-122.3035,60.0,13.766666666666667
2026-01-20T23:13:47+00:00,SAT-52575,244.54713838622874,60.8587802285767,761.6395343973561,-2.0051312321894983,70228.17744797881,10.5,10500070228.177448,47.655,-122.3035,60.0,13.783333333333333
2026-01-20T23:13:48+00:00,SAT-52575,245.43887190270482,61.17742008770255,759.6397501817858,-1.9422305252796663,68025.12862227006,10.5,10500068025.128622,47.655,-122.3035,60.0,13.8
2026-01-20T23:13:49+00:00,SAT-52575,246.35395912293546,61.49116221150859,757.7026989379069,-1.8788438825642317,65805.0602691427,10.5,10500065805.060268,47.655,-122.3035,60.0,13.816666666666666
2026-01-20T23:13:50+00:00,SAT-52575,247.29278938587188,61.79965559156721,755.8288653056961,-1.8149824214333412,63568.36176662617,10.5,10500063568.361767,47.655,-122.3035,60.0,13.833333333333334
2026-01-20T23:13:51+00:00,SAT-52575,248.25571874848293,62.102539485752864,754.0187228373867,-1.7506577908560865,61315.441110893145,10.5,10500061315.44111,47.655,-122.3035,60.0,13.85
2026-01-20T23:13:52+00:00,SAT-52575,249.24306453846978,62.39944389273976,752.2727334673061,-1.6858821847477026,59046.72538443537,10.5,10500059046.725384,47.655,-122.3035,60.0,13.866666666666667
2026-01-20T23:13:53+00:00,SAT-52575,250.25509956206673,62.689990139844554,750.5913469683844,-1.6206683167252738,56762.6598719017,10.5,10500056762.659872,47.655,-122.3035,60.0,13.883333333333333
2026-01-20T23:13:54+00:00,SAT-52575,251.2920459740468,62.97379158733032,748.9750004338371,-1.5550294291260975,54463.708375959286,10.5,10500054463.708376,47.655,-122.3035,60.0,13.9
2026-01-20T23:13:55+00:00,SAT-52575,252.3540688684969,63.25045446415015,747.4241177498553,-1.488979277016162,52150.352657202944,10.5,10500052150.352657,47.655,-122.3035,60.0,13.916666666666666
2026-01-20T23:13:56+00:00,SAT-52575,253.44126962939038,63.51957883949038,745.9391090842446,-1.4225321226807957,49823.09224119426,10.5,10500049823.092241,47.655,-122.3035,60.0,13.933333333333334
2026-01-20T23:13:57+00:00,SAT-52575,254.5536791148304,63.78075973953245,744.5203703805576,-1.3557027327926092,47482.444319271024,10.5,10500047482.444319,47.655,-122.3035,60.0,13.95
2026-01-20T23:13:58+00:00,SAT-52575,255.69125076214698,64.03358841629587,743.1682828550524,-1.288506332200343,45128.942130037176,10.5,10500045128.94213,47.655,-122.3035,60.0,13.966666666666667
2026-01-20T23:13:59+00:00,SAT-52575,256.8538536772275,64.27765376507223,741.8832125397379,-1.2209586417489313,42763.13628398143,10.5,10500042763.136284,47.655,-122.3035,60.0,13.983333333333333
2026-01-20T23:14:00+00:00,SAT-52575,258.04126589273295,64.5125439082782,740.6655097877003,-1.1530758290394865,40385.59303888361,10.5,10500040385.593039,47.655,-122.3035,60.0,14.0
2026-01-20T23:14:01+00:00,SAT-52575,259.25316785848725,64.73784792951224,739.5155088275383,-1.0848744995618798,37996.89398924017,10.5,10500037996.89399,47.655,-122.3035,60.0,14.016666666666667
2026-01-20T23:14:02+00:00,SAT-52575,260.48913634158725,64.95315776173662,738.4335273266419,-1.016371678209772,35597.63541884235,10.5,10500035597.635418,47.655,-122.3035,60.0,14.033333333333333
2026-01-20T23:14:03+00:00,SAT-52575,261.7486388879473,65.15807022093632,737.4198659729074,-0.9475848025244682,33188.42806414735,10.5,10500033188.428064,47.655,-122.3035,60.0,14.05
2026-01-20T23:14:04+00:00,SAT-52575,263.031029030493,65.35218917679286,736.4748080631896,-0.8785316943946979,30769.89612308502,10.5,10500030769.896124,47.655,-122.3035,60.0,14.066666666666666
2026-01-20T23:14:05+00:00,SAT-52575,264.3355423974593,65.53512784117983,735.59861911998,-0.8092305263730813,28342.676075317926,10.5,10500028342.676075,47.655,-122.3035,60.0,14.083333333333334
2026-01-20T23:14:06+00:00,SAT-52575,265.6612938821771,65.70651115365666,734.7915465416772,-0.7396998280854146,25907.41690672169,10.5,10500025907.416906,47.655,-122.3035,60.0,14.1
2026-01-20T23:14:07+00:00,SAT-52575,267.0072761064241,65.86597824836143,734.0538192464668,-0.6699584379644031,23464.77841889616,10.5,10500023464.77842,47.655,-122.3035,60.0,14.116666666666667
2026-01-20T23:14:08+00:00,SAT-52575,268.3723592574597,66.01318496263318,733.3856473643369,-0.60002549541698,21015.430954831725,10.5,10500021015.430954,47.655,-122.3035,60.0,14.133333333333333
2026-01-20T23:14:09+00:00,SAT-52575,269.7552925013435,66.14780636329935,732.7872219369076,-0.5299204006853607,18560.05399307373,10.5,10500018560.053993,47.655,-122.3035,60.0,14.15
2026-01-20T23:14:10+00:00,SAT-52575,271.1547070262478,66.2695392475273,732.2587146572909,-0.4596628092347739,16099.335951157003,10.5,10500016099.33595,47.655,-122.3035,60.0,14.166666666666666
2026-01-20T23:14:11+00:00,SAT-52575,272.5691208713754,66.3781045868154,731.8002776155473,-0.389272583501424,13633.972495615459,10.5,10500013633.972496,47.655,-122.3035,60.0,14.183333333333334
2026-01-20T23:14:12+00:00,SAT-52575,273.9969454806869,66.4732498634753,731.4120430922685,-0.3187697802755545,11164.666100083552,10.5,10500011164.6661,47.655,-122.3035,60.0,14.2
2026-01-20T23:14:13+00:00,SAT-52575,275.43649405965107,66.55475126554904,731.0941233647404,-0.24817461619294462,8692.124836662564,10.5,10500008692.124836,47.655,-122.3035,60.0,14.216666666666667
2026-01-20T23:14:14+00:00,SAT-52575,276.88599162130333,66.62241569344393,730.8466105475239,-0.17750744124255613,6217.061448046299,10.5,10500006217.061447,47.655,-122.3035,60.0,14.233333333333333
2026-01-20T23:14:15+00:00,SAT-52575,278.34358663274156,66.6760825400364,730.6695764594581,-0.10678871070644949,3740.192364738274,10.5,10500003740.192366,47.655,-122.3035,60.0,14.25
2026-01-20T23:14:16+00:00,SAT-52575,279.807364107942,66.71562520693865,730.5630725186468,-0.03603895162490249,1262.2365305183098,10.5,10500001262.23653,47.655,-122.3035,60.0,14.266666666666667
2026-01-20T23:14:17+00:00,SAT-52575,281.2753598868974,66.74095232262358,730.5271296708929,0.03472126201106745,-1216.0854664202666,10.5,10499998783.914534,47.655,-122.3035,60.0,14.283333333333333
2026-01-20T23:14:18+00:00,SAT-52575,282.74557590818415,66.75200863782904,730.5617583428719,0.10547134160090318,-3694.0525261962507,10.5,10499996305.947474,47.655,-122.3035,60.0,14.3
2026-01-20T23:14:19+00:00,SAT-52575,284.2159961625068,66.74877557619111,730.6669484275619,0.1761907132914418,-6170.944065444564,10.5,10499993829.055935,47.655,-122.3035,60.0,14.316666666666666
2026-01-20T23:14:20+00:00,SAT-52575,285.6846029803481,66.73127142755874,730.8426692989513,0.24685884806581185,-8646.041071156715,10.5,10499991353.95893,47.655,-122.3035,60.0,14.333333333333334
2026-01-20T23:14:21+00:00,SAT-52575,287.14939337785023,66.69955117982262,731.0888698567557,0.31745528950277835,-11118.627072930474,10.5,10499988881.372927,47.655,-122.3035,60.0,14.35
2026-01-20T23:14:22+00:00,SAT-52575,288.60839508782703,66.65370599280341,731.4054785988197,0.3879596862842575,-13587.989281520564,10.5,10499986412.01072,47.655,-122.3035,60.0,14.366666666666667
2026-01-20T23:14:23+00:00,SAT-52575,290.0596819970634,66.59386232548452,731.7924037259405,0.45835181863329105,-16053.419514808327,10.5,10499983946.580484,47.655,-122.3035,60.0,14.383333333333333
2026-01-20T23:14:24+00:00,SAT-52575,291.50138865668805,66.52018073675471,732.2495332730574,0.5286116284170457,-18514.21525213613,10.5,10499981485.784748,47.655,-122.3035,60.0,14.4
2026-01-20T23:14:25+00:00,SAT-52575,292.9317236289782,66.43285438550458,732.7767352704653,0.5987192447959032,-20969.68053264697,10.5,10499979030.319468,47.655,-122.3035,60.0,14.416666666666666
2026-01-20T23:14:26+00:00,SAT-52575,294.34898143391166,66.33210726286333,733.3738579306084,0.6686550153705981,-23419.127046189,10.5,10499976580.872953,47.655,-122.3035,60.0,14.433333333333334
2026-01-20T23:14:27+00:00,SAT-52575,295.75155293950064,66.2181921923705,734.040729865938,0.7383995315066813,-25861.875020285377,10.5,10499974138.124979,47.655,-122.3035,60.0,14.45
2026-01-20T23:14:28+00:00,SAT-52575,297.13793405756616,66.09138863896645,734.7771603320275,0.8079336507584471,-28297.254005515028,10.5,10499971702.745995,47.655,-122.3035,60.0,14.466666666666667
2026-01-20T23:14:29+00:00,SAT-52575,298.5067326748485,65.95200036912685,735.5829394930506,0.877238528366235,-30724.603978681367,10.5,10499969275.39602,47.655,-122.3035,60.0,14.483333333333333
2026-01-20T23:14:30+00:00,SAT-52575,299.8566738187135,65.8003530028299,736.4578387186745,0.9462956313623222,-33143.27583686039,10.5,10499966856.724163,47.655,-122.3035,60.0,14.5
2026-01-20T23:14:31+00:00,SAT-52575,301.18660305597115,65.6367915018447,737.4016108950199,1.0150867784635091,-35552.63279460768,10.5,10499964447.367205,47.655,-122.3035,60.0,14.516666666666667
2026-01-20T23:14:32+00:00,SAT-52575,302.49548823730674,65.46167762946803,738.4139907754075,1.0835941381732976,-37952.05031748873,10.5,10499962047.949682,47.655,-122.3035,60.0,14.533333333333333
2026-01-20T23:14:33+00:00,SAT-52575,303.78241963306004,65.27538742565307,739.4946953292123,1.1518002802028067,-40340.917923056855,10.5,10499959659.082077,47.655,-122.3035,60.0,14.55
2026-01-20T23:14:34+00:00,SAT-52575,305.0466086689213,65.07830872149975,740.6434241420012,1.219688159352073,-42718.638616308235,10.5,10499957281.361383,47.655,-122.3035,60.0,14.566666666666666
2026-01-20T23:14:35+00:00,SAT-52575,306.28738533176397,64.8708387337794,741.8598597995949,1.287241167536382,-45084.63071186404,10.5,10499954915.369287,47.655,-122.3035,60.0,14.583333333333334
2026-01-20T23:14:36+00:00,SAT-52575,307.50419449758334,64.65338175243039,743.1436683240179,1.354443126038204,-47438.32756260046,10.5,10499952561.672438,47.655,-122.3035,60.0,14.6
2026-01-20T23:14:37+00:00,SAT-52575,308.69659128874093,64.4263469513859,744.49449960172,1.4212783168489787,-49779.17865737061,10.5,10499950220.821342,47.655,-122.3035,60.0,14.616666666666667
2026-01-20T23:14:38+00:00,SAT-52575,309.86423567974737,64.19014633169151,745.9119878430573,1.4877314993951376,-52106.65020682057,10.5,10499947893.349792,47.655,-122.3035,60.0,14.633333333333333
2026-01-20T23:14:39+00:00,SAT-52575,311.0068865051416,63.945192810800904,747.3957520584543,1.5537878937081522,-54420.224553933236,10.5,10499945579.775446,47.655,-122.3035,60.0,14.65
2026-01-20T23:14:40+00:00,SAT-52575,312.1243950080637,63.691898470905606,748.945396517779,1.6194332402524172,-56719.40226945396,10.5,10499943280.59773,47.655,-122.3035,60.0,14.666666666666666
2026-01-20T23:14:41+00:00,SAT-52575,313.21669813910665,63.43067295741317,750.5605112693909,1.6846537666914918,-59003.70098790365,10.5,10499940996.299011,47.655,-122.3035,60.0,14.683333333333334
2026-01-20T23:14:42+00:00,SAT-52575,314.28381166840484,63.161922043488254,752.2406726260378,1.7494362329931112,-61272.65698734712,10.5,10499938727.343012,47.655,-122.3035,60.0,14.7
2026-01-20T23:14:43+00:00,SAT-52575,315.325823288563,62.886046345722484,753.985443695743,1.8137679044251833,-63525.82424359863,10.5,10499936474.175756,47.655,-122.3035,60.0,14.716666666666667
2026-01-20T23:14:44+00:00,SAT-52575,316.3428857622731,62.60344019817539,755.7943748857563,1.8776365866514133,-65762.77565941916,10.5,10499934237.22434,47.655,-122.3035,60.0,14.733333333333333
2026-01-20T23:14:45+00:00,SAT-52575,317.3352102415062,62.31449066863106,757.6670044415099,1.941030617651244,-67983.10278151848,10.5,10499932016.897219,47.655,-122.3035,60.0,14.75
2026-01-20T23:14:46+00:00,SAT-52575,318.30305980124825,62.01957671639053,759.6028589775142,2.0039388739822677,-70186.41601989137,10.5,10499929813.58398,47.655,-122.3035,60.0,14.766666666666667
2026-01-20T23:14:47+00:00,SAT-52575,319.2467432531549,61.71906848066427,761.6014540144992,2.0663507742445066,-72372.34476915133,10.5,10499927627.655231,47.655,-122.3035,60.0,14.783333333333333
2026-01-20T23:14:48+00:00,SAT-52575,320.16660927951204,61.413326690756804,763.6622945200123,2.12825627961023,-74540.53742708704,10.5,10499925459.462572,47.655,-122.3035,60.0,14.8
2026-01-20T23:14:49+00:00,SAT-52575,321.0630409162752,61.102702188789664,765.7848754495436,2.189645893290199,-76690.66137596793,10.5,10499923309.338625,47.655,-122.3035,60.0,14.816666666666666
2026-01-20T23:14:50+00:00,SAT-52575,321.9364504041599,60.78753555533017,767.9686822871184,2.2505106718526076,-78822.40337898153,10.5,10499921177.59662,47.655,-122.3035,60.0,14.833333333333334
2026-01-20T23:14:51+00:00,SAT-52575,322.7872744224278,60.46815682653072,770.2131915971794,2.310842186994412,-80935.46824130353,10.5,10499919064.53176,47.655,-122.3035,60.0,14.85
2026-01-20T23:14:52+00:00,SAT-52575,323.6159696888518,60.14488530030693,772.5178715383419,2.370632577435398,-83029.58062764767,10.5,10499916970.419373,47.655,-122.3035,60.0,14.866666666666667
2026-01-20T23:14:53+00:00,SAT-52575,324.42300895649896,59.81802940964241,774.882182428904,2.4298745032618734,-85104.48346318863,10.5,10499914895.516537,47.655,-122.3035,60.0,14.883333333333333
2026-01-20T23:14:54+00:00,SAT-52575,325.2088773605922,59.48788666823241,777.3055772668239,2.4885611427553824,-87159.93782249022,10.5,10499912840.062178,47.655,-122.3035,60.0,14.9
2026-01-20T23:14:55+00:00,SAT-52575,325.9740691202784,59.15474367410261,779.7875022465319,2.5466862131401364,-89195.72365616827,10.5,10499910804.276344,47.655,-122.3035,60.0,14.916666666666666
2026-01-20T23:14:56+00:00,SAT-52575,326.7190845856835,58.81887616053073,782.3273972964371,2.6042439436699847,-91211.6388482823,10.5,10499908788.361153,47.655,-122.3035,60.0,14.933333333333334
2026-01-20T23:14:57+00:00,SAT-52575,327.4444275963602,58.480549093758626,784.9246965895906,2.661229073167362,-93207.49913013923,10.5,10499906792.50087,47.655,-122.3035,60.0,14.95
2026-01-20T23:14:58+00:00,SAT-52575,328.1506031400388,58.14001680770293,787.5788290518962,2.7176368243537397,-95183.1371812371,10.5,10499904816.86282,47.655,-122.3035,60.0,14.966666666666667
2026-01-20T23:14:59+00:00,SAT-52575,328.8381152851358,57.79752317279295,790.2892188447183,2.773462943078095,-97138.40400321211,10.5,10499902861.595997,47.655,-122.3035,60.0,14.983333333333333
