satellites_20260121_005943/SAT-64117.csv

timestamp,satellite,azimuth_deg,elevation_deg,distance_km,relative_velocity_kms,doppler_shift_hz,tx_freq_ghz,rx_freq_hz,ue_lat,ue_lon,ue_alt_m,time_minutes
2026-01-20T23:06:51+00:00,SAT-64117,211.1944919532493,30.100791890315964,1495.7023789055236,-5.978092788510178,209378.09676104953,10.5,10500209378.096762,47.655,-122.3035,60.0,6.85
2026-01-20T23:06:52+00:00,SAT-64117,211.21868570504495,30.262955324488036,1489.740227697783,-5.969398444192401,209073.58404600096,10.5,10500209073.584045,47.655,-122.3035,60.0,6.866666666666666
2026-01-20T23:06:53+00:00,SAT-64117,211.24338482200625,30.42619385785223,1483.7867476494416,-5.9605921575728305,208765.15063802814,10.5,10500208765.150639,47.655,-122.3035,60.0,6.883333333333334
2026-01-20T23:06:54+00:00,SAT-64117,211.26859794111164,30.590518503761693,1477.842050404289,-5.951672308885188,208452.73980606432,10.5,10500208452.739805,47.655,-122.3035,60.0,6.9
2026-01-20T23:06:55+00:00,SAT-64117,211.29433389644024,30.755940390806806,1471.9062492215608,-5.942637262538747,208136.29426480384,10.5,10500208136.294266,47.655,-122.3035,60.0,6.916666666666667
2026-01-20T23:06:56+00:00,SAT-64117,211.32060172483895,30.922470763636948,1465.9794589917221,-5.933485356347397,207815.75579745797,10.5,10500207815.755798,47.655,-122.3035,60.0,6.933333333333334
2026-01-20T23:06:57+00:00,SAT-64117,211.34741067172564,31.090120983468736,1460.061796262992,-5.924214881823659,207491.06456556826,10.5,10500207491.064566,47.655,-122.3035,60.0,6.95
2026-01-20T23:06:58+00:00,SAT-64117,211.37477019699665,31.25890252800074,1454.1533792875196,-5.9148241431337105,207162.161173861,10.5,10500207162.161175,47.655,-122.3035,60.0,6.966666666666667
2026-01-20T23:06:59+00:00,SAT-64117,211.4026899814262,31.428826992963288,1448.2543280087677,-5.905311361912142,206828.98333645702,10.5,10500206828.983337,47.655,-122.3035,60.0,6.983333333333333
2026-01-20T23:07:00+00:00,SAT-64117,211.431179932828,31.5999060909393,1442.3647641438206,-5.895674792653515,206491.4699183723,10.5,10500206491.46992,47.655,-122.3035,60.0,7.0
2026-01-20T23:07:01+00:00,SAT-64117,211.4602501929956,31.772151653429333,1436.4848111506142,-5.885912610464896,206149.5570041372,10.5,10500206149.557005,47.655,-122.3035,60.0,7.016666666666667
2026-01-20T23:07:02+00:00,SAT-64117,211.48991114434298,31.945575629675066,1430.6145943071103,-5.876022972360226,205803.18004458395,10.5,10500205803.180044,47.655,-122.3035,60.0,7.033333333333333
2026-01-20T23:07:03+00:00,SAT-64117,211.52017341705513,32.120190087175054,1424.754240729343,-5.866004046084506,205452.27486639214,10.5,10500205452.274866,47.655,-122.3035,60.0,7.05
2026-01-20T23:07:04+00:00,SAT-64117,211.55104789670875,32.29600721303665,1418.9038793607149,-5.855853935064729,205096.7750435525,10.5,10500205096.775043,47.655,-122.3035,60.0,7.066666666666666
2026-01-20T23:07:05+00:00,SAT-64117,211.58254573171118,32.473039313075276,1413.0636410361437,-5.845570677674742,204736.6118716195,10.5,10500204736.611872,47.655,-122.3035,60.0,7.083333333333333
2026-01-20T23:07:06+00:00,SAT-64117,211.61467834100236,32.651298810788084,1407.2336585469427,-5.835152376842211,204371.71890709543,10.5,10500204371.718906,47.655,-122.3035,60.0,7.1
2026-01-20T23:07:07+00:00,SAT-64117,211.64745742282216,32.83079825019439,1401.4140665764387,-5.824597009949527,204002.02530935596,10.5,10500204002.025309,47.655,-122.3035,60.0,7.116666666666666
2026-01-20T23:07:08+00:00,SAT-64117,211.68089496263156,33.01155029288184,1395.6050018251824,-5.813902602783205,203627.4619330939,10.5,10500203627.461933,47.655,-122.3035,60.0,7.133333333333334
2026-01-20T23:07:09+00:00,SAT-64117,211.7150032424192,33.193567720270735,1389.8066029626734,-5.803067055053647,203247.95521728334,10.5,10500203247.955217,47.655,-122.3035,60.0,7.15
2026-01-20T23:07:10+00:00,SAT-64117,211.74979484922935,33.376863430445844,1384.0190107530998,-5.79208833403882,202863.43396740023,10.5,10500202863.433968,47.655,-122.3035,60.0,7.166666666666667
2026-01-20T23:07:11+00:00,SAT-64117,211.78528268525747,33.56145044091124,1378.2423679879516,-5.7809643145237395,202473.82374942623,10.5,10500202473.82375,47.655,-122.3035,60.0,7.183333333333334
2026-01-20T23:07:12+00:00,SAT-64117,211.82147997729112,33.747341886309755,1372.4768195782667,-5.7696928439532345,202079.04917177392,10.5,10500202079.049171,47.655,-122.3035,60.0,7.2
2026-01-20T23:07:13+00:00,SAT-64117,211.85840028692476,33.93455101806061,1366.7225125818975,-5.758271766098722,201679.03471419745,10.5,10500201679.034714,47.655,-122.3035,60.0,7.216666666666667
2026-01-20T23:07:14+00:00,SAT-64117,211.89605752131422,34.12309120469967,1360.9795962071748,-5.746698850825786,201273.7022679562,10.5,10500201273.702269,47.655,-122.3035,60.0,7.233333333333333
2026-01-20T23:07:15+00:00,SAT-64117,211.9344659438887,34.312975929866674,1355.248221886618,-5.73497188866779,200862.97444818242,10.5,10500200862.974447,47.655,-122.3035,60.0,7.25
2026-01-20T23:07:16+00:00,SAT-64117,211.9736401860965,34.50421879326637,1349.52854325632,-5.723088547521616,200446.76957476017,10.5,10500200446.769575,47.655,-122.3035,60.0,7.266666666666667
2026-01-20T23:07:17+00:00,SAT-64117,212.01359525860406,34.69683350681553,1343.8207162782585,-5.711046562405492,200025.00831844695,10.5,10500200025.008318,47.655,-122.3035,60.0,7.283333333333333
2026-01-20T23:07:18+00:00,SAT-64117,212.05434656429196,34.890833896958405,1338.1248991733526,-5.69884354586329,199597.60706043025,10.5,10500199597.60706,47.655,-122.3035,60.0,7.3
2026-01-20T23:07:19+00:00,SAT-64117,212.09590991036927,35.08623390056213,1332.4412525436117,-5.686477156870347,199164.48380812386,10.5,10500199164.483809,47.655,-122.3035,60.0,7.316666666666666
2026-01-20T23:07:20+00:00,SAT-64117,212.13830152222954,35.28304756636707,1326.7699393258265,-5.673944936352715,198725.5524343561,10.5,10500198725.552435,47.655,-122.3035,60.0,7.333333333333333
2026-01-20T23:07:21+00:00,SAT-64117,212.18153805657698,35.48128905072682,1321.111124909304,-5.66124443131602,198280.72702488804,10.5,10500198280.727024,47.655,-122.3035,60.0,7.35
2026-01-20T23:07:22+00:00,SAT-64117,212.22563661605486,35.68097261743007,1315.4649771298048,-5.648373172675402,197829.92110192354,10.5,10500197829.921103,47.655,-122.3035,60.0,7.366666666666666
2026-01-20T23:07:23+00:00,SAT-64117,212.2706147642892,35.88211263666705,1309.8316662855898,-5.635328628037315,197373.0459703286,10.5,10500197373.04597,47.655,-122.3035,60.0,7.383333333333334
2026-01-20T23:07:24+00:00,SAT-64117,212.31649054113876,36.08472358220367,1304.2113652005605,-5.622108181358288,196910.0100051951,10.5,10500196910.010006,47.655,-122.3035,60.0,7.4
2026-01-20T23:07:25+00:00,SAT-64117,212.36328247837207,36.28882002759144,1298.604249307686,-5.6087092822291496,196440.72388040554,10.5,10500196440.72388,47.655,-122.3035,60.0,7.416666666666667
2026-01-20T23:07:26+00:00,SAT-64117,212.4110096172839,36.494416647597575,1293.0104965835428,-5.5951292526757825,195965.09380197857,10.5,10500195965.093801,47.655,-122.3035,60.0,7.433333333333334
2026-01-20T23:07:27+00:00,SAT-64117,212.4596915253354,36.70152821251424,1287.4302876755407,-5.581365417264156,195483.0260648973,10.5,10500195483.026066,47.655,-122.3035,60.0,7.45
2026-01-20T23:07:28+00:00,SAT-64117,212.50934831462578,36.91016958696651,1281.8638058993893,-5.567415058530209,194994.42549207553,10.5,10500194994.425491,47.655,-122.3035,60.0,7.466666666666667
2026-01-20T23:07:29+00:00,SAT-64117,212.56000066073275,37.12035572691744,1276.311237281015,-5.553275398964223,194499.19480337406,10.5,10500194499.194803,47.655,-122.3035,60.0,7.483333333333333
2026-01-20T23:07:30+00:00,SAT-64117,212.61166982216014,37.332101675785886,1270.7727706164483,-5.538943660708348,193997.23670646062,10.5,10500193997.236706,47.655,-122.3035,60.0,7.5
2026-01-20T23:07:31+00:00,SAT-64117,212.66437766118074,37.54542256258768,1265.2485974721685,-5.524416982239312,193488.45097868599,10.5,10500193488.45098,47.655,-122.3035,60.0,7.516666666666667
2026-01-20T23:07:32+00:00,SAT-64117,212.71814666471866,37.760333596704506,1259.7389122685483,-5.509692482101461,192972.7366992846,10.5,10500192972.7367,47.655,-122.3035,60.0,7.533333333333333
2026-01-20T23:07:33+00:00,SAT-64117,212.77299996677075,37.976850064807174,1254.2439122997325,-5.494767236860441,192449.9914772193,10.5,10500192449.991478,47.655,-122.3035,60.0,7.55
2026-01-20T23:07:34+00:00,SAT-64117,212.82896137153838,38.19498732670479,1248.7637977755037,-5.479638302217447,191920.11219069158,10.5,10500191920.11219,47.655,-122.3035,60.0,7.566666666666666
2026-01-20T23:07:35+00:00,SAT-64117,212.88605537780796,38.41476081176309,1243.2987718420923,-5.464302654921732,191382.9929526719,10.5,10500191382.992952,47.655,-122.3035,60.0,7.583333333333333
2026-01-20T23:07:36+00:00,SAT-64117,212.944307203713,38.63618601273869,1237.849040660917,-5.448757240137449,190838.526769887,10.5,10500190838.52677,47.655,-122.3035,60.0,7.6
2026-01-20T23:07:37+00:00,SAT-64117,213.0037428131173,38.859278481165504,1232.4148134400866,-5.432998998952835,190286.60650630767,10.5,10500190286.606506,47.655,-122.3035,60.0,7.616666666666666
2026-01-20T23:07:38+00:00,SAT-64117,213.06438894344805,39.084053823588576,1226.9963024384642,-5.417024798922819,189727.1224504574,10.5,10500189727.12245,47.655,-122.3035,60.0,7.633333333333334
2026-01-20T23:07:39+00:00,SAT-64117,213.1262731339712,39.310527694660585,1221.5937230390052,-5.400831437301565,189159.9624286293,10.5,10500189159.96243,47.655,-122.3035,60.0,7.65
2026-01-20T23:07:40+00:00,SAT-64117,213.1894237553207,39.538715789957024,1216.2072938188699,-5.384415744567337,188585.01543076523,10.5,10500188585.01543,47.655,-122.3035,60.0,7.666666666666667
2026-01-20T23:07:41+00:00,SAT-64117,213.25387004161541,39.76863384276691,1210.837236516288,-5.367774443866201,188002.16668757927,10.5,10500188002.166687,47.655,-122.3035,60.0,7.683333333333334
2026-01-20T23:07:42+00:00,SAT-64117,213.31964212227012,40.00029761464247,1205.4837761376052,-5.3509042319498255,187411.30050534217,10.5,10500187411.300505,47.655,-122.3035,60.0,7.7
2026-01-20T23:07:43+00:00,SAT-64117,213.38677105625513,40.23372288889996,1200.1471409836074,-5.333801803054447,186812.30110222352,10.5,10500186812.301102,47.655,-122.3035,60.0,7.716666666666667
2026-01-20T23:07:44+00:00,SAT-64117,213.4552888682281,40.46892546480552,1194.8275626520276,-5.316463747430977,186205.04905438703,10.5,10500186205.049055,47.655,-122.3035,60.0,7.733333333333333
2026-01-20T23:07:45+00:00,SAT-64117,213.52522858497622,40.70592114689662,1189.5252761412567,-5.2988866761848765,185589.42566841093,10.5,10500185589.425669,47.655,-122.3035,60.0,7.75
2026-01-20T23:07:46+00:00,SAT-64117,213.59662427520814,40.9447257393046,1184.2405198295414,-5.281067087064198,184965.30828061752,10.5,10500184965.30828,47.655,-122.3035,60.0,7.766666666666667
2026-01-20T23:07:47+00:00,SAT-64117,213.66951108932574,41.185355033646374,1178.9735355880428,-5.263001512132505,184332.57542920345,10.5,10500184332.57543,47.655,-122.3035,60.0,7.783333333333333
2026-01-20T23:07:48+00:00,SAT-64117,213.74392530314725,41.42782480301426,1173.7245687466093,-5.2446863897356,183691.10236997288,10.5,10500183691.10237,47.655,-122.3035,60.0,7.8
2026-01-20T23:07:49+00:00,SAT-64117,213.8199043618277,41.67215078967693,1168.4938681872463,-5.226118146707346,183040.76395553333,10.5,10500183040.763956,47.655,-122.3035,60.0,7.816666666666666
2026-01-20T23:07:50+00:00,SAT-64117,213.897486927054,41.91834869595255,1163.2816863555968,-5.207293135076741,182381.43241850927,10.5,10500182381.432419,47.655,-122.3035,60.0,7.833333333333333
2026-01-20T23:07:51+00:00,SAT-64117,213.97671292552883,42.166434171552275,1158.088279335547,-5.188207709881695,181712.98009691027,10.5,10500181712.980097,47.655,-122.3035,60.0,7.85
2026-01-20T23:07:52+00:00,SAT-64117,214.057623600965,42.41642280396483,1152.913906846225,-5.168858155443372,181035.27685194605,10.5,10500181035.276852,47.655,-122.3035,60.0,7.866666666666666
2026-01-20T23:07:53+00:00,SAT-64117,214.14026156744376,42.6683301047289,1147.7588323125294,-5.149240729412069,180348.19161069999,10.5,10500180348.19161,47.655,-122.3035,60.0,7.883333333333334
2026-01-20T23:07:54+00:00,SAT-64117,214.2246708660305,42.92217149710326,1142.6233228917292,-5.129351620212835,179651.5908756943,10.5,10500179651.590876,47.655,-122.3035,60.0,7.9
2026-01-20T23:07:55+00:00,SAT-64117,214.31089702345272,43.17796230093793,1137.5076495425035,-5.109187042737277,178945.3420764221,10.5,10500178945.342077,47.655,-122.3035,60.0,7.916666666666667
2026-01-20T23:07:56+00:00,SAT-64117,214.39898711530805,43.43571772153779,1132.412086998547,-5.08874312614211,178229.3096395779,10.5,10500178229.309639,47.655,-122.3035,60.0,7.933333333333334
2026-01-20T23:07:57+00:00,SAT-64117,214.48898983044666,43.695452832219324,1127.3369138540747,-5.06801593639327,177503.35577864785,10.5,10500177503.355778,47.655,-122.3035,60.0,7.95
2026-01-20T23:07:58+00:00,SAT-64117,214.58095553889103,43.95718255704687,1122.2824126268451,-5.047001589302001,176767.34445291152,10.5,10500176767.344454,47.655,-122.3035,60.0,7.966666666666667
2026-01-20T23:07:59+00:00,SAT-64117,214.6749363653189,44.22092165853322,1117.248869708448,-5.025696078716456,176021.13534998533,10.5,10500176021.13535,47.655,-122.3035,60.0,7.983333333333333
2026-01-20T23:08:00+00:00,SAT-64117,214.77098626296373,44.48668471563221,1112.2365754859413,-5.004095394330475,175264.58801198393,10.5,10500175264.588013,47.655,-122.3035,60.0,8.0
2026-01-20T23:08:01+00:00,SAT-64117,214.86916109354183,44.754486106784725,1107.2458243459957,-4.982195525559267,174497.56197126315,10.5,10500174497.561972,47.655,-122.3035,60.0,8.016666666666667
2026-01-20T23:08:02+00:00,SAT-64117,214.9695187113726,45.02433999228965,1102.2769146751712,-4.959992378244601,173719.9138330835,10.5,10500173719.913834,47.655,-122.3035,60.0,8.033333333333333
2026-01-20T23:08:03+00:00,SAT-64117,215.07211905013952,45.29626029116953,1097.3301489432688,-4.937481835792249,172931.49941690196,10.5,10500172931.499416,47.655,-122.3035,60.0,8.05
2026-01-20T23:08:04+00:00,SAT-64117,215.17702421535475,45.5702606601401,1092.4058337257052,-4.914659805184047,172132.17536790896,10.5,10500172132.175367,47.655,-122.3035,60.0,8.066666666666666
2026-01-20T23:08:05+00:00,SAT-64117,215.28429858274612,45.84635447404966,1087.5042796800014,-4.891522097009436,171321.79495522557,10.5,10500171321.794954,47.655,-122.3035,60.0,8.083333333333334
2026-01-20T23:08:06+00:00,SAT-64117,215.39400889911997,46.12455479847647,1082.6258016419176,-4.868064491801234,170500.2103952627,10.5,10500170500.210396,47.655,-122.3035,60.0,8.1
2026-01-20T23:08:07+00:00,SAT-64117,215.50622438999943,46.40487436459465,1077.7707186554276,-4.844282825646651,169667.27585018112,10.5,10500169667.27585,47.655,-122.3035,60.0,8.116666666666667
2026-01-20T23:08:08+00:00,SAT-64117,215.62101687509107,46.68732554770448,1072.9393539173163,-4.8201728362791565,168822.84203737753,10.5,10500168822.842037,47.655,-122.3035,60.0,8.133333333333333
2026-01-20T23:08:09+00:00,SAT-64117,215.73846088628198,46.97192033557094,1068.1320348752672,-4.795730230691659,167966.75859758427,10.5,10500167966.758598,47.655,-122.3035,60.0,8.15
2026-01-20T23:08:10+00:00,SAT-64117,215.85863379354277,47.25867029901807,1063.349093258524,-4.770950761413304,167098.87676640513,10.5,10500167098.876766,47.655,-122.3035,60.0,8.166666666666666
2026-01-20T23:08:11+00:00,SAT-64117,215.9816159397374,47.54758656555891,1058.5908650324745,-4.745830131655845,166219.04605214042,10.5,10500166219.046053,47.655,-122.3035,60.0,8.183333333333334
2026-01-20T23:08:12+00:00,SAT-64117,216.10749078036704,47.838679785846175,1053.8576904478364,-4.720363961338009,165327.11304581616,10.5,10500165327.113047,47.655,-122.3035,60.0,8.2
2026-01-20T23:08:13+00:00,SAT-64117,216.23634502999622,48.13196009612925,1049.1499141237286,-4.694547987432842,164422.92843819587,10.5,10500164422.928438,47.655,-122.3035,60.0,8.216666666666667
2026-01-20T23:08:14+00:00,SAT-64117,216.36826882243267,48.427437091246375,1044.467884930929,-4.668377827389248,163506.338733802,10.5,10500163506.338734,47.655,-122.3035,60.0,8.233333333333333
2026-01-20T23:08:15+00:00,SAT-64117,216.5033558732017,48.72511978117693,1039.8119561110793,-4.641849112250632,162577.19091329383,10.5,10500162577.190914,47.655,-122.3035,60.0,8.25
2026-01-20T23:08:16+00:00,SAT-64117,216.64170365492672,49.02501655369464,1035.182485263128,-4.614957507092061,161635.3331492637,10.5,10500161635.333149,47.655,-122.3035,60.0,8.266666666666667
2026-01-20T23:08:17+00:00,SAT-64117,216.78341358339583,49.32713513634931,1030.5798343093882,-4.5876986316352,160680.61202583552,10.5,10500160680.612026,47.655,-122.3035,60.0,8.283333333333333
2026-01-20T23:08:18+00:00,SAT-64117,216.92859121178856,49.631482551128464,1026.0043695407708,-4.560068113403521,159712.8744003859,10.5,10500159712.874401,47.655,-122.3035,60.0,8.3
2026-01-20T23:08:19+00:00,SAT-64117,217.07734643774384,49.938065070132595,1021.4564616090029,-4.532061592817843,158731.96758201087,10.5,10500158731.967583,47.655,-122.3035,60.0,8.316666666666666
2026-01-20T23:08:20+00:00,SAT-64117,217.22979372259798,50.246888169153245,1016.936485513766,-4.503674703612723,157737.73864562524,10.5,10500157737.738646,47.655,-122.3035,60.0,8.333333333333334
2026-01-20T23:08:21+00:00,SAT-64117,217.3860523227879,50.55795647731726,1012.4448206093628,-4.474903084268846,156730.03483237355,10.5,10500156730.034832,47.655,-122.3035,60.0,8.35
2026-01-20T23:08:22+00:00,SAT-64117,217.54624653517487,50.87127372469469,1007.9818505999854,-4.445742400873661,155708.7043503057,10.5,10500155708.70435,47.655,-122.3035,60.0,8.366666666666667
2026-01-20T23:08:23+00:00,SAT-64117,217.7105059577492,51.1868426885746,1003.5479635121807,-4.4161883450187265,154673.59630073357,10.5,10500154673.5963,47.655,-122.3035,60.0,8.383333333333333
2026-01-20T23:08:24+00:00,SAT-64117,217.87896576582816,51.50466513657258,999.1435516694153,-4.386236572222293,153624.55852152916,10.5,10500153624.558521,47.655,-122.3035,60.0,8.4
2026-01-20T23:08:25+00:00,SAT-64117,218.051767002332,51.824741761991255,994.7690117280524,-4.355882821115603,152561.44176153303,10.5,10500152561.441761,47.655,-122.3035,60.0,8.416666666666666
2026-01-20T23:08:26+00:00,SAT-64117,218.2290568902745,52.14707212423792,990.4247445944598,-4.325122835696951,151484.09695756252,10.5,10500151484.096958,47.655,-122.3035,60.0,8.433333333333334
2026-01-20T23:08:27+00:00,SAT-64117,218.4109891611688,52.471654580042575,986.111155419658,-4.29395238389467,150392.37588456622,10.5,10500150392.375885,47.655,-122.3035,60.0,8.45
2026-01-20T23:08:28+00:00,SAT-64117,218.59772440414773,52.79848621205461,981.8286535754537,-4.262367282166106,149286.13201718408,10.5,10500149286.132017,47.655,-122.3035,60.0,8.466666666666667
2026-01-20T23:08:29+00:00,SAT-64117,218.78943043765506,53.12756275514599,977.57765260604,-4.230363387313378,148165.22024310057,10.5,10500148165.220243,47.655,-122.3035,60.0,8.483333333333333
2026-01-20T23:08:30+00:00,SAT-64117,218.98628270373254,53.45887851774145,973.3585701877595,-4.197936598773802,147029.49694326508,10.5,10500147029.496943,47.655,-122.3035,60.0,8.5
2026-01-20T23:08:31+00:00,SAT-64117,219.18846468694414,53.79242629864569,969.1718280865823,-4.165082852856411,145878.8197900306,10.5,10500145878.81979,47.655,-122.3035,60.0,8.516666666666667
2026-01-20T23:08:32+00:00,SAT-64117,219.3961683591158,54.12819729839813,965.0178521213336,-4.131798171565245,144713.0494571517,10.5,10500144713.049458,47.655,-122.3035,60.0,8.533333333333333
2026-01-20T23:08:33+00:00,SAT-64117,219.60959465452277,54.46618102925062,960.8970720782258,-4.098078619742187,143532.0481187454,10.5,10500143532.048119,47.655,-122.3035,60.0,8.55
2026-01-20T23:08:34+00:00,SAT-64117,219.82895397291236,54.80636521612623,956.8099216681363,-4.063920341341401,142335.68071977553,10.5,10500142335.68072,47.655,-122.3035,60.0,8.566666666666666
2026-01-20T23:08:35+00:00,SAT-64117,220.05446671637242,55.14873569449976,952.7568384477051,-4.0293195321126545,141123.8140193069,10.5,10500141123.81402,47.655,-122.3035,60.0,8.583333333333334
2026-01-20T23:08:36+00:00,SAT-64117,220.2863638588529,55.49327629959406,948.7382637676782,-3.994272484987751,139896.31818013042,10.5,10500139896.31818,47.655,-122.3035,60.0,8.6
2026-01-20T23:08:37+00:00,SAT-64117,220.52488755477347,55.83996875252354,944.7546426759837,-3.9587755846842523,138653.0665797625,10.5,10500138653.06658,47.655,-122.3035,60.0,8.616666666666667
2026-01-20T23:08:38+00:00,SAT-64117,220.7702917864946,56.18879253877011,940.8064238261919,-3.9228252976860625,137393.93545952265,10.5,10500137393.93546,47.655,-122.3035,60.0,8.633333333333333
2026-01-20T23:08:39+00:00,SAT-64117,221.02284305296334,56.53972477796975,936.8940593959663,-3.8864181655206815,136118.80368907464,10.5,10500136118.80369,47.655,-122.3035,60.0,8.65
2026-01-20T23:08:40+00:00,SAT-64117,221.28282110225578,56.89274008460893,933.0180050122203,-3.849550885122867,134827.5555811017,10.5,10500134827.555582,47.655,-122.3035,60.0,8.666666666666666
2026-01-20T23:08:41+00:00,SAT-64117,221.55051971713215,57.24781042700964,929.1787195961244,-3.8122202311343023,133520.07816991236,10.5,10500133520.07817,47.655,-122.3035,60.0,8.683333333333334
2026-01-20T23:08:42+00:00,SAT-64117,221.82624754633432,57.60490496975207,925.3766652856067,-3.7744230892452344,132196.26237920555,10.5,10500132196.262379,47.655,-122.3035,60.0,8.7
2026-01-20T23:08:43+00:00,SAT-64117,222.1103289921038,57.96398990865642,921.6123073245993,-3.736156508738423,130856.00486238197,10.5,10500130856.004862,47.655,-122.3035,60.0,8.716666666666667
2026-01-20T23:08:44+00:00,SAT-64117,222.40310515950668,58.32502829968589,917.8861138998842,-3.697417640964689,129499.2058476976,10.5,10500129499.205847,47.655,-122.3035,60.0,8.733333333333333
2026-01-20T23:08:45+00:00,SAT-64117,222.70493486280785,58.68797987014377,914.1985560392953,-3.6582037845801954,128125.77072266457,10.5,10500128125.770723,47.655,-122.3035,60.0,8.75
2026-01-20T23:08:46+00:00,SAT-64117,223.01619570061243,59.05280082126229,910.5501074648074,-3.618512396660573,126735.61042331497,10.5,10500126735.610424,47.655,-122.3035,60.0,8.766666666666667
2026-01-20T23:08:47+00:00,SAT-64117,223.33728520172986,59.41944361813544,906.9412444345379,-3.578341078023667,125328.64092014119,10.5,10500125328.64092,47.655,-122.3035,60.0,8.783333333333333
2026-01-20T23:08:48+00:00,SAT-64117,223.66862204360075,59.787856763287635,903.372445599389,-3.5376876037008653,123904.78428533077,10.5,10500123904.784285,47.655,-122.3035,60.0,8.8
2026-01-20T23:08:49+00:00,SAT-64117,224.0106473517012,60.157984557243374,899.8441918292981,-3.4965499204357684,122463.9686051594,10.5,10500122463.968605,47.655,-122.3035,60.0,8.816666666666666
2026-01-20T23:08:50+00:00,SAT-64117,224.36382608152755,60.529766841553894,896.3569660419835,-3.4549261529318636,121006.1281988107,10.5,10500121006.128199,47.655,-122.3035,60.0,8.833333333333334
2026-01-20T23:08:51+00:00,SAT-64117,224.7286484884468,60.9031387237581,892.9112530254594,-3.4128146028556494,119531.20358346147,10.5,10500119531.203583,47.655,-122.3035,60.0,8.85
2026-01-20T23:08:52+00:00,SAT-64117,225.10563168899606,61.278030281959886,889.5075392615447,-3.370213786894549,118039.14280723088,10.5,10500118039.142807,47.655,-122.3035,60.0,8.866666666666667
2026-01-20T23:08:53+00:00,SAT-64117,225.49532132242643,61.65436625169538,886.1463127114152,-3.3271224432518287,116529.90167665994,10.5,10500116529.901676,47.655,-122.3035,60.0,8.883333333333333
2026-01-20T23:08:54+00:00,SAT-64117,225.89829331381824,62.032065690114266,882.8280625946787,-3.2835394623724348,115003.44133043721,10.5,10500115003.44133,47.655,-122.3035,60.0,8.9
2026-01-20T23:08:55+00:00,SAT-64117,226.31515573277042,62.41104160672639,879.5532792375393,-3.2394640185947807,113459.73285040144,10.5,10500113459.732851,47.655,-122.3035,60.0,8.916666666666666
2026-01-20T23:08:56+00:00,SAT-64117,226.7465507753793,62.79120058144874,876.3224537896607,-3.194895507996233,111898.7550846274,10.5,10500111898.755085,47.655,-122.3035,60.0,8.933333333333334
2026-01-20T23:08:57+00:00,SAT-64117,227.19315684954526,63.17244234605333,873.1360780030192,-3.1498335087548934,110320.49325912789,10.5,10500110320.49326,47.655,-122.3035,60.0,8.95
2026-01-20T23:08:58+00:00,SAT-64117,227.65569076552242,63.55465932844315,869.9946440502877,-3.1042779386584636,108724.94449448047,10.5,10500108724.944494,47.655,-122.3035,60.0,8.966666666666667
2026-01-20T23:08:59+00:00,SAT-64117,228.1349100611046,63.93773618109581,866.8986441861323,-3.0582288954473875,107112.11221396893,10.5,10500107112.112213,47.655,-122.3035,60.0,8.983333333333333
2026-01-20T23:09:00+00:00,SAT-64117,228.63161541458163,64.32154925288576,863.8485705677394,-3.01168677394528,105482.01024598638,10.5,10500105482.010246,47.655,-122.3035,60.0,9.0
2026-01-20T23:09:01+00:00,SAT-64117,229.14665318170535,64.70596603464945,860.8449149585247,-2.9646522325633016,103834.6616508767,10.5,10500103834.661652,47.655,-122.3035,60.0,9.016666666666667
2026-01-20T23:09:02+00:00,SAT-64117,229.68091802834658,65.0908445572671,857.8881684652482,-2.917126213368998,102170.09942383032,10.5,10500102170.099424,47.655,-122.3035,60.0,9.033333333333333
2026-01-20T23:09:03+00:00,SAT-64117,230.2353556570352,65.47603274561101,854.9788212551148,-2.869109953710681,100488.3669020191,10.5,10500100488.366901,47.655,-122.3035,60.0,9.05
2026-01-20T23:09:04+00:00,SAT-64117,230.81096561190728,65.86136772403144,852.1173622612806,-2.8206049747267103,98789.51736214277,10.5,10500098789.517363,47.655,-122.3035,60.0,9.066666666666666
2026-01-20T23:09:05+00:00,SAT-64117,231.40880413752132,66.2466750668455,849.3042788998199,-2.771613103629402,97073.61480090577,10.5,10500097073.614801,47.655,-122.3035,60.0,9.083333333333334
2026-01-20T23:09:06+00:00,SAT-64117,232.0299870710091,66.63176799478227,846.5400567644668,-2.722136486347632,95340.73437781459,10.5,10500095340.734377,47.655,-122.3035,60.0,9.1
2026-01-20T23:09:07+00:00,SAT-64117,232.67569273145375,67.01644651281995,843.8251793087495,-2.6721775745329275,93590.9619600762,10.5,10500093590.96196,47.655,-122.3035,60.0,9.116666666666667
2026-01-20T23:09:08+00:00,SAT-64117,233.34716475495108,67.40049648241916,841.160127541082,-2.6217391658456672,91824.39553359113,10.5,10500091824.395535,47.655,-122.3035,60.0,9.133333333333333
2026-01-20T23:09:09+00:00,SAT-64117,234.0457148307899,67.78368863267002,838.5453796796786,-2.570824357725376,90041.14358379372,10.5,10500090041.143583,47.655,-122.3035,60.0,9.15
2026-01-20T23:09:10+00:00,SAT-64117,234.7727252444048,68.16577749518214,835.9814108535738,-2.519436614743316,88241.3274546247,10.5,10500088241.327456,47.655,-122.3035,60.0,9.166666666666666
2026-01-20T23:09:11+00:00,SAT-64117,235.52965116660056,68.54650027716977,833.4686927364698,-2.467579737535517,86425.08026043445,10.5,10500086425.080261,47.655,-122.3035,60.0,9.183333333333334
2026-01-20T23:09:12+00:00,SAT-64117,236.3180225526416,68.92557565728023,831.0076932115677,-2.415257851359445,84592.54648518935,10.5,10500084592.546486,47.655,-122.3035,60.0,9.2
2026-01-20T23:09:13+00:00,SAT-64117,237.13944551783428,69.30270250667675,828.5988760478119,-2.362475485039343,82743.88474747121,10.5,10500082743.884747,47.655,-122.3035,60.0,9.216666666666667
2026-01-20T23:09:14+00:00,SAT-64117,237.99560305606263,69.67755855125752,826.2427004973994,-2.309237476712419,80879.26449931037,10.5,10500080879.2645,47.655,-122.3035,60.0,9.233333333333333
2026-01-20T23:09:15+00:00,SAT-64117,238.88825484531804,70.04979895185484,823.9396209872914,-2.255549055866197,78998.86889948067,10.5,10500078998.8689,47.655,-122.3035,60.0,9.25
2026-01-20T23:09:16+00:00,SAT-64117,239.81923596312066,70.41905483646629,821.6900867289075,-2.201415804778607,77102.89346296822,10.5,10500077102.893463,47.655,-122.3035,60.0,9.266666666666667
2026-01-20T23:09:17+00:00,SAT-64117,240.79045419097343,70.78493177569727,819.494541366275,-2.1468436902207384,75191.54717133596,10.5,10500075191.54717,47.655,-122.3035,60.0,9.283333333333333
2026-01-20T23:09:18+00:00,SAT-64117,241.80388560768438,71.1470082271724,817.3534225925616,-2.0918390322103426,73265.05137833921,10.5,10500073265.051378,47.655,-122.3035,60.0,9.3
2026-01-20T23:09:19+00:00,SAT-64117,242.8615680664053,71.50483395846592,815.2671617977704,-2.036408538087334,71323.64100339379,10.5,10500071323.641003,47.655,-122.3035,60.0,9.316666666666666
2026-01-20T23:09:20+00:00,SAT-64117,243.96559215278037,71.85792848609718,813.2361836824514,-1.9805592911773118,69367.5641345246,10.5,10500069367.564135,47.655,-122.3035,60.0,9.333333333333334
2026-01-20T23:09:21+00:00,SAT-64117,245.11808911855871,72.20577955762533,811.2609058827171,-1.9242987295901577,67397.08128580291,10.5,10500067397.081285,47.655,-122.3035,60.0,9.35
2026-01-20T23:09:22+00:00,SAT-64117,246.32121524484575,72.54784171900734,809.3417386164059,-1.867634706702253,65412.46751568933,10.5,10500065412.467516,47.655,-122.3035,60.0,9.366666666666667
2026-01-20T23:09:23+00:00,SAT-64117,247.57713210571683,72.88353503683904,807.4790842689215,-1.8105754134551395,63414.00970560429,10.5,10500063414.009706,47.655,-122.3035,60.0,9.383333333333333
2026-01-20T23:09:24+00:00,SAT-64117,248.88798204104097,73.21224401857873,805.6733370565689,-1.7531294312055468,61402.00841095956,10.5,10500061402.008411,47.655,-122.3035,60.0,9.4
2026-01-20T23:09:25+00:00,SAT-64117,250.25585830619679,73.53331683550455,803.92488263718,-1.6953057114417078,59376.77715073784,10.5,10500059376.777151,47.655,-122.3035,60.0,9.416666666666666
2026-01-20T23:09:26+00:00,SAT-64117,251.68276927400598,73.84606493193853,802.2340977409687,-1.6371135814564872,57338.642606189635,10.5,10500057338.642607,47.655,-122.3035,60.0,9.433333333333334
2026-01-20T23:09:27+00:00,SAT-64117,253.1705962051712,74.14976313736518,800.6013497957294,-1.5785627156963653,55287.943617353565,10.5,10500055287.943617,47.655,-122.3035,60.0,9.45
2026-01-20T23:09:28+00:00,SAT-64117,254.721044197773,74.44365040193973,799.0269965806083,-1.5196631676808163,53225.03230100795,10.5,10500053225.0323,47.655,-122.3035,60.0,9.466666666666667
2026-01-20T23:09:29+00:00,SAT-64117,256.3355862352702,74.72693130683518,797.5113858480413,-1.460425338632951,51150.27295198329,10.5,10500051150.272951,47.655,-122.3035,60.0,9.483333333333333
2026-01-20T23:09:30+00:00,SAT-64117,258.01540046299993,74.9987784874567,796.054854976978,-1.4008599831295239,49064.04224104931,10.5,10500049064.04224,47.655,-122.3035,60.0,9.5
2026-01-20T23:09:31+00:00,SAT-64117,259.7613013410325,75.25833613002187,794.6577306204703,-1.3409781922036401,46966.7286231004,10.5,10500046966.728622,47.655,-122.3035,60.0,9.516666666666667
2026-01-20T23:09:32+00:00,SAT-64117,261.5736658096347,75.50472468643287,793.3203283701124,-1.2807914008601853,44858.73260037765,10.5,10500044858.732601,47.655,-122.3035,60.0,9.533333333333333
2026-01-20T23:09:33+00:00,SAT-64117,263.4523563109473,75.73704694492903,792.0429524129878,-1.2203113650128101,42740.46591470458,10.5,10500042740.465914,47.655,-122.3035,60.0,9.55
2026-01-20T23:09:34+00:00,SAT-64117,265.3966431830369,75.95439555329621,790.8258952116151,-1.1595501664350079,40612.3517208948,10.5,10500040612.35172,47.655,-122.3035,60.0,9.566666666666666
2026-01-20T23:09:35+00:00,SAT-64117,267.40512980125993,76.1558620546638,789.6694371789573,-1.0985201884329057,38474.82373471019,10.5,10500038474.823734,47.655,-122.3035,60.0,9.583333333333334
2026-01-20T23:09:36+00:00,SAT-64117,269.4756845118745,76.34054741918304,788.5738463776935,-1.0372341182586715,36328.32631738872,10.5,10500036328.326317,47.655,-122.3035,60.0,9.6
2026-01-20T23:09:37+00:00,SAT-64117,271.60538411634656,76.50757398030655,787.5393782170835,-0.9757049223027845,34173.31360677271,10.5,10500034173.313606,47.655,-122.3035,60.0,9.616666666666667
2026-01-20T23:09:38+00:00,SAT-64117,273.79047395656255,76.65609857412365,786.5662751745735,-0.9139458543485384,32010.249806416585,10.5,10500032010.249807,47.655,-122.3035,60.0,9.633333333333333
2026-01-20T23:09:39+00:00,SAT-64117,276.0263497830742,76.7853265791779,785.6547665091699,-0.8519704164764754,29839.607816294672,10.5,10500029839.607817,47.655,-122.3035,60.0,9.65
2026-01-20T23:09:40+00:00,SAT-64117,278.3075659498802,76.89452642851884,784.8050680138041,-0.7897923679210039,27661.869542997447,10.5,10500027661.869543,47.655,-122.3035,60.0,9.666666666666666
2026-01-20T23:09:41+00:00,SAT-64117,280.6278736672584,76.98304407816407,784.0173817588642,-0.7274257032799678,25477.525136538497,10.5,10500025477.525137,47.655,-122.3035,60.0,9.683333333333334
2026-01-20T23:09:42+00:00,SAT-64117,282.9802912815493,77.05031682465925,783.2918958574596,-0.6648846309840436,23287.07223626172,10.5,10500023287.072237,47.655,-122.3035,60.0,9.7
2026-01-20T23:09:43+00:00,SAT-64117,285.3572065246499,77.0958858285477,782.6287842521582,-0.6021835709768435,21091.01588958871,10.5,10500021091.01589,47.655,-122.3035,60.0,9.716666666666667
2026-01-20T23:09:44+00:00,SAT-64117,287.75050836002544,77.11940670860861,782.0282065040373,-0.5393371280380793,18889.86761768314,10.5,10500018889.867619,47.655,-122.3035,60.0,9.733333333333333
2026-01-20T23:09:45+00:00,SAT-64117,290.1517434538486,77.12065762940541,781.4903076083407,-0.4763600804774507,16684.145019462874,10.5,10500016684.14502,47.655,-122.3035,60.0,9.75
2026-01-20T23:09:46+00:00,SAT-64117,292.552290229354,77.09954442523647,781.015217821411,-0.413267363403924,14474.371185619359,10.5,10500014474.371185,47.655,-122.3035,60.0,9.766666666666667
2026-01-20T23:09:47+00:00,SAT-64117,294.94354174547095,77.05610246414116,780.6030525043095,-0.3500740502797681,12261.07405256194,10.5,10500012261.074053,47.655,-122.3035,60.0,9.783333333333333
2026-01-20T23:09:48+00:00,SAT-64117,297.31708779972473,76.9904951502402,780.2539119848307,-0.2867953349983119,10044.785774705097,10.5,10500010044.785774,47.655,-122.3035,60.0,9.8
2026-01-20T23:09:49+00:00,SAT-64117,299.6648867340645,76.9030091673137,779.9678814373923,-0.22344651473076432,7826.042123691535,10.5,10500007826.042124,47.655,-122.3035,60.0,9.816666666666666
2026-01-20T23:09:50+00:00,SAT-64117,301.97941842343505,76.79404675880821,779.7450307800341,-0.16004297203395645,5605.381861729633,10.5,10500005605.381863,47.655,-122.3035,60.0,9.833333333333334
2026-01-20T23:09:51+00:00,SAT-64117,304.2538116703751,76.66411550047764,779.5854145892589,-0.09660015538120452,3383.3460597019002,10.5,10500003383.34606,47.655,-122.3035,60.0,9.85
2026-01-20T23:09:52+00:00,SAT-64117,306.48194148710445,76.51381613660212,779.489072034292,-0.033133561068415515,1160.4774634402675,10.5,10500001160.477463,47.655,-122.3035,60.0,9.866666666666667
2026-01-20T23:09:53+00:00,SAT-64117,308.65849422349845,76.34382911009914,779.4560268293865,0.030341286137015627,-1062.6801840313944,10.5,10499998937.319817,47.655,-122.3035,60.0,9.883333333333333
2026-01-20T23:09:54+00:00,SAT-64117,310.7790008486986,76.1549004226475,779.4862872054272,0.09380885032675436,-3285.5827494863825,10.5,10499996714.41725,47.655,-122.3035,60.0,9.9
2026-01-20T23:09:55+00:00,SAT-64117,312.8398406902682,75.94782742064668,779.5798458988197,0.15725360625301107,-5507.6864730753705,10.5,10499994492.313526,47.655,-122.3035,60.0,9.916666666666666
2026-01-20T23:09:56+00:00,SAT-64117,314.838219529963,75.72344501500797,779.7366801621228,0.22066005561584115,-7728.448538776556,10.5,10499992271.551462,47.655,-122.3035,60.0,9.933333333333334
2026-01-20T23:09:57+00:00,SAT-64117,316.77212668277866,75.48261276119875,779.9567517909235,0.2840127451515758,-9947.327707929016,10.5,10499990052.672293,47.655,-122.3035,60.0,9.95
2026-01-20T23:09:58+00:00,SAT-64117,318.64027630403973,75.22620309401789,780.2400071687547,0.34729628975936294,-12163.785129222,10.5,10499987836.21487,47.655,-122.3035,60.0,9.966666666666667
2026-01-20T23:09:59+00:00,SAT-64117,320.44203797098174,74.955090910909,780.5863773350748,0.4104953872747343,-14377.284856127735,10.5,10499985622.715143,47.655,-122.3035,60.0,9.983333333333333
2026-01-20T23:10:00+00:00,SAT-64117,322.1773611127705,74.67014460735001,780.9957780679835,0.47359483569203026,-16587.294450103604,10.5,10499983412.70555,47.655,-122.3035,60.0,10.0
2026-01-20T23:10:01+00:00,SAT-64117,323.8466973019858,74.37221857387365,781.4681099841137,0.5365795551367727,-18793.285750157575,10.5,10499981206.71425,47.655,-122.3035,60.0,10.016666666666667
2026-01-20T23:10:02+00:00,SAT-64117,325.4509236274653,74.06214710154947,782.0032586604367,0.5994346032180957,-20994.735410555273,10.5,10499979005.26459,47.655,-122.3035,60.0,10.033333333333333
2026-01-20T23:10:03+00:00,SAT-64117,326.9912695538342,73.74073960288058,782.6010947713795,0.6621451904912043,-23191.125442380697,10.5,10499976808.874557,47.655,-122.3035,60.0,10.05
2026-01-20T23:10:04+00:00,SAT-64117,328.46924897865614,73.40877702027697,783.2614742413627,0.7246967035690499,-25381.94402300482,10.5,10499974618.055977,47.655,-122.3035,60.0,10.066666666666666
2026-01-20T23:10:05+00:00,SAT-64117,329.8865985698776,73.06700927516538,783.984238420389,0.7870747121859493,-27566.68574348347,10.5,10499972433.314257,47.655,-122.3035,60.0,10.083333333333334
2026-01-20T23:10:06+00:00,SAT-64117,331.24522288605084,72.71615361802264,784.7692142666757,0.8492649903568075,-29744.85234964276,10.5,10499970255.14765,47.655,-122.3035,60.0,10.1
2026-01-20T23:10:07+00:00,SAT-64117,332.5471464414798,72.35689372770831,785.6162145503916,0.9112535384409695,-31915.953514848527,10.5,10499968084.046486,47.655,-122.3035,60.0,10.116666666666667
2026-01-20T23:10:08+00:00,SAT-64117,333.7944725320192,71.98987942560615,786.5250380793967,0.9730265816835035,-34079.50678891591,10.5,10499965920.493212,47.655,-122.3035,60.0,10.133333333333333
2026-01-20T23:10:09+00:00,SAT-64117,334.9893484043372,71.61572689107963,787.4954699235291,1.0345705961480036,-36235.03850638577,10.5,10499963764.961494,47.655,-122.3035,60.0,10.15
2026-01-20T23:10:10+00:00,SAT-64117,336.1339362924844,71.2350192586438,788.527281664754,1.095872323764723,-38382.084313574,10.5,10499961617.915686,47.655,-122.3035,60.0,10.166666666666666
2026-01-20T23:10:11+00:00,SAT-64117,337.23038971341924,70.84830750805465,789.6202316623221,1.156918776579291,-40520.18931737955,10.5,10499959479.810682,47.655,-122.3035,60.0,10.183333333333334
2026-01-20T23:10:12+00:00,SAT-64117,338.2808343992059,70.45611157179432,790.7740653221638,1.2176972502561134,-42648.908558230614,10.5,10499957351.091442,47.655,-122.3035,60.0,10.2
2026-01-20T23:10:13+00:00,SAT-64117,339.28735327453734,70.0589215902844,791.9885153797525,1.2781953411426115,-44767.80760774649,10.5,10499955232.192392,47.655,-122.3035,60.0,10.216666666666667
2026-01-20T23:10:14+00:00,SAT-64117,340.2519749070257,69.65719926022183,793.2633021999854,1.3384009590964367,-46876.46301800089,10.5,10499953123.536982,47.655,-122.3035,60.0,10.233333333333333
2026-01-20T23:10:15+00:00,SAT-64117,341.1766648966312,69.25137923424771,794.5981340898576,1.398302325150836,-48974.462239753135,10.5,10499951025.53776,47.655,-122.3035,60.0,10.25
2026-01-20T23:10:16+00:00,SAT-64117,342.0633197168951,68.84187054250717,795.992707608808,1.4578879877639608,-51061.404191567715,10.5,10499948938.595808,47.655,-122.3035,60.0,10.266666666666667
2026-01-20T23:10:17+00:00,SAT-64117,342.9137626003552,68.42905800355494,797.4467078952714,1.517146822615708,-53136.8992526988,10.5,10499946863.100748,47.655,-122.3035,60.0,10.283333333333333
2026-01-20T23:10:18+00:00,SAT-64117,343.72974108687436,68.01330360973749,798.9598089930267,1.576068079863773,-55200.57091819707,10.5,10499944799.429081,47.655,-122.3035,60.0,10.3
2026-01-20T23:10:19+00:00,SAT-64117,344.51292594075085,67.59494785969157,800.5316742246775,1.6346413159544024,-57252.05341063392,10.5,10499942747.946589,47.655,-122.3035,60.0,10.316666666666666
2026-01-20T23:10:20+00:00,SAT-64117,345.2649111046257,67.17431105854143,802.1619564971228,1.692856476010795,-59290.99456569167,10.5,10499940709.005434,47.655,-122.3035,60.0,10.333333333333334
2026-01-20T23:10:21+00:00,SAT-64117,345.98721453929386,66.7516945384864,803.8502986891975,1.7507038438301177,-61317.05408084761,10.5,10499938682.945919,47.655,-122.3035,60.0,10.35
2026-01-20T23:10:22+00:00,SAT-64117,346.6812796896429,66.3273818307118,805.596333989444,1.8081740884421535,-63329.905146054785,10.5,10499936670.094854,47.655,-122.3035,60.0,10.366666666666667
2026-01-20T23:10:23+00:00,SAT-64117,347.3484774626699,65.90163976166697,807.399686280317,1.8652582380918836,-65329.23353250193,10.5,10499934670.766468,47.655,-122.3035,60.0,10.383333333333333
2026-01-20T23:10:24+00:00,SAT-64117,347.99010855427906,65.47471949143033,809.2599704964407,1.9219476721751785,-67314.73731016734,10.5,10499932685.26269,47.655,-122.3035,60.0,10.4
2026-01-20T23:10:25+00:00,SAT-64117,348.6074060284287,65.04685748958475,811.1767929748233,1.9782341898242024,-69286.12924996974,10.5,10499930713.87075,47.655,-122.3035,60.0,10.416666666666666
2026-01-20T23:10:26+00:00,SAT-64117,349.2015380844883,64.6182764338262,813.1497518734747,2.034109931439677,-71243.13407549635,10.5,10499928756.865925,47.655,-122.3035,60.0,10.433333333333334
2026-01-20T23:10:27+00:00,SAT-64117,349.77361089506525,64.18918606619046,815.1784375117638,2.08956740689441,-73185.48945080968,10.5,10499926814.51055,47.655,-122.3035,60.0,10.45
2026-01-20T23:10:28+00:00,SAT-64117,350.32467149620015,63.75978398524376,817.2624327389066,2.1445995260854382,-75112.94705051287,10.5,10499924887.05295,47.655,-122.3035,60.0,10.466666666666667
2026-01-20T23:10:29+00:00,SAT-64117,350.8557106832856,63.33025637774438,819.4013133329224,2.1991995740091475,-77025.27168677488,10.5,10499922974.728313,47.655,-122.3035,60.0,10.483333333333333
2026-01-20T23:10:30+00:00,SAT-64117,351.36766586371266,62.90077870449615,821.5946483747342,2.2533611888135487,-78922.24054062848,10.5,10499921077.759459,47.655,-122.3035,60.0,10.5
2026-01-20T23:10:31+00:00,SAT-64117,351.86142384429036,62.47151634198482,823.8420006003776,2.307078383731646,-80803.64393016946,10.5,10499919196.35607,47.655,-122.3035,60.0,10.516666666666667
2026-01-20T23:10:32+00:00,SAT-64117,352.337823544793,62.04262517440857,826.1429267750859,2.360345569263706,-82669.2860874736,10.5,10499917330.713913,47.655,-122.3035,60.0,10.533333333333333
2026-01-20T23:10:33+00:00,SAT-64117,352.79765862197553,61.614252139775765,828.4969780894984,2.413157491440752,-84518.98299632306,10.5,10499915481.017004,47.655,-122.3035,60.0,10.55
2026-01-20T23:10:34+00:00,SAT-64117,353.24167997833484,61.186535748213196,830.9037004942952,2.4655092724104852,-86352.56381369705,10.5,10499913647.436186,47.655,-122.3035,60.0,10.566666666666666
2026-01-20T23:10:35+00:00,SAT-64117,353.67059817123584,60.75960655621919,833.3626350753126,2.5173963856359083,-88169.87000112269,10.5,10499911830.13,47.655,-122.3035,60.0,10.583333333333334
2026-01-20T23:10:36+00:00,SAT-64117,354.0850857055981,60.3335876116549,835.8733184039202,2.5688146796145763,-89970.75615542353,10.5,10499910029.243845,47.655,-122.3035,60.0,10.6
2026-01-20T23:10:37+00:00,SAT-64117,354.4857792180596,59.90859486338246,838.4352829110558,2.6197603247954224,-91755.08814952221,10.5,10499908244.91185,47.655,-122.3035,60.0,10.616666666666667
2026-01-20T23:10:38+00:00,SAT-64117,354.8732815405252,59.48473755085484,841.0480572083184,2.6702298523862953,-93522.74449164461,10.5,10499906477.255508,47.655,-122.3035,60.0,10.633333333333333
2026-01-20T23:10:39+00:00,SAT-64117,355.2481636601604,59.06211856030463,843.711166447765,2.720220132423761,-95273.61555723158,10.5,10499904726.384443,47.655,-122.3035,60.0,10.65
2026-01-20T23:10:40+00:00,SAT-64117,355.61096656848366,58.640834759864035,846.4241326598357,2.7697283524560894,-97007.6028423268,10.5,10499902992.397158,47.655,-122.3035,60.0,10.666666666666666
2026-01-20T23:10:41+00:00,SAT-64117,355.96220300406424,58.2209773149128,849.1864750700186,2.818752042021521,-98724.61982090947,10.5,10499901275.380178,47.655,-122.3035,60.0,10.683333333333334
2026-01-20T23:10:42+00:00,SAT-64117,356.3023590987046,57.80263197845564,851.997710439928,2.867289034522009,-100424.59060955128,10.5,10499899575.40939,47.655,-122.3035,60.0,10.7
2026-01-20T23:10:43+00:00,SAT-64117,356.63189592325614,57.38587936759362,854.8573533703579,2.9153374922663806,-102107.4508445339,10.5,10499897892.549156,47.655,-122.3035,60.0,10.716666666666667
2026-01-20T23:10:44+00:00,SAT-64117,356.95125094540356,56.97079521814664,857.7649166293116,2.9628958614255496,-103773.14610419009,10.5,10499896226.853895,47.655,-122.3035,60.0,10.733333333333333
2026-01-20T23:10:45+00:00,SAT-64117,357.2608393958402,56.55745062888545,860.7199114351066,3.009962910440588,-105421.63325411668,10.5,10499894578.366745,47.655,-122.3035,60.0,10.75
2026-01-20T23:10:46+00:00,SAT-64117,357.5610555566387,56.145912284775946,863.7218477777861,3.0565376601411125,-107052.87799962494,10.5,10499892947.122,47.655,-122.3035,60.0,10.766666666666667
2026-01-20T23:10:47+00:00,SAT-64117,357.8522739650058,55.736242675316895,866.7702346708335,3.1026194485655383,-108666.8571560201,10.5,10499891333.142843,47.655,-122.3035,60.0,10.783333333333333
2026-01-20T23:10:48+00:00,SAT-64117,358.13485055047204,55.328500290629,869.8645804675363,3.148207862977665,-110263.55626753454,10.5,10499889736.443733,47.655,-122.3035,60.0,10.8
2026-01-20T23:10:49+00:00,SAT-64117,358.4091236965829,54.92273981420059,873.004393109546,3.193302768484532,-111842.97060964617,10.5,10499888157.02939,47.655,-122.3035,60.0,10.816666666666666
2026-01-20T23:10:50+00:00,SAT-64117,358.6754152406638,54.519012300182574,876.1891804039811,3.2379042727127274,-113405.10395189341,10.5,10499886594.896048,47.655,-122.3035,60.0,10.833333333333334
2026-01-20T23:10:51+00:00,SAT-64117,358.93403140968735,54.11736534437823,879.4184502653,3.282012756374763,-114949.9696284388,10.5,10499885050.03037,47.655,-122.3035,60.0,10.85
2026-01-20T23:10:52+00:00,SAT-64117,359.18526370155814,53.7178432413728,882.6917109876578,3.3256287975407672,-116477.58788574346,10.5,10499883522.412115,47.655,-122.3035,60.0,10.866666666666667
2026-01-20T23:10:53+00:00,SAT-64117,359.42938970700357,53.32048714146502,886.0084714417384,3.3687532534510694,-117987.98874798988,10.5,10499882012.011251,47.655,-122.3035,60.0,10.883333333333333
2026-01-20T23:10:54+00:00,SAT-64117,359.666673887593,52.925335188913735,889.3682413531802,3.4113871758364946,-119481.20905124037,10.5,10499880518.790949,47.655,-122.3035,60.0,10.9
2026-01-20T23:10:55+00:00,SAT-64117,359.8973683003858,52.532422662136355,892.7705314965478,3.453531821428224,-120957.29281153681,10.5,10499879042.707188,47.655,-122.3035,60.0,10.916666666666666
2026-01-20T23:10:56+00:00,SAT-64117,0.12171327974464141,52.14178210471494,896.2148538997857,3.495188694095815,-122416.29270075251,10.5,10499877583.7073,47.655,-122.3035,60.0,10.933333333333334
2026-01-20T23:10:57+00:00,SAT-64117,0.3399380806004113,51.75344344451139,899.7007220906971,3.536359445147701,-123858.26655469385,10.5,10499876141.733446,47.655,-122.3035,60.0,10.95
2026-01-20T23:10:58+00:00,SAT-64117,0.5522614768410751,51.36743411715424,903.2276512439911,3.577045944240301,-125283.27985663724,10.5,10499874716.720144,47.655,-122.3035,60.0,10.966666666666667
2026-01-20T23:10:59+00:00,SAT-64117,0.7588923283095285,50.98377917513141,906.7951583990467,3.6172502428140167,-126691.40445670311,10.5,10499873308.595543,47.655,-122.3035,60.0,10.983333333333333
2026-01-20T23:11:00+00:00,SAT-64117,0.9600301117374954,50.60250139500879,910.4027626412134,3.6569745684002863,-128082.7183724649,10.5,10499871917.281628,47.655,-122.3035,60.0,11.0
2026-01-20T23:11:01+00:00,SAT-64117,1.1558654198537441,50.22362137956226,914.0499852774312,3.6962212696648558,-129457.30386413184,10.5,10499870542.696136,47.655,-122.3035,60.0,11.016666666666667
2026-01-20T23:11:02+00:00,SAT-64117,1.3465804282339457,49.84715766009192,917.7363499570437,3.734992920333387,-130815.25107446354,10.5,10499869184.748926,47.655,-122.3035,60.0,11.033333333333333
2026-01-20T23:11:03+00:00,SAT-64117,1.532349340096393,49.473126783029706,921.4613828962562,3.7732921975866622,-132156.6537696554,10.5,10499867843.34623,47.655,-122.3035,60.0,11.05
2026-01-20T23:11:04+00:00,SAT-64117,1.7133387988427138,49.10154340422998,925.2246129813159,3.8111219316179867,-133481.61107504866,10.5,10499866518.388926,47.655,-122.3035,60.0,11.066666666666666
2026-01-20T23:11:05+00:00,SAT-64117,1.8897082792327822,48.73242037352134,929.0255719211162,3.8484850806103497,-134790.22659872475,10.5,10499865209.773401,47.655,-122.3035,60.0,11.083333333333334
2026-01-20T23:11:06+00:00,SAT-64117,2.061610454754478,48.36576881744881,932.863794374845,3.8853847485402544,-136082.60905507058,10.5,10499863917.390945,47.655,-122.3035,60.0,11.1
2026-01-20T23:11:07+00:00,SAT-64117,2.2291915446533515,48.00159821621809,936.7388180973891,3.9218241401438534,-137358.8706875023,10.5,10499862641.129313,47.655,-122.3035,60.0,11.116666666666667
2026-01-20T23:11:08+00:00,SAT-64117,2.3925916391795137,47.6399164810356,940.650184039826,3.9578065741939406,-138619.12773348147,10.5,10499861380.872267,47.655,-122.3035,60.0,11.133333333333333
2026-01-20T23:11:09+00:00,SAT-64117,2.551945007043897,47.280730026345275,944.5974364631553,3.9933354864626143,-139863.5005282803,10.5,10499860136.499472,47.655,-122.3035,60.0,11.15
2026-01-20T23:11:10+00:00,SAT-64117,2.707380385542991,46.92404383837769,948.5801230549874,4.028414393503251,-141092.11223647304,10.5,10499858907.887764,47.655,-122.3035,60.0,11.166666666666666
2026-01-20T23:11:11+00:00,SAT-64117,2.8590212530887684,46.569861543495044,952.5977950101079,4.063046935654282,-142305.0903581102,10.5,10499857694.909641,47.655,-122.3035,60.0,11.183333333333334
2026-01-20T23:11:12+00:00,SAT-64117,3.0069860881262946,46.21818546957856,956.6500071539339,4.097236786982146,-143502.56357453973,10.5,10499856497.436426,47.655,-122.3035,60.0,11.2
2026-01-20T23:11:13+00:00,SAT-64117,3.151388610468346,45.86901671210829,960.7363179761506,4.130987763750248,-144684.66554744882,10.5,10499855315.334452,47.655,-122.3035,60.0,11.216666666666667
2026-01-20T23:11:14+00:00,SAT-64117,3.292338013229389,45.52235518799234,964.8562897725309,4.164303699740966,-145851.5305521133,10.5,10499854148.469448,47.655,-122.3035,60.0,11.233333333333333
2026-01-20T23:11:15+00:00,SAT-64117,3.429939177748122,45.178199697172936,969.0094886624058,4.197188539382982,-147003.2967391105,10.5,10499852996.70326,47.655,-122.3035,60.0,11.25
2026-01-20T23:11:16+00:00,SAT-64117,3.5642928800052185,44.836547973717956,973.1954846990172,4.229646263937698,-148140.10354905535,10.5,10499851859.89645,47.655,-122.3035,60.0,11.266666666666667
2026-01-20T23:11:17+00:00,SAT-64117,3.695495983488599,44.4973967404376,977.413851906251,4.261680919061387,-149262.09267794376,10.5,10499850737.907322,47.655,-122.3035,60.0,11.283333333333333
2026-01-20T23:11:18+00:00,SAT-64117,3.823641622635199,44.16074175874899,981.6641683428616,4.293296593824238,-150369.40734231047,10.5,10499849630.592657,47.655,-122.3035,60.0,11.3
2026-01-20T23:11:19+00:00,SAT-64117,3.9488193758822683,43.82657787781417,985.946016145769,4.32449745035786,-151462.19331761022,10.5,10499848537.806683,47.655,-122.3035,60.0,11.316666666666666
2026-01-20T23:11:20+00:00,SAT-64117,4.071115430389146,43.494899079167304,990.2589816029259,4.355287646892638,-152540.5962426603,10.5,10499847459.403757,47.655,-122.3035,60.0,11.333333333333334
2026-01-20T23:11:21+00:00,SAT-64117,4.190612735998783,43.1656985250086,994.6026551494268,4.385671438826764,-153604.76515950583,10.5,10499846395.23484,47.655,-122.3035,60.0,11.35
2026-01-20T23:11:22+00:00,SAT-64117,4.307391153894484,42.83896859678233,998.9766314644168,4.4156530420040685,-154654.84772483076,10.5,10499845345.152275,47.655,-122.3035,60.0,11.366666666666667
2026-01-20T23:11:23+00:00,SAT-64117,4.421527593936756,42.5147009419454,1003.3805094316422,4.44523677609984,-155690.99523193578,10.5,10499844309.004768,47.655,-122.3035,60.0,11.383333333333333
2026-01-20T23:11:24+00:00,SAT-64117,4.5330961486499355,42.19288650822643,1007.8138922430057,4.474426911174794,-156713.35723640965,10.5,10499843286.642763,47.655,-122.3035,60.0,11.4
2026-01-20T23:11:25+00:00,SAT-64117,4.6421682164972085,41.87351558719267,1012.2763873490841,4.503227791648041,-157722.0858981864,10.5,10499842277.914103,47.655,-122.3035,60.0,11.416666666666666
2026-01-20T23:11:26+00:00,SAT-64117,4.7488126219230855,41.55657784712279,1016.7676065332877,4.53164376247728,-158717.33339606377,10.5,10499841282.666603,47.655,-122.3035,60.0,11.433333333333334
2026-01-20T23:11:27+00:00,SAT-64117,4.8530957275894835,41.24206236944242,1021.2871659123983,4.559679155676867,-159699.25145550893,10.5,10499840300.748545,47.655,-122.3035,60.0,11.45
2026-01-20T23:11:28+00:00,SAT-64117,4.955081540677703,40.92995768438629,1025.8346859236601,4.587338348410004,-160667.99338329266,10.5,10499839332.006617,47.655,-122.3035,60.0,11.466666666666667
2026-01-20T23:11:29+00:00,SAT-64117,5.054831815225283,40.620251801093524,1030.4097913698076,4.614625710673107,-161623.71223517446,10.5,10499838376.287766,47.655,-122.3035,60.0,11.483333333333333
2026-01-20T23:11:30+00:00,SAT-64117,5.152406148209045,40.31293223979008,1035.012111411919,4.6415455990683325,-162566.56059779023,10.5,10499837433.439402,47.655,-122.3035,60.0,11.5
2026-01-20T23:11:31+00:00,SAT-64117,5.247862070827032,40.007986062866685,1039.6412795560566,4.668102376190507,-163496.69126766466,10.5,10499836503.308733,47.655,-122.3035,60.0,11.516666666666667
2026-01-20T23:11:32+00:00,SAT-64117,5.341255135724804,39.70539990322734,1044.2969336592437,4.694300417455577,-164414.2574903721,10.5,10499835585.74251,47.655,-122.3035,60.0,11.533333333333333
2026-01-20T23:11:33+00:00,SAT-64117,5.432639000104706,39.405159990926016,1048.9787159422528,4.72014408266532,-165319.41196461275,10.5,10499834680.588036,47.655,-122.3035,60.0,11.55
2026-01-20T23:11:34+00:00,SAT-64117,5.522065504280216,39.10725218031989,1053.686272974031,4.745637702932133,-166212.30638426333,10.5,10499833787.693615,47.655,-122.3035,60.0,11.566666666666666
2026-01-20T23:11:35+00:00,SAT-64117,5.6095847462282284,38.81166197676564,1058.4192556430885,4.770785620271244,-167093.0928250639,10.5,10499832906.907175,47.655,-122.3035,60.0,11.583333333333334
2026-01-20T23:11:36+00:00,SAT-64117,5.695245153366459,38.518374559602215,1063.1773191683726,4.795592156212567,-167961.92264527202,10.5,10499832038.077354,47.655,-122.3035,60.0,11.6
2026-01-20T23:11:37+00:00,SAT-64117,5.779093550301357,38.227374806014,1067.9601230788353,4.820061617851677,-168818.94669759375,10.5,10499831181.053303,47.655,-122.3035,60.0,11.616666666666667
2026-01-20T23:11:38+00:00,SAT-64117,5.861175223567809,37.93864731333262,1072.7673311990393,4.844198287490782,-169664.31496636654,10.5,10499830335.685034,47.655,-122.3035,60.0,11.633333333333333
2026-01-20T23:11:39+00:00,SAT-64117,5.941533983123205,37.65217642096167,1077.59861162443,4.86800642478365,-170498.17664268365,10.5,10499829501.823357,47.655,-122.3035,60.0,11.65
2026-01-20T23:11:40+00:00,SAT-64117,6.020212221077595,37.36794623105376,1082.4536366987475,4.891490276574248,-171320.680468985,10.5,10499828679.31953,47.655,-122.3035,60.0,11.666666666666666
2026-01-20T23:11:41+00:00,SAT-64117,6.097250967846994,37.08594062770296,1087.332083001251,4.91465406893903,-172131.97446034424,10.5,10499827868.02554,47.655,-122.3035,60.0,11.683333333333334
2026-01-20T23:11:42+00:00,SAT-64117,6.17268994560953,36.80614329563979,1092.2336313260062,4.937501973185258,-172932.20471358625,10.5,10499827067.795286,47.655,-122.3035,60.0,11.7
2026-01-20T23:11:43+00:00,SAT-64117,6.246567618819657,36.528537739929504,1097.157966627263,4.960038174511744,-173721.5178120769,10.5,10499826278.482187,47.655,-122.3035,60.0,11.716666666666667
2026-01-20T23:11:44+00:00,SAT-64117,6.318921243480167,36.25310730092259,1102.1047780333095,4.98226679255441,-174500.05804289214,10.5,10499825499.941957,47.655,-122.3035,60.0,11.733333333333333
2026-01-20T23:11:45+00:00,SAT-64117,6.389786913003056,35.97983517284131,1107.0737587810836,5.00419195750338,-175267.97006276087,10.5,10499824732.029938,47.655,-122.3035,60.0,11.75
2026-01-20T23:11:46+00:00,SAT-64117,6.45919960314651,35.708704417322686,1112.0646062267003,5.025817709570115,-176025.39537697844,10.5,10499823974.604624,47.655,-122.3035,60.0,11.766666666666667
2026-01-20T23:11:47+00:00,SAT-64117,6.527193213543598,35.43969798167349,1117.0770217557117,5.047148107016141,-176772.47612303,10.5,10499823227.523876,47.655,-122.3035,60.0,11.783333333333333
2026-01-20T23:11:48+00:00,SAT-64117,6.593800608872836,35.172798710530486,1122.110710801109,5.068187170746033,-177509.35313000216,10.5,10499822490.64687,47.655,-122.3035,60.0,11.8
2026-01-20T23:11:49+00:00,SAT-64117,6.659053657479523,34.907989359854824,1127.1653828060664,5.088938860545857,-178236.16508635285,10.5,10499821763.834913,47.655,-122.3035,60.0,11.816666666666666
2026-01-20T23:11:50+00:00,SAT-64117,6.722983268004689,34.64525261141531,1132.2407511629842,5.109407096341243,-178953.0492844588,10.5,10499821046.950716,47.655,-122.3035,60.0,11.833333333333334
2026-01-20T23:11:51+00:00,SAT-64117,6.785619424736097,34.38457108547199,1137.336533173735,5.129595813923674,-179660.1435723863,10.5,10499820339.856428,47.655,-122.3035,60.0,11.85
2026-01-20T23:11:52+00:00,SAT-64117,6.84699122207644,34.12592735005897,1142.4524500654882,5.149508850754661,-180357.58235426972,10.5,10499819642.417646,47.655,-122.3035,60.0,11.866666666666667
2026-01-20T23:11:53+00:00,SAT-64117,6.9071268961823495,33.86930393542362,1147.5882268926412,5.169150041079568,-181045.49992160063,10.5,10499818954.500078,47.655,-122.3035,60.0,11.883333333333333
2026-01-20T23:11:54+00:00,SAT-64117,6.966053856389008,33.61468334308161,1152.743592533611,5.188523172434931,-181724.02892992986,10.5,10499818275.97107,47.655,-122.3035,60.0,11.9
2026-01-20T23:11:55+00:00,SAT-64117,7.023798714787582,33.36204805652751,1157.9182796442528,5.207632001605166,-182393.3009577387,10.5,10499817606.699041,47.655,-122.3035,60.0,11.916666666666666
2026-01-20T23:11:56+00:00,SAT-64117,7.080387314737206,33.11138055061142,1163.112024627187,5.226480219608762,-183053.44528010776,10.5,10499816946.55472,47.655,-122.3035,60.0,11.933333333333334
2026-01-20T23:11:57+00:00,SAT-64117,7.135844757827385,32.862663302088585,1168.3245675662101,5.245071499079103,-183704.59052819328,10.5,10499816295.409472,47.655,-122.3035,60.0,11.95
2026-01-20T23:11:58+00:00,SAT-64117,7.190195430207732,32.615878797393826,1173.5556522079582,5.263409481926418,-184346.86425709678,10.5,10499815653.135742,47.655,-122.3035,60.0,11.966666666666667
2026-01-20T23:11:59+00:00,SAT-64117,7.24346302770485,32.371009540602046,1178.8050259312663,5.281497746296381,-184980.39178861532,10.5,10499815019.608212,47.655,-122.3035,60.0,11.983333333333333
2026-01-20T23:12:00+00:00,SAT-64117,7.295670579569347,32.12803806243824,1184.0724396835726,5.29933984340715,-185605.2975014304,10.5,10499814394.7025,47.655,-122.3035,60.0,12.0
2026-01-20T23:12:01+00:00,SAT-64117,7.346840471620626,31.886946927167774,1189.3576479540639,5.3169392553035975,-186221.7033514825,10.5,10499813778.296648,47.655,-122.3035,60.0,12.016666666666667
2026-01-20T23:12:02+00:00,SAT-64117,7.396994468061789,31.647718740963043,1194.6604087046867,5.334299477728136,-186829.73177445785,10.5,10499813170.268225,47.655,-122.3035,60.0,12.033333333333333
2026-01-20T23:12:03+00:00,SAT-64117,7.4461537331801955,31.410336156205936,1199.9804833838075,5.351423919003022,-187429.50214421918,10.5,10499812570.497856,47.655,-122.3035,60.0,12.05
2026-01-20T23:12:04+00:00,SAT-64117,7.494338851226222,31.17478187991375,1205.3176368390266,5.36831595994033,-188021.13287110598,10.5,10499811978.867128,47.655,-122.3035,60.0,12.066666666666666
2026-01-20T23:12:05+00:00,SAT-64117,7.541569846077286,30.941038679142466,1210.6716372897404,5.384978924499104,-188604.74037422446,10.5,10499811395.259626,47.655,-122.3035,60.0,12.083333333333334
2026-01-20T23:12:06+00:00,SAT-64117,7.587866199851501,30.709089387293645,1216.042256270441,5.40141614282038,-189180.4412892001,10.5,10499810819.55871,47.655,-122.3035,60.0,12.1
