satellites_20260121_005943/SAT-53505.csv

timestamp,satellite,azimuth_deg,elevation_deg,distance_km,relative_velocity_kms,doppler_shift_hz,tx_freq_ghz,rx_freq_hz,ue_lat,ue_lon,ue_alt_m,time_minutes
2026-01-20T23:01:47+00:00,SAT-53505,298.4596305116461,30.027549826294447,4362.404632638182,-6.723790031196288,235495.5684961262,10.5,10500235495.568497,47.655,-122.3035,60.0,1.7833333333333334
2026-01-20T23:01:48+00:00,SAT-53505,298.4374906704549,30.073286693648306,4355.698772713736,-6.724174419154864,235509.03138839497,10.5,10500235509.03139,47.655,-122.3035,60.0,1.8
2026-01-20T23:01:49+00:00,SAT-53505,298.41524630593716,30.119064095719473,4348.992529426365,-6.724552329142511,235522.26739472,10.5,10500235522.267395,47.655,-122.3035,60.0,1.8166666666666667
2026-01-20T23:01:50+00:00,SAT-53505,298.3928968249277,30.16488217704147,4342.285909236767,-6.724923739269185,235535.2757484194,10.5,10500235535.27575,47.655,-122.3035,60.0,1.8333333333333333
2026-01-20T23:01:51+00:00,SAT-53505,298.3704416299156,30.21074108268627,4335.578918627469,-6.725288610444144,235548.05508037002,10.5,10500235548.05508,47.655,-122.3035,60.0,1.85
2026-01-20T23:01:52+00:00,SAT-53505,298.347880119073,30.256640958148793,4328.871564119986,-6.725646953814686,235560.60578099734,10.5,10500235560.605782,47.655,-122.3035,60.0,1.8666666666666667
2026-01-20T23:01:53+00:00,SAT-53505,298.3252116860582,30.30258194969058,4322.163852224715,-6.7259986910158585,235572.92510562929,10.5,10500235572.925106,47.655,-122.3035,60.0,1.8833333333333333
2026-01-20T23:01:54+00:00,SAT-53505,298.3024357202384,30.34856420373084,4315.455789530209,-6.726343821531821,235585.01303619894,10.5,10500235585.013037,47.655,-122.3035,60.0,1.9
2026-01-20T23:01:55+00:00,SAT-53505,298.27955160641955,30.394587867378323,4308.747382625535,-6.7266822999958285,235596.86798377096,10.5,10500235596.867983,47.655,-122.3035,60.0,1.9166666666666667
2026-01-20T23:01:56+00:00,SAT-53505,298.25655872494735,30.44065308812632,4302.038638145005,-6.72701412543413,235608.48991424052,10.5,10500235608.489914,47.655,-122.3035,60.0,1.9333333333333333
2026-01-20T23:01:57+00:00,SAT-53505,298.23345645153034,30.486760014157884,4295.329562723906,-6.727339257575394,235619.8774171351,10.5,10500235619.877417,47.655,-122.3035,60.0,1.95
2026-01-20T23:01:58+00:00,SAT-53505,298.21024415731284,30.532908794077464,4288.620163037684,-6.727657644964906,235631.0286902932,10.5,10500235631.02869,47.655,-122.3035,60.0,1.9666666666666666
2026-01-20T23:01:59+00:00,SAT-53505,298.1869212088623,30.579099576835766,4281.910445813105,-6.727969280329026,235641.94347896092,10.5,10500235641.94348,47.655,-122.3035,60.0,1.9833333333333334
2026-01-20T23:02:00+00:00,SAT-53505,298.1634869680117,30.625332512033033,4275.200417784191,-6.728274128372908,235652.62054696362,10.5,10500235652.620546,47.655,-122.3035,60.0,2.0
2026-01-20T23:02:01+00:00,SAT-53505,298.13994079188024,30.671607749728423,4268.49008572016,-6.728572159077028,235663.05884289055,10.5,10500235663.058844,47.655,-122.3035,60.0,2.0166666666666666
2026-01-20T23:02:02+00:00,SAT-53505,298.11628203283607,30.717925440476677,4261.779456420174,-6.728863331210022,235673.2569226449,10.5,10500235673.256922,47.655,-122.3035,60.0,2.033333333333333
2026-01-20T23:02:03+00:00,SAT-53505,298.0925100384627,30.764285735252184,4255.068536724513,-6.729147647646384,235683.21488690362,10.5,10500235683.214888,47.655,-122.3035,60.0,2.05
2026-01-20T23:02:04+00:00,SAT-53505,298.06862415141217,30.810688785753268,4248.357333470594,-6.729425044380405,235692.93049391606,10.5,10500235692.930494,47.655,-122.3035,60.0,2.066666666666667
2026-01-20T23:02:05+00:00,SAT-53505,298.04462370952933,30.857134743942915,4241.645853559666,-6.729695496044805,235702.40285521277,10.5,10500235702.402855,47.655,-122.3035,60.0,2.0833333333333335
2026-01-20T23:02:06+00:00,SAT-53505,298.02050804571707,30.90362376231483,4234.934103918276,-6.729958993821463,235711.6316619458,10.5,10500235711.631662,47.655,-122.3035,60.0,2.1
2026-01-20T23:02:07+00:00,SAT-53505,297.99627648782734,30.950155994009314,4228.222091481773,-6.730215467288397,235720.61444763956,10.5,10500235720.614449,47.655,-122.3035,60.0,2.1166666666666667
2026-01-20T23:02:08+00:00,SAT-53505,297.9719283588074,30.996731592388002,4221.50982325573,-6.7304649294057235,235729.351666212,10.5,10500235729.351665,47.655,-122.3035,60.0,2.1333333333333333
2026-01-20T23:02:09+00:00,SAT-53505,297.94746297639506,31.043350711610877,4214.797306232803,-6.730707303747857,235737.840640916,10.5,10500235737.840641,47.655,-122.3035,60.0,2.15
2026-01-20T23:02:10+00:00,SAT-53505,297.92287965335356,31.090013506018636,4208.084547481864,-6.730942597170176,235746.08161185577,10.5,10500235746.081612,47.655,-122.3035,60.0,2.1666666666666665
2026-01-20T23:02:11+00:00,SAT-53505,297.8981776971583,31.136720130709627,4201.371554064954,-6.731170749435933,235754.07246928572,10.5,10500235754.07247,47.655,-122.3035,60.0,2.183333333333333
2026-01-20T23:02:12+00:00,SAT-53505,297.87335641016887,31.18347074107548,4194.658333104183,-6.731391755802929,235761.81304711392,10.5,10500235761.813047,47.655,-122.3035,60.0,2.2
2026-01-20T23:02:13+00:00,SAT-53505,297.8484150893945,31.230265493186614,4187.944891726395,-6.7316055388022065,235769.30063204982,10.5,10500235769.300632,47.655,-122.3035,60.0,2.216666666666667
2026-01-20T23:02:14+00:00,SAT-53505,297.82335302668344,31.277104543287567,4181.231237135697,-6.731812115449983,235776.53582007327,10.5,10500235776.53582,47.655,-122.3035,60.0,2.2333333333333334
2026-01-20T23:02:15+00:00,SAT-53505,297.7981695083751,31.32398804845349,4174.517376519221,-6.73201144673988,235783.517245016,10.5,10500235783.517244,47.655,-122.3035,60.0,2.25
2026-01-20T23:02:16+00:00,SAT-53505,297.7728638154251,31.370916166201447,4167.803317103006,-6.73220343222582,235790.24138883143,10.5,10500235790.241388,47.655,-122.3035,60.0,2.2666666666666666
2026-01-20T23:02:17+00:00,SAT-53505,297.74743522354095,31.417889054062876,4161.089066213266,-6.732388126980528,235796.71018039936,10.5,10500235796.71018,47.655,-122.3035,60.0,2.283333333333333
2026-01-20T23:02:18+00:00,SAT-53505,297.721883002664,31.464906870665704,4154.374631121291,-6.732565446859075,235802.92067260845,10.5,10500235802.920673,47.655,-122.3035,60.0,2.3
2026-01-20T23:02:19+00:00,SAT-53505,297.69620641732666,31.511969774765987,4147.66001918229,-6.732735373948749,235808.87223807964,10.5,10500235808.872238,47.655,-122.3035,60.0,2.316666666666667
2026-01-20T23:02:20+00:00,SAT-53505,297.67040472642043,31.55907792570865,4140.945237769339,-6.732897851314194,235814.5628826961,10.5,10500235814.562883,47.655,-122.3035,60.0,2.3333333333333335
2026-01-20T23:02:21+00:00,SAT-53505,297.6444771832421,31.606231483154875,4134.230294312295,-6.733052877331649,235819.9925495868,10.5,10500235819.99255,47.655,-122.3035,60.0,2.35
2026-01-20T23:02:22+00:00,SAT-53505,297.6184230352877,31.653430607469186,4127.515196242635,-6.7332003888985135,235825.1590286317,10.5,10500235825.159029,47.655,-122.3035,60.0,2.3666666666666667
2026-01-20T23:02:23+00:00,SAT-53505,297.5922415243777,31.700675459288664,4120.799951054774,-6.733340378193795,235830.06204590658,10.5,10500235830.062046,47.655,-122.3035,60.0,2.3833333333333333
2026-01-20T23:02:24+00:00,SAT-53505,297.56593188643603,31.747966199910145,4114.084566250922,-6.733472770474121,235834.69898358238,10.5,10500235834.698984,47.655,-122.3035,60.0,2.4
2026-01-20T23:02:25+00:00,SAT-53505,297.5394933516432,31.795302990820577,4107.369049407836,-6.733597568530632,235839.0699394167,10.5,10500235839.069939,47.655,-122.3035,60.0,2.4166666666666665
2026-01-20T23:02:26+00:00,SAT-53505,297.51292514414314,31.84268599424027,4100.653408099488,-6.733714719250299,235843.17305316648,10.5,10500235843.173054,47.655,-122.3035,60.0,2.433333333333333
2026-01-20T23:02:27+00:00,SAT-53505,297.48622648214905,31.890115372730676,4093.937649952823,-6.733824169169927,235847.00645232454,10.5,10500235847.006453,47.655,-122.3035,60.0,2.45
2026-01-20T23:02:28+00:00,SAT-53505,297.4593965779111,31.937591289190287,4087.2217826481037,-6.733925920341705,235850.57020876725,10.5,10500235850.57021,47.655,-122.3035,60.0,2.466666666666667
2026-01-20T23:02:29+00:00,SAT-53505,297.43243463745614,31.98511390724523,4080.50581386355,-6.734019890715588,235853.8614487549,10.5,10500235853.861448,47.655,-122.3035,60.0,2.4833333333333334
2026-01-20T23:02:30+00:00,SAT-53505,297.4053398608276,32.032683390656004,4073.7897513592093,-6.734106087451372,235856.8804230539,10.5,10500235856.880423,47.655,-122.3035,60.0,2.5
2026-01-20T23:02:31+00:00,SAT-53505,297.37811144171076,32.08029990394551,4067.0736028879915,-6.73418442793946,235859.62423832665,10.5,10500235859.624239,47.655,-122.3035,60.0,2.5166666666666666
2026-01-20T23:02:32+00:00,SAT-53505,297.350748567692,32.12796361176492,4060.357376285193,-6.734254913007234,235862.09292355165,10.5,10500235862.092924,47.655,-122.3035,60.0,2.533333333333333
2026-01-20T23:02:33+00:00,SAT-53505,297.32325041990737,32.1756746794816,4053.641079385287,-6.734317481786738,235864.28434687556,10.5,10500235864.284348,47.655,-122.3035,60.0,2.55
2026-01-20T23:02:34+00:00,SAT-53505,297.2956161731955,32.223433272742284,4046.924720083452,-6.734372095536884,235866.1971514216,10.5,10500235866.197151,47.655,-122.3035,60.0,2.566666666666667
2026-01-20T23:02:35+00:00,SAT-53505,297.2678449959581,32.271239557628085,4040.2083063135033,-6.734418737198773,235867.83073971496,10.5,10500235867.83074,47.655,-122.3035,60.0,2.5833333333333335
2026-01-20T23:02:36+00:00,SAT-53505,297.2399360500358,32.319093700806924,4033.49184602627,-6.734457334112726,235869.1825669064,10.5,10500235869.182568,47.655,-122.3035,60.0,2.6
2026-01-20T23:02:37+00:00,SAT-53505,297.2118884908142,32.36699586913836,4026.775347245048,-6.7344878685545835,235870.25201222082,10.5,10500235870.252012,47.655,-122.3035,60.0,2.6166666666666667
2026-01-20T23:02:38+00:00,SAT-53505,297.18370146700045,32.41494623006091,4020.05881801081,-6.734510295007164,235871.03748145397,10.5,10500235871.037481,47.655,-122.3035,60.0,2.6333333333333333
2026-01-20T23:02:39+00:00,SAT-53505,297.15537412062787,32.46294495139431,4013.342266409923,-6.734524572874891,235871.53755277712,10.5,10500235871.537552,47.655,-122.3035,60.0,2.65
2026-01-20T23:02:40+00:00,SAT-53505,297.1269055870003,32.510992201371714,4006.6257005692423,-6.734530667122109,235871.75099909332,10.5,10500235871.751,47.655,-122.3035,60.0,2.6666666666666665
2026-01-20T23:02:41+00:00,SAT-53505,297.09829499458664,32.55908814867868,3999.9091286505654,-6.734528519730959,235871.67578837177,10.5,10500235871.675789,47.655,-122.3035,60.0,2.683333333333333
2026-01-20T23:02:42+00:00,SAT-53505,297.06954146505007,32.60723296228618,3993.1925588735544,-6.734518100511149,235871.3108632208,10.5,10500235871.310863,47.655,-122.3035,60.0,2.7
2026-01-20T23:02:43+00:00,SAT-53505,297.0406441130786,32.65542681164768,3986.4759994879773,-6.734499373334867,235870.6549582915,10.5,10500235870.654959,47.655,-122.3035,60.0,2.716666666666667
2026-01-20T23:02:44+00:00,SAT-53505,297.0116020463327,32.703669866654934,3979.759458779638,-6.734472301494409,235869.70678792492,10.5,10500235869.706787,47.655,-122.3035,60.0,2.7333333333333334
2026-01-20T23:02:45+00:00,SAT-53505,296.98241436539695,32.75196229763147,3973.042945070948,-6.734436809161866,235868.46369630683,10.5,10500235868.463696,47.655,-122.3035,60.0,2.75
2026-01-20T23:02:46+00:00,SAT-53505,296.95308016382825,32.80030427505013,3966.3264667599437,-6.7343928980870364,235866.92574472268,10.5,10500235866.925745,47.655,-122.3035,60.0,2.7666666666666666
2026-01-20T23:02:47+00:00,SAT-53505,296.923598527831,32.84869597008606,3959.6100322429184,-6.734340486107049,235865.09005548104,10.5,10500235865.090055,47.655,-122.3035,60.0,2.783333333333333
2026-01-20T23:02:48+00:00,SAT-53505,296.8939685364726,32.89713755401321,3952.8936499981073,-6.734279557459971,235862.95607653246,10.5,10500235862.956076,47.655,-122.3035,60.0,2.8
2026-01-20T23:02:49+00:00,SAT-53505,296.8641892613819,32.94562919867697,3946.177328519467,-6.734210046086386,235860.5214941967,10.5,10500235860.521494,47.655,-122.3035,60.0,2.816666666666667
2026-01-20T23:02:50+00:00,SAT-53505,296.834259766854,32.9941710761314,3939.461076366837,-6.73413192439504,235857.7853421113,10.5,10500235857.785341,47.655,-122.3035,60.0,2.8333333333333335
2026-01-20T23:02:51+00:00,SAT-53505,296.8041791096477,33.04276335891138,3932.744902127574,-6.734045136621518,235854.74566717065,10.5,10500235854.745667,47.655,-122.3035,60.0,2.85
2026-01-20T23:02:52+00:00,SAT-53505,296.77394633899877,33.09140621982805,3926.02881444465,-6.733949648927025,235851.40128419697,10.5,10500235851.401283,47.655,-122.3035,60.0,2.8666666666666667
2026-01-20T23:02:53+00:00,SAT-53505,296.74356049648685,33.140099832122345,3919.3128219947866,-6.733845427124125,235847.75099580162,10.5,10500235847.750996,47.655,-122.3035,60.0,2.8833333333333333
2026-01-20T23:02:54+00:00,SAT-53505,296.7130206159373,33.18884436946045,3912.5969334888014,-6.733732369669493,235843.79124550783,10.5,10500235843.791246,47.655,-122.3035,60.0,2.9
2026-01-20T23:02:55+00:00,SAT-53505,296.68232572362217,33.237640005442685,3905.8811577387846,-6.733610508542855,235839.5231533809,10.5,10500235839.523153,47.655,-122.3035,60.0,2.9166666666666665
2026-01-20T23:02:56+00:00,SAT-53505,296.6514748376638,33.28648691456525,3899.165503524931,-6.733479741436522,235834.94313617283,10.5,10500235834.943136,47.655,-122.3035,60.0,2.933333333333333
2026-01-20T23:02:57+00:00,SAT-53505,296.62046696847244,33.335385271245215,3892.4499797294716,-6.7333400326475505,235830.04994341545,10.5,10500235830.049944,47.655,-122.3035,60.0,2.95
2026-01-20T23:02:58+00:00,SAT-53505,296.5893011184132,33.384335250298264,3885.734595270245,-6.733191346011023,235824.8423084604,10.5,10500235824.842308,47.655,-122.3035,60.0,2.966666666666667
2026-01-20T23:02:59+00:00,SAT-53505,296.5579762817358,33.43333702693142,3879.019359101156,-6.733033628297518,235819.31836698818,10.5,10500235819.318367,47.655,-122.3035,60.0,2.9833333333333334
2026-01-20T23:03:00+00:00,SAT-53505,296.5264914445431,33.48239077661513,3872.304280229201,-6.732866836919751,235813.476627412,10.5,10500235813.476627,47.655,-122.3035,60.0,3.0
2026-01-20T23:03:01+00:00,SAT-53505,296.49484558469305,33.53149667515575,3865.589367703846,-6.732690906753421,235807.31480880323,10.5,10500235807.314808,47.655,-122.3035,60.0,3.0166666666666666
2026-01-20T23:03:02+00:00,SAT-53505,296.463037671779,33.5806548985273,3858.874630639511,-6.73250579998393,235800.8315867348,10.5,10500235800.831587,47.655,-122.3035,60.0,3.033333333333333
2026-01-20T23:03:03+00:00,SAT-53505,296.4310666669658,33.62986562306478,3852.160078188327,-6.732311478480564,235794.02562570779,10.5,10500235794.025625,47.655,-122.3035,60.0,3.05
2026-01-20T23:03:04+00:00,SAT-53505,296.3989315228835,33.67912902545793,3845.4457195404557,-6.732107886920042,235786.8949880669,10.5,10500235786.894989,47.655,-122.3035,60.0,3.066666666666667
2026-01-20T23:03:05+00:00,SAT-53505,296.3666311836304,33.7284452826201,3838.731563941234,-6.731894947346028,235779.43694345138,10.5,10500235779.436943,47.655,-122.3035,60.0,3.0833333333333335
2026-01-20T23:03:06+00:00,SAT-53505,296.33416458476404,33.7778145715174,3832.0176207137474,-6.731672642532921,235771.65088854794,10.5,10500235771.650888,47.655,-122.3035,60.0,3.1
2026-01-20T23:03:07+00:00,SAT-53505,296.30153065298225,33.827237069606944,3825.3038991982617,-6.731440910375756,235763.53464817797,10.5,10500235763.534649,47.655,-122.3035,60.0,3.1166666666666667
2026-01-20T23:03:08+00:00,SAT-53505,296.2687283062077,33.87671295450324,3818.5904087969802,-6.73119969943202,235755.08642060703,10.5,10500235755.08642,47.655,-122.3035,60.0,3.1333333333333333
2026-01-20T23:03:09+00:00,SAT-53505,296.23575645346637,33.92624240405001,3811.8771589634134,-6.730948957855672,235746.30438996755,10.5,10500235746.30439,47.655,-122.3035,60.0,3.15
2026-01-20T23:03:10+00:00,SAT-53505,296.20261399478375,33.97582559631145,3805.1641592027786,-6.730688627701531,235737.18652677405,10.5,10500235737.186527,47.655,-122.3035,60.0,3.1666666666666665
2026-01-20T23:03:11+00:00,SAT-53505,296.16929982114175,34.02546270952035,3798.451419078084,-6.730418678559247,235727.7317659275,10.5,10500235727.731766,47.655,-122.3035,60.0,3.183333333333333
2026-01-20T23:03:12+00:00,SAT-53505,296.1358128142496,34.075153922275106,3791.7389481826676,-6.730139023732628,235717.9370709606,10.5,10500235717.93707,47.655,-122.3035,60.0,3.2
2026-01-20T23:03:13+00:00,SAT-53505,296.10215184670665,34.124899413117554,3785.026756196332,-6.7298496430224795,235707.80173441197,10.5,10500235707.801735,47.655,-122.3035,60.0,3.216666666666667
2026-01-20T23:03:14+00:00,SAT-53505,296.06831578161655,34.1746993610168,3778.314852819024,-6.729550437647646,235697.32229654785,10.5,10500235697.322296,47.655,-122.3035,60.0,3.2333333333333334
2026-01-20T23:03:15+00:00,SAT-53505,296.0343034728319,34.224553944781434,3771.60324784921,-6.729241414405573,235686.49899544343,10.5,10500235686.498995,47.655,-122.3035,60.0,3.25
2026-01-20T23:03:16+00:00,SAT-53505,296.0001137644041,34.274463343832686,3764.891951078576,-6.7289224513158885,235675.32755883015,10.5,10500235675.327559,47.655,-122.3035,60.0,3.2666666666666666
2026-01-20T23:03:17+00:00,SAT-53505,295.9657454910457,34.32442773724416,3758.1809724204636,-6.728593554157053,235663.8081890941,10.5,10500235663.80819,47.655,-122.3035,60.0,3.283333333333333
2026-01-20T23:03:18+00:00,SAT-53505,295.9311974774709,34.37444730467947,3751.4703217824513,-6.728254616722313,235651.93716642557,10.5,10500235651.937166,47.655,-122.3035,60.0,3.3
2026-01-20T23:03:19+00:00,SAT-53505,295.8964685387974,34.424522225554774,3744.76000917804,-6.727905621578208,235639.71388023105,10.5,10500235639.71388,47.655,-122.3035,60.0,3.316666666666667
2026-01-20T23:03:20+00:00,SAT-53505,295.8615574800409,34.474652679688305,3738.0500446381197,-6.72754648936419,235627.1355509684,10.5,10500235627.135551,47.655,-122.3035,60.0,3.3333333333333335
2026-01-20T23:03:21+00:00,SAT-53505,295.8264630963063,34.52483884683239,3731.340438272727,-6.727177179399297,235614.20075381824,10.5,10500235614.200754,47.655,-122.3035,60.0,3.35
2026-01-20T23:03:22+00:00,SAT-53505,295.7911841724917,34.575080906952195,3724.6312002324726,-6.726797600202955,235600.90628474392,10.5,10500235600.906284,47.655,-122.3035,60.0,3.3666666666666667
2026-01-20T23:03:23+00:00,SAT-53505,295.75571948343236,34.625379039837625,3717.922340759204,-6.726407726773293,235587.25126807418,10.5,10500235587.251268,47.655,-122.3035,60.0,3.3833333333333333
2026-01-20T23:03:24+00:00,SAT-53505,295.72006779348567,34.675733425589634,3711.213870119702,-6.726007494507447,235573.23344114344,10.5,10500235573.23344,47.655,-122.3035,60.0,3.4
2026-01-20T23:03:25+00:00,SAT-53505,295.684227856608,34.72614424431537,3704.5057986451798,-6.725596821646067,235558.84994039344,10.5,10500235558.849941,47.655,-122.3035,60.0,3.4166666666666665
2026-01-20T23:03:26+00:00,SAT-53505,295.6481984163215,34.77661167598986,3697.7981367483912,-6.725175687122937,235544.10002799617,10.5,10500235544.100027,47.655,-122.3035,60.0,3.433333333333333
2026-01-20T23:03:27+00:00,SAT-53505,295.61197820534113,34.82713590089922,3691.090894863101,-6.724743991427613,235528.98021867493,10.5,10500235528.980219,47.655,-122.3035,60.0,3.45
2026-01-20T23:03:28+00:00,SAT-53505,295.5755659458024,34.87771709904369,3684.384083522317,-6.724301701301176,235513.48934756173,10.5,10500235513.489347,47.655,-122.3035,60.0,3.466666666666667
2026-01-20T23:03:29+00:00,SAT-53505,295.5389603488727,34.92835545062223,3677.6777132922193,-6.723848738444233,235497.62467228062,10.5,10500235497.624672,47.655,-122.3035,60.0,3.4833333333333334
2026-01-20T23:03:30+00:00,SAT-53505,295.50216011482075,34.97905113568425,3670.9717948170774,-6.723385046245177,235481.3842100536,10.5,10500235481.38421,47.655,-122.3035,60.0,3.5
2026-01-20T23:03:31+00:00,SAT-53505,295.4651639328274,35.02980433428031,3664.266338797622,-6.722910556478038,235464.76557131865,10.5,10500235464.765572,47.655,-122.3035,60.0,3.5166666666666666
2026-01-20T23:03:32+00:00,SAT-53505,295.4279704809053,35.08061522636346,3657.561356002628,-6.7224252113465415,235447.7667318058,10.5,10500235447.766731,47.655,-122.3035,60.0,3.533333333333333
2026-01-20T23:03:33+00:00,SAT-53505,295.3905784257496,35.13148399185489,3650.856857258512,-6.7219289694816,235430.3862425945,10.5,10500235430.386242,47.655,-122.3035,60.0,3.55
2026-01-20T23:03:34+00:00,SAT-53505,295.35298642252747,35.18241081075664,3644.152853432949,-6.7214217106485785,235412.6198925594,10.5,10500235412.619892,47.655,-122.3035,60.0,3.566666666666667
2026-01-20T23:03:35+00:00,SAT-53505,295.3151931151517,35.233395862542395,3637.449355513529,-6.72090343130976,235394.46755779456,10.5,10500235394.467558,47.655,-122.3035,60.0,3.5833333333333335
2026-01-20T23:03:36+00:00,SAT-53505,295.2771971355828,35.28443932702649,3630.7463744913694,-6.720374021244473,235375.92537790583,10.5,10500235375.925379,47.655,-122.3035,60.0,3.6
2026-01-20T23:03:37+00:00,SAT-53505,295.2389971042448,35.33554138354317,3624.043921467515,-6.719833442380453,235356.9920194415,10.5,10500235356.99202,47.655,-122.3035,60.0,3.6166666666666667
2026-01-20T23:03:38+00:00,SAT-53505,295.2005916295246,35.38670221147974,3617.342007580981,-6.71928160557544,235337.6643602626,10.5,10500235337.66436,47.655,-122.3035,60.0,3.6333333333333333
2026-01-20T23:03:39+00:00,SAT-53505,295.1619793079283,35.437921989873935,3610.6406440596866,-6.7187184659439785,235317.9408282905,10.5,10500235317.940828,47.655,-122.3035,60.0,3.65
2026-01-20T23:03:40+00:00,SAT-53505,295.1231587237086,35.48920089773632,3603.9398421763185,-6.718143927687143,235297.81806824173,10.5,10500235297.818068,47.655,-122.3035,60.0,3.6666666666666665
2026-01-20T23:03:41+00:00,SAT-53505,295.0841284490135,35.54053911364765,3597.2396132991053,-6.7175579613708845,235277.29504921127,10.5,10500235277.29505,47.655,-122.3035,60.0,3.683333333333333
2026-01-20T23:03:42+00:00,SAT-53505,295.04488704341225,35.59193681624895,3590.539968825631,-6.7169604644227245,235256.36817867716,10.5,10500235256.36818,47.655,-122.3035,60.0,3.7
2026-01-20T23:03:43+00:00,SAT-53505,295.00543305413646,35.64339418366834,3583.84092025578,-6.716351372758696,235235.03521214772,10.5,10500235235.035212,47.655,-122.3035,60.0,3.716666666666667
2026-01-20T23:03:44+00:00,SAT-53505,294.96576501575277,35.69491139379809,3577.142479153349,-6.715730627154424,235213.2940753348,10.5,10500235213.294075,47.655,-122.3035,60.0,3.7333333333333334
2026-01-20T23:03:45+00:00,SAT-53505,294.9258814500141,35.74648862431527,3570.4446571412004,-6.715098162162385,235191.14247598933,10.5,10500235191.142475,47.655,-122.3035,60.0,3.75
2026-01-20T23:03:46+00:00,SAT-53505,294.88578086574086,35.798126052617306,3563.7474659074705,-6.714453883954534,235168.57712785626,10.5,10500235168.577127,47.655,-122.3035,60.0,3.7666666666666666
2026-01-20T23:03:47+00:00,SAT-53505,294.8454617588469,35.84982385558733,3557.050917233873,-6.7137977147137855,235145.59530545212,10.5,10500235145.595306,47.655,-122.3035,60.0,3.783333333333333
2026-01-20T23:03:48+00:00,SAT-53505,294.80492261210253,35.90158220969774,3550.3550229797315,-6.71312960939408,235122.19543107334,10.5,10500235122.19543,47.655,-122.3035,60.0,3.8
2026-01-20T23:03:49+00:00,SAT-53505,294.7641618948443,35.9534012912443,3543.659795049296,-6.712449516671831,235098.3757071508,10.5,10500235098.375708,47.655,-122.3035,60.0,3.816666666666667
2026-01-20T23:03:50+00:00,SAT-53505,294.72317806284957,36.00528127628011,3536.965245398002,-6.711757284369773,235074.13080379297,10.5,10500235074.130804,47.655,-122.3035,60.0,3.8333333333333335
2026-01-20T23:03:51+00:00,SAT-53505,294.68196955873066,36.05722233981849,3530.2713861330576,-6.711052898862535,235049.46024378174,10.5,10500235049.460243,47.655,-122.3035,60.0,3.85
2026-01-20T23:03:52+00:00,SAT-53505,294.64053481105964,36.10922465688052,3523.5782293752586,-6.710336273426478,235024.36098968846,10.5,10500235024.36099,47.655,-122.3035,60.0,3.8666666666666667
2026-01-20T23:03:53+00:00,SAT-53505,294.5988722346136,36.16128840191229,3516.8857873318943,-6.709607315138195,234998.82978694228,10.5,10500234998.829786,47.655,-122.3035,60.0,3.8833333333333333
2026-01-20T23:03:54+00:00,SAT-53505,294.55698023024513,36.21341374871513,3510.19407230293,-6.708865969253266,234972.8647181621,10.5,10500234972.864717,47.655,-122.3035,60.0,3.9
2026-01-20T23:03:55+00:00,SAT-53505,294.514857184552,36.26560087071976,3503.503096642928,-6.708112147046177,234946.46267580506,10.5,10500234946.462675,47.655,-122.3035,60.0,3.9166666666666665
2026-01-20T23:03:56+00:00,SAT-53505,294.47250146988216,36.31784994070167,3496.8128727949406,-6.707345747891446,234919.6201355412,10.5,10500234919.620136,47.655,-122.3035,60.0,3.933333333333333
2026-01-20T23:03:57+00:00,SAT-53505,294.42991144427197,36.37016113066554,3490.123413302377,-6.706566742723985,234892.3360793881,10.5,10500234892.336079,47.655,-122.3035,60.0,3.95
2026-01-20T23:03:58+00:00,SAT-53505,294.3870854508806,36.422534612378364,3483.4347307376333,-6.705775012895823,234864.60635179203,10.5,10500234864.606352,47.655,-122.3035,60.0,3.966666666666667
2026-01-20T23:03:59+00:00,SAT-53505,294.3440218183373,36.47497055665008,3476.746837791439,-6.704970477855144,234836.4281314876,10.5,10500234836.428131,47.655,-122.3035,60.0,3.9833333333333334
2026-01-20T23:04:00+00:00,SAT-53505,294.3007188603648,36.52746913360524,3470.059747234858,-6.7041530896514105,234807.7997390442,10.5,10500234807.79974,47.655,-122.3035,60.0,4.0
2026-01-20T23:04:01+00:00,SAT-53505,294.2571748754461,36.58003051291259,3463.3734718867786,-6.703322732987348,234778.7171362635,10.5,10500234778.717136,47.655,-122.3035,60.0,4.016666666666667
2026-01-20T23:04:02+00:00,SAT-53505,294.2133881470278,36.632654863234976,3456.6880246810797,-6.702479341727299,234749.1780067951,10.5,10500234749.178007,47.655,-122.3035,60.0,4.033333333333333
2026-01-20T23:04:03+00:00,SAT-53505,294.1693569430954,36.68534235258658,3450.0034186175967,-6.701622804584349,234719.17845290047,10.5,10500234719.178453,47.655,-122.3035,60.0,4.05
2026-01-20T23:04:04+00:00,SAT-53505,294.1250795162414,36.73809314795354,3443.319666807158,-6.700753092803931,234688.71746747306,10.5,10500234688.717468,47.655,-122.3035,60.0,4.066666666666666
2026-01-20T23:04:05+00:00,SAT-53505,294.08055410305684,36.79090741591328,3436.6367823892683,-6.699870060229665,234657.78993149815,10.5,10500234657.789932,47.655,-122.3035,60.0,4.083333333333333
2026-01-20T23:04:06+00:00,SAT-53505,294.035778924599,36.8437853216864,3429.9547786491994,-6.698973665418259,234626.39439345643,10.5,10500234626.394394,47.655,-122.3035,60.0,4.1
2026-01-20T23:04:07+00:00,SAT-53505,293.9907521856495,36.896727029929956,3423.2736689135554,-6.69806379397351,234594.52684670893,10.5,10500234594.526846,47.655,-122.3035,60.0,4.116666666666666
2026-01-20T23:04:08+00:00,SAT-53505,293.9454720749387,36.949732704135116,3416.5934666230323,-6.697140375058224,234562.18481023746,10.5,10500234562.18481,47.655,-122.3035,60.0,4.133333333333334
2026-01-20T23:04:09+00:00,SAT-53505,293.8999367647311,37.00280250694004,3409.9141852889747,-6.696203320448495,234529.36519406768,10.5,10500234529.365194,47.655,-122.3035,60.0,4.15
2026-01-20T23:04:10+00:00,SAT-53505,293.8541444107384,37.055936599962685,3403.2358385107136,-6.695252529905599,234496.06448741548,10.5,10500234496.064487,47.655,-122.3035,60.0,4.166666666666667
2026-01-20T23:04:11+00:00,SAT-53505,293.8080931520235,37.10913514367468,3396.5584399875547,-6.694287919110795,234462.2797370818,10.5,10500234462.279737,47.655,-122.3035,60.0,4.183333333333334
2026-01-20T23:04:12+00:00,SAT-53505,293.761781110705,37.16239829749479,3389.882003502895,-6.693309391700023,234428.0075679897,10.5,10500234428.007568,47.655,-122.3035,60.0,4.2
2026-01-20T23:04:13+00:00,SAT-53505,293.71520639186963,37.215726219660915,3383.206542936239,-6.692316878335843,234393.24555164878,10.5,10500234393.245552,47.655,-122.3035,60.0,4.216666666666667
2026-01-20T23:04:14+00:00,SAT-53505,293.6683670831971,37.26911906741186,3376.5320722362453,-6.6913102476393815,234357.98908661507,10.5,10500234357.989086,47.655,-122.3035,60.0,4.233333333333333
2026-01-20T23:04:15+00:00,SAT-53505,293.6212612551708,37.322576996459226,3369.8586054826,-6.69028945077275,234322.23646237917,10.5,10500234322.236462,47.655,-122.3035,60.0,4.25
2026-01-20T23:04:16+00:00,SAT-53505,293.5738869603617,37.376100161609706,3363.186156803696,-6.689254343448799,234285.98262539477,10.5,10500234285.982626,47.655,-122.3035,60.0,4.266666666666667
2026-01-20T23:04:17+00:00,SAT-53505,293.5262422338462,37.429688715968176,3356.5147404718296,-6.688204880694652,234249.2260005215,10.5,10500234249.226,47.655,-122.3035,60.0,4.283333333333333
2026-01-20T23:04:18+00:00,SAT-53505,293.47832509237253,37.48334281169393,3349.84437080415,-6.6871409497470164,234211.96263831187,10.5,10500234211.962639,47.655,-122.3035,60.0,4.3
2026-01-20T23:04:19+00:00,SAT-53505,293.4301335346016,37.537062599422036,3343.175062230269,-6.686062431610808,234174.18837105462,10.5,10500234174.188372,47.655,-122.3035,60.0,4.316666666666666
2026-01-20T23:04:20+00:00,SAT-53505,293.38166554093203,37.59084822817454,3336.506829298476,-6.684969250662416,234135.90055009112,10.5,10500234135.90055,47.655,-122.3035,60.0,4.333333333333333
2026-01-20T23:04:21+00:00,SAT-53505,293.33291907304357,37.644699845668185,3329.839686632482,-6.683861297078597,234097.09532894674,10.5,10500234097.09533,47.655,-122.3035,60.0,4.35
2026-01-20T23:04:22+00:00,SAT-53505,293.2838920738875,37.69861759800073,3323.173648965529,-6.6827384878635065,234057.76980075604,10.5,10500234057.7698,47.655,-122.3035,60.0,4.366666666666666
2026-01-20T23:04:23+00:00,SAT-53505,293.2345824673311,37.75260162982507,3316.508731113633,-6.681600700218035,234017.91966457464,10.5,10500234017.919664,47.655,-122.3035,60.0,4.383333333333334
2026-01-20T23:04:24+00:00,SAT-53505,293.18498815817935,37.80665208398726,3309.844948015282,-6.680447854764352,233977.54214025522,10.5,10500233977.542141,47.655,-122.3035,60.0,4.4
2026-01-20T23:04:25+00:00,SAT-53505,293.1351070317089,37.860769101832965,3303.1823146881306,-6.679279826863594,233936.63286241752,10.5,10500233936.632862,47.655,-122.3035,60.0,4.416666666666667
2026-01-20T23:04:26+00:00,SAT-53505,293.08493695372084,37.914952822799364,3296.520846274139,-6.678096529612719,233895.1887873495,10.5,10500233895.188787,47.655,-122.3035,60.0,4.433333333333334
2026-01-20T23:04:27+00:00,SAT-53505,293.03447577009894,37.969203384673875,3289.8605580019384,-6.676897875183222,233853.2068389253,10.5,10500233853.206839,47.655,-122.3035,60.0,4.45
2026-01-20T23:04:28+00:00,SAT-53505,292.9837213065806,38.023520923542165,3283.2014651877553,-6.675683697154474,233810.68118839056,10.5,10500233810.681189,47.655,-122.3035,60.0,4.466666666666667
2026-01-20T23:04:29+00:00,SAT-53505,292.9326713690667,38.0779055731034,3276.5435833137935,-6.674453938893511,233767.60985221938,10.5,10500233767.609852,47.655,-122.3035,60.0,4.483333333333333
2026-01-20T23:04:30+00:00,SAT-53505,292.88132374265956,38.13235746551203,3269.886927918737,-6.673208487376834,233723.98887185063,10.5,10500233723.988873,47.655,-122.3035,60.0,4.5
2026-01-20T23:04:31+00:00,SAT-53505,292.8296761918226,38.18687673087257,3263.231514653993,-6.671947239675197,233679.81464226687,10.5,10500233679.814642,47.655,-122.3035,60.0,4.516666666666667
2026-01-20T23:04:32+00:00,SAT-53505,292.77772646005724,38.24146349727122,3256.5773592736236,-6.6706700529249785,233635.0821597796,10.5,10500233635.082159,47.655,-122.3035,60.0,4.533333333333333
2026-01-20T23:04:33+00:00,SAT-53505,292.72547226997614,38.29611789039808,3249.924477674173,-6.669376855321329,233589.78890947936,10.5,10500233589.78891,47.655,-122.3035,60.0,4.55
2026-01-20T23:04:34+00:00,SAT-53505,292.6729113225523,38.350840034075254,3243.2728858237992,-6.668067518542316,233543.93039698925,10.5,10500233543.930397,47.655,-122.3035,60.0,4.566666666666666
2026-01-20T23:04:35+00:00,SAT-53505,292.6200412972914,38.40563004974155,3236.62259981864,-6.666741913253123,233497.50209245688,10.5,10500233497.502092,47.655,-122.3035,60.0,4.583333333333333
2026-01-20T23:04:36+00:00,SAT-53505,292.56685985198453,38.46048805638857,3229.973635883822,-6.665399953253579,233450.50097678768,10.5,10500233450.500977,47.655,-122.3035,60.0,4.6
2026-01-20T23:04:37+00:00,SAT-53505,292.51336462217256,38.5154141708586,3223.3260103304438,-6.664041518163699,233402.92283376536,10.5,10500233402.922834,47.655,-122.3035,60.0,4.616666666666666
2026-01-20T23:04:38+00:00,SAT-53505,292.459553221126,38.57040850750753,3216.679739589662,-6.662666486275524,233354.7634006623,10.5,10500233354.763401,47.655,-122.3035,60.0,4.633333333333334
2026-01-20T23:04:39+00:00,SAT-53505,292.405423239627,38.625471178134404,3210.034840214016,-6.661274723954694,233306.0179970381,10.5,10500233306.017998,47.655,-122.3035,60.0,4.65
2026-01-20T23:04:40+00:00,SAT-53505,292.35097224577135,38.680602291824066,3203.391328889326,-6.659866145966661,233256.68363761817,10.5,10500233256.683638,47.655,-122.3035,60.0,4.666666666666667
2026-01-20T23:04:41+00:00,SAT-53505,292.29619778440497,38.735801955283975,3196.749222386415,-6.658440605259048,233206.75517200635,10.5,10500233206.755173,47.655,-122.3035,60.0,4.683333333333334
2026-01-20T23:04:42+00:00,SAT-53505,292.24109737727406,38.791070272272535,3190.1085376227697,-6.656998008866261,233156.2293441543,10.5,10500233156.229343,47.655,-122.3035,60.0,4.7
2026-01-20T23:04:43+00:00,SAT-53505,292.1856685223986,38.84640734398178,3183.4692916085937,-6.655538207369659,233105.1009207891,10.5,10500233105.100922,47.655,-122.3035,60.0,4.716666666666667
2026-01-20T23:04:44+00:00,SAT-53505,292.12990869419826,38.901813268505556,3176.8315015031108,-6.6540610777373645,233053.36559281396,10.5,10500233053.365593,47.655,-122.3035,60.0,4.733333333333333
2026-01-20T23:04:45+00:00,SAT-53505,292.0738153430551,38.95728814098931,3170.1951845882472,-6.652566523510283,233001.01998182348,10.5,10500233001.019981,47.655,-122.3035,60.0,4.75
2026-01-20T23:04:46+00:00,SAT-53505,292.017385894824,39.01283205378481,3163.560358242133,-6.651054397106476,232948.0589188738,10.5,10500232948.058918,47.655,-122.3035,60.0,4.766666666666667
2026-01-20T23:04:47+00:00,SAT-53505,291.96061775096183,39.06844509595447,3156.9270399900856,-6.649524572015814,232894.47797304508,10.5,10500232894.477974,47.655,-122.3035,60.0,4.783333333333333
2026-01-20T23:04:48+00:00,SAT-53505,291.9035082880623,39.12412735337574,3150.295247483595,-6.647976942358836,232840.2734359908,10.5,10500232840.273436,47.655,-122.3035,60.0,4.8
2026-01-20T23:04:49+00:00,SAT-53505,291.8460548574618,39.17987890884026,3143.664998479749,-6.646411345983965,232785.43962847666,10.5,10500232785.439629,47.655,-122.3035,60.0,4.816666666666666
2026-01-20T23:04:50+00:00,SAT-53505,291.788254785338,39.23569984150991,3137.0363108973547,-6.644827669027098,232729.9725625003,10.5,10500232729.972563,47.655,-122.3035,60.0,4.833333333333333
2026-01-20T23:04:51+00:00,SAT-53505,291.7301053720962,39.29159022724387,3130.409202768778,-6.643225796427283,232673.8682081404,10.5,10500232673.868208,47.655,-122.3035,60.0,4.85
2026-01-20T23:04:52+00:00,SAT-53505,291.67160389205696,39.347550138511785,3123.783692241141,-6.641605562101853,232617.12074847947,10.5,10500232617.120749,47.655,-122.3035,60.0,4.866666666666666
2026-01-20T23:04:53+00:00,SAT-53505,291.6127475935739,39.403579643886516,3117.159797627205,-6.639966859337874,232559.7264459791,10.5,10500232559.726446,47.655,-122.3035,60.0,4.883333333333334
2026-01-20T23:04:54+00:00,SAT-53505,291.5535336982782,39.45967880846105,3110.537537346159,-6.638309519500911,232501.6793943481,10.5,10500232501.679394,47.655,-122.3035,60.0,4.9
2026-01-20T23:04:55+00:00,SAT-53505,291.4939594012484,39.51584769324492,3103.9169299853766,-6.636633460765039,232442.97672769646,10.5,10500232442.976728,47.655,-122.3035,60.0,4.916666666666667
2026-01-20T23:04:56+00:00,SAT-53505,291.4340218700455,39.57208635581139,3097.29799421384,-6.63493848972367,232383.61167210728,10.5,10500232383.611671,47.655,-122.3035,60.0,4.933333333333334
2026-01-20T23:04:57+00:00,SAT-53505,291.3737182452609,39.62839484927021,3090.6807488934223,-6.633224494267077,232323.58030102382,10.5,10500232323.580301,47.655,-122.3035,60.0,4.95
2026-01-20T23:04:58+00:00,SAT-53505,291.3130456395909,39.684773222864585,3084.0652129978066,-6.631491322356746,232262.87728941411,10.5,10500232262.877289,47.655,-122.3035,60.0,4.966666666666667
2026-01-20T23:04:59+00:00,SAT-53505,291.252001137819,39.74122152154418,3077.45140565231,-6.629738853541033,232201.4984185521,10.5,10500232201.498419,47.655,-122.3035,60.0,4.983333333333333
2026-01-20T23:05:00+00:00,SAT-53505,291.19058179625586,39.79773978614086,3070.839346102378,-6.627966916443149,232139.4376860977,10.5,10500232139.437687,47.655,-122.3035,60.0,5.0
2026-01-20T23:05:01+00:00,SAT-53505,291.12878464282545,39.854328052841744,3064.2290537643785,-6.626175365731554,232076.69000192563,10.5,10500232076.690002,47.655,-122.3035,60.0,5.016666666666667
2026-01-20T23:05:02+00:00,SAT-53505,291.06660667654063,39.910986353314264,3057.6205481996226,-6.624364087751026,232013.25138534931,10.5,10500232013.251385,47.655,-122.3035,60.0,5.033333333333333
2026-01-20T23:05:03+00:00,SAT-53505,291.00404486689257,39.967714714878326,3051.013849082772,-6.622532890186634,231949.11510068626,10.5,10500231949.1151,47.655,-122.3035,60.0,5.05
2026-01-20T23:05:04+00:00,SAT-53505,290.9410961541983,40.02451315973484,3044.4089762802923,-6.620681656418202,231884.2770634047,10.5,10500231884.277063,47.655,-122.3035,60.0,5.066666666666666
2026-01-20T23:05:05+00:00,SAT-53505,290.8777574486044,40.0813817055093,3037.805949774958,-6.618810235191396,231818.73197593802,10.5,10500231818.731976,47.655,-122.3035,60.0,5.083333333333333
2026-01-20T23:05:06+00:00,SAT-53505,290.81402563006765,40.1383203648521,3031.204789700394,-6.616918446339766,231752.47352809503,10.5,10500231752.473528,47.655,-122.3035,60.0,5.1
2026-01-20T23:05:07+00:00,SAT-53505,290.74989754822707,40.195329145083164,3024.6055163699116,-6.615006157580824,231685.49708678346,10.5,10500231685.497087,47.655,-122.3035,60.0,5.116666666666666
2026-01-20T23:05:08+00:00,SAT-53505,290.6853700216839,40.252408048492676,3018.0081502287503,-6.613073213132503,231617.79719585634,10.5,10500231617.797195,47.655,-122.3035,60.0,5.133333333333334
2026-01-20T23:05:09+00:00,SAT-53505,290.6204398378194,40.30955707202945,3011.4127118775195,-6.611119439132313,231549.36776591386,10.5,10500231549.367765,47.655,-122.3035,60.0,5.15
2026-01-20T23:05:10+00:00,SAT-53505,290.55510375261923,40.36677620702958,3004.819222090225,-6.6091446931354,231480.2038079347,10.5,10500231480.203808,47.655,-122.3035,60.0,5.166666666666667
2026-01-20T23:05:11+00:00,SAT-53505,290.489358490029,40.42406543937208,2998.2277017829383,-6.607148809055545,231410.29950487686,10.5,10500231410.299505,47.655,-122.3035,60.0,5.183333333333334
2026-01-20T23:05:12+00:00,SAT-53505,290.4232007418134,40.481424749155586,2991.6381720373734,-6.605131624766069,231339.6491783783,10.5,10500231339.649178,47.655,-122.3035,60.0,5.2
2026-01-20T23:05:13+00:00,SAT-53505,290.3566271671304,40.538854110611325,2985.05065409694,-6.603092976386421,231268.24708864896,10.5,10500231268.24709,47.655,-122.3035,60.0,5.216666666666667
2026-01-20T23:05:14+00:00,SAT-53505,290.2896343922143,40.59635349196346,2978.4651693684905,-6.601032698492595,231196.08744184035,10.5,10500231196.087442,47.655,-122.3035,60.0,5.233333333333333
2026-01-20T23:05:15+00:00,SAT-53505,290.2222190099704,40.65392285529016,2971.881739423861,-6.5989506348664735,231123.16476653318,10.5,10500231123.164766,47.655,-122.3035,60.0,5.25
2026-01-20T23:05:16+00:00,SAT-53505,290.1543775795516,40.71156215647383,2965.300385990687,-6.596846578281953,231049.47180479273,10.5,10500231049.471806,47.655,-122.3035,60.0,5.266666666666667
2026-01-20T23:05:17+00:00,SAT-53505,290.08610662641706,40.76927134462464,2958.721131003281,-6.594720407505751,230975.00431051664,10.5,10500230975.00431,47.655,-122.3035,60.0,5.283333333333333
2026-01-20T23:05:18+00:00,SAT-53505,290.0174026411758,40.827050362695296,2952.1439965168615,-6.592571922839004,230899.75528940605,10.5,10500230899.75529,47.655,-122.3035,60.0,5.3
2026-01-20T23:05:19+00:00,SAT-53505,289.9482620798977,40.88489914665978,2945.5690047858166,-6.590400955667102,230823.718835864,10.5,10500230823.718836,47.655,-122.3035,60.0,5.316666666666666
2026-01-20T23:05:20+00:00,SAT-53505,289.8786813634616,40.94281762564277,2938.996178232698,-6.588207341155568,230746.88917668993,10.5,10500230746.889177,47.655,-122.3035,60.0,5.333333333333333
2026-01-20T23:05:21+00:00,SAT-53505,289.8086568770767,41.000805721811005,2932.425539444452,-6.585990857780556,230669.25855318157,10.5,10500230669.258553,47.655,-122.3035,60.0,5.35
2026-01-20T23:05:22+00:00,SAT-53505,289.7381849704646,41.05886334972757,2925.857111228959,-6.583751391903614,230590.82298523982,10.5,10500230590.822985,47.655,-122.3035,60.0,5.366666666666666
2026-01-20T23:05:23+00:00,SAT-53505,289.6672619563848,41.11699041715099,2919.2909165074343,-6.581488723813205,230511.5747776372,10.5,10500230511.574778,47.655,-122.3035,60.0,5.383333333333334
2026-01-20T23:05:24+00:00,SAT-53505,289.5958841112675,41.175186823949765,2912.7269784202176,-6.579202670410456,230431.50751747657,10.5,10500230431.507517,47.655,-122.3035,60.0,5.4
2026-01-20T23:05:25+00:00,SAT-53505,289.5240476744196,41.233452462268225,2906.165320290261,-6.576893046658642,230350.61472398933,10.5,10500230350.614723,47.655,-122.3035,60.0,5.416666666666667
2026-01-20T23:05:26+00:00,SAT-53505,289.4517488476479,41.29178721634967,2899.605965625061,-6.574559676583624,230268.89023381652,10.5,10500230268.890234,47.655,-122.3035,60.0,5.433333333333334
2026-01-20T23:05:27+00:00,SAT-53505,289.37898379473324,41.35019096245424,2893.0489381076145,-6.5722023658228474,230186.3272395595,10.5,10500230186.32724,47.655,-122.3035,60.0,5.45
2026-01-20T23:05:28+00:00,SAT-53505,289.3057486411844,41.40866356853038,2886.4942616147673,-6.56982092909514,230102.91925188783,10.5,10500230102.919252,47.655,-122.3035,60.0,5.466666666666667
2026-01-20T23:05:29+00:00,SAT-53505,289.23203947370996,41.46720489412555,2879.94196020815,-6.567415151736096,230018.65875234595,10.5,10500230018.658752,47.655,-122.3035,60.0,5.483333333333333
2026-01-20T23:05:30+00:00,SAT-53505,289.15785234008916,41.52581478995173,2873.392058163485,-6.564984877254173,229933.54025993816,10.5,10500229933.54026,47.655,-122.3035,60.0,5.5
2026-01-20T23:05:31+00:00,SAT-53505,289.0831832481242,41.58449309822703,2866.84457991257,-6.5625298760976865,229847.5557347934,10.5,10500229847.555735,47.655,-122.3035,60.0,5.516666666666667
2026-01-20T23:05:32+00:00,SAT-53505,289.00802816595336,41.64323965184368,2860.2995501161417,-6.5600499603803275,229760.6985963384,10.5,10500229760.698597,47.655,-122.3035,60.0,5.533333333333333
2026-01-20T23:05:33+00:00,SAT-53505,288.93238302116185,41.70205427455534,2853.7569936223226,-6.557544918324885,229672.9614272394,10.5,10500229672.961428,47.655,-122.3035,60.0,5.55
2026-01-20T23:05:34+00:00,SAT-53505,288.85624370058724,41.7609367805757,2847.2169354904468,-6.555014579741773,229584.3382667372,10.5,10500229584.338266,47.655,-122.3035,60.0,5.566666666666666
2026-01-20T23:05:35+00:00,SAT-53505,288.7796060494077,41.81988697475915,2840.6794009495843,-6.552458701357876,229494.82059437834,10.5,10500229494.820595,47.655,-122.3035,60.0,5.583333333333333
2026-01-20T23:05:36+00:00,SAT-53505,288.7024658714636,41.87890465174928,2834.14441547143,-6.549877097823924,229404.40191844717,10.5,10500229404.401918,47.655,-122.3035,60.0,5.6
2026-01-20T23:05:37+00:00,SAT-53505,288.6248189281598,41.937989596298664,2827.6120047125337,-6.54726954889017,229313.07452486607,10.5,10500229313.074524,47.655,-122.3035,60.0,5.616666666666666
2026-01-20T23:05:38+00:00,SAT-53505,288.5466609383811,41.99714158275097,2821.082194549107,-6.5446358757186545,229220.8321499731,10.5,10500229220.83215,47.655,-122.3035,60.0,5.633333333333334
2026-01-20T23:05:39+00:00,SAT-53505,288.4679875775547,42.05636037520576,2814.5550110357235,-6.541975788304944,229127.6646365864,10.5,10500229127.664637,47.655,-122.3035,60.0,5.65
2026-01-20T23:05:40+00:00,SAT-53505,288.3887944783854,42.115645726302105,2808.0304805161873,-6.539289168748665,229033.56785533606,10.5,10500229033.567856,47.655,-122.3035,60.0,5.666666666666667
2026-01-20T23:05:41+00:00,SAT-53505,288.30907722847996,42.174997378556185,2801.508629451889,-6.536575711694097,228938.5311113731,10.5,10500228938.53111,47.655,-122.3035,60.0,5.683333333333334
2026-01-20T23:05:42+00:00,SAT-53505,288.22883137193037,42.234415062444015,2794.989484608759,-6.533835261972089,228842.54897001758,10.5,10500228842.54897,47.655,-122.3035,60.0,5.7
2026-01-20T23:05:43+00:00,SAT-53505,288.14805240713633,42.293898497535636,2788.473072907486,-6.531067558656005,228745.61229251488,10.5,10500228745.612293,47.655,-122.3035,60.0,5.716666666666667
2026-01-20T23:05:44+00:00,SAT-53505,288.06673578751077,42.35344739130436,2781.9594215289862,-6.528272376655819,228647.71319526024,10.5,10500228647.713196,47.655,-122.3035,60.0,5.733333333333333
2026-01-20T23:05:45+00:00,SAT-53505,287.9848769205411,42.41306143921606,2775.448557878668,-6.525449526447739,228548.8450403287,10.5,10500228548.845041,47.655,-122.3035,60.0,5.75
2026-01-20T23:05:46+00:00,SAT-53505,287.90247116692495,42.47274032481292,2768.9405095509574,-6.522598718412056,228448.9976840131,10.5,10500228448.997684,47.655,-122.3035,60.0,5.766666666666667
2026-01-20T23:05:47+00:00,SAT-53505,287.81951384113967,42.532483718554786,2762.435304429128,-6.519719779973603,228348.16508200095,10.5,10500228348.165083,47.655,-122.3035,60.0,5.783333333333333
2026-01-20T23:05:48+00:00,SAT-53505,287.73600020963454,42.592291278636765,2755.9329705685677,-6.516812427479678,228246.3372995748,10.5,10500228246.3373,47.655,-122.3035,60.0,5.8
2026-01-20T23:05:49+00:00,SAT-53505,287.6519254915536,42.65216264971833,2749.433536307561,-6.513876483398952,228143.50811883665,10.5,10500228143.50812,47.655,-122.3035,60.0,5.816666666666666
2026-01-20T23:05:50+00:00,SAT-53505,287.56728485701257,42.71209746363367,2742.9370301614517,-6.510911615781584,228039.66591349884,10.5,10500228039.665913,47.655,-122.3035,60.0,5.833333333333333
2026-01-20T23:05:51+00:00,SAT-53505,287.4820734283289,42.77209533770795,2736.4434809766453,-6.507917669133673,227934.80523750721,10.5,10500227934.805237,47.655,-122.3035,60.0,5.85
2026-01-20T23:05:52+00:00,SAT-53505,287.3962862774759,42.83215587610589,2729.952917754629,-6.504894360658358,227828.91618611952,10.5,10500227828.916185,47.655,-122.3035,60.0,5.866666666666666
2026-01-20T23:05:53+00:00,SAT-53505,287.3099184269863,42.89227866838489,2723.4653697789327,-6.501841459191372,227721.99066298525,10.5,10500227721.990664,47.655,-122.3035,60.0,5.883333333333334
2026-01-20T23:05:54+00:00,SAT-53505,287.22296484883327,42.95246328968588,2716.980866563633,-6.49875867678759,227614.0185830482,10.5,10500227614.018583,47.655,-122.3035,60.0,5.9
2026-01-20T23:05:55+00:00,SAT-53505,287.1354204645486,43.01270929991992,2710.499437909983,-6.495645809499436,227504.99280320146,10.5,10500227504.992804,47.655,-122.3035,60.0,5.916666666666667
2026-01-20T23:05:56+00:00,SAT-53505,287.0472801436791,43.0730162442496,2704.0211138226423,-6.492502574860395,227394.9034302729,10.5,10500227394.90343,47.655,-122.3035,60.0,5.933333333333334
2026-01-20T23:05:57+00:00,SAT-53505,286.95853870415317,43.13338365206197,2697.5459245879815,-6.4893287364288454,227283.74218307677,10.5,10500227283.742184,47.655,-122.3035,60.0,5.95
2026-01-20T23:05:58+00:00,SAT-53505,286.8691909112018,43.193811037087386,2691.0739007281827,-6.486123979328585,227171.4980333166,10.5,10500227171.498034,47.655,-122.3035,60.0,5.966666666666667
2026-01-20T23:05:59+00:00,SAT-53505,286.7792314777097,43.254297896356775,2684.605073079466,-6.482888104826378,227058.16402051368,10.5,10500227058.16402,47.655,-122.3035,60.0,5.983333333333333
2026-01-20T23:06:00+00:00,SAT-53505,286.6886550622711,43.31484371096187,2678.1394726762524,-6.479620824870371,226943.73005587384,10.5,10500226943.730057,47.655,-122.3035,60.0,6.0
2026-01-20T23:06:01+00:00,SAT-53505,286.5974562696773,43.37544794489842,2671.6771308402485,-6.476321848622654,226828.1859530231,10.5,10500226828.185953,47.655,-122.3035,60.0,6.016666666666667
2026-01-20T23:06:02+00:00,SAT-53505,286.50562965042195,43.436110044705565,2665.2180791832225,-6.472990909388805,226711.52237119473,10.5,10500226711.522371,47.655,-122.3035,60.0,6.033333333333333
2026-01-20T23:06:03+00:00,SAT-53505,286.41316969979266,43.496829439350826,2658.762349582925,-6.469627780678653,226593.73137774487,10.5,10500226593.731379,47.655,-122.3035,60.0,6.05
2026-01-20T23:06:04+00:00,SAT-53505,286.3200708568045,43.55760554026153,2652.3099741429946,-6.4662321144150186,226474.80078153833,10.5,10500226474.800781,47.655,-122.3035,60.0,6.066666666666666
2026-01-20T23:06:05+00:00,SAT-53505,286.2263275051295,43.618437739830526,2645.8609853142184,-6.462803683588836,226354.7226317574,10.5,10500226354.722631,47.655,-122.3035,60.0,6.083333333333333
2026-01-20T23:06:06+00:00,SAT-53505,286.13193397100815,43.67932541219102,2639.4154157737858,-6.459342161133241,226233.48547313703,10.5,10500226233.485474,47.655,-122.3035,60.0,6.1
2026-01-20T23:06:07+00:00,SAT-53505,286.0368845239031,43.7402679119081,2632.973298525082,-6.4558472924067525,226111.08038705532,10.5,10500226111.080387,47.655,-122.3035,60.0,6.116666666666666
2026-01-20T23:06:08+00:00,SAT-53505,285.9411733750139,43.80126457428458,2626.534666825455,-6.452318781944626,225987.49702508718,10.5,10500225987.497025,47.655,-122.3035,60.0,6.133333333333334
2026-01-20T23:06:09+00:00,SAT-53505,285.8447946771613,43.86231471459355,2620.099554226929,-6.448756325820261,225862.72474243745,10.5,10500225862.724743,47.655,-122.3035,60.0,6.15
2026-01-20T23:06:10+00:00,SAT-53505,285.7477425243469,43.923417627606995,2613.667994584644,-6.445159627711036,225736.7531606345,10.5,10500225736.75316,47.655,-122.3035,60.0,6.166666666666667
2026-01-20T23:06:11+00:00,SAT-53505,285.6500109510332,43.98457258726838,2607.2400220492736,-6.441528393514241,225609.57197895728,10.5,10500225609.57198,47.655,-122.3035,60.0,6.183333333333334
2026-01-20T23:06:12+00:00,SAT-53505,285.55159393151496,44.04577884630688,2600.815671064809,-6.437862347328541,225481.1715341741,10.5,10500225481.171534,47.655,-122.3035,60.0,6.2
2026-01-20T23:06:13+00:00,SAT-53505,285.45248537904575,44.10703563599642,2594.3949763504065,-6.434161113398094,225351.53866572585,10.5,10500225351.538666,47.655,-122.3035,60.0,6.216666666666667
2026-01-20T23:06:14+00:00,SAT-53505,285.3526791466377,44.16834216478187,2587.9779729999773,-6.430424457567758,225220.66517250898,10.5,10500225220.665173,47.655,-122.3035,60.0,6.233333333333333
2026-01-20T23:06:15+00:00,SAT-53505,285.2521690244547,44.22969761919487,2581.564696340963,-6.426652029675128,225088.5387903549,10.5,10500225088.53879,47.655,-122.3035,60.0,6.25
2026-01-20T23:06:16+00:00,SAT-53505,285.1509487408434,44.29110116230928,2575.155182050034,-6.422843503050259,224955.14807790035,10.5,10500224955.148077,47.655,-122.3035,60.0,6.266666666666667
2026-01-20T23:06:17+00:00,SAT-53505,285.0490119613822,44.35255193351439,2568.7494661296582,-6.418998585079519,224820.48278657816,10.5,10500224820.482786,47.655,-122.3035,60.0,6.283333333333333
2026-01-20T23:06:18+00:00,SAT-53505,284.94635228779066,44.4140490483829,2562.347584874139,-6.415116947555601,224684.53142118012,10.5,10500224684.531422,47.655,-122.3035,60.0,6.3
2026-01-20T23:06:19+00:00,SAT-53505,284.842963257796,44.47559159786393,2555.9495749051107,-6.411198248127438,224547.2819911237,10.5,10500224547.281992,47.655,-122.3035,60.0,6.316666666666666
2026-01-20T23:06:20+00:00,SAT-53505,284.73883834476163,44.53717864767016,2549.5554731856446,-6.407242178292416,224408.7236913424,10.5,10500224408.723692,47.655,-122.3035,60.0,6.333333333333333
2026-01-20T23:06:21+00:00,SAT-53505,284.6339709565304,44.598809238116935,2543.1653169864944,-6.4032483939654234,224268.84447052015,10.5,10500224268.844471,47.655,-122.3035,60.0,6.35
2026-01-20T23:06:22+00:00,SAT-53505,284.5283544353731,44.66048238328515,2536.77914392158,-6.399216536754453,224127.63177625288,10.5,10500224127.631777,47.655,-122.3035,60.0,6.366666666666666
2026-01-20T23:06:23+00:00,SAT-53505,284.4219820575458,44.722197070377305,2530.3969919622564,-6.395146324686473,223985.07573265224,10.5,10500223985.075733,47.655,-122.3035,60.0,6.383333333333334
2026-01-20T23:06:24+00:00,SAT-53505,284.3148470315707,44.783952259940584,2524.0188993611023,-6.3910373333618935,223841.1614754494,10.5,10500223841.161476,47.655,-122.3035,60.0,6.4
2026-01-20T23:06:25+00:00,SAT-53505,284.20694249970416,44.845746883964715,2517.6449047939627,-6.3868892893513625,223695.87942799184,10.5,10500223695.879429,47.655,-122.3035,60.0,6.416666666666667
2026-01-20T23:06:26+00:00,SAT-53505,284.0982615350984,44.90757984680749,2511.275047209383,-6.382701792755549,223549.2155841134,10.5,10500223549.215584,47.655,-122.3035,60.0,6.433333333333334
2026-01-20T23:06:27+00:00,SAT-53505,283.9887971430462,44.969450023423725,2504.9093659547416,-6.378474514551451,223401.1584200368,10.5,10500223401.15842,47.655,-122.3035,60.0,6.45
2026-01-20T23:06:28+00:00,SAT-53505,283.8785422593414,45.03135625949604,2498.5479007055624,-6.374207073839024,223251.6945950313,10.5,10500223251.694595,47.655,-122.3035,60.0,6.466666666666667
2026-01-20T23:06:29+00:00,SAT-53505,283.7674897504105,45.09329737036318,2492.1906915172535,-6.369899128455242,223100.81212510035,10.5,10500223100.812124,47.655,-122.3035,60.0,6.483333333333333
2026-01-20T23:06:30+00:00,SAT-53505,283.65563241215085,45.1552721408188,2485.837778786474,-6.365550295016393,222948.4975825247,10.5,10500222948.497583,47.655,-122.3035,60.0,6.5
2026-01-20T23:06:31+00:00,SAT-53505,283.5429629699228,45.21727932412013,2479.4892032922444,-6.361160207401974,222794.73814421552,10.5,10500222794.738144,47.655,-122.3035,60.0,6.516666666666667
2026-01-20T23:06:32+00:00,SAT-53505,283.42947407770384,45.279317641554876,2473.1450061787286,-6.356728484867961,222639.52047490666,10.5,10500222639.520475,47.655,-122.3035,60.0,6.533333333333333
2026-01-20T23:06:33+00:00,SAT-53505,283.3151583176922,45.341385781686064,2466.8052289698203,-6.352254763767865,222482.8318381598,10.5,10500222482.831839,47.655,-122.3035,60.0,6.55
2026-01-20T23:06:34+00:00,SAT-53505,283.2000081994634,45.40348239989485,2460.469913552089,-6.347738644522025,222324.658239005,10.5,10500222324.65824,47.655,-122.3035,60.0,6.566666666666666
2026-01-20T23:06:35+00:00,SAT-53505,283.08401615991687,45.46560611739249,2454.1391022106195,-6.343179739278457,222164.98609322522,10.5,10500222164.986094,47.655,-122.3035,60.0,6.583333333333333
2026-01-20T23:06:36+00:00,SAT-53505,282.96717456254714,45.52775552068658,2447.8128376173127,-6.33857767183866,222003.80222475756,10.5,10500222003.802225,47.655,-122.3035,60.0,6.6
2026-01-20T23:06:37+00:00,SAT-53505,282.8494756966073,45.589929161033986,2441.4911628192654,-6.333932024667061,221841.0920097401,10.5,10500221841.09201,47.655,-122.3035,60.0,6.616666666666666
2026-01-20T23:06:38+00:00,SAT-53505,282.7309117772589,45.652125553362026,2435.1741212799975,-6.329242428819992,221676.84252620497,10.5,10500221676.842525,47.655,-122.3035,60.0,6.633333333333334
2026-01-20T23:06:39+00:00,SAT-53505,282.6114749441497,45.714343176060204,2428.8617568309874,-6.324508431684045,221511.03792171605,10.5,10500221511.037922,47.655,-122.3035,60.0,6.65
2026-01-20T23:06:40+00:00,SAT-53505,282.49115726229786,45.77658046945651,2422.5541137551213,-6.319729655508613,221343.66496584925,10.5,10500221343.664967,47.655,-122.3035,60.0,6.666666666666667
2026-01-20T23:06:41+00:00,SAT-53505,282.36995072022575,45.83883583584268,2416.2512367120275,-6.314905691622489,221174.7093452102,10.5,10500221174.709345,47.655,-122.3035,60.0,6.683333333333334
2026-01-20T23:06:42+00:00,SAT-53505,282.2478472299417,45.90110763844399,2409.9531707689157,-6.310036105746803,221004.15584951584,10.5,10500221004.15585,47.655,-122.3035,60.0,6.7
2026-01-20T23:06:43+00:00,SAT-53505,282.12483862684957,45.963394200427516,2403.659961426118,-6.3051204801706415,220831.9898487631,10.5,10500220831.98985,47.655,-122.3035,60.0,6.716666666666667
2026-01-20T23:06:44+00:00,SAT-53505,282.0009166689231,46.02569380431183,2397.3716546005608,-6.300158376684561,220658.1959950036,10.5,10500220658.195995,47.655,-122.3035,60.0,6.733333333333333
2026-01-20T23:06:45+00:00,SAT-53505,281.87607303651697,46.08800469099629,2391.088296646214,-6.29514939988494,220482.76043953001,10.5,10500220482.760439,47.655,-122.3035,60.0,6.75
2026-01-20T23:06:46+00:00,SAT-53505,281.7502993311285,46.15032505940663,2384.8099343113954,-6.290093065327548,220305.6662150562,10.5,10500220305.666216,47.655,-122.3035,60.0,6.766666666666667
2026-01-20T23:06:47+00:00,SAT-53505,281.6235870764414,46.21265306481301,2378.5366148275757,-6.284988957594565,220126.89877189283,10.5,10500220126.898771,47.655,-122.3035,60.0,6.783333333333333
2026-01-20T23:06:48+00:00,SAT-53505,281.4959277166346,46.274986818706765,2372.268385840535,-6.27983662476833,219946.44228197183,10.5,10500219946.442282,47.655,-122.3035,60.0,6.8
2026-01-20T23:06:49+00:00,SAT-53505,281.3673126165294,46.33732438761178,2366.0052954467656,-6.274635615373846,219764.28093272907,10.5,10500219764.280933,47.655,-122.3035,60.0,6.816666666666666
2026-01-20T23:06:50+00:00,SAT-53505,281.23773306113566,46.399663792249164,2359.7473921930327,-6.269385472978431,219580.39873796134,10.5,10500219580.398739,47.655,-122.3035,60.0,6.833333333333333
2026-01-20T23:06:51+00:00,SAT-53505,281.10718025526455,46.46200300663189,2353.4947250813157,-6.264085730956547,219394.77935446842,10.5,10500219394.779354,47.655,-122.3035,60.0,6.85
2026-01-20T23:06:52+00:00,SAT-53505,280.9756453233189,46.524339957092415,2347.247343578975,-6.258735933336976,219207.40681220958,10.5,10500219207.406813,47.655,-122.3035,60.0,6.866666666666666
2026-01-20T23:06:53+00:00,SAT-53505,280.84311930862805,46.5866725215029,2341.005297608127,-6.253335608551741,219018.26459487947,10.5,10500219018.264595,47.655,-122.3035,60.0,6.883333333333334
2026-01-20T23:06:54+00:00,SAT-53505,280.7095931733626,46.64899852821654,2334.768637561198,-6.247884279934408,218827.33600760327,10.5,10500218827.336008,47.655,-122.3035,60.0,6.9
2026-01-20T23:06:55+00:00,SAT-53505,280.57505779823185,46.71131575509902,2328.5374143060103,-6.242381434263819,218634.60307520512,10.5,10500218634.603075,47.655,-122.3035,60.0,6.916666666666667
2026-01-20T23:06:56+00:00,SAT-53505,280.4395039828448,46.773621928226596,2322.3116792222377,-6.236826631393191,218440.05038188284,10.5,10500218440.050383,47.655,-122.3035,60.0,6.933333333333334
2026-01-20T23:06:57+00:00,SAT-53505,280.30292244390307,46.83591472166711,2316.0914841285285,-6.231219352770649,218243.65976575643,10.5,10500218243.659765,47.655,-122.3035,60.0,6.95
2026-01-20T23:06:58+00:00,SAT-53505,280.1653038164417,46.89819175572753,2309.876881360698,-6.225559105769626,218045.41397295948,10.5,10500218045.413973,47.655,-122.3035,60.0,6.966666666666667
2026-01-20T23:06:59+00:00,SAT-53505,280.0266386529778,46.960450596227425,2303.667923745877,-6.219845381952323,217845.2951958498,10.5,10500217845.295197,47.655,-122.3035,60.0,6.983333333333333
2026-01-20T23:07:00+00:00,SAT-53505,279.8869174235764,47.02268875333912,2297.464664618277,-6.21407769338965,217643.28634508653,10.5,10500217643.286345,47.655,-122.3035,60.0,7.0
2026-01-20T23:07:01+00:00,SAT-53505,279.74613051515325,47.08490368077601,2291.267157798736,-6.208255494589507,217439.36831522902,10.5,10500217439.368315,47.655,-122.3035,60.0,7.016666666666667
2026-01-20T23:07:02+00:00,SAT-53505,279.60426823242454,47.14709277417539,2285.075457652132,-6.202378286457974,217233.523625897,10.5,10500217233.523626,47.655,-122.3035,60.0,7.033333333333333
