satellites_20260121_005943/SAT-53490.csv

timestamp,satellite,azimuth_deg,elevation_deg,distance_km,relative_velocity_kms,doppler_shift_hz,tx_freq_ghz,rx_freq_hz,ue_lat,ue_lon,ue_alt_m,time_minutes
2026-01-20T23:04:27+00:00,SAT-53490,297.7036213788105,30.03893386357864,4333.75154457701,-6.740111489788797,236067.2150157372,10.5,10500236067.215015,47.655,-122.3035,60.0,4.45
2026-01-20T23:04:28+00:00,SAT-53490,297.68107337951267,30.084648259230313,4327.029406717861,-6.740487527704709,236080.3854541913,10.5,10500236080.385454,47.655,-122.3035,60.0,4.466666666666667
2026-01-20T23:04:29+00:00,SAT-53490,297.6584185164586,30.13040307357516,4320.306893823563,-6.740857020353264,236093.32664969604,10.5,10500236093.32665,47.655,-122.3035,60.0,4.483333333333333
2026-01-20T23:04:30+00:00,SAT-53490,297.635656179587,30.17619845071556,4313.584012421931,-6.74121988942694,236106.03585959083,10.5,10500236106.03586,47.655,-122.3035,60.0,4.5
2026-01-20T23:04:31+00:00,SAT-53490,297.6127857545142,30.22203453490286,4306.860769118876,-6.741576150960072,236118.51364546592,10.5,10500236118.513645,47.655,-122.3035,60.0,4.516666666666667
2026-01-20T23:04:32+00:00,SAT-53490,297.5898066222187,30.267911471178206,4300.137170504318,-6.741925748268369,236130.75802199758,10.5,10500236130.758022,47.655,-122.3035,60.0,4.533333333333333
2026-01-20T23:04:33+00:00,SAT-53490,297.5667181592194,30.31382940488011,4293.413223224713,-6.742268680267289,236142.76895120068,10.5,10500236142.768951,47.655,-122.3035,60.0,4.55
2026-01-20T23:04:34+00:00,SAT-53490,297.54351973736055,30.35978848202336,4286.688933927592,-6.742604884372107,236154.54424109336,10.5,10500236154.54424,47.655,-122.3035,60.0,4.566666666666666
2026-01-20T23:04:35+00:00,SAT-53490,297.52021072395996,30.40578884888184,4279.9643093229115,-6.742934342246257,236166.08324945153,10.5,10500236166.08325,47.655,-122.3035,60.0,4.583333333333333
2026-01-20T23:04:36+00:00,SAT-53490,297.496790481631,30.451830652290003,4273.239356138911,-6.743257057636841,236177.38610751453,10.5,10500236177.386108,47.655,-122.3035,60.0,4.6
2026-01-20T23:04:37+00:00,SAT-53490,297.4732583681844,30.497914039795255,4266.514081100095,-6.743572945152267,236188.44982450758,10.5,10500236188.449825,47.655,-122.3035,60.0,4.616666666666666
2026-01-20T23:04:38+00:00,SAT-53490,297.4496137368309,30.54403915905052,4259.78849101613,-6.743882018999308,236199.27489801205,10.5,10500236199.274899,47.655,-122.3035,60.0,4.633333333333334
2026-01-20T23:04:39+00:00,SAT-53490,297.42585593586824,30.590206158494667,4253.062592682514,-6.744184232347545,236209.85968782855,10.5,10500236209.859688,47.655,-122.3035,60.0,4.65
2026-01-20T23:04:40+00:00,SAT-53490,297.4019843087916,30.63641518693686,4246.336392941454,-6.744479543340003,236220.20272794866,10.5,10500236220.202728,47.655,-122.3035,60.0,4.666666666666667
2026-01-20T23:04:41+00:00,SAT-53490,297.37799819425845,30.68266639359073,4239.609898676896,-6.744767926797945,236230.30313650658,10.5,10500236230.303137,47.655,-122.3035,60.0,4.683333333333334
2026-01-20T23:04:42+00:00,SAT-53490,297.3538969259741,30.728959928189234,4232.883116797902,-6.7450493794662245,236240.16079949337,10.5,10500236240.160799,47.655,-122.3035,60.0,4.7
2026-01-20T23:04:43+00:00,SAT-53490,297.3296798326029,30.775295941135997,4226.156054216782,-6.745323836765357,236249.7734550622,10.5,10500236249.773455,47.655,-122.3035,60.0,4.716666666666667
2026-01-20T23:04:44+00:00,SAT-53490,297.3053462378845,30.821674583085475,4219.428717910247,-6.745591283663725,236259.1405767423,10.5,10500236259.140577,47.655,-122.3035,60.0,4.733333333333333
2026-01-20T23:04:45+00:00,SAT-53490,297.28089546045385,30.86809600528302,4212.701114870008,-6.74585167189214,236268.2604739425,10.5,10500236268.260473,47.655,-122.3035,60.0,4.75
2026-01-20T23:04:46+00:00,SAT-53490,297.2563268138854,30.914560359337504,4205.9732521359065,-6.746104985922455,236277.13260280143,10.5,10500236277.132603,47.655,-122.3035,60.0,4.766666666666667
2026-01-20T23:04:47+00:00,SAT-53490,297.23163960656046,30.961067797446304,4199.245136763279,-6.74635118810575,236285.7556446946,10.5,10500236285.755644,47.655,-122.3035,60.0,4.783333333333333
2026-01-20T23:04:48+00:00,SAT-53490,297.20683314166683,31.007618472244218,4192.516775845009,-6.746590240108022,236294.12825700318,10.5,10500236294.128258,47.655,-122.3035,60.0,4.8
2026-01-20T23:04:49+00:00,SAT-53490,297.18190671717656,31.054212536798698,4185.788176512207,-6.74682212603267,236302.2498829608,10.5,10500236302.249884,47.655,-122.3035,60.0,4.816666666666666
2026-01-20T23:04:50+00:00,SAT-53490,297.15685962570547,31.100850144764685,4179.0593459118445,-6.747046796031461,236310.11877667165,10.5,10500236310.118776,47.655,-122.3035,60.0,4.833333333333333
2026-01-20T23:04:51+00:00,SAT-53490,297.1316911545899,31.147531450151153,4172.3302912406025,-6.747264233498824,236317.73435653828,10.5,10500236317.734356,47.655,-122.3035,60.0,4.85
2026-01-20T23:04:52+00:00,SAT-53490,297.1064005857147,31.19425660755043,4165.601019711727,-6.7474743659981975,236325.09408552593,10.5,10500236325.094086,47.655,-122.3035,60.0,4.866666666666666
2026-01-20T23:04:53+00:00,SAT-53490,297.08098719565226,31.241025771752636,4158.871538610704,-6.747677204059893,236332.1983324506,10.5,10500236332.198332,47.655,-122.3035,60.0,4.883333333333334
2026-01-20T23:04:54+00:00,SAT-53490,297.0554502553486,31.287839098318667,4152.1418552125215,-6.7478727025478955,236339.04551645828,10.5,10500236339.045517,47.655,-122.3035,60.0,4.9
2026-01-20T23:04:55+00:00,SAT-53490,297.029789030239,31.334696743196503,4145.41197683718,-6.7480608270287945,236345.63443154513,10.5,10500236345.634432,47.655,-122.3035,60.0,4.916666666666667
2026-01-20T23:04:56+00:00,SAT-53490,297.00400278017787,31.381598862794313,4138.681910839024,-6.748241503960646,236351.9625019612,10.5,10500236351.962502,47.655,-122.3035,60.0,4.933333333333334
2026-01-20T23:04:57+00:00,SAT-53490,296.9780907594893,31.428545613709037,4131.9516646457405,-6.748414770697603,236358.031036007,10.5,10500236358.031036,47.655,-122.3035,60.0,4.95
2026-01-20T23:04:58+00:00,SAT-53490,296.9520522165883,31.475537153495853,4125.221245647765,-6.7485805364467115,236363.8368537292,10.5,10500236363.836853,47.655,-122.3035,60.0,4.966666666666667
2026-01-20T23:04:59+00:00,SAT-53490,296.9258863943123,31.522573639778567,4118.490661326082,-6.748738776783439,236369.37909967738,10.5,10500236369.379099,47.655,-122.3035,60.0,4.983333333333333
2026-01-20T23:05:00+00:00,SAT-53490,296.899592529668,31.56965523070956,4111.759919186036,-6.748889461562222,236374.65671802632,10.5,10500236374.656717,47.655,-122.3035,60.0,5.0
2026-01-20T23:05:01+00:00,SAT-53490,296.8731698537912,31.616782084929852,4105.029026763039,-6.7490325713588994,236379.66902845982,10.5,10500236379.66903,47.655,-122.3035,60.0,5.016666666666667
2026-01-20T23:05:02+00:00,SAT-53490,296.8466175918637,31.663954361643768,4098.29799161187,-6.749168036518395,236384.4135913624,10.5,10500236384.413591,47.655,-122.3035,60.0,5.033333333333333
2026-01-20T23:05:03+00:00,SAT-53490,296.8199349632034,31.71117222026818,4091.5668213567824,-6.749295842572199,236388.88989998572,10.5,10500236388.8899,47.655,-122.3035,60.0,5.05
2026-01-20T23:05:04+00:00,SAT-53490,296.79312118105327,31.758435820815816,4084.835523636457,-6.749415952716056,236393.096665289,10.5,10500236393.096664,47.655,-122.3035,60.0,5.066666666666666
2026-01-20T23:05:05+00:00,SAT-53490,296.7661754525718,31.80574532374019,4078.1041061262813,-6.7495283073205385,236397.03179879748,10.5,10500236397.0318,47.655,-122.3035,60.0,5.083333333333333
2026-01-20T23:05:06+00:00,SAT-53490,296.73909697887433,31.853100889773796,4071.372576561114,-6.7496329079184365,236400.69535419592,10.5,10500236400.695354,47.655,-122.3035,60.0,5.1
2026-01-20T23:05:07+00:00,SAT-53490,296.71188495475195,31.900502680356052,4064.640942674283,-6.749729683207533,236404.08483417917,10.5,10500236404.084835,47.655,-122.3035,60.0,5.116666666666666
2026-01-20T23:05:08+00:00,SAT-53490,296.68453856887317,31.947950857121768,4057.9092122702305,-6.7498186062608205,236407.19929564942,10.5,10500236407.199295,47.655,-122.3035,60.0,5.133333333333334
2026-01-20T23:05:09+00:00,SAT-53490,296.6570570035619,31.99544558221148,4051.1773931802536,-6.749899632968381,236410.03719369083,10.5,10500236410.037193,47.655,-122.3035,60.0,5.15
2026-01-20T23:05:10+00:00,SAT-53490,296.6294394348042,32.042987018149105,4044.44549327964,-6.749972741382742,236412.59775961007,10.5,10500236412.59776,47.655,-122.3035,60.0,5.166666666666667
2026-01-20T23:05:11+00:00,SAT-53490,296.60168503210764,32.09057532799706,4037.7135204655674,-6.750037870061154,236414.87884142206,10.5,10500236414.878841,47.655,-122.3035,60.0,5.183333333333334
2026-01-20T23:05:12+00:00,SAT-53490,296.57379295858186,32.13821067507672,4030.9814826964925,-6.75009499642595,236416.8796483615,10.5,10500236416.879648,47.655,-122.3035,60.0,5.2
2026-01-20T23:05:13+00:00,SAT-53490,296.5457623707293,32.18589322324093,4024.249387953391,-6.750144075026529,236418.59858855605,10.5,10500236418.598589,47.655,-122.3035,60.0,5.216666666666667
2026-01-20T23:05:14+00:00,SAT-53490,296.51759241848237,32.23362313671069,4017.517244262564,-6.75018507714034,236420.03465602052,10.5,10500236420.034657,47.655,-122.3035,60.0,5.233333333333333
2026-01-20T23:05:15+00:00,SAT-53490,296.4892822450579,32.28140058019239,4010.785059678963,-6.7502179344758675,236421.18545889706,10.5,10500236421.18546,47.655,-122.3035,60.0,5.25
2026-01-20T23:05:16+00:00,SAT-53490,296.46083098705236,32.32922571859609,4004.0528423256455,-6.750242617506043,236422.04996302293,10.5,10500236422.049963,47.655,-122.3035,60.0,5.266666666666667
2026-01-20T23:05:17+00:00,SAT-53490,296.4322377742287,32.377098717307284,3997.3206003551195,-6.750259107436903,236422.62751015398,10.5,10500236422.62751,47.655,-122.3035,60.0,5.283333333333333
2026-01-20T23:05:18+00:00,SAT-53490,296.4035017294201,32.42501974226132,3990.588341938636,-6.750267351850152,236422.91626437978,10.5,10500236422.916264,47.655,-122.3035,60.0,5.3
2026-01-20T23:05:19+00:00,SAT-53490,296.37462196857535,32.4729889597037,3983.856075299724,-6.750267281036335,236422.91378418036,10.5,10500236422.913784,47.655,-122.3035,60.0,5.316666666666666
2026-01-20T23:05:20+00:00,SAT-53490,296.3455976007657,32.521006536064505,3977.1238087314373,-6.750258886563069,236422.619774218,10.5,10500236422.619774,47.655,-122.3035,60.0,5.333333333333333
2026-01-20T23:05:21+00:00,SAT-53490,296.3164277278804,32.56907263839108,3970.3915505352384,-6.750242125872536,236422.0327439379,10.5,10500236422.032743,47.655,-122.3035,60.0,5.35
2026-01-20T23:05:22+00:00,SAT-53490,296.2871114447037,32.61718743410332,3963.6593090550346,-6.750216922919814,236421.1500299252,10.5,10500236421.15003,47.655,-122.3035,60.0,5.366666666666666
2026-01-20T23:05:23+00:00,SAT-53490,296.25764783894095,32.66535109075345,3956.927092710576,-6.750183273517173,236419.97148550785,10.5,10500236419.971485,47.655,-122.3035,60.0,5.383333333333334
2026-01-20T23:05:24+00:00,SAT-53490,296.22803599091577,32.71356377653371,3950.194909925788,-6.7501411008365215,236418.49441984118,10.5,10500236418.49442,47.655,-122.3035,60.0,5.4
2026-01-20T23:05:25+00:00,SAT-53490,296.1982749737375,32.76182565975704,3943.4627692012205,-6.750090400038593,236416.71866343354,10.5,10500236416.718664,47.655,-122.3035,60.0,5.416666666666667
2026-01-20T23:05:26+00:00,SAT-53490,296.16836385298933,32.81013690936701,3936.7306790422485,-6.750031099091869,236414.64169343654,10.5,10500236414.641693,47.655,-122.3035,60.0,5.433333333333334
2026-01-20T23:05:27+00:00,SAT-53490,296.1383016868869,32.85849769445585,3929.9986480260877,-6.749963142291405,236412.2615588273,10.5,10500236412.261559,47.655,-122.3035,60.0,5.45
2026-01-20T23:05:28+00:00,SAT-53490,296.1080875261534,32.906908184376775,3923.266684785509,-6.749886518190054,236409.57785867836,10.5,10500236409.577858,47.655,-122.3035,60.0,5.466666666666667
2026-01-20T23:05:29+00:00,SAT-53490,296.077720413778,32.95536854905779,3916.534797964701,-6.749801164724019,236406.58841925304,10.5,10500236406.588419,47.655,-122.3035,60.0,5.483333333333333
2026-01-20T23:05:30+00:00,SAT-53490,296.04719938513693,33.003878958636164,3909.8029962697497,-6.749707019573361,236403.29105784337,10.5,10500236403.291058,47.655,-122.3035,60.0,5.5
2026-01-20T23:05:31+00:00,SAT-53490,296.016523467904,33.052439583452454,3903.071288468895,-6.749604064504165,236399.68513582065,10.5,10500236399.685135,47.655,-122.3035,60.0,5.516666666666667
2026-01-20T23:05:32+00:00,SAT-53490,295.9856916818303,33.1010505943628,3896.3396833485626,-6.749492241910744,236395.76863558992,10.5,10500236395.768635,47.655,-122.3035,60.0,5.533333333333333
2026-01-20T23:05:33+00:00,SAT-53490,295.9547030387932,33.14971216245293,3889.6081897526306,-6.74937151612674,236391.54030796455,10.5,10500236391.540308,47.655,-122.3035,60.0,5.55
2026-01-20T23:05:34+00:00,SAT-53490,295.92355654265475,33.198424459191756,3882.876816560547,-6.749241812150604,236386.997526073,10.5,10500236386.997526,47.655,-122.3035,60.0,5.566666666666666
2026-01-20T23:05:35+00:00,SAT-53490,295.89225118931734,33.247187656143936,3876.1455727265616,-6.749103104497657,236382.139397334,10.5,10500236382.139397,47.655,-122.3035,60.0,5.583333333333333
2026-01-20T23:05:36+00:00,SAT-53490,295.86078596646684,33.29600192532147,3869.414467230343,-6.748955345270725,236376.96424418592,10.5,10500236376.964245,47.655,-122.3035,60.0,5.6
2026-01-20T23:05:37+00:00,SAT-53490,295.8291598535677,33.34486743901867,3862.683509099326,-6.748798463736796,236371.4695892595,10.5,10500236371.46959,47.655,-122.3035,60.0,5.616666666666666
2026-01-20T23:05:38+00:00,SAT-53490,295.7973718218824,33.39378436964175,3855.952707431493,-6.748632438887085,236365.6546967382,10.5,10500236365.654697,47.655,-122.3035,60.0,5.633333333333334
2026-01-20T23:05:39+00:00,SAT-53490,295.76542083417957,33.44275289006338,3849.222071345776,-6.748457215841987,236359.51764450612,10.5,10500236359.517645,47.655,-122.3035,60.0,5.65
2026-01-20T23:05:40+00:00,SAT-53490,295.7333058448032,33.491773173372984,3842.491610015843,-6.7482727395302975,236353.05650373673,10.5,10500236353.056503,47.655,-122.3035,60.0,5.666666666666667
2026-01-20T23:05:41+00:00,SAT-53490,295.7010257995641,33.54084539287032,3835.761332670285,-6.748078954102225,236346.2693183341,10.5,10500236346.269318,47.655,-122.3035,60.0,5.683333333333334
2026-01-20T23:05:42+00:00,SAT-53490,295.6685796356869,33.58996972205354,3829.0312485933932,-6.747875803643428,236339.15412994145,10.5,10500236339.154129,47.655,-122.3035,60.0,5.7
2026-01-20T23:05:43+00:00,SAT-53490,295.63596628169614,33.639146334613386,3822.301367125226,-6.7476632649069215,236331.710124351,10.5,10500236331.710125,47.655,-122.3035,60.0,5.716666666666667
2026-01-20T23:05:44+00:00,SAT-53490,295.6031846572241,33.688375404664605,3815.5716976290255,-6.7474412643817585,236323.93472689853,10.5,10500236323.934727,47.655,-122.3035,60.0,5.733333333333333
2026-01-20T23:05:45+00:00,SAT-53490,295.5702336731021,33.73765710637533,3808.8422495413492,-6.7472097556563,236315.82631205203,10.5,10500236315.826311,47.655,-122.3035,60.0,5.75
2026-01-20T23:05:46+00:00,SAT-53490,295.53711223118364,33.78699161415677,3802.113032345041,-6.746968686581097,236307.38305331723,10.5,10500236307.383053,47.655,-122.3035,60.0,5.766666666666667
2026-01-20T23:05:47+00:00,SAT-53490,295.503819224255,33.83637910261583,3795.3840555749575,-6.74671801001724,236298.60329969012,10.5,10500236298.6033,47.655,-122.3035,60.0,5.783333333333333
2026-01-20T23:05:48+00:00,SAT-53490,295.47035353594515,33.88581974658518,3788.655328812967,-6.746457661615975,236289.4847974052,10.5,10500236289.484797,47.655,-122.3035,60.0,5.8
2026-01-20T23:05:49+00:00,SAT-53490,295.4367140406855,33.93531372099013,3781.9268617051157,-6.746187582204259,236280.0254739721,10.5,10500236280.025475,47.655,-122.3035,60.0,5.816666666666666
2026-01-20T23:05:50+00:00,SAT-53490,295.402899603617,33.98486120087932,3775.198663956464,-6.745907745574215,236270.2244114802,10.5,10500236270.224411,47.655,-122.3035,60.0,5.833333333333333
2026-01-20T23:05:51+00:00,SAT-53490,295.36890908033376,34.0344623616593,3768.470745298211,-6.745618085956106,236260.07930639506,10.5,10500236260.079306,47.655,-122.3035,60.0,5.85
2026-01-20T23:05:52+00:00,SAT-53490,295.33474131697733,34.08411737879707,3761.7431155271506,-6.7453185094466726,236249.58686982733,10.5,10500236249.58687,47.655,-122.3035,60.0,5.866666666666666
2026-01-20T23:05:53+00:00,SAT-53490,295.3003951502419,34.13382642760551,3755.0157845337294,-6.745009032893909,236238.74769186505,10.5,10500236238.747692,47.655,-122.3035,60.0,5.883333333333334
2026-01-20T23:05:54+00:00,SAT-53490,295.2658694068162,34.183589684048826,3748.2887621915897,-6.744689539101323,236227.55766779126,10.5,10500236227.557669,47.655,-122.3035,60.0,5.9
2026-01-20T23:05:55+00:00,SAT-53490,295.2311629038504,34.233407323749795,3741.5620584912594,-6.744360004983534,236216.01598905836,10.5,10500236216.01599,47.655,-122.3035,60.0,5.916666666666667
2026-01-20T23:05:56+00:00,SAT-53490,295.1962744484639,34.28327952267243,3734.835683446289,-6.7440203513792225,236204.11988310202,10.5,10500236204.119883,47.655,-122.3035,60.0,5.933333333333334
2026-01-20T23:05:57+00:00,SAT-53490,295.16120283786887,34.333206456701234,3728.1096471491805,-6.743670537389902,236191.86791748434,10.5,10500236191.867918,47.655,-122.3035,60.0,5.95
2026-01-20T23:05:58+00:00,SAT-53490,295.12594685912734,34.383188301913414,3721.3839597332235,-6.743310505303156,236179.25807087228,10.5,10500236179.25807,47.655,-122.3035,60.0,5.966666666666667
2026-01-20T23:05:59+00:00,SAT-53490,295.09050528908955,34.43322523444699,3714.6586313892676,-6.742940179783029,236166.28770468206,10.5,10500236166.287704,47.655,-122.3035,60.0,5.983333333333333
2026-01-20T23:06:00+00:00,SAT-53490,295.0548768944005,34.48331743035945,3707.9336723832976,-6.742559518672182,236152.95534238525,10.5,10500236152.955343,47.655,-122.3035,60.0,6.0
2026-01-20T23:06:01+00:00,SAT-53490,295.01906043121966,34.533465065864355,3701.2090930233417,-6.742168456853938,236139.25870332055,10.5,10500236139.258703,47.655,-122.3035,60.0,6.016666666666667
2026-01-20T23:06:02+00:00,SAT-53490,294.98305464523935,34.58366831715081,3694.484903682373,-6.741766934407665,236125.19568881378,10.5,10500236125.195688,47.655,-122.3035,60.0,6.033333333333333
2026-01-20T23:06:03+00:00,SAT-53490,294.94685827153415,34.63392736041231,3687.761114793124,-6.741354896265717,236110.76437016315,10.5,10500236110.76437,47.655,-122.3035,60.0,6.05
2026-01-20T23:06:04+00:00,SAT-53490,294.91047003445027,34.68424237187085,3681.037736843248,-6.740932270368631,236095.9622235414,10.5,10500236095.962223,47.655,-122.3035,60.0,6.066666666666666
2026-01-20T23:06:05+00:00,SAT-53490,294.8738886475456,34.73461352764121,3674.3147803922666,-6.7404990005545615,236080.78728192317,10.5,10500236080.787281,47.655,-122.3035,60.0,6.083333333333333
2026-01-20T23:06:06+00:00,SAT-53490,294.83711281343795,34.785041003836646,3667.5922560557137,-6.740055024845093,236065.2373745622,10.5,10500236065.237375,47.655,-122.3035,60.0,6.1
2026-01-20T23:06:07+00:00,SAT-53490,294.8001412236867,34.835524976514705,3660.8701745109347,-6.739600269237329,236049.309909564,10.5,10500236049.30991,47.655,-122.3035,60.0,6.116666666666666
2026-01-20T23:06:08+00:00,SAT-53490,294.76297255876574,34.88606562157518,3654.1485465090823,-6.739134698492836,236033.0036527296,10.5,10500236033.003653,47.655,-122.3035,60.0,6.133333333333334
2026-01-20T23:06:09+00:00,SAT-53490,294.7256054877372,34.93666311503778,3647.427382836452,-6.7386582320318436,236016.31578181448,10.5,10500236016.315783,47.655,-122.3035,60.0,6.15
2026-01-20T23:06:10+00:00,SAT-53490,294.6880386683707,34.98731763269102,3640.7066943597056,-6.738170799931445,235999.2438478228,10.5,10500235999.243847,47.655,-122.3035,60.0,6.166666666666667
2026-01-20T23:06:11+00:00,SAT-53490,294.6502707469613,35.038029350158034,3633.986492015241,-6.737672342794469,235981.78577041428,10.5,10500235981.78577,47.655,-122.3035,60.0,6.183333333333334
2026-01-20T23:06:12+00:00,SAT-53490,294.6123003581671,35.088798442962926,3627.266786798694,-6.737162795186096,235963.93925778486,10.5,10500235963.939259,47.655,-122.3035,60.0,6.2
2026-01-20T23:06:13+00:00,SAT-53490,294.5741261249112,35.139625086471476,3620.5475897709616,-6.736642085352814,235945.7017968229,10.5,10500235945.701797,47.655,-122.3035,60.0,6.216666666666667
2026-01-20T23:06:14+00:00,SAT-53490,294.5357466583009,35.190509455830075,3613.828912064503,-6.736110157829037,235927.071444889,10.5,10500235927.071445,47.655,-122.3035,60.0,6.233333333333333
2026-01-20T23:06:15+00:00,SAT-53490,294.4971605574077,35.241451726073386,3607.110764867095,-6.735566950832522,235908.04603810774,10.5,10500235908.046038,47.655,-122.3035,60.0,6.25
2026-01-20T23:06:16+00:00,SAT-53490,294.4583664091923,35.29245207206332,3600.393159428131,-6.735012363112679,235888.6220302551,10.5,10500235888.62203,47.655,-122.3035,60.0,6.266666666666667
2026-01-20T23:06:17+00:00,SAT-53490,294.419362788553,35.343510668174574,3593.6761070979865,-6.7344463651185595,235868.7983863319,10.5,10500235868.798386,47.655,-122.3035,60.0,6.283333333333333
2026-01-20T23:06:18+00:00,SAT-53490,294.38014825786445,35.3946276888217,3586.9596192565086,-6.733868865517992,235848.5719074991,10.5,10500235848.571907,47.655,-122.3035,60.0,6.3
2026-01-20T23:06:19+00:00,SAT-53490,294.3407213671302,35.44580330797605,3580.243707374632,-6.733279800105025,235827.94034499282,10.5,10500235827.940346,47.655,-122.3035,60.0,6.316666666666666
2026-01-20T23:06:20+00:00,SAT-53490,294.3010806537427,35.4970376993544,3573.528382987327,-6.732679098612693,235806.90123776658,10.5,10500235806.901237,47.655,-122.3035,60.0,6.333333333333333
2026-01-20T23:06:21+00:00,SAT-53490,294.2612246423563,35.548331036356686,3566.813657699644,-6.732066684379598,235785.45190081393,10.5,10500235785.4519,47.655,-122.3035,60.0,6.35
2026-01-20T23:06:22+00:00,SAT-53490,294.2211518448093,35.59968349199987,3560.099543193089,-6.731442490887397,235763.5900043812,10.5,10500235763.590004,47.655,-122.3035,60.0,6.366666666666666
2026-01-20T23:06:23+00:00,SAT-53490,294.18086075991243,35.651095238977796,3553.386051215511,-6.730806463965451,235741.31365118342,10.5,10500235741.313652,47.655,-122.3035,60.0,6.383333333333334
2026-01-20T23:06:24+00:00,SAT-53490,294.1403498732765,35.702566449737226,3546.673193568783,-6.730158507181094,235718.61946374076,10.5,10500235718.619463,47.655,-122.3035,60.0,6.4
2026-01-20T23:06:25+00:00,SAT-53490,294.0996176573557,35.754097296137765,3539.9609821509544,-6.72949854722108,235695.50487431322,10.5,10500235695.504875,47.655,-122.3035,60.0,6.416666666666667
2026-01-20T23:06:26+00:00,SAT-53490,294.0586625712259,35.805687949608455,3533.2494289331926,-6.728826504418406,235671.96709262533,10.5,10500235671.967093,47.655,-122.3035,60.0,6.433333333333334
2026-01-20T23:06:27+00:00,SAT-53490,294.01748306044124,35.85733858107991,3526.538545966119,-6.728142331491862,235648.00446268913,10.5,10500235648.004463,47.655,-122.3035,60.0,6.45
2026-01-20T23:06:28+00:00,SAT-53490,293.97607755675324,35.90904936121211,3519.828345347511,-6.727445919626511,235623.61317334534,10.5,10500235623.613173,47.655,-122.3035,60.0,6.466666666666667
2026-01-20T23:06:29+00:00,SAT-53490,293.93444447825937,35.96082045990365,3513.1188392836702,-6.726737242384765,235598.7922986376,10.5,10500235598.7923,47.655,-122.3035,60.0,6.483333333333333
2026-01-20T23:06:30+00:00,SAT-53490,293.8925822288434,36.01265204690157,3506.4100400072653,-6.726016150630038,235573.53661517194,10.5,10500235573.536615,47.655,-122.3035,60.0,6.5
2026-01-20T23:06:31+00:00,SAT-53490,293.8504891986613,36.06454429083898,3499.7019598997035,-6.725282627756248,235547.84554133317,10.5,10500235547.845541,47.655,-122.3035,60.0,6.516666666666667
2026-01-20T23:06:32+00:00,SAT-53490,293.8081637633003,36.116497360230014,3492.9946113589544,-6.7245365731465565,235521.71555309388,10.5,10500235521.715553,47.655,-122.3035,60.0,6.533333333333333
2026-01-20T23:06:33+00:00,SAT-53490,293.76560428405526,36.16851142280312,3486.2880068833365,-6.723777890936991,235495.14329289235,10.5,10500235495.143293,47.655,-122.3035,60.0,6.55
2026-01-20T23:06:34+00:00,SAT-53490,293.72280910777704,36.22058664551277,3479.582159066775,-6.723006540249912,235468.12732902067,10.5,10500235468.127329,47.655,-122.3035,60.0,6.566666666666666
2026-01-20T23:06:35+00:00,SAT-53490,293.67977656638897,36.27272319494117,3472.8770805439663,-6.722222395926037,235440.66327787135,10.5,10500235440.663279,47.655,-122.3035,60.0,6.583333333333333
2026-01-20T23:06:36+00:00,SAT-53490,293.63650497721784,36.32492123662246,3466.1727840744293,-6.721425415636758,235412.7496569175,10.5,10500235412.749657,47.655,-122.3035,60.0,6.6
2026-01-20T23:06:37+00:00,SAT-53490,293.59299264235545,36.377180935659176,3459.4692824599006,-6.7206155005511174,235384.38300468097,10.5,10500235384.383005,47.655,-122.3035,60.0,6.616666666666666
2026-01-20T23:06:38+00:00,SAT-53490,293.5492378488227,36.42950245625936,3452.7665886006844,-6.719792556779072,235355.5600327352,10.5,10500235355.560032,47.655,-122.3035,60.0,6.633333333333334
2026-01-20T23:06:39+00:00,SAT-53490,293.5052388683733,36.48188596174841,3446.0647154907233,-6.718956511761063,235326.27819973766,10.5,10500235326.2782,47.655,-122.3035,60.0,6.65
2026-01-20T23:06:40+00:00,SAT-53490,293.46099395721967,36.534331614708094,3439.3636761963276,-6.718107297805277,235296.53513483453,10.5,10500235296.535135,47.655,-122.3035,60.0,6.666666666666667
2026-01-20T23:06:41+00:00,SAT-53490,293.41650135581966,36.58683957698829,3432.663483851316,-6.717244802015258,235266.32688391447,10.5,10500235266.326883,47.655,-122.3035,60.0,6.683333333333334
2026-01-20T23:06:42+00:00,SAT-53490,293.3717592889813,36.63941000932639,3425.9641517021064,-6.716368938357534,235235.65043372143,10.5,10500235235.650434,47.655,-122.3035,60.0,6.7
2026-01-20T23:06:43+00:00,SAT-53490,293.32676596552864,36.69204307152791,3419.2656930809176,-6.71547964786489,235204.50371897395,10.5,10500235204.50372,47.655,-122.3035,60.0,6.716666666666667
2026-01-20T23:06:44+00:00,SAT-53490,293.28151957798514,36.74473892264909,3412.5681213787802,-6.714576831927951,235172.88328595474,10.5,10500235172.883286,47.655,-122.3035,60.0,6.733333333333333
2026-01-20T23:06:45+00:00,SAT-53490,293.23601830260293,36.797497720658065,3405.871450085071,-6.713660379860517,235140.78525796483,10.5,10500235140.785257,47.655,-122.3035,60.0,6.75
2026-01-20T23:06:46+00:00,SAT-53490,293.19026029928915,36.850319622307985,3399.1756927995566,-6.712730213654415,235108.20690282795,10.5,10500235108.206903,47.655,-122.3035,60.0,6.766666666666667
2026-01-20T23:06:47+00:00,SAT-53490,293.14424371120776,36.90320478336306,3392.4808631998053,-6.71178626539979,235075.14584205384,10.5,10500235075.145842,47.655,-122.3035,60.0,6.783333333333333
2026-01-20T23:06:48+00:00,SAT-53490,293.09796666455713,36.956153358645025,3385.7869750311133,-6.710828427603084,235041.59831076328,10.5,10500235041.59831,47.655,-122.3035,60.0,6.8
2026-01-20T23:06:49+00:00,SAT-53490,293.05142726860777,37.00916550169073,3379.0940421459836,-6.709856591838652,235007.5605114317,10.5,10500235007.56051,47.655,-122.3035,60.0,6.816666666666666
2026-01-20T23:06:50+00:00,SAT-53490,293.0046236155361,37.06224136470994,3372.402078505057,-6.708870709955217,234973.0307575976,10.5,10500234973.030758,47.655,-122.3035,60.0,6.833333333333333
2026-01-20T23:06:51+00:00,SAT-53490,292.9575537798561,37.11538109902681,3365.711098116995,-6.707870632948841,234938.00383051272,10.5,10500234938.00383,47.655,-122.3035,60.0,6.85
2026-01-20T23:06:52+00:00,SAT-53490,292.9102158188621,37.16858485424863,3359.021115139067,-6.706856305338188,234902.47778698613,10.5,10500234902.477787,47.655,-122.3035,60.0,6.866666666666666
2026-01-20T23:06:53+00:00,SAT-53490,292.8626077718462,37.221852778968724,3352.3321437838767,-6.705827620779794,234866.44890241983,10.5,10500234866.448902,47.655,-122.3035,60.0,6.883333333333334
2026-01-20T23:06:54+00:00,SAT-53490,292.81472766023245,37.275185020327925,3345.6441983700856,-6.704784488670785,234829.91400351783,10.5,10500234829.914003,47.655,-122.3035,60.0,6.9
2026-01-20T23:06:55+00:00,SAT-53490,292.76657348727144,37.32858172410136,3338.9572933067175,-6.703726800863002,234792.86930247434,10.5,10500234792.869303,47.655,-122.3035,60.0,6.916666666666667
2026-01-20T23:06:56+00:00,SAT-53490,292.7181432379555,37.38204303452114,3332.271443110657,-6.702654459417423,234755.31136905032,10.5,10500234755.311369,47.655,-122.3035,60.0,6.933333333333334
2026-01-20T23:06:57+00:00,SAT-53490,292.66943487875045,37.43556909431772,3325.586662396465,-6.7015673764897805,234717.23712656807,10.5,10500234717.237127,47.655,-122.3035,60.0,6.95
2026-01-20T23:06:58+00:00,SAT-53490,292.620446357339,37.48916004476004,3318.9029658663126,-6.700465446727641,234678.64288513968,10.5,10500234678.642885,47.655,-122.3035,60.0,6.966666666666667
2026-01-20T23:06:59+00:00,SAT-53490,292.57117560250424,37.54281602547563,3312.2203683274424,-6.699348574894689,234639.52530918652,10.5,10500234639.525309,47.655,-122.3035,60.0,6.983333333333333
2026-01-20T23:07:00+00:00,SAT-53490,292.5216205238805,37.59653717448893,3305.538884682081,-6.698216648082275,234599.88044417012,10.5,10500234599.880444,47.655,-122.3035,60.0,7.0
2026-01-20T23:07:01+00:00,SAT-53490,292.47177901183795,37.65032362803671,3298.85852994506,-6.697069569191459,234559.70488927484,10.5,10500234559.70489,47.655,-122.3035,60.0,7.016666666666667
2026-01-20T23:07:02+00:00,SAT-53490,292.42164893718154,37.70417552065133,3292.179319228053,-6.695907228935676,234518.9948168229,10.5,10500234518.994818,47.655,-122.3035,60.0,7.033333333333333
2026-01-20T23:07:03+00:00,SAT-53490,292.37122815099747,37.758092985017306,3285.5012677517284,-6.694729539299902,234477.7471441559,10.5,10500234477.747145,47.655,-122.3035,60.0,7.05
2026-01-20T23:07:04+00:00,SAT-53490,292.320514484313,37.81207615209678,3278.824390824533,-6.693536372366747,234435.95739106566,10.5,10500234435.957392,47.655,-122.3035,60.0,7.066666666666666
2026-01-20T23:07:05+00:00,SAT-53490,292.26950574812753,37.866125150761675,3272.1487038824926,-6.692327643628919,234393.62259774943,10.5,10500234393.622599,47.655,-122.3035,60.0,7.083333333333333
2026-01-20T23:07:06+00:00,SAT-53490,292.21819973290013,37.92024010809469,3265.4742224459133,-6.691103228692008,234350.73840738874,10.5,10500234350.738407,47.655,-122.3035,60.0,7.1
2026-01-20T23:07:07+00:00,SAT-53490,292.1665942086021,37.97442114901927,3258.8009621591646,-6.689863024352331,234307.3012053541,10.5,10500234307.301205,47.655,-122.3035,60.0,7.116666666666666
2026-01-20T23:07:08+00:00,SAT-53490,292.1146869243274,38.02866839641999,3252.128938769544,-6.688606915226213,234263.30695042116,10.5,10500234263.30695,47.655,-122.3035,60.0,7.133333333333334
2026-01-20T23:07:09+00:00,SAT-53490,292.06247560816337,38.0829819709926,3245.4581681394247,-6.687334807081073,234218.75234216618,10.5,10500234218.752342,47.655,-122.3035,60.0,7.15
2026-01-20T23:07:10+00:00,SAT-53490,292.00995796679564,38.137361991363186,3238.7886662251626,-6.686046571313927,234173.63287636888,10.5,10500234173.632875,47.655,-122.3035,60.0,7.166666666666667
2026-01-20T23:07:11+00:00,SAT-53490,291.95713168551595,38.19180857375591,3232.120449111372,-6.6847421004688234,234127.94478946712,10.5,10500234127.94479,47.655,-122.3035,60.0,7.183333333333334
2026-01-20T23:07:12+00:00,SAT-53490,291.9039944278313,38.24632183210969,3225.453532989838,-6.683421274856448,234081.68388943493,10.5,10500234081.68389,47.655,-122.3035,60.0,7.2
2026-01-20T23:07:13+00:00,SAT-53490,291.8505438353161,38.30090187792242,3218.7879341717144,-6.682083995811521,234034.84672059686,10.5,10500234034.84672,47.655,-122.3035,60.0,7.216666666666667
2026-01-20T23:07:14+00:00,SAT-53490,291.7967775272082,38.355548820364604,3212.1236690665587,-6.6807301304371185,233987.42862834042,10.5,10500233987.428629,47.655,-122.3035,60.0,7.233333333333333
2026-01-20T23:07:15+00:00,SAT-53490,291.7426931004083,38.410262765943195,3205.4607542164695,-6.679359566756159,233939.4256907546,10.5,10500233939.425692,47.655,-122.3035,60.0,7.25
2026-01-20T23:07:16+00:00,SAT-53490,291.6882881290732,38.46504381861091,3198.799206275224,-6.677972186101869,233890.833751627,10.5,10500233890.833752,47.655,-122.3035,60.0,7.266666666666667
2026-01-20T23:07:17+00:00,SAT-53490,291.6335601644277,38.519892079650745,3192.1390420149523,-6.676567857684399,233841.6482301439,10.5,10500233841.64823,47.655,-122.3035,60.0,7.283333333333333
2026-01-20T23:07:18+00:00,SAT-53490,291.5785067345683,38.57480764751433,3185.4802783382215,-6.675146499178246,233791.8662429179,10.5,10500233791.866243,47.655,-122.3035,60.0,7.3
2026-01-20T23:07:19+00:00,SAT-53490,291.5231253438809,38.629790618155376,3178.822932229708,-6.673707938727878,233741.48177084135,10.5,10500233741.481771,47.655,-122.3035,60.0,7.316666666666666
2026-01-20T23:07:20+00:00,SAT-53490,291.46741347340304,38.68484108422995,3172.167020845483,-6.672252086115647,233690.49165411058,10.5,10500233690.491653,47.655,-122.3035,60.0,7.333333333333333
2026-01-20T23:07:21+00:00,SAT-53490,291.4113685799827,38.73995913569934,3165.512561431597,-6.670778794756741,233638.89075870538,10.5,10500233638.890759,47.655,-122.3035,60.0,7.35
2026-01-20T23:07:22+00:00,SAT-53490,291.35498809640296,38.79514485929911,3158.859571380293,-6.669287955366121,233586.67525700154,10.5,10500233586.675257,47.655,-122.3035,60.0,7.366666666666666
2026-01-20T23:07:23+00:00,SAT-53490,291.2982694308618,38.85039833877597,3152.208068192808,-6.667779429961615,233533.84031627962,10.5,10500233533.840317,47.655,-122.3035,60.0,7.383333333333334
2026-01-20T23:07:24+00:00,SAT-53490,291.2412099668744,38.90571965458051,3145.558069507993,-6.666253101254229,233480.3818285829,10.5,10500233480.381828,47.655,-122.3035,60.0,7.4
2026-01-20T23:07:25+00:00,SAT-53490,291.1838070628806,38.96110888396429,3138.9095930816757,-6.664708850815545,233426.2956460473,10.5,10500233426.295647,47.655,-122.3035,60.0,7.416666666666667
2026-01-20T23:07:26+00:00,SAT-53490,291.12605805192675,39.01656610089799,3132.2626567877955,-6.663146498099981,233371.57544520282,10.5,10500233371.575445,47.655,-122.3035,60.0,7.433333333333334
2026-01-20T23:07:27+00:00,SAT-53490,291.06796024189606,39.0720913754786,3125.6172786803572,-6.661565966274365,233316.21853502674,10.5,10500233316.218534,47.655,-122.3035,60.0,7.45
2026-01-20T23:07:28+00:00,SAT-53490,291.009510914396,39.12768477471308,3118.9734768899925,-6.659967099752295,233260.21946622522,10.5,10500233260.219467,47.655,-122.3035,60.0,7.466666666666667
2026-01-20T23:07:29+00:00,SAT-53490,290.9507073250934,39.183346361784935,3112.3312697025062,-6.658349752867825,233203.5731369605,10.5,10500233203.573137,47.655,-122.3035,60.0,7.483333333333333
2026-01-20T23:07:30+00:00,SAT-53490,290.89154670332306,39.23907619605554,3105.6906755489795,-6.656713811541876,233146.27555170085,10.5,10500233146.27555,47.655,-122.3035,60.0,7.5
2026-01-20T23:07:31+00:00,SAT-53490,290.83202625156883,39.29487433324425,3099.0517129742684,-6.6550591053312615,233088.3207408048,10.5,10500233088.320742,47.655,-122.3035,60.0,7.516666666666667
2026-01-20T23:07:32+00:00,SAT-53490,290.7721431455744,39.35074082487315,3092.4144006932183,-6.653385544974803,233029.70557796833,10.5,10500233029.705578,47.655,-122.3035,60.0,7.533333333333333
2026-01-20T23:07:33+00:00,SAT-53490,290.7118945334345,39.40667571885971,3085.7787575096963,-6.651692968314818,232970.4243837435,10.5,10500232970.424383,47.655,-122.3035,60.0,7.55
2026-01-20T23:07:34+00:00,SAT-53490,290.65127753581874,39.462679058819226,3079.144802389297,-6.649981189662034,232910.47065450647,10.5,10500232910.470655,47.655,-122.3035,60.0,7.566666666666666
2026-01-20T23:07:35+00:00,SAT-53490,290.59028924589313,39.51875088377501,3072.5125544828074,-6.648250126654864,232849.84150560608,10.5,10500232849.841505,47.655,-122.3035,60.0,7.583333333333333
2026-01-20T23:07:36+00:00,SAT-53490,290.52892672814545,39.574891228934405,3065.882033023157,-6.646499629347129,232788.53168529292,10.5,10500232788.531685,47.655,-122.3035,60.0,7.6
2026-01-20T23:07:37+00:00,SAT-53490,290.4671870186236,39.631100125028375,3059.2532573928215,-6.644729507828283,232726.53454209637,10.5,10500232726.534542,47.655,-122.3035,60.0,7.616666666666666
2026-01-20T23:07:38+00:00,SAT-53490,290.40506712493226,39.68737759787662,3052.626247163681,-6.6429396477493885,232663.84607103284,10.5,10500232663.846071,47.655,-122.3035,60.0,7.633333333333334
2026-01-20T23:07:39+00:00,SAT-53490,290.3425640253047,39.74372366892637,3046.0010220216586,-6.641129905870227,232600.46125522404,10.5,10500232600.461256,47.655,-122.3035,60.0,7.65
2026-01-20T23:07:40+00:00,SAT-53490,290.27967466848537,39.80013835490966,3039.3776017955374,-6.6393001318233065,232536.37482816435,10.5,10500232536.374828,47.655,-122.3035,60.0,7.666666666666667
2026-01-20T23:07:41+00:00,SAT-53490,290.2163959734782,39.85662166768045,3032.756006464066,-6.637450129810865,232471.5799321879,10.5,10500232471.579931,47.655,-122.3035,60.0,7.683333333333334
2026-01-20T23:07:42+00:00,SAT-53490,290.15272482956493,39.91317361372347,3026.1362562012678,-6.635579784949312,232406.07254358538,10.5,10500232406.072544,47.655,-122.3035,60.0,7.7
2026-01-20T23:07:43+00:00,SAT-53490,290.08865809532455,39.96979419473365,3019.518371295745,-6.633688964376281,232339.84800895475,10.5,10500232339.84801,47.655,-122.3035,60.0,7.716666666666667
2026-01-20T23:07:44+00:00,SAT-53490,290.0241925983878,40.02648340735654,3012.902372168607,-6.63177747305583,232272.89949731226,10.5,10500232272.899498,47.655,-122.3035,60.0,7.733333333333333
2026-01-20T23:07:45+00:00,SAT-53490,289.9593251356615,40.083241242546436,3006.2882794354796,-6.62984514200844,232205.22109028048,10.5,10500232205.22109,47.655,-122.3035,60.0,7.75
2026-01-20T23:07:46+00:00,SAT-53490,289.8940524727327,40.14006768567316,2999.676113880516,-6.627891860971769,232136.80892600567,10.5,10500232136.808926,47.655,-122.3035,60.0,7.766666666666667
2026-01-20T23:07:47+00:00,SAT-53490,289.82837134301286,40.19696271690836,2993.0658963978403,-6.6259174247907096,232067.65581908816,10.5,10500232067.655819,47.655,-122.3035,60.0,7.783333333333333
2026-01-20T23:07:48+00:00,SAT-53490,289.7622784481867,40.253926310295476,2986.4576480861824,-6.62392169793423,231997.75702265804,10.5,10500231997.757023,47.655,-122.3035,60.0,7.8
2026-01-20T23:07:49+00:00,SAT-53490,289.69577045727226,40.31095843422349,2979.8513901794427,-6.621904499401386,231927.1061972965,10.5,10500231927.106197,47.655,-122.3035,60.0,7.816666666666666
2026-01-20T23:07:50+00:00,SAT-53490,289.6288440066089,40.368059050914475,2973.24714409204,-6.619865662895044,231855.69751857454,10.5,10500231855.69752,47.655,-122.3035,60.0,7.833333333333333
2026-01-20T23:07:51+00:00,SAT-53490,289.561495699402,40.42522811642125,2966.6449314042457,-6.617805042432634,231783.52587356503,10.5,10500231783.525873,47.655,-122.3035,60.0,7.85
2026-01-20T23:07:52+00:00,SAT-53490,289.49372210512513,40.4824655806749,2960.044773841926,-6.615722429955082,231710.5839751591,10.5,10500231710.583975,47.655,-122.3035,60.0,7.866666666666666
2026-01-20T23:07:53+00:00,SAT-53490,289.4255197597289,40.53977138681675,2953.446693338451,-6.613617686949121,231636.86697203628,10.5,10500231636.866972,47.655,-122.3035,60.0,7.883333333333334
2026-01-20T23:07:54+00:00,SAT-53490,289.3568851646024,40.59714547166355,2946.8507119653336,-6.6114906238111715,231562.36822347713,10.5,10500231562.368223,47.655,-122.3035,60.0,7.9
2026-01-20T23:07:55+00:00,SAT-53490,289.2878147866751,40.654587765128845,2940.256851983186,-6.609341093022822,231487.08256276292,10.5,10500231487.082563,47.655,-122.3035,60.0,7.916666666666667
2026-01-20T23:07:56+00:00,SAT-53490,289.218305057613,40.712098190446845,2933.665135799745,-6.607168873985691,231411.00226360516,10.5,10500231411.002264,47.655,-122.3035,60.0,7.933333333333334
2026-01-20T23:07:57+00:00,SAT-53490,289.14835237411603,40.769676663395146,2927.075586042756,-6.604973810094398,231334.12184102103,10.5,10500231334.121841,47.655,-122.3035,60.0,7.95
2026-01-20T23:07:58+00:00,SAT-53490,289.07795309691767,40.827323092702635,2920.488225496156,-6.60275573736167,231256.43555148254,10.5,10500231256.43555,47.655,-122.3035,60.0,7.966666666666667
2026-01-20T23:07:59+00:00,SAT-53490,289.00710355044873,40.88503737983721,2913.9030771074267,-6.600514435265868,231177.9356713891,10.5,10500231177.93567,47.655,-122.3035,60.0,7.983333333333333
2026-01-20T23:08:00+00:00,SAT-53490,288.93580002295363,40.942819418359626,2907.320164043988,-6.598249757938262,231098.61709180076,10.5,10500231098.617092,47.655,-122.3035,60.0,8.0
2026-01-20T23:08:01+00:00,SAT-53490,288.86403876538907,41.00066909441861,2900.739509618738,-6.595961486572962,231018.47214920967,10.5,10500231018.472149,47.655,-122.3035,60.0,8.016666666666667
2026-01-20T23:08:02+00:00,SAT-53490,288.7918159916772,41.05858628595473,2894.1611373627957,-6.593649471483493,230937.4956009623,10.5,10500230937.495602,47.655,-122.3035,60.0,8.033333333333333
2026-01-20T23:08:03+00:00,SAT-53490,288.71912787763983,41.116570863142485,2887.58507095657,-6.591313500870281,230855.68002894174,10.5,10500230855.680029,47.655,-122.3035,60.0,8.05
2026-01-20T23:08:04+00:00,SAT-53490,288.64597056116475,41.17462268768001,2881.0113342917016,-6.588953355573717,230773.01775725136,10.5,10500230773.017757,47.655,-122.3035,60.0,8.066666666666666
2026-01-20T23:08:05+00:00,SAT-53490,288.5723401418518,41.232741612554065,2874.4399514784095,-6.586568890921419,230689.5037188524,10.5,10500230689.50372,47.655,-122.3035,60.0,8.083333333333334
2026-01-20T23:08:06+00:00,SAT-53490,288.4982326798347,41.290927482522015,2867.870946771197,-6.584159883695642,230605.13009571523,10.5,10500230605.130096,47.655,-122.3035,60.0,8.1
2026-01-20T23:08:07+00:00,SAT-53490,288.4236441961465,41.349180133244076,2861.3043446471916,-6.581726136022035,230519.88995744308,10.5,10500230519.889957,47.655,-122.3035,60.0,8.116666666666667
2026-01-20T23:08:08+00:00,SAT-53490,288.34857067198595,41.407499391325345,2854.7401697808655,-6.579267464287913,230433.77687314298,10.5,10500230433.776873,47.655,-122.3035,60.0,8.133333333333333
2026-01-20T23:08:09+00:00,SAT-53490,288.27300804816144,41.465885074258274,2848.1784470298157,-6.576783644619924,230346.78300182323,10.5,10500230346.783,47.655,-122.3035,60.0,8.15
2026-01-20T23:08:10+00:00,SAT-53490,288.19695222501696,41.52433698987857,2841.619201474915,-6.574274500085424,230258.90214655417,10.5,10500230258.902147,47.655,-122.3035,60.0,8.166666666666666
2026-01-20T23:08:11+00:00,SAT-53490,288.12039906153296,41.58285493658812,2835.062458373496,-6.5717397917169365,230170.12593768394,10.5,10500230170.125938,47.655,-122.3035,60.0,8.183333333333334
2026-01-20T23:08:12+00:00,SAT-53490,288.0433443754544,41.641438702609456,2828.508243221224,-6.569179338274649,230080.44802742774,10.5,10500230080.448027,47.655,-122.3035,60.0,8.2
2026-01-20T23:08:13+00:00,SAT-53490,287.9657839422814,41.70008806629778,2821.956581694518,-6.566592896464107,229989.85989458454,10.5,10500229989.859894,47.655,-122.3035,60.0,8.216666666666667
2026-01-20T23:08:14+00:00,SAT-53490,287.88771349540264,41.75880279538454,2815.4074997124444,-6.563980313308616,229898.35618126346,10.5,10500229898.356182,47.655,-122.3035,60.0,8.233333333333333
2026-01-20T23:08:15+00:00,SAT-53490,287.80912872470304,41.81758264757426,2808.861023346638,-6.561341297514901,229805.92668514184,10.5,10500229805.926685,47.655,-122.3035,60.0,8.25
2026-01-20T23:08:16+00:00,SAT-53490,287.7300252775209,41.87642736909695,2802.3171789592493,-6.55867568616346,229712.56570008956,10.5,10500229712.5657,47.655,-122.3035,60.0,8.266666666666667
2026-01-20T23:08:17+00:00,SAT-53490,287.6503987568378,41.935336695637666,2795.7759930749157,-6.555983254187137,229618.2653433027,10.5,10500229618.265343,47.655,-122.3035,60.0,8.283333333333333
2026-01-20T23:08:18+00:00,SAT-53490,287.5702447214061,41.994310351559164,2789.23749244274,-6.553263763294385,229523.0172688035,10.5,10500229523.01727,47.655,-122.3035,60.0,8.3
2026-01-20T23:08:19+00:00,SAT-53490,287.4895586854448,42.05334804955711,2782.701704049481,-6.55051696746618,229426.8128599649,10.5,10500229426.81286,47.655,-122.3035,60.0,8.316666666666666
2026-01-20T23:08:20+00:00,SAT-53490,287.4083361182052,42.11244949035747,2776.1686551272614,-6.547742699859563,229329.64627324085,10.5,10500229329.646273,47.655,-122.3035,60.0,8.333333333333334
2026-01-20T23:08:21+00:00,SAT-53490,287.3265724426117,42.17161436319487,2769.6383730746015,-6.5449406879350756,229231.50796314658,10.5,10500229231.507963,47.655,-122.3035,60.0,8.35
2026-01-20T23:08:22+00:00,SAT-53490,287.24426303591224,42.23084234461869,2763.110885561834,-6.542110716503321,229132.39039283927,10.5,10500229132.390392,47.655,-122.3035,60.0,8.366666666666667
2026-01-20T23:08:23+00:00,SAT-53490,287.16140322855364,42.29013309876556,2756.5862204739083,-6.53925253536618,229032.28479932237,10.5,10500229032.2848,47.655,-122.3035,60.0,8.383333333333333
2026-01-20T23:08:24+00:00,SAT-53490,287.0779883040342,42.34948627679095,2750.064405945303,-6.536365924399444,228931.183472915,10.5,10500228931.183474,47.655,-122.3035,60.0,8.4
2026-01-20T23:08:25+00:00,SAT-53490,286.9940134980733,42.40890151688569,2743.545470330035,-6.533450650129491,228829.0782363833,10.5,10500228829.078236,47.655,-122.3035,60.0,8.416666666666666
2026-01-20T23:08:26+00:00,SAT-53490,286.9094739982106,42.46837844389413,2737.0294422149727,-6.530506438526762,228725.95949205302,10.5,10500228725.959492,47.655,-122.3035,60.0,8.433333333333334
2026-01-20T23:08:27+00:00,SAT-53490,286.82436494378356,42.52791666867894,2730.516350460282,-6.527533072744557,228621.8196450354,10.5,10500228621.819645,47.655,-122.3035,60.0,8.45
2026-01-20T23:08:28+00:00,SAT-53490,286.73868142469644,42.587515788367796,2724.0062241423984,-6.524530306125016,228516.6500563289,10.5,10500228516.650057,47.655,-122.3035,60.0,8.466666666666667
2026-01-20T23:08:29+00:00,SAT-53490,286.6524184812736,42.64717538580599,2717.4990925837565,-6.52149790026428,228410.44237602182,10.5,10500228410.442375,47.655,-122.3035,60.0,8.483333333333333
2026-01-20T23:08:30+00:00,SAT-53490,286.5655711035822,42.70689502934744,2710.9949853445596,-6.518435565342401,228303.18645339375,10.5,10500228303.186453,47.655,-122.3035,60.0,8.5
2026-01-20T23:08:31+00:00,SAT-53490,286.47813423153036,42.76667427209606,2704.493932274058,-6.5153430630536056,228194.8739419684,10.5,10500228194.873941,47.655,-122.3035,60.0,8.516666666666667
2026-01-20T23:08:32+00:00,SAT-53490,286.39010275369003,42.82651265208023,2697.9959634591723,-6.512220157705388,228085.49658679732,10.5,10500228085.496586,47.655,-122.3035,60.0,8.533333333333333
2026-01-20T23:08:33+00:00,SAT-53490,286.3014715067329,42.8864096919768,2691.501109221888,-6.5090665729949215,227975.04471058666,10.5,10500227975.04471,47.655,-122.3035,60.0,8.55
2026-01-20T23:08:34+00:00,SAT-53490,286.212235275334,42.946364898431625,2685.009400159754,-6.505882040688895,227863.5089186713,10.5,10500227863.508919,47.655,-122.3035,60.0,8.566666666666666
2026-01-20T23:08:35+00:00,SAT-53490,286.1223887915574,43.00637776181886,2678.52086713784,-6.502666289722193,227750.87971720434,10.5,10500227750.879717,47.655,-122.3035,60.0,8.583333333333334
2026-01-20T23:08:36+00:00,SAT-53490,286.03192673429567,43.06644775589456,2672.0355412915574,-6.499419089390998,227637.14902596208,10.5,10500227637.149027,47.655,-122.3035,60.0,8.6
2026-01-20T23:08:37+00:00,SAT-53490,285.94084372822584,43.12657433784326,2665.5534539864043,-6.496140108910306,227522.3052594546,10.5,10500227522.30526,47.655,-122.3035,60.0,8.616666666666667
2026-01-20T23:08:38+00:00,SAT-53490,285.84913434446867,43.18675694701987,2659.074636917785,-6.492829133338734,227406.34088952534,10.5,10500227406.340889,47.655,-122.3035,60.0,8.633333333333333
2026-01-20T23:08:39+00:00,SAT-53490,285.75679309858566,43.24699500568063,2652.599121995468,-6.489485842245745,227289.24469334158,10.5,10500227289.244694,47.655,-122.3035,60.0,8.65
2026-01-20T23:08:40+00:00,SAT-53490,285.66381445131253,43.307287917660375,2646.1269414488015,-6.486109987741563,227171.0079887547,10.5,10500227171.007988,47.655,-122.3035,60.0,8.666666666666666
2026-01-20T23:08:41+00:00,SAT-53490,285.5701928070755,43.3676350686901,2639.658127754361,-6.482701248842709,227051.6195335656,10.5,10500227051.619534,47.655,-122.3035,60.0,8.683333333333334
2026-01-20T23:08:42+00:00,SAT-53490,285.4759225143223,43.42803582535763,2633.1927137088487,-6.4792593661858335,226931.0702437726,10.5,10500226931.070244,47.655,-122.3035,60.0,8.7
2026-01-20T23:08:43+00:00,SAT-53490,285.3809978641891,43.48848953531077,2626.730732367639,-6.475784061094724,226809.350358956,10.5,10500226809.350359,47.655,-122.3035,60.0,8.716666666666667
2026-01-20T23:08:44+00:00,SAT-53490,285.2854130900952,43.54899552670406,2620.272217064041,-6.4722750141354695,226686.44869118897,10.5,10500226686.44869,47.655,-122.3035,60.0,8.733333333333333
2026-01-20T23:08:45+00:00,SAT-53490,285.189162367743,43.60955310743348,2613.817201449943,-6.4687319403741474,226562.35526088034,10.5,10500226562.35526,47.655,-122.3035,60.0,8.75
2026-01-20T23:08:46+00:00,SAT-53490,285.0922398140311,43.67016156506778,2607.3657194614098,-6.465154540914517,226437.05959941936,10.5,10500226437.059599,47.655,-122.3035,60.0,8.766666666666667
2026-01-20T23:08:47+00:00,SAT-53490,284.9946394866755,43.73082016631806,2600.9178053326045,-6.461542513618397,226310.55112464895,10.5,10500226310.551125,47.655,-122.3035,60.0,8.783333333333333
2026-01-20T23:08:48+00:00,SAT-53490,284.896355383619,43.791528156601515,2594.4734935990223,-6.457895553098567,226182.81914061678,10.5,10500226182.819141,47.655,-122.3035,60.0,8.8
2026-01-20T23:08:49+00:00,SAT-53490,284.79738144251144,43.85228475959469,2588.032819100732,-6.454213345254877,226053.85264620703,10.5,10500226053.852646,47.655,-122.3035,60.0,8.816666666666666
2026-01-20T23:08:50+00:00,SAT-53490,284.6977115401909,43.913089176728235,2581.595816991064,-6.450495583403635,225923.6409000595,10.5,10500225923.6409,47.655,-122.3035,60.0,8.833333333333334
2026-01-20T23:08:51+00:00,SAT-53490,284.59733949200137,43.97394058682462,2575.1625227292166,-6.44674196815054,225792.17341611933,10.5,10500225792.173416,47.655,-122.3035,60.0,8.85
2026-01-20T23:08:52+00:00,SAT-53490,284.4962590510603,44.03483814572674,2568.7329720729813,-6.442952153824836,225659.43808753448,10.5,10500225659.438087,47.655,-122.3035,60.0,8.866666666666667
2026-01-20T23:08:53+00:00,SAT-53490,284.39446390831887,44.0957809854111,2562.3072011248996,-6.439125834120946,225525.42418618794,10.5,10500225525.424187,47.655,-122.3035,60.0,8.883333333333333
2026-01-20T23:08:54+00:00,SAT-53490,284.2919476913684,44.156768213901614,2555.885246293003,-6.435262667148755,225390.11973764174,10.5,10500225390.119738,47.655,-122.3035,60.0,8.9
2026-01-20T23:08:55+00:00,SAT-53490,284.18870396438626,44.21779891446478,2549.4671443263,-6.431362344875756,225253.51395329443,10.5,10500225253.513954,47.655,-122.3035,60.0,8.916666666666666
2026-01-20T23:08:56+00:00,SAT-53490,284.0847262269753,44.27887214545425,2543.0529322810107,-6.427424502251755,225115.59404754415,10.5,10500225115.594048,47.655,-122.3035,60.0,8.933333333333334
2026-01-20T23:08:57+00:00,SAT-53490,283.9800079144279,44.339986939282724,2536.6426475774315,-6.423448845386472,224976.3497271101,10.5,10500224976.349728,47.655,-122.3035,60.0,8.95
2026-01-20T23:08:58+00:00,SAT-53490,283.8745423960372,44.40114230260318,2530.2363279289666,-6.419435012609886,224835.76832477818,10.5,10500224835.768324,47.655,-122.3035,60.0,8.966666666666667
2026-01-20T23:08:59+00:00,SAT-53490,283.76832297549703,44.46233721515815,2523.834011409723,-6.415382654528527,224693.8376033113,10.5,10500224693.837603,47.655,-122.3035,60.0,8.983333333333333
2026-01-20T23:09:00+00:00,SAT-53490,283.6613428900909,44.52357062938129,2517.4357364422735,-6.4112914340910425,224550.54575774536,10.5,10500224550.545757,47.655,-122.3035,60.0,9.0
2026-01-20T23:09:01+00:00,SAT-53490,283.5535953099307,44.584841469988426,2511.0415417853396,-6.407160983665486,224405.87991205437,10.5,10500224405.879911,47.655,-122.3035,60.0,9.016666666666667
2026-01-20T23:09:02+00:00,SAT-53490,283.4450733377504,44.64614863315034,2504.6514665642976,-6.402990958537061,224259.82799286814,10.5,10500224259.827993,47.655,-122.3035,60.0,9.033333333333333
2026-01-20T23:09:03+00:00,SAT-53490,283.3357700079977,44.70749098616394,2498.2655502483167,-6.398781010014659,224112.37778754902,10.5,10500224112.377787,47.655,-122.3035,60.0,9.05
2026-01-20T23:09:04+00:00,SAT-53490,283.22567828624324,44.768867366859276,2491.8838326543287,-6.394530753580218,223963.51582864803,10.5,10500223963.51583,47.655,-122.3035,60.0,9.066666666666666
2026-01-20T23:09:05+00:00,SAT-53490,283.11479106915874,44.8302765826857,2485.5063539827584,-6.390239848557767,223813.23018425153,10.5,10500223813.230185,47.655,-122.3035,60.0,9.083333333333334
2026-01-20T23:09:06+00:00,SAT-53490,283.0031011831835,44.89171741055574,2479.1331547737964,-6.385907891846189,223661.50673605333,10.5,10500223661.506737,47.655,-122.3035,60.0,9.1
2026-01-20T23:09:07+00:00,SAT-53490,282.89060138496114,44.953188595652925,2472.764275969662,-6.381534539963121,223508.33345384814,10.5,10500223508.333454,47.655,-122.3035,60.0,9.116666666666667
2026-01-20T23:09:08+00:00,SAT-53490,282.77728435972557,45.01468885140487,2466.3997588551383,-6.377119371000264,223353.6955606227,10.5,10500223353.69556,47.655,-122.3035,60.0,9.133333333333333
2026-01-20T23:09:09+00:00,SAT-53490,282.66314272201157,45.07621685811337,2460.039645135794,-6.372662043835937,223197.58110885276,10.5,10500223197.581108,47.655,-122.3035,60.0,9.15
2026-01-20T23:09:10+00:00,SAT-53490,282.54816901371856,45.137771263108704,2453.683976857408,-6.368162160016695,223039.97614301322,10.5,10500223039.976143,47.655,-122.3035,60.0,9.166666666666666
2026-01-20T23:09:11+00:00,SAT-53490,282.4323557044762,45.1993506795599,2447.332796463152,-6.363619316852569,222880.86655919798,10.5,10500222880.86656,47.655,-122.3035,60.0,9.183333333333334
2026-01-20T23:09:12+00:00,SAT-53490,282.3156951910956,45.26095368578318,2440.986146797811,-6.359033123272006,222720.2386604271,10.5,10500222720.23866,47.655,-122.3035,60.0,9.2
2026-01-20T23:09:13+00:00,SAT-53490,282.19817979683233,45.322578824693124,2434.644071096201,-6.354403178530506,222558.0784109329,10.5,10500222558.078411,47.655,-122.3035,60.0,9.216666666666667
2026-01-20T23:09:14+00:00,SAT-53490,282.07980177094174,45.38422460303431,2428.3066129928134,-6.349729093334774,222394.3721760176,10.5,10500222394.372175,47.655,-122.3035,60.0,9.233333333333333
2026-01-20T23:09:15+00:00,SAT-53490,281.96055328792653,45.44588949080608,2421.973816510394,-6.345010405208888,222229.1037578181,10.5,10500222229.103758,47.655,-122.3035,60.0,9.25
2026-01-20T23:09:16+00:00,SAT-53490,281.8404264482106,45.50757191984921,2415.6457261329324,-6.340246763488322,222062.26087457937,10.5,10500222062.260874,47.655,-122.3035,60.0,9.266666666666667
2026-01-20T23:09:17+00:00,SAT-53490,281.7194132756747,45.56927028422225,2409.3223866941466,-6.335437712513397,221893.82756717203,10.5,10500221893.827568,47.655,-122.3035,60.0,9.283333333333333
2026-01-20T23:09:18+00:00,SAT-53490,281.5975057189192,45.630982938451766,2403.0038434822,-6.330582855361931,221723.78993370233,10.5,10500221723.789934,47.655,-122.3035,60.0,9.3
2026-01-20T23:09:19+00:00,SAT-53490,281.47469564966815,45.69270819736407,2396.690142181119,-6.325681732507203,221552.1318796006,10.5,10500221552.13188,47.655,-122.3035,60.0,9.316666666666666
2026-01-20T23:09:20+00:00,SAT-53490,281.3509748633906,45.754444334720866,2390.381328933232,-6.320733937594977,221378.83917262277,10.5,10500221378.839172,47.655,-122.3035,60.0,9.333333333333334
2026-01-20T23:09:21+00:00,SAT-53490,281.22633507777545,45.816189582969386,2384.077450286137,-6.315739017445692,221203.89594050348,10.5,10500221203.89594,47.655,-122.3035,60.0,9.35
2026-01-20T23:09:22+00:00,SAT-53490,281.1007679331013,45.8779421320028,2377.7785532394046,-6.310696524551508,221027.28650962538,10.5,10500221027.28651,47.655,-122.3035,60.0,9.366666666666667
2026-01-20T23:09:23+00:00,SAT-53490,280.97426499160497,45.93970012841755,2371.4846852389187,-6.305606043377715,220848.99632620515,10.5,10500220848.996326,47.655,-122.3035,60.0,9.383333333333333
2026-01-20T23:09:24+00:00,SAT-53490,280.8468177364231,46.0014616750169,2365.1958941449902,-6.300467079824922,220669.00808479203,10.5,10500220669.008085,47.655,-122.3035,60.0,9.4
2026-01-20T23:09:25+00:00,SAT-53490,280.71841757253924,46.063224829212196,2358.9122283107113,-6.295279224132809,220487.30743384644,10.5,10500220487.307434,47.655,-122.3035,60.0,9.416666666666666
2026-01-20T23:09:26+00:00,SAT-53490,280.5890558247647,46.12498760301004,2352.6337364978426,-6.290041961791371,220303.87635305154,10.5,10500220303.876352,47.655,-122.3035,60.0,9.433333333333334
2026-01-20T23:09:27+00:00,SAT-53490,280.4587237392367,46.18674796112576,2346.3604679812825,-6.2847548676452965,220118.69995166993,10.5,10500220118.699951,47.655,-122.3035,60.0,9.45
2026-01-20T23:09:28+00:00,SAT-53490,280.32741248132857,46.24850382099047,2340.0924724599513,-6.279417443134041,219931.76076800248,10.5,10500219931.760769,47.655,-122.3035,60.0,9.466666666666667
2026-01-20T23:09:29+00:00,SAT-53490,280.19511313656017,46.310253051138716,2333.829800129999,-6.274029226560274,219743.04263145564,10.5,10500219743.042631,47.655,-122.3035,60.0,9.483333333333333
2026-01-20T23:09:30+00:00,SAT-53490,280.0618167095628,46.37199347066977,2327.572501648043,-6.2685897350857385,219552.5286309913,10.5,10500219552.528631,47.655,-122.3035,60.0,9.5
2026-01-20T23:09:31+00:00,SAT-53490,279.92751412402276,46.43372284811735,2321.3206281522507,-6.2630984702439125,219360.2013082033,10.5,10500219360.201307,47.655,-122.3035,60.0,9.516666666666667
2026-01-20T23:09:32+00:00,SAT-53490,279.79219622267874,46.495438900359765,2315.074231277927,-6.257554933356345,219166.04319726292,10.5,10500219166.043198,47.655,-122.3035,60.0,9.533333333333333
2026-01-20T23:09:33+00:00,SAT-53490,279.65585376694463,46.55713929166391,2308.833363157727,-6.251958656870506,218970.03792250273,10.5,10500218970.037922,47.655,-122.3035,60.0,9.55
2026-01-20T23:09:34+00:00,SAT-53490,279.51847743597875,46.61882163302415,2302.5980763906077,-6.246309099862683,218772.16653848634,10.5,10500218772.166538,47.655,-122.3035,60.0,9.566666666666666
2026-01-20T23:09:35+00:00,SAT-53490,279.38005782781573,46.680483480449,2296.3684241150113,-6.240605773301456,218572.41191726475,10.5,10500218572.411917,47.655,-122.3035,60.0,9.583333333333334
2026-01-20T23:09:36+00:00,SAT-53490,279.2405854580764,46.74212233447113,2290.1444599571055,-6.234848166797973,218370.7561828614,10.5,10500218370.756184,47.655,-122.3035,60.0,9.6
2026-01-20T23:09:37+00:00,SAT-53490,279.10005076009344,46.8037356389147,2283.9262380520854,-6.229035738380575,218167.1803531363,10.5,10500218167.180353,47.655,-122.3035,60.0,9.616666666666667
2026-01-20T23:09:38+00:00,SAT-53490,278.9584440853679,46.86532077954346,2277.713813075674,-6.2231679663123725,217961.6661546566,10.5,10500217961.666155,47.655,-122.3035,60.0,9.633333333333333
2026-01-20T23:09:39+00:00,SAT-53490,278.81575570292284,46.92687508320445,2271.5072402239384,-6.217244317889601,217754.19492988318,10.5,10500217754.19493,47.655,-122.3035,60.0,9.65
2026-01-20T23:09:40+00:00,SAT-53490,278.67197579936044,46.98839581664532,2265.30657522423,-6.211264285608828,217544.74890389902,10.5,10500217544.748903,47.655,-122.3035,60.0,9.666666666666666
2026-01-20T23:09:41+00:00,SAT-53490,278.52709447815135,47.049880185672095,2259.111874310049,-6.205227267977728,217333.30700989862,10.5,10500217333.30701,47.655,-122.3035,60.0,9.683333333333334
2026-01-20T23:09:42+00:00,SAT-53490,278.3811017615374,47.11132533310386,2252.923194314786,-6.199132771486446,217119.85196307933,10.5,10500217119.851963,47.655,-122.3035,60.0,9.7
