satellites_20260121_005943/SAT-60268.csv

timestamp,satellite,azimuth_deg,elevation_deg,distance_km,relative_velocity_kms,doppler_shift_hz,tx_freq_ghz,rx_freq_hz,ue_lat,ue_lon,ue_alt_m,time_minutes
2026-01-20T23:00:40+00:00,SAT-60268,188.0948173107956,30.205899619452758,932.9256078683846,-5.055745723408363,177073.60101696692,10.5,10500177073.601017,47.655,-122.3035,60.0,0.6666666666666666
2026-01-20T23:00:41+00:00,SAT-60268,188.09310349890865,30.53370186405736,927.8833441335721,-5.029818850361484,176165.53225230094,10.5,10500176165.532251,47.655,-122.3035,60.0,0.6833333333333333
2026-01-20T23:00:42+00:00,SAT-60268,188.0917393813505,30.8647922501957,922.8669381334782,-5.003461372837129,175242.38189737865,10.5,10500175242.381897,47.655,-122.3035,60.0,0.7
2026-01-20T23:00:43+00:00,SAT-60268,188.0907343655225,31.199207206713492,917.876819324302,-4.97666620748429,174303.90186328517,10.5,10500174303.901863,47.655,-122.3035,60.0,0.7166666666666667
2026-01-20T23:00:44+00:00,SAT-60268,188.09009820407772,31.53698318792943,912.9134242267043,-4.9494261726210835,173349.84061714247,10.5,10500173349.840616,47.655,-122.3035,60.0,0.7333333333333333
2026-01-20T23:00:45+00:00,SAT-60268,188.0898410109154,31.878156646407085,907.9771965238768,-4.92173404047747,172379.9450118703,10.5,10500172379.945011,47.655,-122.3035,60.0,0.75
2026-01-20T23:00:46+00:00,SAT-60268,188.08997327800358,32.22276400746085,903.0685871075074,-4.893582517173923,171393.95958495457,10.5,10500171393.959585,47.655,-122.3035,60.0,0.7666666666666667
2026-01-20T23:00:47+00:00,SAT-60268,188.09050589321288,32.5708416407203,898.1880541437126,-4.864964252239501,170391.62689181045,10.5,10500170391.626892,47.655,-122.3035,60.0,0.7833333333333333
2026-01-20T23:00:48+00:00,SAT-60268,188.09145015912782,32.922425830524816,893.336063129479,-4.835871842107511,169372.68762821535,10.5,10500169372.687628,47.655,-122.3035,60.0,0.8
2026-01-20T23:00:49+00:00,SAT-60268,188.0928178129387,33.27755274473839,888.5130869456173,-4.806297834029186,168336.88076738224,10.5,10500168336.880768,47.655,-122.3035,60.0,0.8166666666666667
2026-01-20T23:00:50+00:00,SAT-60268,188.09462104753248,33.636258401942385,883.7196059058122,-4.776234731120296,167283.94373671373,10.5,10500167283.943737,47.655,-122.3035,60.0,0.8333333333333334
2026-01-20T23:00:51+00:00,SAT-60268,188.09687253377172,33.99857863699036,878.9561078006415,-4.745675001943771,166213.61275342552,10.5,10500166213.612753,47.655,-122.3035,60.0,0.85
2026-01-20T23:00:52+00:00,SAT-60268,188.09958544411828,34.364549065201,874.2230879320362,-4.7146110643132335,165125.62225727824,10.5,10500165125.622257,47.655,-122.3035,60.0,0.8666666666666667
2026-01-20T23:00:53+00:00,SAT-60268,188.1027734776715,34.734205043204426,869.5210491638944,-4.683035329314753,164019.70645240485,10.5,10500164019.706453,47.655,-122.3035,60.0,0.8833333333333333
2026-01-20T23:00:54+00:00,SAT-60268,188.10645088670915,35.10758163084353,864.8505019287911,-4.650940189311959,162895.5988871994,10.5,10500162895.598886,47.655,-122.3035,60.0,0.9
2026-01-20T23:00:55+00:00,SAT-60268,188.11063250486535,35.48471355000022,860.2119642466507,-4.618317986055386,161753.03133737124,10.5,10500161753.031338,47.655,-122.3035,60.0,0.9166666666666666
2026-01-20T23:00:56+00:00,SAT-60268,188.11533377702054,35.86563513840913,855.6059617752247,-4.585161088454196,160591.7365298398,10.5,10500160591.73653,47.655,-122.3035,60.0,0.9333333333333333
2026-01-20T23:00:57+00:00,SAT-60268,188.12057079110215,36.25038030718574,851.0330277830066,-4.551461861814147,159411.4470653179,10.5,10500159411.447065,47.655,-122.3035,60.0,0.95
2026-01-20T23:00:58+00:00,SAT-60268,188.1263603118168,36.638982493409905,846.4937031528239,-4.517212661091352,158211.89518203022,10.5,10500158211.895182,47.655,-122.3035,60.0,0.9666666666666667
2026-01-20T23:00:59+00:00,SAT-60268,188.1327198166154,37.03147460956539,841.9885363921621,-4.482405858945764,156992.81373826467,10.5,10500156992.813738,47.655,-122.3035,60.0,0.9833333333333333
2026-01-20T23:01:00+00:00,SAT-60268,188.13966753387734,37.42788899241833,837.5180836155068,-4.447033869990114,155753.93706167283,10.5,10500155753.937061,47.655,-122.3035,60.0,1.0
2026-01-20T23:01:01+00:00,SAT-60268,188.1472224836825,37.828257351374525,833.0829085025034,-4.411089125336994,154495.00005780143,10.5,10500154495.000057,47.655,-122.3035,60.0,1.0166666666666666
2026-01-20T23:01:02+00:00,SAT-60268,188.15540452114695,38.23261071166515,828.6835822815005,-4.37456412450627,153215.74002810917,10.5,10500153215.740028,47.655,-122.3035,60.0,1.0333333333333334
2026-01-20T23:01:03+00:00,SAT-60268,188.16423438277377,38.640979359306684,824.3206836613263,-4.337451365643323,151915.89422591444,10.5,10500151915.894226,47.655,-122.3035,60.0,1.05
2026-01-20T23:01:04+00:00,SAT-60268,188.17373373575015,39.05339277659829,819.9947988326581,-4.299743490460414,150595.2049328551,10.5,10500150595.204933,47.655,-122.3035,60.0,1.0666666666666667
2026-01-20T23:01:05+00:00,SAT-60268,188.18392523079171,39.46987958783025,815.7065213248388,-4.261433149736444,149253.41474812102,10.5,10500149253.414747,47.655,-122.3035,60.0,1.0833333333333333
2026-01-20T23:01:06+00:00,SAT-60268,188.19483255843613,39.89046748947713,811.4564519968351,-4.222513112278759,147890.2704047577,10.5,10500147890.270405,47.655,-122.3035,60.0,1.1
2026-01-20T23:01:07+00:00,SAT-60268,188.20648050936822,40.315183187238205,807.2451989195223,-4.1829762562191375,146505.52246481442,10.5,10500146505.522465,47.655,-122.3035,60.0,1.1166666666666667
2026-01-20T23:01:08+00:00,SAT-60268,188.2188950389358,40.74405232909559,803.0733772666532,-4.142815543109562,145098.9244120691,10.5,10500145098.924412,47.655,-122.3035,60.0,1.1333333333333333
2026-01-20T23:01:09+00:00,SAT-60268,188.23210333626335,41.17709943249982,798.9416092316586,-4.102024110164497,143670.23588274265,10.5,10500143670.235882,47.655,-122.3035,60.0,1.15
2026-01-20T23:01:10+00:00,SAT-60268,188.2461338984118,41.614347817312144,794.8505238524544,-4.060595171603228,142219.21921009067,10.5,10500142219.21921,47.655,-122.3035,60.0,1.1666666666666667
2026-01-20T23:01:11+00:00,SAT-60268,188.26101660975593,42.055819525283134,790.8007569346422,-4.018522156012904,140745.644235438,10.5,10500140745.644236,47.655,-122.3035,60.0,1.1833333333333333
2026-01-20T23:01:12+00:00,SAT-60268,188.2767828274605,42.50153525012769,786.792950837712,-3.9757986521130966,139249.28640862444,10.5,10500139249.28641,47.655,-122.3035,60.0,1.2
2026-01-20T23:01:13+00:00,SAT-60268,188.29346547321904,42.95151425869085,782.8277543153379,-3.9324183963183965,137729.926352394,10.5,10500137729.926352,47.655,-122.3035,60.0,1.2166666666666666
2026-01-20T23:01:14+00:00,SAT-60268,188.31109913178608,43.40577430682584,778.9058223680763,-3.8883753869539457,136187.35386270602,10.5,10500136187.353863,47.655,-122.3035,60.0,1.2333333333333334
2026-01-20T23:01:15+00:00,SAT-60268,188.3297201574081,43.86433156438264,775.0278159821544,-3.8436638035089663,134621.36508065238,10.5,10500134621.36508,47.655,-122.3035,60.0,1.25
2026-01-20T23:01:16+00:00,SAT-60268,188.34936678814753,44.327200527605115,771.194401948788,-3.7982780707466586,133031.76473785713,10.5,10500133031.764738,47.655,-122.3035,60.0,1.2666666666666666
2026-01-20T23:01:17+00:00,SAT-60268,188.37007926938162,44.79439393506873,767.4062526195634,-3.7522129136383082,131418.36808050133,10.5,10500131418.36808,47.655,-122.3035,60.0,1.2833333333333334
2026-01-20T23:01:18+00:00,SAT-60268,188.39189998725135,45.26592268668809,763.664045607028,-3.7054632466124136,129780.99699035905,10.5,10500129780.99699,47.655,-122.3035,60.0,1.3
2026-01-20T23:01:19+00:00,SAT-60268,188.4148736123793,45.74179574571604,759.9684635957399,-3.6580243543663236,128119.48631758575,10.5,10500128119.486317,47.655,-122.3035,60.0,1.3166666666666667
2026-01-20T23:01:20+00:00,SAT-60268,188.4390472559906,46.22202005897809,756.3201939729853,-3.6098918085477965,126433.68096255396,10.5,10500126433.680962,47.655,-122.3035,60.0,1.3333333333333333
2026-01-20T23:01:21+00:00,SAT-60268,188.46447063854882,46.70660046364947,752.7199285425936,-3.5610615144032227,124723.43750967157,10.5,10500124723.43751,47.655,-122.3035,60.0,1.35
2026-01-20T23:01:22+00:00,SAT-60268,188.4911962726768,47.1955395962166,749.1683631922289,-3.5115297214714594,122988.62460192485,10.5,10500122988.624601,47.655,-122.3035,60.0,1.3666666666666667
2026-01-20T23:01:23+00:00,SAT-60268,188.51927966161082,47.68883779930641,745.6661975500145,-3.4612930753556674,121229.12475414744,10.5,10500121229.124754,47.655,-122.3035,60.0,1.3833333333333333
2026-01-20T23:01:24+00:00,SAT-60268,188.54877951497957,48.18649303207284,742.2141345895266,-3.4103485945697107,119444.83354208317,10.5,10500119444.833542,47.655,-122.3035,60.0,1.4
2026-01-20T23:01:25+00:00,SAT-60268,188.57975798325606,48.68850077419503,738.8128802578757,-3.3586937261906322,117635.66155157126,10.5,10500117635.661552,47.655,-122.3035,60.0,1.4166666666666667
2026-01-20T23:01:26+00:00,SAT-60268,188.61228091327587,49.19485393424279,735.4631430482882,-3.3063263510731202,115801.53456117887,10.5,10500115801.534561,47.655,-122.3035,60.0,1.4333333333333333
2026-01-20T23:01:27+00:00,SAT-60268,188.6464181267183,49.70554275580669,732.1656335674846,-3.2532448055100844,113942.39430084624,10.5,10500113942.3943,47.655,-122.3035,60.0,1.45
2026-01-20T23:01:28+00:00,SAT-60268,188.6822437241509,50.22055472372713,728.9210640814559,-3.19944791966576,112058.19979797651,10.5,10500112058.199799,47.655,-122.3035,60.0,1.4666666666666666
2026-01-20T23:01:29+00:00,SAT-60268,188.71983641747198,50.739874473303196,725.7301480229092,-3.1449349915986935,110148.92646761074,10.5,10500110148.926468,47.655,-122.3035,60.0,1.4833333333333334
2026-01-20T23:01:30+00:00,SAT-60268,188.75927989336836,51.2634836926082,722.5935995246215,-3.089705893752075,108214.5698421699,10.5,10500108214.569841,47.655,-122.3035,60.0,1.5
2026-01-20T23:01:31+00:00,SAT-60268,188.8006632125171,51.79136103917625,719.512132846586,-3.0337609825096807,106255.14240372133,10.5,10500106255.142405,47.655,-122.3035,60.0,1.5166666666666666
2026-01-20T23:01:32+00:00,SAT-60268,188.84408124656144,52.32348203965082,716.4864618933632,-2.97710123498767,104270.67837500613,10.5,10500104270.678375,47.655,-122.3035,60.0,1.5333333333333334
2026-01-20T23:01:33+00:00,SAT-60268,188.88963515970067,52.85981900975138,713.5172995950021,-2.919728158279621,102261.23054081641,10.5,10500102261.230541,47.655,-122.3035,60.0,1.55
2026-01-20T23:01:34+00:00,SAT-60268,188.93743293752874,53.400340956888066,710.6053573784778,-2.8616439165639465,100226.87469983463,10.5,10500100226.8747,47.655,-122.3035,60.0,1.5666666666666667
2026-01-20T23:01:35+00:00,SAT-60268,188.98758997142255,53.945013502986455,707.7513445123581,-2.8028512707045157,98167.70754919197,10.5,10500098167.70755,47.655,-122.3035,60.0,1.5833333333333333
2026-01-20T23:01:36+00:00,SAT-60268,189.04022970282801,54.49379879524775,704.9559675117088,-2.7433536257845765,96083.84834930723,10.5,10500096083.848349,47.655,-122.3035,60.0,1.6
2026-01-20T23:01:37+00:00,SAT-60268,189.09548433627182,55.046655423862916,702.219929495593,-2.6831550594674507,93975.43991719843,10.5,10500093975.439917,47.655,-122.3035,60.0,1.6166666666666667
2026-01-20T23:01:38+00:00,SAT-60268,189.15349562953864,55.60353834398511,699.543929516284,-2.6222603154100064,91842.64839579476,10.5,10500091842.648396,47.655,-122.3035,60.0,1.6333333333333333
2026-01-20T23:01:39+00:00,SAT-60268,189.2144157702975,56.16439879541118,696.9286618950484,-2.5606748622378777,89685.66531949818,10.5,10500089685.66532,47.655,-122.3035,60.0,1.65
2026-01-20T23:01:40+00:00,SAT-60268,189.27840835166674,56.729184233430445,694.3748154991099,-2.498404837516013,87504.70565179506,10.5,10500087504.705652,47.655,-122.3035,60.0,1.6666666666666667
2026-01-20T23:01:41+00:00,SAT-60268,189.3456494576509,57.297838247422725,691.883073074494,-2.435457151770335,85300.01142853472,10.5,10500085300.011429,47.655,-122.3035,60.0,1.6833333333333333
2026-01-20T23:01:42+00:00,SAT-60268,189.41632887657667,57.87030050092366,689.4541104751283,-2.3718394308802693,83071.84974027208,10.5,10500083071.849741,47.655,-122.3035,60.0,1.7
2026-01-20T23:01:43+00:00,SAT-60268,189.49065145682178,58.4465066594036,687.088595949397,-2.307560058440005,80820.51421593818,10.5,10500080820.514215,47.655,-122.3035,60.0,1.7166666666666666
2026-01-20T23:01:44+00:00,SAT-60268,189.56883862701244,59.02638832689723,684.7871893844463,-2.2426281696283454,78546.32480813652,10.5,10500078546.324808,47.655,-122.3035,60.0,1.7333333333333334
2026-01-20T23:01:45+00:00,SAT-60268,189.65113010316367,59.60987298099115,682.5505415566037,-2.1770537025752454,76249.62959221636,10.5,10500076249.629593,47.655,-122.3035,60.0,1.75
2026-01-20T23:01:46+00:00,SAT-60268,189.7377858119435,60.19688392037314,680.3792933305685,-2.1108473484506898,73930.80301817413,10.5,10500073930.803019,47.655,-122.3035,60.0,1.7666666666666666
2026-01-20T23:01:47+00:00,SAT-60268,189.82908805929526,60.787340200052974,678.2740749083804,-2.0440205896153545,71590.2472468511,10.5,10500071590.247248,47.655,-122.3035,60.0,1.7833333333333334
2026-01-20T23:01:48+00:00,SAT-60268,189.92534398451932,61.38115657524156,676.2355050403373,-1.9765857101587971,69228.39251902518,10.5,10500069228.392519,47.655,-122.3035,60.0,1.8
2026-01-20T23:01:49+00:00,SAT-60268,190.0268883439424,61.97824344796605,674.2641902254056,-1.908555763105053,66845.69600681233,10.5,10500066845.696007,47.655,-122.3035,60.0,1.8166666666666667
2026-01-20T23:01:50+00:00,SAT-60268,190.13408667465856,62.578506803063284,672.3607239443355,-1.8399446204275556,64442.643565400605,10.5,10500064442.643566,47.655,-122.3035,60.0,1.8333333333333333
2026-01-20T23:01:51+00:00,SAT-60268,190.2473389043378,63.18184815689729,670.5256858428958,-1.7707669296310369,62019.74821236459,10.5,10500062019.748213,47.655,-122.3035,60.0,1.85
2026-01-20T23:01:52+00:00,SAT-60268,190.36708347709907,63.788164490741245,668.7596409584105,-1.7010381104021017,59577.55001035438,10.5,10500059577.55001,47.655,-122.3035,60.0,1.8666666666666667
2026-01-20T23:01:53+00:00,SAT-60268,190.49380208563753,64.39734817842691,667.063138949636,-1.6307743865585917,57116.6171860975,10.5,10500057116.617186,47.655,-122.3035,60.0,1.8833333333333333
2026-01-20T23:01:54+00:00,SAT-60268,190.62802511805722,65.00928691898928,665.436713294775,-1.559992731070117,54637.544204785256,10.5,10500054637.544205,47.655,-122.3035,60.0,1.9
2026-01-20T23:01:55+00:00,SAT-60268,190.77033794237911,65.62386364354872,663.880880544321,-1.488710887435938,52140.9525188167,10.5,10500052140.952518,47.655,-122.3035,60.0,1.9166666666666667
2026-01-20T23:01:56+00:00,SAT-60268,190.92138818793003,66.24095641895403,662.3961395525849,-1.416947338959653,49627.48949166812,10.5,10500049627.489492,47.655,-122.3035,60.0,1.9333333333333333
2026-01-20T23:01:57+00:00,SAT-60268,191.08189420832144,66.86043832690584,660.9829707398625,-1.3447212936130122,47097.827867759865,10.5,10500047097.827868,47.655,-122.3035,60.0,1.95
2026-01-20T23:01:58+00:00,SAT-60268,191.25265495586984,67.48217731846412,659.6418353696992,-1.2720526828078071,44552.66572944265,10.5,10500044552.66573,47.655,-122.3035,60.0,1.9666666666666666
2026-01-20T23:01:59+00:00,SAT-60268,191.434561550869,68.10603604529332,658.3731748273789,-1.198962112297139,41992.724777352334,10.5,10500041992.724777,47.655,-122.3035,60.0,1.9833333333333334
2026-01-20T23:02:00+00:00,SAT-60268,191.6286108868379,68.7318716389193,657.1774099473811,-1.1254708632311183,39418.750367384964,10.5,10500039418.750368,47.655,-122.3035,60.0,2.0
2026-01-20T23:02:01+00:00,SAT-60268,191.8359217068893,69.35953545049301,656.0549403397853,-1.051600859710337,36831.51037428213,10.5,10500036831.510374,47.655,-122.3035,60.0,2.0166666666666666
2026-01-20T23:02:02+00:00,SAT-60268,192.05775368317967,69.98887272484546,655.0061437490341,-0.9773746331139217,34231.79394224846,10.5,10500034231.793941,47.655,-122.3035,60.0,2.033333333333333
2026-01-20T23:02:03+00:00,SAT-60268,192.2955301693076,70.61972219049801,654.0313754482752,-0.9028153020600469,31620.410783084117,10.5,10500031620.410784,47.655,-122.3035,60.0,2.05
2026-01-20T23:02:04+00:00,SAT-60268,192.55086547459842,71.25191555396027,653.1309676536873,-0.8279465372842658,28998.189946075265,10.5,10500028998.189945,47.655,-122.3035,60.0,2.066666666666667
2026-01-20T23:02:05+00:00,SAT-60268,192.82559773300872,71.88527686565463,652.3052289738358,-0.7527925286547757,26365.97866272922,10.5,10500026365.978662,47.655,-122.3035,60.0,2.0833333333333335
2026-01-20T23:02:06+00:00,SAT-60268,193.12182874100745,72.51962172559102,651.554443891924,-0.6773779386731047,23724.64071817177,10.5,10500023724.640718,47.655,-122.3035,60.0,2.1
2026-01-20T23:02:07+00:00,SAT-60268,193.44197252876575,73.15475627544237,650.8788722944208,-0.6017278827869486,21075.055761619456,10.5,10500021075.055761,47.655,-122.3035,60.0,2.1166666666666667
2026-01-20T23:02:08+00:00,SAT-60268,193.78881496873893,73.79047594133621,650.2787490193213,-0.5258678743673756,18418.11737924856,10.5,10500018418.11738,47.655,-122.3035,60.0,2.1333333333333333
2026-01-20T23:02:09+00:00,SAT-60268,194.16558741217696,74.42656382696927,649.7542834592856,-0.44982379415503676,15754.732024072086,10.5,10500015754.732023,47.655,-122.3035,60.0,2.15
2026-01-20T23:02:10+00:00,SAT-60268,194.57605832172484,75.06278867843231,649.3056591952483,-0.3736218344023646,13085.81705956335,10.5,10500013085.81706,47.655,-122.3035,60.0,2.1666666666666665
2026-01-20T23:02:11+00:00,SAT-60268,195.02464815388902,75.69890226290492,648.9330336857377,-0.297288469400767,10412.299727393587,10.5,10500010412.299726,47.655,-122.3035,60.0,2.183333333333333
2026-01-20T23:02:12+00:00,SAT-60268,195.51657458159457,76.33463601032425,648.6365379855887,-0.22085040150400137,7735.115256942237,10.5,10500007735.115257,47.655,-122.3035,60.0,2.2
2026-01-20T23:02:13+00:00,SAT-60268,196.05803763534675,76.9696966458389,648.4162765184886,-0.1443345171243489,5055.20532409679,10.5,10500005055.205324,47.655,-122.3035,60.0,2.216666666666667
2026-01-20T23:02:14+00:00,SAT-60268,196.65645790950035,77.60376048152885,648.27232689341,-0.06776783826369409,2373.5163536662017,10.5,10500002373.516354,47.655,-122.3035,60.0,2.2333333333333334
2026-01-20T23:02:15+00:00,SAT-60268,197.3207860174671,78.2364658782248,648.2047397693816,0.0088225199787295,-309.0019688776151,10.5,10499999690.998032,47.655,-122.3035,60.0,2.25
2026-01-20T23:02:16+00:00,SAT-60268,198.06190877624215,78.86740321822354,648.2135387626405,0.08540940298490034,-2991.398573947626,10.5,10499997008.601425,47.655,-122.3035,60.0,2.2666666666666666
2026-01-20T23:02:17+00:00,SAT-60268,198.89318811013106,79.4961013709138,648.2987204072174,0.1619656611822757,-5672.722568670807,10.5,10499994327.277431,47.655,-122.3035,60.0,2.283333333333333
2026-01-20T23:02:18+00:00,SAT-60268,199.83118423133067,80.12200924775252,648.4602541599698,0.23846419912549696,-8352.024955937079,10.5,10499991647.975044,47.655,-122.3035,60.0,2.3
2026-01-20T23:02:19+00:00,SAT-60268,200.89663753970592,80.74447028974744,648.6980824545643,0.31487802267252496,-11028.360286707119,10.5,10499988971.639713,47.655,-122.3035,60.0,2.316666666666667
2026-01-20T23:02:20+00:00,SAT-60268,202.11581785573674,81.36268668353323,649.0121208025097,0.3911802868142185,-13700.788335206533,10.5,10499986299.211664,47.655,-122.3035,60.0,2.3333333333333335
2026-01-20T23:02:21+00:00,SAT-60268,203.522400358152,81.97566835857202,649.4022579418923,0.46734434238100214,-16368.375734790909,10.5,10499983631.624266,47.655,-122.3035,60.0,2.35
2026-01-20T23:02:22+00:00,SAT-60268,205.16010246169267,82.58215907174468,649.8683560326938,0.5433437798019852,-19030.197510575283,10.5,10499980969.80249,47.655,-122.3035,60.0,2.3666666666666667
2026-01-20T23:02:23+00:00,SAT-60268,207.08642295178873,83.18052739782699,650.4102508957495,0.6191524796047282,-21685.338848149564,10.5,10499978314.661152,47.655,-122.3035,60.0,2.3833333333333333
2026-01-20T23:02:24+00:00,SAT-60268,209.37796683481164,83.76860315353257,651.0277523020754,0.6947446487598162,-24332.896366519235,10.5,10499975667.103634,47.655,-122.3035,60.0,2.4
2026-01-20T23:02:25+00:00,SAT-60268,212.13799110525048,84.34342793299244,651.7206442984384,0.7700948685726952,-26971.979795480045,10.5,10499973028.020205,47.655,-122.3035,60.0,2.4166666666666665
2026-01-20T23:02:26+00:00,SAT-60268,215.50684306137663,84.9008700284443,652.488685580695,0.8451781342447692,-29601.713361214966,10.5,10499970398.286638,47.655,-122.3035,60.0,2.433333333333333
2026-01-20T23:02:27+00:00,SAT-60268,219.6754472657952,85.43502815887081,653.3316099065818,0.919969890204458,-32221.237023737296,10.5,10499967778.762976,47.655,-122.3035,60.0,2.45
2026-01-20T23:02:28+00:00,SAT-60268,224.89962282700034,85.93732370315242,654.2491265437458,0.9944460791991927,-34829.7081963,10.5,10499965170.291803,47.655,-122.3035,60.0,2.466666666666667
2026-01-20T23:02:29+00:00,SAT-60268,231.50541566569606,86.3952025655428,655.2409207667337,1.068583158738232,-37426.30232129267,10.5,10499962573.69768,47.655,-122.3035,60.0,2.4833333333333334
2026-01-20T23:02:30+00:00,SAT-60268,239.85650601543284,86.79059065562728,656.3066543703819,1.142358157967155,-40010.21486222688,10.5,10499959989.785137,47.655,-122.3035,60.0,2.5
2026-01-20T23:02:31+00:00,SAT-60268,250.22310632334796,87.09903642155356,657.4459662399278,1.2157486892837324,-42580.661710573084,10.5,10499957419.33829,47.655,-122.3035,60.0,2.5166666666666666
2026-01-20T23:02:32+00:00,SAT-60268,262.49662913178577,87.29208458660553,658.6584729327068,1.2887329870161186,-45136.88054043456,10.5,10499954863.11946,47.655,-122.3035,60.0,2.533333333333333
2026-01-20T23:02:33+00:00,SAT-60268,275.8840891722836,87.34599281362989,659.9437692984243,1.3612899341742706,-47678.131745495215,10.5,10499952321.868254,47.655,-122.3035,60.0,2.55
2026-01-20T23:02:34+00:00,SAT-60268,289.0315454270492,87.25415680585432,661.3014291261073,1.4333990900868103,-50203.69940697944,10.5,10499949796.300592,47.655,-122.3035,60.0,2.566666666666667
2026-01-20T23:02:35+00:00,SAT-60268,300.71625901878355,87.03163750902937,662.7310058186207,1.505040700105102,-52712.89163352993,10.5,10499947287.108366,47.655,-122.3035,60.0,2.5833333333333335
2026-01-20T23:02:36+00:00,SAT-60268,310.3929446227632,86.7063002842064,664.2320330768588,1.5761957405665978,-55205.042136014235,10.5,10499944794.957865,47.655,-122.3035,60.0,2.6
2026-01-20T23:02:37+00:00,SAT-60268,318.11983338505667,86.30660861450532,665.8040256287838,1.6468458956582583,-57679.509417183916,10.5,10499942320.490583,47.655,-122.3035,60.0,2.6166666666666667
2026-01-20T23:02:38+00:00,SAT-60268,324.22235257173253,85.85531825996277,667.4464799353871,1.71697363043935,-60135.67932924175,10.5,10499939864.320671,47.655,-122.3035,60.0,2.6333333333333333
2026-01-20T23:02:39+00:00,SAT-60268,329.0596893701116,85.36870264151757,669.1588749694786,1.786562148248308,-62572.96358204993,10.5,10499937427.036417,47.655,-122.3035,60.0,2.65
2026-01-20T23:02:40+00:00,SAT-60268,332.93517824890046,84.857916526723,670.9406729519982,1.8555954197103948,-64990.80075910097,10.5,10499935009.199242,47.655,-122.3035,60.0,2.6666666666666665
2026-01-20T23:02:41+00:00,SAT-60268,336.08149433570435,84.33055440858992,672.7913201172561,1.9240582181594759,-67388.65755813809,10.5,10499932611.342442,47.655,-122.3035,60.0,2.683333333333333
2026-01-20T23:02:42+00:00,SAT-60268,338.670955248311,83.79184175592582,674.7102475135003,1.9919360937526076,-69766.02788453863,10.5,10499930233.972115,47.655,-122.3035,60.0,2.7
2026-01-20T23:02:43+00:00,SAT-60268,340.8301110680222,83.24544050251563,676.6968717776697,2.0592153748725965,-72122.43290043762,10.5,10499927877.567099,47.655,-122.3035,60.0,2.716666666666667
2026-01-20T23:02:44+00:00,SAT-60268,342.6522755850875,82.69397191109042,678.7505959115426,2.1258831980526147,-74457.4220728143,10.5,10499925542.577927,47.655,-122.3035,60.0,2.7333333333333334
2026-01-20T23:02:45+00:00,SAT-60268,344.20693180575824,82.13935346538226,680.8708100877337,2.1919274847816865,-76770.57236112226,10.5,10499923229.427639,47.655,-122.3035,60.0,2.75
2026-01-20T23:02:46+00:00,SAT-60268,345.5464549938576,81.58301760665043,683.056892432556,2.257336941766037,-79061.48822644293,10.5,10499920938.511774,47.655,-122.3035,60.0,2.7666666666666666
2026-01-20T23:02:47+00:00,SAT-60268,346.7108421299284,81.02605581355459,685.308209809144,2.322101065557198,-81329.8017935814,10.5,10499918670.198206,47.655,-122.3035,60.0,2.783333333333333
2026-01-20T23:02:48+00:00,SAT-60268,347.7310353267813,80.46931515456342,687.6241186051931,2.3862101275357652,-83575.17232513413,10.5,10499916424.827675,47.655,-122.3035,60.0,2.8
2026-01-20T23:02:49+00:00,SAT-60268,348.6312716026619,79.9134641728223,690.0039655057221,2.449655175357284,-85797.2862721299,10.5,10499914202.713728,47.655,-122.3035,60.0,2.816666666666667
2026-01-20T23:02:50+00:00,SAT-60268,349.4307604306459,79.35903865189191,692.4470882672784,2.512428012140647,-87995.8565451196,10.5,10499912004.143456,47.655,-122.3035,60.0,2.8333333333333335
2026-01-20T23:02:51+00:00,SAT-60268,350.14489498731433,78.80647396127334,694.9528164713867,2.574521199332805,-90170.62261451039,10.5,10499909829.377386,47.655,-122.3035,60.0,2.85
2026-01-20T23:02:52+00:00,SAT-60268,350.7861371882795,78.25612828876051,697.5204722808546,2.635928005721237,-92321.34872476677,10.5,10499907678.651276,47.655,-122.3035,60.0,2.8666666666666667
2026-01-20T23:02:53+00:00,SAT-60268,351.3646721048777,77.70829959547555,700.1493711452272,2.696642484851958,-94447.82660591666,10.5,10499905552.173393,47.655,-122.3035,60.0,2.8833333333333333
2026-01-20T23:02:54+00:00,SAT-60268,351.888897540019,77.16323814606095,702.838822583453,2.756659333881255,-96549.87052994233,10.5,10499903450.12947,47.655,-122.3035,60.0,2.9
2026-01-20T23:02:55+00:00,SAT-60268,352.36579435458043,76.62115593235309,705.5881308257772,2.8159739727879725,-98627.3200851294,10.5,10499901372.679914,47.655,-122.3035,60.0,2.9166666666666665
2026-01-20T23:02:56+00:00,SAT-60268,352.8012096250921,76.08223381665198,708.3965955346376,2.8745825125856324,-100680.03906272097,10.5,10499899319.960938,47.655,-122.3035,60.0,2.933333333333333
2026-01-20T23:02:57+00:00,SAT-60268,353.2000753211636,75.5466270275144,711.2635124938565,2.932481694296928,-102707.91331954637,10.5,10499897292.086681,47.655,-122.3035,60.0,2.95
2026-01-20T23:02:58+00:00,SAT-60268,353.5665787945113,75.01446944272686,714.1881742369686,2.9896689176248157,-104710.85178220381,10.5,10499895289.148218,47.655,-122.3035,60.0,2.966666666666667
2026-01-20T23:02:59+00:00,SAT-60268,353.9042969051723,74.48587694957517,717.1698707041463,3.046142185034113,-106688.78448856171,10.5,10499893311.215511,47.655,-122.3035,60.0,2.9833333333333334
2026-01-20T23:03:00+00:00,SAT-60268,354.216302422486,73.96095012153901,720.2078898433538,3.1019001092366825,-108641.66284992122,10.5,10499891358.33715,47.655,-122.3035,60.0,3.0
2026-01-20T23:03:01+00:00,SAT-60268,354.50524911091,73.43977636261656,723.3015182189658,3.1569418960710345,-110569.45905138769,10.5,10499889430.540949,47.655,-122.3035,60.0,3.0166666666666666
2026-01-20T23:03:02+00:00,SAT-60268,354.7734402771462,72.92243164513064,726.450041603314,3.2112672877945307,-112472.16406572366,10.5,10499887527.835934,47.655,-122.3035,60.0,3.033333333333333
2026-01-20T23:03:03+00:00,SAT-60268,355.02288437987113,72.40898193762237,729.6527455116744,3.2648765777400577,-114349.78816668765,10.5,10499885650.211834,47.655,-122.3035,60.0,3.05
2026-01-20T23:03:04+00:00,SAT-60268,355.2553404492827,71.89948437894716,732.9089157518738,3.3177705740000456,-116202.35965709477,10.5,10499883797.640343,47.655,-122.3035,60.0,3.066666666666667
2026-01-20T23:03:05+00:00,SAT-60268,355.4723554124528,71.39398825919903,736.2178389376766,3.369950577523462,-118029.92410168088,10.5,10499881970.0759,47.655,-122.3035,60.0,3.0833333333333335
2026-01-20T23:03:06+00:00,SAT-60268,355.6752949494677,70.89253584481301,739.5788029803266,3.421418381261876,-119832.54429719408,10.5,10499880167.455704,47.655,-122.3035,60.0,3.1
2026-01-20T23:03:07+00:00,SAT-60268,355.865369145717,70.39516307553811,742.9910975792385,3.472176184968704,-121610.297288304,10.5,10499878389.702711,47.655,-122.3035,60.0,3.1166666666666667
2026-01-20T23:03:08+00:00,SAT-60268,356.04365392577597,69.90190016991492,746.4540146277138,3.522226692630145,-123363.27778004516,10.5,10499876636.72222,47.655,-122.3035,60.0,3.1333333333333333
2026-01-20T23:03:09+00:00,SAT-60268,356.21110906252716,69.41277213112674,749.9668487158303,3.5715729491814137,-125091.59241892885,10.5,10499874908.407581,47.655,-122.3035,60.0,3.15
2026-01-20T23:03:10+00:00,SAT-60268,356.3685933670493,68.92779920636863,753.5288974704806,3.620218418026645,-126795.36250801804,10.5,10499873204.637491,47.655,-122.3035,60.0,3.1666666666666665
2026-01-20T23:03:11+00:00,SAT-60268,356.51687757045175,68.44699727633171,757.1394619727258,3.6681669593542994,-128474.7232474412,10.5,10499871525.276752,47.655,-122.3035,60.0,3.183333333333333
2026-01-20T23:03:12+00:00,SAT-60268,356.6566552901454,67.97037819940557,760.7978471535218,3.7154227210959396,-130129.81991530744,10.5,10499869870.180084,47.655,-122.3035,60.0,3.2
2026-01-20T23:03:13+00:00,SAT-60268,356.7885524003277,67.49795012921311,764.5033620806948,3.7619902442879494,-131760.8115579194,10.5,10499868239.188442,47.655,-122.3035,60.0,3.216666666666667
2026-01-20T23:03:14+00:00,SAT-60268,356.91313507817983,67.02971778321954,768.2553203509981,3.8078743165409628,-133367.86585765312,10.5,10499866632.134142,47.655,-122.3035,60.0,3.2333333333333334
2026-01-20T23:03:15+00:00,SAT-60268,357.0309167293194,66.56568270056145,772.0530403360282,3.853080064915382,-134951.16238585132,10.5,10499865048.837614,47.655,-122.3035,60.0,3.25
2026-01-20T23:03:16+00:00,SAT-60268,357.14236397789756,66.10584346226143,775.8958455207705,3.8976128723164307,-136510.88967462457,10.5,10499863489.110325,47.655,-122.3035,60.0,3.2666666666666666
2026-01-20T23:03:17+00:00,SAT-60268,357.2479018594342,65.65019589980963,779.7830647587607,3.941478360644504,-138047.24462670536,10.5,10499861952.755373,47.655,-122.3035,60.0,3.283333333333333
2026-01-20T23:03:18+00:00,SAT-60268,357.34791833905507,65.19873328616939,783.7140325104436,3.9846823994355423,-139560.4328180704,10.5,10499860439.567183,47.655,-122.3035,60.0,3.3
2026-01-20T23:03:19+00:00,SAT-60268,357.4427682557038,64.75144650863344,787.6880890901473,4.027231071842327,-141050.66730646184,10.5,10499858949.332693,47.655,-122.3035,60.0,3.316666666666667
2026-01-20T23:03:20+00:00,SAT-60268,357.5327767741175,64.3083242306409,791.7045808791313,4.069130658046564,-142518.16805040813,10.5,10499857481.83195,47.655,-122.3035,60.0,3.3333333333333335
2026-01-20T23:03:21+00:00,SAT-60268,357.6182424151845,63.86935304196436,795.7628605220898,4.110387640164481,-143963.16208103893,10.5,10499856036.83792,47.655,-122.3035,60.0,3.35
2026-01-20T23:03:22+00:00,SAT-60268,357.6994397236897,63.43451759643275,799.8622871285472,4.151008632573573,-145385.88106183283,10.5,10499854614.118938,47.655,-122.3035,60.0,3.3666666666666667
2026-01-20T23:03:23+00:00,SAT-60268,357.776621621512,63.003800746319115,804.0022264047673,4.191000441747612,-146786.56338429276,10.5,10499853213.436615,47.655,-122.3035,60.0,3.3833333333333333
2026-01-20T23:03:24+00:00,SAT-60268,357.8500214911419,62.57718366048756,808.1820508453369,4.230369984660813,-148165.45131011447,10.5,10499851834.54869,47.655,-122.3035,60.0,3.4
2026-01-20T23:03:25+00:00,SAT-60268,357.91985502208695,62.15464594227559,812.4011398433719,4.269124309022354,-149522.79167988515,10.5,10499850477.20832,47.655,-122.3035,60.0,3.4166666666666665
2026-01-20T23:03:26+00:00,SAT-60268,357.986321852857,61.73616573697638,816.6588798209035,4.307270599005027,-150858.836113725,10.5,10499849141.163887,47.655,-122.3035,60.0,3.433333333333333
2026-01-20T23:03:27+00:00,SAT-60268,358.04960703416043,61.321719831369826,820.9546643649778,4.344816089399424,-152173.83800460366,10.5,10499847826.161995,47.655,-122.3035,60.0,3.45
2026-01-20T23:03:28+00:00,SAT-60268,358.10988233394426,60.91128375479425,825.2878942781389,4.381768144150532,-153468.0552690241,10.5,10499846531.94473,47.655,-122.3035,60.0,3.466666666666667
2026-01-20T23:03:29+00:00,SAT-60268,358.16730740660313,60.50483186601784,829.6579777072384,4.418134171231819,-154741.74736555282,10.5,10499845258.252634,47.655,-122.3035,60.0,3.4833333333333334
2026-01-20T23:03:30+00:00,SAT-60268,358.22203083984283,60.10233744243124,834.0643301873469,4.453921648287073,-155995.17619290567,10.5,10499844004.823807,47.655,-122.3035,60.0,3.5
2026-01-20T23:03:31+00:00,SAT-60268,358.2741910956429,59.70377276108588,838.5063747112385,4.48913813044111,-157228.60636351185,10.5,10499842771.393637,47.655,-122.3035,60.0,3.5166666666666666
2026-01-20T23:03:32+00:00,SAT-60268,358.3239173571461,59.30910917397284,842.9835418066651,4.523791165819922,-158442.30224467217,10.5,10499841557.697756,47.655,-122.3035,60.0,3.533333333333333
2026-01-20T23:03:33+00:00,SAT-60268,358.3713302911992,58.91831718596337,847.4952695293762,4.557888382010046,-159636.53098673178,10.5,10499840363.469013,47.655,-122.3035,60.0,3.55
2026-01-20T23:03:34+00:00,SAT-60268,358.4165427381505,58.5313665204413,852.0410035423675,4.591437380332456,-160811.55882010478,10.5,10499839188.44118,47.655,-122.3035,60.0,3.566666666666667
2026-01-20T23:03:35+00:00,SAT-60268,358.4596603347229,58.14822618984427,856.6201970896858,4.624445824383727,-161967.65415636016,10.5,10499838032.345844,47.655,-122.3035,60.0,3.5833333333333335
2026-01-20T23:03:36+00:00,SAT-60268,358.5007820794219,57.768864554505825,861.2323110585378,4.65692135731831,-163105.08469109738,10.5,10499836894.915308,47.655,-122.3035,60.0,3.6
2026-01-20T23:03:37+00:00,SAT-60268,358.54000084488416,57.393249384711794,865.8768139589033,4.688871610212429,-164224.1176968852,10.5,10499835775.882303,47.655,-122.3035,60.0,3.6166666666666667
2026-01-20T23:03:38+00:00,SAT-60268,358.5774038436222,57.0213479182964,870.5531819114885,4.720304233236003,-165325.0211150343,10.5,10499834674.978886,47.655,-122.3035,60.0,3.6333333333333333
2026-01-20T23:03:39+00:00,SAT-60268,358.61307305247453,56.653126912231905,875.2608986667691,4.751226830845594,-166408.0612857804,10.5,10499833591.938715,47.655,-122.3035,60.0,3.65
2026-01-20T23:03:40+00:00,SAT-60268,358.6470855988059,56.28855269621958,879.9994555593992,4.781647000684829,-167473.5043107412,10.5,10499832526.49569,47.655,-122.3035,60.0,3.6666666666666665
2026-01-20T23:03:41+00:00,SAT-60268,358.6795141135763,55.92759121998396,884.7683515014155,4.811572306513682,-168521.61510478577,10.5,10499831478.384895,47.655,-122.3035,60.0,3.683333333333333
2026-01-20T23:03:42+00:00,SAT-60268,358.71042705378954,55.570208099783294,889.5670929484451,4.841010269187074,-169552.65708006665,10.5,10499830447.34292,47.655,-122.3035,60.0,3.7
2026-01-20T23:03:43+00:00,SAT-60268,358.73988899764413,55.21636866274173,894.3951938569144,4.86996840564346,-170566.89351156502,10.5,10499829433.10649,47.655,-122.3035,60.0,3.716666666666667
2026-01-20T23:03:44+00:00,SAT-60268,358.76796091532145,54.86603798567379,899.2521756801428,4.898454126272888,-171564.5839424864,10.5,10499828435.416058,47.655,-122.3035,60.0,3.7333333333333334
2026-01-20T23:03:45+00:00,SAT-60268,358.79470041672977,54.51918093889499,904.137567262079,4.9264748240009455,-172545.98730435682,10.5,10499827454.012695,47.655,-122.3035,60.0,3.75
2026-01-20T23:03:46+00:00,SAT-60268,358.8201619797935,54.17576222100236,909.0509048198826,4.954037870982277,-173511.36180121618,10.5,10499826488.638199,47.655,-122.3035,60.0,3.7666666666666666
2026-01-20T23:03:47+00:00,SAT-60268,358.8443971604083,53.83574639182042,913.9917319232089,4.981150523097577,-174460.96156469875,10.5,10499825539.038435,47.655,-122.3035,60.0,3.783333333333333
2026-01-20T23:03:48+00:00,SAT-60268,358.8674547851222,53.499097909838575,918.959599378245,5.007819986424166,-175395.03898211388,10.5,10499824604.961018,47.655,-122.3035,60.0,3.8
2026-01-20T23:03:49+00:00,SAT-60268,358.88938112927656,53.16578116278191,923.9540651780386,5.034053457326008,-176313.8461005683,10.5,10499823686.1539,47.655,-122.3035,60.0,3.816666666666667
2026-01-20T23:03:50+00:00,SAT-60268,358.91022008160064,52.835760493656785,928.9746944928118,5.059857975374542,-177217.62947563105,10.5,10499822782.370523,47.655,-122.3035,60.0,3.8333333333333335
2026-01-20T23:03:51+00:00,SAT-60268,358.93001329544364,52.50900023476107,934.0210595135853,5.085240593597972,-178106.63613418423,10.5,10499821893.363865,47.655,-122.3035,60.0,3.85
2026-01-20T23:03:52+00:00,SAT-60268,358.94880032958343,52.185464728557825,939.0927394656003,5.110208219454861,-178981.1080046451,10.5,10499821018.891994,47.655,-122.3035,60.0,3.8666666666666667
2026-01-20T23:03:53+00:00,SAT-60268,358.96661877774136,51.865118357304944,944.1893204631367,5.134767748933632,-179841.28661369838,10.5,10499820158.713387,47.655,-122.3035,60.0,3.8833333333333333
2026-01-20T23:03:54+00:00,SAT-60268,358.983504389268,51.54792556238439,949.310395498073,5.158925957704984,-180687.4092739929,10.5,10499819312.590727,47.655,-122.3035,60.0,3.9
2026-01-20T23:03:55+00:00,SAT-60268,358.99949118057276,51.23385086907938,954.4555643198909,5.1826895410860025,-181519.7104838542,10.5,10499818480.289516,47.655,-122.3035,60.0,3.9166666666666665
2026-01-20T23:03:56+00:00,SAT-60268,359.0146115387276,50.92285890727278,959.6244333555339,5.206065153231148,-182338.4232999186,10.5,10499817661.5767,47.655,-122.3035,60.0,3.933333333333333
2026-01-20T23:03:57+00:00,SAT-60268,359.028896317962,50.61491442843209,964.8166156683566,5.229059321735329,-183143.77634617133,10.5,10499816856.223654,47.655,-122.3035,60.0,3.95
2026-01-20T23:03:58+00:00,SAT-60268,359.04237492897806,50.309982326477204,970.0317308319006,5.251678512235998,-183935.99607658567,10.5,10499816064.003923,47.655,-122.3035,60.0,3.966666666666667
2026-01-20T23:03:59+00:00,SAT-60268,359.05507542241,50.00802765346146,975.269404868104,5.273929105726859,-184715.3059805528,10.5,10499815284.69402,47.655,-122.3035,60.0,3.9833333333333334
2026-01-20T23:04:00+00:00,SAT-60268,359.0670245664476,49.7090156354631,980.5292701628822,5.29581737532219,-185481.92576906984,10.5,10499814518.07423,47.655,-122.3035,60.0,4.0
2026-01-20T23:04:01+00:00,SAT-60268,359.07824791914885,49.412911688656486,985.8109653585368,5.317349552013357,-186236.0736778116,10.5,10499813763.926323,47.655,-122.3035,60.0,4.016666666666667
2026-01-20T23:04:02+00:00,SAT-60268,359.08876989613395,49.11968143059398,991.1141353117449,5.33853174002292,-186977.96350247297,10.5,10499813022.036497,47.655,-122.3035,60.0,4.033333333333333
2026-01-20T23:04:03+00:00,SAT-60268,359.09861383352023,48.829290695283674,996.4384309671277,5.359369964317574,-187707.80626287314,10.5,10499812292.193737,47.655,-122.3035,60.0,4.05
2026-01-20T23:04:04+00:00,SAT-60268,359.10780204687563,48.54170554459079,1001.7835092782071,5.379870167346284,-188425.81008871135,10.5,10499811574.18991,47.655,-122.3035,60.0,4.066666666666666
2026-01-20T23:04:05+00:00,SAT-60268,359.1163558863922,48.25689227893639,1007.1490331251072,5.400038207225799,-189132.1801560161,10.5,10499810867.819843,47.655,-122.3035,60.0,4.083333333333333
2026-01-20T23:04:06+00:00,SAT-60268,359.1242957884518,47.974817447274,1012.534671230447,5.419879864044492,-189827.11890793184,10.5,10499810172.881092,47.655,-122.3035,60.0,4.1
2026-01-20T23:04:07+00:00,SAT-60268,359.1316413239995,47.69544785593627,1017.9400980815207,5.439400787920774,-190510.82423550537,10.5,10499809489.175764,47.655,-122.3035,60.0,4.116666666666666
2026-01-20T23:04:08+00:00,SAT-60268,359.13841124369605,47.418750579413114,1023.3649938006737,5.4586065874049945,-191183.49257389407,10.5,10499808816.507425,47.655,-122.3035,60.0,4.133333333333334
2026-01-20T23:04:09+00:00,SAT-60268,359.1446235205337,47.144692965789304,1028.8090441038455,5.477502764468612,-191845.31662541168,10.5,10499808154.683374,47.655,-122.3035,60.0,4.15
2026-01-20T23:04:10+00:00,SAT-60268,359.1502953896379,46.873242644922975,1034.2719401942757,5.496094720213785,-192496.48555950244,10.5,10499807503.51444,47.655,-122.3035,60.0,4.166666666666667
2026-01-20T23:04:11+00:00,SAT-60268,359.15544338569026,46.60436753561839,1039.7533786619022,5.51438779594007,-193137.18645107053,10.5,10499806862.813549,47.655,-122.3035,60.0,4.183333333333334
2026-01-20T23:04:12+00:00,SAT-60268,359.16008337815344,46.338035850166655,1045.2530614237198,5.53238722364572,-193767.60254682612,10.5,10499806232.397453,47.655,-122.3035,60.0,4.2
2026-01-20T23:04:13+00:00,SAT-60268,359.16423060433345,46.074216100777456,1050.770695614769,5.550098186209552,-194387.91537310887,10.5,10499805612.084627,47.655,-122.3035,60.0,4.216666666666667
2026-01-20T23:04:14+00:00,SAT-60268,359.16789970055447,45.81287710256048,1056.3059935391486,5.567525701557363,-194998.30067890606,10.5,10499805001.699322,47.655,-122.3035,60.0,4.233333333333333
2026-01-20T23:04:15+00:00,SAT-60268,359.17110473134295,45.55398798151864,1061.858672505502,5.58467478192505,-195598.93401392046,10.5,10499804401.065987,47.655,-122.3035,60.0,4.25
2026-01-20T23:04:16+00:00,SAT-60268,359.1738592171707,45.297518174480054,1067.4284548213418,5.601550347311321,-196189.9876973185,10.5,10499803810.012302,47.655,-122.3035,60.0,4.266666666666667
2026-01-20T23:04:17+00:00,SAT-60268,359.1761761604876,45.043437432775775,1073.0150677010604,5.618157180464927,-196771.62924119234,10.5,10499803228.370758,47.655,-122.3035,60.0,4.283333333333333
2026-01-20T23:04:18+00:00,SAT-60268,359.17806807014983,44.791715827512505,1078.618243129044,5.634500035276378,-197344.0251468967,10.5,10499802655.974854,47.655,-122.3035,60.0,4.3
2026-01-20T23:04:19+00:00,SAT-60268,359.17954698470425,44.54232374944677,1084.237717830893,5.650583563384651,-197907.33833450486,10.5,10499802092.661665,47.655,-122.3035,60.0,4.316666666666666
2026-01-20T23:04:20+00:00,SAT-60268,359.1806244942087,44.295231911910506,1089.873233171442,5.666412317103396,-198461.72824529713,10.5,10499801538.271755,47.655,-122.3035,60.0,4.333333333333333
2026-01-20T23:04:21+00:00,SAT-60268,359.18131176089247,44.05041135318076,1095.5245350556997,5.681990830649955,-199007.35368674458,10.5,10499800992.646313,47.655,-122.3035,60.0,4.35
2026-01-20T23:04:22+00:00,SAT-60268,359.181619538751,43.80783343501846,1101.1913739108013,5.697323448521323,-199544.36682150923,10.5,10499800455.633179,47.655,-122.3035,60.0,4.366666666666666
2026-01-20T23:04:23+00:00,SAT-60268,359.1815581919064,43.56746984833627,1106.8735044967932,5.712414571662468,-200072.9217892997,10.5,10499799927.07821,47.655,-122.3035,60.0,4.383333333333334
2026-01-20T23:04:24+00:00,SAT-60268,359.18113771222505,43.3292926079929,1112.5706859629313,5.727268418034971,-200593.1663209726,10.5,10499799406.83368,47.655,-122.3035,60.0,4.4
2026-01-20T23:04:25+00:00,SAT-60268,359.1803677357667,43.09327405759698,1118.282681665185,5.741889176575855,-201105.24713082163,10.5,10499798894.752869,47.655,-122.3035,60.0,4.416666666666667
2026-01-20T23:04:26+00:00,SAT-60268,359.1792575584903,42.85938686749563,1124.0092591372897,5.756280952383542,-201609.3079967582,10.5,10499798390.692003,47.655,-122.3035,60.0,4.433333333333334
2026-01-20T23:04:27+00:00,SAT-60268,359.1778161511148,42.62760403487446,1129.7501900071336,5.770447770485289,-202105.4898922625,10.5,10499797894.510107,47.655,-122.3035,60.0,4.45
2026-01-20T23:04:28+00:00,SAT-60268,359.1760521731845,42.397898883489674,1135.5052499168976,5.7843936075891005,-202593.93209847045,10.5,10499797406.067902,47.655,-122.3035,60.0,4.466666666666667
2026-01-20T23:04:29+00:00,SAT-60268,359.1739739864568,42.170245061938175,1141.2742184748665,5.798122314218875,-203074.76947701664,10.5,10499796925.230522,47.655,-122.3035,60.0,4.483333333333333
2026-01-20T23:04:30+00:00,SAT-60268,359.1715896675235,41.94461654485183,1147.0568791295807,5.811637733328706,-203548.13662440906,10.5,10499796451.863375,47.655,-122.3035,60.0,4.5
2026-01-20T23:04:31+00:00,SAT-60268,359.1689070199058,41.72098762922379,1152.8530191622872,5.824943602919966,-204014.16446126753,10.5,10499795985.835539,47.655,-122.3035,60.0,4.516666666666667
2026-01-20T23:04:32+00:00,SAT-60268,359.16593358543497,41.499332934463794,1158.6624295822662,5.8380435930660095,-204472.98152908537,10.5,10499795527.01847,47.655,-122.3035,60.0,4.533333333333333
2026-01-20T23:04:33+00:00,SAT-60268,359.1626766551451,41.27962740082452,1164.484905059084,5.850941289716989,-204924.7134230054,10.5,10499795075.286577,47.655,-122.3035,60.0,4.55
2026-01-20T23:04:34+00:00,SAT-60268,359.1591432795612,41.06184628832108,1170.3202438386952,5.863640282058379,-205369.48585148522,10.5,10499794630.514149,47.655,-122.3035,60.0,4.566666666666666
2026-01-20T23:04:35+00:00,SAT-60268,359.15534027857257,40.84596517227875,1176.1682477466682,5.876143993922546,-205807.41873161707,10.5,10499794192.581268,47.655,-122.3035,60.0,4.583333333333333
2026-01-20T23:04:36+00:00,SAT-60268,359.15127425071665,40.63195994508962,1182.0287220232733,5.888455863747835,-206238.63249205644,10.5,10499793761.367508,47.655,-122.3035,60.0,4.6
2026-01-20T23:04:37+00:00,SAT-60268,359.14695158210776,40.41980681115641,1187.9014753380511,5.90057920092238,-206663.2430415744,10.5,10499793336.756958,47.655,-122.3035,60.0,4.616666666666666
2026-01-20T23:04:38+00:00,SAT-60268,359.1423784548796,40.20948228706636,1193.7863196611042,5.9125173534404665,-207081.3676410929,10.5,10499792918.632359,47.655,-122.3035,60.0,4.633333333333334
2026-01-20T23:04:39+00:00,SAT-60268,359.13756085528513,40.000963195617786,1199.6830703016024,5.9242734758415105,-207493.11677592588,10.5,10499792506.883224,47.655,-122.3035,60.0,4.65
2026-01-20T23:04:40+00:00,SAT-60268,359.1325045813319,39.794226668126036,1205.5915457148417,5.9358507587177805,-207898.60219411086,10.5,10499792101.397806,47.655,-122.3035,60.0,4.666666666666667
2026-01-20T23:04:41+00:00,SAT-60268,359.12721525015536,39.58925013843457,1211.511567538203,5.947252297050164,-208297.9322949703,10.5,10499791702.067705,47.655,-122.3035,60.0,4.683333333333334
2026-01-20T23:04:42+00:00,SAT-60268,359.1216983049734,39.38601134160493,1217.4429604957943,5.958481132599026,-208691.21361381872,10.5,10499791308.786386,47.655,-122.3035,60.0,4.7
2026-01-20T23:04:43+00:00,SAT-60268,359.1159590217735,39.184488311043516,1223.385552345373,5.969540259436691,-209078.5510157339,10.5,10499790921.448984,47.655,-122.3035,60.0,4.716666666666667
2026-01-20T23:04:44+00:00,SAT-60268,359.11000251565787,38.98465937542351,1229.3391738307846,5.98043257051551,-209460.0458241443,10.5,10499790539.954176,47.655,-122.3035,60.0,4.733333333333333
2026-01-20T23:04:45+00:00,SAT-60268,359.10383374693316,38.7865031573611,1235.3036585811121,5.9911609777291766,-209835.80002588444,10.5,10499790164.199974,47.655,-122.3035,60.0,4.75
2026-01-20T23:04:46+00:00,SAT-60268,359.09745752689315,38.58999856804996,1241.2788431295673,6.001728289591868,-210205.91198700073,10.5,10499789794.088013,47.655,-122.3035,60.0,4.766666666666667
2026-01-20T23:04:47+00:00,SAT-60268,359.0908785233795,38.39512480598715,1247.264566810387,6.012137269441592,-210570.47849127915,10.5,10499789429.52151,47.655,-122.3035,60.0,4.783333333333333
2026-01-20T23:04:48+00:00,SAT-60268,359.08410126605344,38.20186135372883,1253.2606717137767,6.0223905992826445,-210929.5934738551,10.5,10499789070.406527,47.655,-122.3035,60.0,4.8
2026-01-20T23:04:49+00:00,SAT-60268,359.0771301514981,38.01018797579174,1259.2670026047945,6.032490984414342,-211283.35168575385,10.5,10499788716.648314,47.655,-122.3035,60.0,4.816666666666666
2026-01-20T23:04:50+00:00,SAT-60268,359.06996944801097,37.82008471321263,1265.2834069465837,6.042441004108927,-211631.8434639998,10.5,10499788368.156536,47.655,-122.3035,60.0,4.833333333333333
2026-01-20T23:04:51+00:00,SAT-60268,359.0626233002838,37.63153188289699,1271.3097347746818,6.052243248846923,-211975.15953817856,10.5,10499788024.840462,47.655,-122.3035,60.0,4.85
2026-01-20T23:04:52+00:00,SAT-60268,359.05509573379305,37.44451007259766,1277.3458387081985,6.061900177998574,-212313.38604583917,10.5,10499787686.613955,47.655,-122.3035,60.0,4.866666666666666
2026-01-20T23:04:53+00:00,SAT-60268,359.047390659092,37.259000140364726,1283.3915738190558,6.0714143120051105,-212646.61126349503,10.5,10499787353.388737,47.655,-122.3035,60.0,4.883333333333334
2026-01-20T23:04:54+00:00,SAT-60268,359.03951187582646,37.07498320803293,1289.4467976928954,6.080788035930472,-212974.91872617407,10.5,10499787025.081274,47.655,-122.3035,60.0,4.9
2026-01-20T23:04:55+00:00,SAT-60268,359.03146307665537,36.89244066081552,1295.5113702940635,6.090023704672449,-213298.39091235815,10.5,10499786701.609087,47.655,-122.3035,60.0,4.916666666666667
2026-01-20T23:04:56+00:00,SAT-60268,359.0232478509928,36.71135414363019,1301.5851539355233,6.099123684495423,-213617.11069863517,10.5,10499786382.889301,47.655,-122.3035,60.0,4.933333333333334
2026-01-20T23:04:57+00:00,SAT-60268,359.0148696885357,36.53170555625275,1307.6680132901934,6.108090225459577,-213931.15689163053,10.5,10499786068.84311,47.655,-122.3035,60.0,4.95
2026-01-20T23:04:58+00:00,SAT-60268,359.00633198274585,36.35347705230393,1313.7598152750518,6.116925595847316,-214240.60893618886,10.5,10499785759.391064,47.655,-122.3035,60.0,4.966666666666667
2026-01-20T23:04:59+00:00,SAT-60268,358.99763803408916,36.17665103426267,1319.8604290693102,6.12563194389115,-214545.54207249964,10.5,10499785454.457928,47.655,-122.3035,60.0,4.983333333333333
2026-01-20T23:05:00+00:00,SAT-60268,358.9887910532416,36.00121015255913,1325.9697259946843,6.134211453677477,-214846.0327965072,10.5,10499785153.967203,47.655,-122.3035,60.0,5.0
2026-01-20T23:05:01+00:00,SAT-60268,358.9797941640676,35.82713730015498,1332.087579551152,6.1426662530286995,-215142.15563355281,10.5,10499784857.844366,47.655,-122.3035,60.0,5.016666666666667
2026-01-20T23:05:02+00:00,SAT-60268,358.97065040653666,35.65441560986281,1338.2138653608392,6.150998371869609,-215433.98168018923,10.5,10499784566.01832,47.655,-122.3035,60.0,5.033333333333333
2026-01-20T23:05:03+00:00,SAT-60268,358.9613627395369,35.483028452835335,1344.3484610703838,6.159209863914258,-215721.58286616972,10.5,10499784278.417133,47.655,-122.3035,60.0,5.05
2026-01-20T23:05:04+00:00,SAT-60268,358.95193404353336,35.31295943363668,1350.4912463746612,6.167302733006616,-216005.02937458642,10.5,10499783994.970625,47.655,-122.3035,60.0,5.066666666666666
2026-01-20T23:05:05+00:00,SAT-60268,358.94236712312244,35.144192387465914,1356.6421029670462,6.175278909511983,-216284.3888149975,10.5,10499783715.611185,47.655,-122.3035,60.0,5.083333333333333
2026-01-20T23:05:06+00:00,SAT-60268,358.93266470955575,34.97671137803232,1362.8009144661328,6.183140353902093,-216559.729851416,10.5,10499783440.27015,47.655,-122.3035,60.0,5.1
2026-01-20T23:05:07+00:00,SAT-60268,358.922829463041,34.81050069263894,1368.967566445758,6.190888891475433,-216831.11641351582,10.5,10499783168.883587,47.655,-122.3035,60.0,5.116666666666666
2026-01-20T23:05:08+00:00,SAT-60268,358.9128639751261,34.64554484179612,1375.1419463001894,6.198526431718876,-217098.61537960437,10.5,10499782901.38462,47.655,-122.3035,60.0,5.133333333333334
2026-01-20T23:05:09+00:00,SAT-60268,358.90277077078247,34.48182855295175,1381.3239433280905,6.206054734375639,-217362.2883833329,10.5,10499782637.711617,47.655,-122.3035,60.0,5.15
2026-01-20T23:05:10+00:00,SAT-60268,358.89255231062174,34.319336770541604,1387.5134485831743,6.21347559784287,-217622.19841217666,10.5,10499782377.801588,47.655,-122.3035,60.0,5.166666666666667
2026-01-20T23:05:11+00:00,SAT-60268,358.8822109928636,34.158054651041596,1393.7103549127562,6.220790777190706,-217878.40693611582,10.5,10499782121.593063,47.655,-122.3035,60.0,5.183333333333334
2026-01-20T23:05:12+00:00,SAT-60268,358.8717491553082,33.99796756026578,1399.9145569145412,6.228001956770505,-218130.9729482598,10.5,10499781869.027052,47.655,-122.3035,60.0,5.2
2026-01-20T23:05:13+00:00,SAT-60268,358.8611690772371,33.83906107139184,1406.1259508660937,6.235110858746703,-218379.95676609175,10.5,10499781620.043234,47.655,-122.3035,60.0,5.216666666666667
2026-01-20T23:05:14+00:00,SAT-60268,358.85047298118474,33.68132096023505,1412.3444347625502,6.242119081971574,-218625.41438818158,10.5,10499781374.585611,47.655,-122.3035,60.0,5.233333333333333
2026-01-20T23:05:15+00:00,SAT-60268,358.83966303474625,33.52473320469639,1418.5699081936366,6.2490282698131265,-218867.40337222835,10.5,10499781132.596628,47.655,-122.3035,60.0,5.25
2026-01-20T23:05:16+00:00,SAT-60268,358.8287413522109,33.36928397996168,1424.8022723880636,6.255840002884646,-219105.97907799532,10.5,10499780894.020922,47.655,-122.3035,60.0,5.266666666666667
2026-01-20T23:05:17+00:00,SAT-60268,358.81770999619823,33.21495965648666,1431.0414301509406,6.262555827140609,-219341.19565134755,10.5,10499780658.804348,47.655,-122.3035,60.0,5.283333333333333
2026-01-20T23:05:18+00:00,SAT-60268,358.8065709792329,33.06174679729585,1437.2872858292087,6.2691773065744965,-219573.1078699525,10.5,10499780426.89213,47.655,-122.3035,60.0,5.3
2026-01-20T23:05:19+00:00,SAT-60268,358.7953262651981,32.90963215404469,1443.5397453296325,6.275705887430861,-219801.76638741203,10.5,10499780198.233612,47.655,-122.3035,60.0,5.316666666666666
2026-01-20T23:05:20+00:00,SAT-60268,358.78397777088793,32.75860266644076,1449.7987160013636,6.282143076578521,-220027.2239806462,10.5,10499779972.77602,47.655,-122.3035,60.0,5.333333333333333
2026-01-20T23:05:21+00:00,SAT-60268,358.7725273672989,32.60864545735856,1456.0641066964045,6.288490323637878,-220249.53142149333,10.5,10499779750.468578,47.655,-122.3035,60.0,5.35
2026-01-20T23:05:22+00:00,SAT-60268,358.7609768810319,32.45974783088032,1462.3358277125126,6.294748996018941,-220468.73660243608,10.5,10499779531.263397,47.655,-122.3035,60.0,5.366666666666666
2026-01-20T23:05:23+00:00,SAT-60268,358.74932809563506,32.31189727093828,1468.613790711209,6.300920537827169,-220684.89010215618,10.5,10499779315.109898,47.655,-122.3035,60.0,5.383333333333334
2026-01-20T23:05:24+00:00,SAT-60268,358.7375827527687,32.16508143623559,1474.8979087942685,6.30700628624137,-220898.03875431177,10.5,10499779101.961246,47.655,-122.3035,60.0,5.4
2026-01-20T23:05:25+00:00,SAT-60268,358.72574255348775,32.019288159569115,1481.18809639708,6.313007585567885,-221108.2296421973,10.5,10499778891.770357,47.655,-122.3035,60.0,5.416666666666667
2026-01-20T23:05:26+00:00,SAT-60268,358.71380915939653,31.87450544449005,1487.484269295753,6.318925744757473,-221315.5086108052,10.5,10499778684.491388,47.655,-122.3035,60.0,5.433333333333334
2026-01-20T23:05:27+00:00,SAT-60268,358.7017841937787,31.730721463010156,1493.7863445718576,6.3247620644471825,-221519.92121394665,10.5,10499778480.078787,47.655,-122.3035,60.0,5.45
2026-01-20T23:05:28+00:00,SAT-60268,358.6896692426773,31.587924552730435,1500.0942406041331,6.3305178266805875,-221721.51235421063,10.5,10499778278.487646,47.655,-122.3035,60.0,5.466666666666667
2026-01-20T23:05:29+00:00,SAT-60268,358.6774658559396,31.446103214258088,1506.4078770499425,6.336194209975116,-221920.32330826254,10.5,10499778079.676691,47.655,-122.3035,60.0,5.483333333333333
2026-01-20T23:05:30+00:00,SAT-60268,358.66517554834263,31.305246110556595,1512.7271747420243,6.341792498550029,-222116.39905489315,10.5,10499777883.600945,47.655,-122.3035,60.0,5.5
2026-01-20T23:05:31+00:00,SAT-60268,358.6527998004075,31.165342061647767,1519.0520557939114,6.347313879426541,-222309.7811686066,10.5,10499777690.218832,47.655,-122.3035,60.0,5.516666666666667
2026-01-20T23:05:32+00:00,SAT-60268,358.6403400594614,31.02638004392156,1525.3824435029928,6.352759501406978,-222500.50988531965,10.5,10499777499.490114,47.655,-122.3035,60.0,5.533333333333333
2026-01-20T23:05:33+00:00,SAT-60268,358.62779774055997,30.88834918813089,1531.7182623123963,6.358130540160962,-222688.62638195558,10.5,10499777311.373617,47.655,-122.3035,60.0,5.55
2026-01-20T23:05:34+00:00,SAT-60268,358.6151742273356,30.75123877601241,1538.0594378377834,6.363428117474614,-222874.16994820946,10.5,10499777125.830051,47.655,-122.3035,60.0,5.566666666666666
2026-01-20T23:05:35+00:00,SAT-60268,358.6024708728861,30.61503823871976,1544.4058968136114,6.368653368349046,-223057.18033662133,10.5,10499776942.819664,47.655,-122.3035,60.0,5.583333333333333
2026-01-20T23:05:36+00:00,SAT-60268,358.58968900057,30.479737153842766,1550.7575671063114,6.37380735716086,-223237.69482616213,10.5,10499776762.305174,47.655,-122.3035,60.0,5.6
2026-01-20T23:05:37+00:00,SAT-60268,358.5768299048759,30.345325244263936,1557.1143776438532,6.378891167421645,-223415.7513659909,10.5,10499776584.248634,47.655,-122.3035,60.0,5.616666666666666
2026-01-20T23:05:38+00:00,SAT-60268,358.5638948521571,30.211792375130475,1563.4762584348284,6.383905841296006,-223591.38645712048,10.5,10499776408.613543,47.655,-122.3035,60.0,5.633333333333334
2026-01-20T23:05:39+00:00,SAT-60268,358.55088508140255,30.079128552157744,1569.8431405272145,6.388852440189492,-223764.63727446293,10.5,10499776235.362726,47.655,-122.3035,60.0,5.65
