satellites_20260121_005943/SAT-66129.csv

timestamp,satellite,azimuth_deg,elevation_deg,distance_km,relative_velocity_kms,doppler_shift_hz,tx_freq_ghz,rx_freq_hz,ue_lat,ue_lon,ue_alt_m,time_minutes
2026-01-20T23:00:00+00:00,SAT-66129,218.87146296417336,58.02381688176071,814.7247986463856,-2.6911771515418845,94256.40751506093,10.5,10500094256.407515,47.655,-122.3035,60.0,0.0
2026-01-20T23:00:01+00:00,SAT-66129,219.29061375396293,58.45179253620926,812.0407979672477,-2.6383347532667383,92405.64320434222,10.5,10500092405.643204,47.655,-122.3035,60.0,0.016666666666666666
2026-01-20T23:00:02+00:00,SAT-66129,219.72361138884722,58.88081944196589,809.409498773323,-2.5849724471575626,90536.66952206787,10.5,10500090536.669521,47.655,-122.3035,60.0,0.03333333333333333
2026-01-20T23:00:03+00:00,SAT-66129,220.17106092028283,59.31077196029524,806.8314195860246,-2.5310941601372825,88649.62400568952,10.5,10500088649.624006,47.655,-122.3035,60.0,0.05
2026-01-20T23:00:04+00:00,SAT-66129,220.63359886936897,59.74151679162869,804.3070750103144,-2.476704234147566,86744.65872837084,10.5,10500086744.658728,47.655,-122.3035,60.0,0.06666666666666667
2026-01-20T23:00:05+00:00,SAT-66129,221.1118948923218,60.17291256325395,801.8369753207911,-2.4218074030610333,84821.93949035519,10.5,10500084821.939491,47.655,-122.3035,60.0,0.08333333333333333
2026-01-20T23:00:06+00:00,SAT-66129,221.60665349640524,60.60480938565574,799.4216260708049,-2.366408863660756,82881.64830496817,10.5,10500082881.648306,47.655,-122.3035,60.0,0.1
2026-01-20T23:00:07+00:00,SAT-66129,222.11861581746373,61.03704839186885,797.0615276307806,-2.310514194130576,80923.98054380357,10.5,10500080923.980543,47.655,-122.3035,60.0,0.11666666666666667
2026-01-20T23:00:08+00:00,SAT-66129,222.64856142051272,61.46946123183545,794.7571748078344,-2.2541294326167267,78949.14768828383,10.5,10500078949.147688,47.655,-122.3035,60.0,0.13333333333333333
2026-01-20T23:00:09+00:00,SAT-66129,223.19731014274018,61.90186954781383,792.509056387038,-2.1972610340478362,76957.37581731386,10.5,10500076957.375818,47.655,-122.3035,60.0,0.15
2026-01-20T23:00:10+00:00,SAT-66129,223.76572393853198,62.33408440770522,790.3176547157476,-2.1399159096877636,74948.90699258857,10.5,10500074948.906992,47.655,-122.3035,60.0,0.16666666666666666
2026-01-20T23:00:11+00:00,SAT-66129,224.35470872463887,62.76590570962857,788.1834452484857,-2.0821013896061085,72923.99794415155,10.5,10500072923.997944,47.655,-122.3035,60.0,0.18333333333333332
2026-01-20T23:00:12+00:00,SAT-66129,224.9652161817026,63.197121541657914,786.1068961292518,-2.0238252753762853,70882.92191610436,10.5,10500070882.921917,47.655,-122.3035,60.0,0.2
2026-01-20T23:00:13+00:00,SAT-66129,225.59824550418648,63.62750751288434,784.0884677212765,-1.965095782962798,68825.96666627744,10.5,10500068825.966667,47.655,-122.3035,60.0,0.21666666666666667
2026-01-20T23:00:14+00:00,SAT-66129,226.25484503009324,64.05682603287944,782.128612193735,-1.9059216038355584,66753.43660671198,10.5,10500066753.436607,47.655,-122.3035,60.0,0.23333333333333334
2026-01-20T23:00:15+00:00,SAT-66129,226.93611373726304,64.48482556284785,780.2277730475097,-1.8463118581600508,64665.65116418151,10.5,10500064665.651165,47.655,-122.3035,60.0,0.25
2026-01-20T23:00:16+00:00,SAT-66129,227.64320251710876,64.91123981609161,778.386384687638,-1.7862761013942783,62562.94501124482,10.5,10500062562.945011,47.655,-122.3035,60.0,0.26666666666666666
2026-01-20T23:00:17+00:00,SAT-66129,228.3773151711223,65.33578691881847,776.6048719891808,-1.7258243603144279,60445.669328017226,10.5,10500060445.669329,47.655,-122.3035,60.0,0.2833333333333333
2026-01-20T23:00:18+00:00,SAT-66129,229.13970906204582,65.75816854022742,774.8836498271605,-1.6649670613237402,58314.18929124385,10.5,10500058314.189291,47.655,-122.3035,60.0,0.3
2026-01-20T23:00:19+00:00,SAT-66129,229.931695278361,66.17806896913181,773.2231226780003,-1.60371509615173,56168.886375364265,10.5,10500056168.886375,47.655,-122.3035,60.0,0.31666666666666665
2026-01-20T23:00:20+00:00,SAT-66129,230.75463825215144,66.59515417318227,771.6236841554384,-1.5420797763896075,54010.15676015065,10.5,10500054010.15676,47.655,-122.3035,60.0,0.3333333333333333
2026-01-20T23:00:21+00:00,SAT-66129,231.60995465017098,67.0090708203022,770.0857165917857,-1.4800728323436083,51838.4112905465,10.5,10500051838.411291,47.655,-122.3035,60.0,0.35
2026-01-20T23:00:22+00:00,SAT-66129,232.49911139790373,67.4194452803698,768.6095906203284,-1.4177064106289536,49654.075392397004,10.5,10500049654.075392,47.655,-122.3035,60.0,0.36666666666666664
2026-01-20T23:00:23+00:00,SAT-66129,233.42362265557773,67.82588261732695,767.1956647601278,-1.3549930742697145,47457.58907594667,10.5,10500047457.589075,47.655,-122.3035,60.0,0.38333333333333336
2026-01-20T23:00:24+00:00,SAT-66129,234.38504554396474,68.2279655866849,765.8442850007228,-1.291945782442826,45249.40622638903,10.5,10500045249.406227,47.655,-122.3035,60.0,0.4
2026-01-20T23:00:25+00:00,SAT-66129,235.38497437473902,68.62525365011786,764.5557844070332,-1.2285778753535912,43029.994074142814,10.5,10500043029.994074,47.655,-122.3035,60.0,0.4166666666666667
2026-01-20T23:00:26+00:00,SAT-66129,236.4250331270295,69.01728203013349,763.3304827393472,-1.164903078656941,40799.83334970315,10.5,10500040799.83335,47.655,-122.3035,60.0,0.43333333333333335
2026-01-20T23:00:27+00:00,SAT-66129,237.5068659013454,69.4035608378581,762.1686860689,-1.1009354843525625,38559.41761450819,10.5,10500038559.417614,47.655,-122.3035,60.0,0.45
2026-01-20T23:00:28+00:00,SAT-66129,238.63212503004962,69.78357430039358,761.0706864125057,-1.0366895343190876,36309.25268423671,10.5,10500036309.252684,47.655,-122.3035,60.0,0.4666666666666667
2026-01-20T23:00:29+00:00,SAT-66129,239.80245652266666,70.15678012783948,760.0367613836115,-0.9721800103015276,34049.85627812571,10.5,10500034049.856277,47.655,-122.3035,60.0,0.48333333333333334
2026-01-20T23:00:30+00:00,SAT-66129,241.01948252463046,70.52260906924872,759.0671738533374,-0.9074220181841585,31781.75746814039,10.5,10500031781.757467,47.655,-122.3035,60.0,0.5
2026-01-20T23:00:31+00:00,SAT-66129,242.28478046453125,70.8804647106429,758.1621716272017,-0.8424309724220984,29505.496133702047,10.5,10500029505.496134,47.655,-122.3035,60.0,0.5166666666666667
2026-01-20T23:00:32+00:00,SAT-66129,243.5998585966479,71.22972357841911,757.3219871373728,-0.7772225750453504,27221.622226320913,10.5,10500027221.622227,47.655,-122.3035,60.0,0.5333333333333333
2026-01-20T23:00:33+00:00,SAT-66129,244.96612768658412,71.56973561699822,756.5468371558609,-0.7118128117383956,24930.695632286897,10.5,10500024930.695633,47.655,-122.3035,60.0,0.55
2026-01-20T23:00:34+00:00,SAT-66129,246.38486870883116,71.89982512683156,755.8369225116204,-0.6462179125051268,22633.28479498918,10.5,10500022633.284796,47.655,-122.3035,60.0,0.5666666666666667
2026-01-20T23:00:35+00:00,SAT-66129,247.8571964590276,72.21929223309809,755.1924278468821,-0.5804543506712131,20329.966679974776,10.5,10500020329.96668,47.655,-122.3035,60.0,0.5833333333333334
2026-01-20T23:00:36+00:00,SAT-66129,249.38401926877827,72.52741498999644,754.6135213744793,-0.5145388145747334,18021.32578343482,10.5,10500018021.325783,47.655,-122.3035,60.0,0.6
2026-01-20T23:00:37+00:00,SAT-66129,250.96599512085484,72.82345219954303,754.1003546634101,-0.44848818899087173,15707.953481618784,10.5,10500015707.953482,47.655,-122.3035,60.0,0.6166666666666667
2026-01-20T23:00:38+00:00,SAT-66129,252.60348478600685,73.10664703475476,753.6530624429232,-0.3823195355976012,13390.44734666011,10.5,10500013390.447346,47.655,-122.3035,60.0,0.6333333333333333
2026-01-20T23:00:39+00:00,SAT-66129,254.29650290883416,73.37623154414844,753.2717624260872,-0.31605006751107734,11069.410254697976,10.5,10500011069.410255,47.655,-122.3035,60.0,0.65
2026-01-20T23:00:40+00:00,SAT-66129,256.0446683006056,73.63143209354553,752.9565551587561,-0.2496971323202468,8745.449791677518,10.5,10500008745.449791,47.655,-122.3035,60.0,0.6666666666666666
2026-01-20T23:00:41+00:00,SAT-66129,257.84715513349624,73.87147578523337,752.7075238854553,-0.18327818611986604,6419.17734387632,10.5,10500006419.177343,47.655,-122.3035,60.0,0.6833333333333333
2026-01-20T23:00:42+00:00,SAT-66129,259.70264704114754,74.09559784866201,752.5247344411653,-0.11681077198802975,4091.2073440964023,10.5,10500004091.207344,47.655,-122.3035,60.0,0.7
2026-01-20T23:00:43+00:00,SAT-66129,261.6092965260176,74.30304996207673,752.4082351645691,-0.050312497241302837,1762.1564750427435,10.5,10500001762.156475,47.655,-122.3035,60.0,0.7166666666666667
2026-01-20T23:00:44+00:00,SAT-66129,263.56469230375563,74.49310940749413,752.3580568339871,0.01619899008594408,-567.3571544698862,10.5,10499999432.642845,47.655,-122.3035,60.0,0.7333333333333333
2026-01-20T23:00:45+00:00,SAT-66129,265.56583734465977,74.66508890347045,752.3742126267662,0.08270602426401753,-2896.7148158616587,10.5,10499997103.285185,47.655,-122.3035,60.0,0.75
2026-01-20T23:00:46+00:00,SAT-66129,267.60914031026556,74.81834689785563,752.4566981016321,0.14919094584570974,-5225.29800059197,10.5,10499994774.702,47.655,-122.3035,60.0,0.7666666666666667
2026-01-20T23:00:47+00:00,SAT-66129,269.6904228058261,74.95229804261015,752.6054912049556,0.21563612357069772,-7552.489187344153,10.5,10499992447.510813,47.655,-122.3035,60.0,0.7833333333333333
2026-01-20T23:00:48+00:00,SAT-66129,271.80494427772607,75.06642351593372,752.8205522988634,0.2820239799796926,-9877.67273914133,10.5,10499990122.327261,47.655,-122.3035,60.0,0.8
2026-01-20T23:00:49+00:00,SAT-66129,273.94744569704227,75.16028082440904,753.1018242148965,0.3483370118211148,-12200.235618074506,10.5,10499987799.764381,47.655,-122.3035,60.0,0.8166666666666667
2026-01-20T23:00:50+00:00,SAT-66129,276.11221199616773,75.23351268746757,753.4492323280194,0.4145578137432837,-14519.56821510326,10.5,10499985480.431786,47.655,-122.3035,60.0,0.8333333333333334
2026-01-20T23:00:51+00:00,SAT-66129,278.2931522156919,75.28585462173452,753.8626846542595,0.48066910558708914,-16835.06530596055,10.5,10499983164.934694,47.655,-122.3035,60.0,0.85
2026-01-20T23:00:52+00:00,SAT-66129,280.48389503815054,75.31714086990857,754.342071975565,0.5466537423761947,-19146.126401051908,10.5,10499980853.873598,47.655,-122.3035,60.0,0.8666666666666667
2026-01-20T23:00:53+00:00,SAT-66129,282.6778961732085,75.32730838046193,754.8872679746281,0.6124947512291671,-21452.157038274305,10.5,10499978547.842962,47.655,-122.3035,60.0,0.8833333333333333
2026-01-20T23:00:54+00:00,SAT-66129,284.86855336526,75.31639863514383,755.4981294065207,0.6781753417728981,-23752.569147738297,10.5,10499976247.430853,47.655,-122.3035,60.0,0.9
2026-01-20T23:00:55+00:00,SAT-66129,287.049323903541,75.28455721998176,756.1744962807155,0.7436789316983092,-26046.781946836858,10.5,10499973953.218054,47.655,-122.3035,60.0,0.9166666666666666
2026-01-20T23:00:56+00:00,SAT-66129,289.21383952747937,75.23203115426135,756.916192068596,0.8089891623647321,-28334.22248677679,10.5,10499971665.777514,47.655,-122.3035,60.0,0.9333333333333333
2026-01-20T23:00:57+00:00,SAT-66129,291.3560137126258,75.1591641035997,757.7230239265277,0.8740899276418869,-30614.32666274684,10.5,10499969385.673338,47.655,-122.3035,60.0,0.95
2026-01-20T23:00:58+00:00,SAT-66129,293.47013701529715,75.06638970470222,758.5947829476959,0.9389653791700856,-32886.539398152236,10.5,10499967113.460602,47.655,-122.3035,60.0,0.9666666666666667
2026-01-20T23:00:59+00:00,SAT-66129,295.5509569713481,74.95422331483935,759.5312444191883,1.0035999577353056,-35150.31574350249,10.5,10499964849.684256,47.655,-122.3035,60.0,0.9833333333333333
2026-01-20T23:01:00+00:00,SAT-66129,297.5937403218868,74.82325255137367,760.5321681103696,1.067978398694182,-37405.121066417596,10.5,10499962594.878933,47.655,-122.3035,60.0,1.0
2026-01-20T23:01:01+00:00,SAT-66129,299.5943164053109,74.67412701971605,761.5972985666673,1.132085756729646,-39650.43191867517,10.5,10499960349.56808,47.655,-122.3035,60.0,1.0166666666666666
2026-01-20T23:01:02+00:00,SAT-66129,301.54910183571934,74.5075476231569,762.7263654280456,1.195907416168677,-41885.73639758178,10.5,10499958114.263603,47.655,-122.3035,60.0,1.0333333333333334
2026-01-20T23:01:03+00:00,SAT-66129,303.45510751735856,74.32425582735964,763.9190837577712,1.2594291114107021,-44110.534861461965,10.5,10499955889.46514,47.655,-122.3035,60.0,1.05
2026-01-20T23:01:04+00:00,SAT-66129,305.3099298932607,74.1250232051338,765.1751543915514,1.3226369292889146,-46324.3400123615,10.5,10499953675.659988,47.655,-122.3035,60.0,1.0666666666666667
2026-01-20T23:01:05+00:00,SAT-66129,307.1117288140263,73.91064153471362,766.4942642890289,1.3855173358484996,-48526.67783393419,10.5,10499951473.322166,47.655,-122.3035,60.0,1.0833333333333333
2026-01-20T23:01:06+00:00,SAT-66129,308.8591947685555,73.68191365504082,767.8760869119818,1.4480571778091627,-50717.08764266581,10.5,10499949282.912357,47.655,-122.3035,60.0,1.1
2026-01-20T23:01:07+00:00,SAT-66129,310.5515081974528,73.43964522592016,769.3202826039834,1.5102436898710445,-52895.12234375812,10.5,10499947104.877657,47.655,-122.3035,60.0,1.1166666666666667
2026-01-20T23:01:08+00:00,SAT-66129,312.18829353825333,73.18463747655244,770.8264989773483,1.5720645302617708,-55060.34967613693,10.5,10499944939.650324,47.655,-122.3035,60.0,1.1333333333333333
2026-01-20T23:01:09+00:00,SAT-66129,313.7695704072476,72.91768096976092,772.3943713355293,1.6335077394029385,-57212.3507647776,10.5,10499942787.649235,47.655,-122.3035,60.0,1.15
2026-01-20T23:01:10+00:00,SAT-66129,315.29570386959307,72.63955038398366,774.0235230542938,1.6945618028089189,-59350.72232368717,10.5,10499940649.277676,47.655,-122.3035,60.0,1.1666666666666667
2026-01-20T23:01:11+00:00,SAT-66129,316.76735556699816,72.35100025085387,775.7135660256286,1.7552156254645774,-61475.07575850378,10.5,10499938524.924242,47.655,-122.3035,60.0,1.1833333333333333
2026-01-20T23:01:12+00:00,SAT-66129,318.185436881701,72.05276159507143,777.4641010760919,1.8154585383544986,-63585.03739517768,10.5,10499936414.962605,47.655,-122.3035,60.0,1.2
2026-01-20T23:01:13+00:00,SAT-66129,319.55106509408796,71.74553938720793,779.2747183916774,1.8752803132341416,-65680.24899731964,10.5,10499934319.751003,47.655,-122.3035,60.0,1.2166666666666666
2026-01-20T23:01:14+00:00,SAT-66129,320.8655231420343,71.430010715817,781.1449979574096,1.9346711667943184,-67760.3679120585,10.5,10499932239.632088,47.655,-122.3035,60.0,1.2333333333333334
2026-01-20T23:01:15+00:00,SAT-66129,322.1302233082276,71.10682358612372,783.0745100010924,1.9936217477200147,-69825.06661678644,10.5,10499930174.933384,47.655,-122.3035,60.0,1.25
2026-01-20T23:01:16+00:00,SAT-66129,323.34667494869495,70.77659625541163,785.062815424152,2.0521231602669547,-71874.03354491001,10.5,10499928125.966455,47.655,-122.3035,60.0,1.2666666666666666
2026-01-20T23:01:17+00:00,SAT-66129,324.51645624532125,70.43991701133255,787.1094662559915,2.1101669515357835,-73906.97264013802,10.5,10499926093.027359,47.655,-122.3035,60.0,1.2833333333333334
2026-01-20T23:01:18+00:00,SAT-66129,325.6411897952663,70.097344318645,789.2140060956565,2.167745099353945,-75923.60293205382,10.5,10499924076.397068,47.655,-122.3035,60.0,1.3
2026-01-20T23:01:19+00:00,SAT-66129,326.72252179692686,69.74940726178889,791.3759705414122,2.224850054605434,-77923.66001868217,10.5,10499922076.339981,47.655,-122.3035,60.0,1.3166666666666667
2026-01-20T23:01:20+00:00,SAT-66129,327.7621045653118,69.39660621069221,793.5948876625387,2.281474686012208,-79906.89413250078,10.5,10499920093.105867,47.655,-122.3035,60.0,1.3333333333333333
2026-01-20T23:01:21+00:00,SAT-66129,328.7615820044445,69.03941367056888,795.8702784160549,2.3376123152174926,-81873.07136920595,10.5,10499918126.92863,47.655,-122.3035,60.0,1.35
2026-01-20T23:01:22+00:00,SAT-66129,329.72257775674,68.67827525402797,798.2016570984317,2.3932566911322395,-83821.97278921712,10.5,10499916178.02721,47.655,-122.3035,60.0,1.3666666666666667
2026-01-20T23:01:23+00:00,SAT-66129,330.6466856771157,68.31361074593153,800.588531771721,2.4484020055138442,-85753.39496330947,10.5,10499914246.605036,47.655,-122.3035,60.0,1.3833333333333333
2026-01-20T23:01:24+00:00,SAT-66129,331.5354623450144,67.94581522190632,803.0304047052201,2.5030428808809337,-87667.14954933857,10.5,10499912332.85045,47.655,-122.3035,60.0,1.4
2026-01-20T23:01:25+00:00,SAT-66129,332.3904213176606,67.57526019844207,805.5267728050854,2.557174342082916,-89563.06229648586,10.5,10499910436.937704,47.655,-122.3035,60.0,1.4166666666666667
2026-01-20T23:01:26+00:00,SAT-66129,333.21302886189454,67.20229479557564,808.0771280155894,2.6107918581906313,-91440.97451244632,10.5,10499908559.025488,47.655,-122.3035,60.0,1.4333333333333333
2026-01-20T23:01:27+00:00,SAT-66129,334.00470095585666,66.82724688500365,810.6809577621582,2.6638912923234996,-93300.74130616304,10.5,10499906699.258694,47.655,-122.3035,60.0,1.45
2026-01-20T23:01:28+00:00,SAT-66129,334.7668013222554,66.45042422444428,813.3377453443688,2.716468915542467,-95142.23207441698,10.5,10499904857.767925,47.655,-122.3035,60.0,1.4666666666666666
2026-01-20T23:01:29+00:00,SAT-66129,335.50064033488644,66.07211555891203,816.0469703428032,2.7685214000497744,-96965.33026365405,10.5,10499903034.669737,47.655,-122.3035,60.0,1.4833333333333334
2026-01-20T23:01:30+00:00,SAT-66129,336.20747463364125,65.69259168497436,818.8081090191196,2.8200457875587555,-98769.93226216163,10.5,10499901230.067738,47.655,-122.3035,60.0,1.5
2026-01-20T23:01:31+00:00,SAT-66129,336.8885073067997,65.31210647637137,821.620634684578,2.871039527988674,-100555.9487553255,10.5,10499899444.051245,47.655,-122.3035,60.0,1.5166666666666666
2026-01-20T23:01:32+00:00,SAT-66129,337.54488854323085,64.93089785809731,824.4840181071588,2.9215004241026907,-102323.3027866173,10.5,10499897676.697214,47.655,-122.3035,60.0,1.5333333333333334
2026-01-20T23:01:33+00:00,SAT-66129,338.17771663204957,64.54918874008105,827.397727863464,2.9714266482946194,-104071.93034553759,10.5,10499895928.069654,47.655,-122.3035,60.0,1.55
2026-01-20T23:01:34+00:00,SAT-66129,338.78803924603216,64.16718789974787,830.3612307073631,3.0208167134037693,-105801.7793454283,10.5,10499894198.220655,47.655,-122.3035,60.0,1.5666666666666667
2026-01-20T23:01:35+00:00,SAT-66129,339.37685492863596,63.785090819744845,833.373991909531,3.069669498695268,-107512.81053341346,10.5,10499892487.189466,47.655,-122.3035,60.0,1.5833333333333333
2026-01-20T23:01:36+00:00,SAT-66129,339.9451147389458,63.40308047442828,836.4354756228964,3.1179842022286866,-109204.9958221471,10.5,10499890795.004177,47.655,-122.3035,60.0,1.6
2026-01-20T23:01:37+00:00,SAT-66129,340.49372399190776,63.02132807581636,839.5451452005859,3.1657603432751347,-110878.31837446996,10.5,10499889121.681625,47.655,-122.3035,60.0,1.6166666666666667
2026-01-20T23:01:38+00:00,SAT-66129,341.0235440660991,62.63999377401934,842.702463516279,3.212997762521056,-112532.77261054743,10.5,10499887467.22739,47.655,-122.3035,60.0,1.6333333333333333
2026-01-20T23:01:39+00:00,SAT-66129,341.53539424629207,62.25922731437169,845.9068932847666,3.2596966020053633,-114168.36350518302,10.5,10499885831.636496,47.655,-122.3035,60.0,1.65
2026-01-20T23:01:40+00:00,SAT-66129,342.0300535720507,61.87916865571071,849.1578973625,3.3058572966104407,-115785.10628979742,10.5,10499884214.893711,47.655,-122.3035,60.0,1.6666666666666667
2026-01-20T23:01:41+00:00,SAT-66129,342.5082626744256,61.49994855039512,852.4549390396528,3.3514805617125334,-117383.02601989274,10.5,10499882616.97398,47.655,-122.3035,60.0,1.6833333333333333
2026-01-20T23:01:42+00:00,SAT-66129,342.97072558446035,61.12168908855075,855.7974823198675,3.3965673904256706,-118962.15747852315,10.5,10499881037.842522,47.655,-122.3035,60.0,1.7
2026-01-20T23:01:43+00:00,SAT-66129,343.4181115026161,60.74450420756017,859.184992197252,3.4411190413980344,-120522.5447488721,10.5,10499879477.455252,47.655,-122.3035,60.0,1.7166666666666666
2026-01-20T23:01:44+00:00,SAT-66129,343.8510565185428,60.36850016991773,862.6169349212063,3.485137013283453,-122064.24032013593,10.5,10499877935.75968,47.655,-122.3035,60.0,1.7333333333333334
2026-01-20T23:01:45+00:00,SAT-66129,344.2701652729127,59.993776012835234,866.0927782357876,3.5286230461778776,-123587.30513783546,10.5,10499876412.694862,47.655,-122.3035,60.0,1.75
2026-01-20T23:01:46+00:00,SAT-66129,344.67601256036716,59.62042396846658,869.6119916205091,3.571579125349847,-125091.80873447254,10.5,10499874908.191265,47.655,-122.3035,60.0,1.7666666666666666
2026-01-20T23:01:47+00:00,SAT-66129,345.06914487018054,59.24852985648848,873.1740465348579,3.61400744893041,-126577.82809789466,10.5,10499873422.171902,47.655,-122.3035,60.0,1.7833333333333334
2026-01-20T23:01:48+00:00,SAT-66129,345.45008185879954,58.87817345457479,876.7784166305912,3.655910416190536,-128045.44726072003,10.5,10499871954.55274,47.655,-122.3035,60.0,1.8
2026-01-20T23:01:49+00:00,SAT-66129,345.8193177562633,58.50942884610219,880.4245779523386,3.6972906425194867,-129494.7578249437,10.5,10499870505.242174,47.655,-122.3035,60.0,1.8166666666666667
2026-01-20T23:01:50+00:00,SAT-66129,346.1773227093357,58.14236474395682,884.1120091531446,3.738150934257782,-130925.8580804815,10.5,10499869074.14192,47.655,-122.3035,60.0,1.8333333333333333
2026-01-20T23:01:51+00:00,SAT-66129,346.52454405763507,57.777044796084056,887.8401916849111,3.7784942641717767,-132338.85214618593,10.5,10499867661.147854,47.655,-122.3035,60.0,1.85
2026-01-20T23:01:52+00:00,SAT-66129,346.8614075446771,57.41352787388678,891.6086099643784,3.8183237849129754,-133733.8504412484,10.5,10499866266.149559,47.655,-122.3035,60.0,1.8666666666666667
2026-01-20T23:01:53+00:00,SAT-66129,347.1883184690247,57.05186834103221,895.4167515525317,3.857642818804214,-135110.96932746805,10.5,10499864889.030672,47.655,-122.3035,60.0,1.8833333333333333
2026-01-20T23:01:54+00:00,SAT-66129,347.5056627751007,56.69211630626797,899.2641073238191,3.8964548313145233,-136470.33018022918,10.5,10499863529.669819,47.655,-122.3035,60.0,1.9
2026-01-20T23:01:55+00:00,SAT-66129,347.8138080844859,56.33431786283985,903.1501716089167,3.9347634390625745,-137812.05966881604,10.5,10499862187.94033,47.655,-122.3035,60.0,1.9166666666666667
2026-01-20T23:01:56+00:00,SAT-66129,348.1131046731206,55.978515312260676,907.0744423454751,3.97257238040321,-139136.2887262284,10.5,10499860863.711273,47.655,-122.3035,60.0,1.9333333333333333
2026-01-20T23:01:57+00:00,SAT-66129,348.4038863935933,55.62474737686499,911.0364211995307,4.0098855410146514,-140443.15344535396,10.5,10499859556.846554,47.655,-122.3035,60.0,1.95
2026-01-20T23:01:58+00:00,SAT-66129,348.68647154929016,55.273049397041206,915.0356137124359,4.0467069079099485,-141732.79346825482,10.5,10499858267.206532,47.655,-122.3035,60.0,1.9666666666666666
2026-01-20T23:01:59+00:00,SAT-66129,348.9611637172686,54.92345352045045,919.0715294019247,4.083040606214561,-143005.3532742738,10.5,10499856994.646727,47.655,-122.3035,60.0,1.9833333333333334
2026-01-20T23:02:00+00:00,SAT-66129,349.22825252839453,54.57598887663007,923.1436818998561,4.118890794753872,-144260.97852306764,10.5,10499855739.021477,47.655,-122.3035,60.0,2.0
2026-01-20T23:02:01+00:00,SAT-66129,349.4880143973657,54.23068174987862,927.2515889858239,4.154261830678533,-145499.8218204829,10.5,10499854500.178179,47.655,-122.3035,60.0,2.0166666666666666
2026-01-20T23:02:02+00:00,SAT-66129,349.74071322291525,53.887555728142104,931.394772784954,4.189158072156527,-146722.0358079973,10.5,10499853277.964191,47.655,-122.3035,60.0,2.033333333333333
2026-01-20T23:02:03+00:00,SAT-66129,349.9866010363482,53.546631859294195,935.572759768918,4.223583995880433,-147927.77727832148,10.5,10499852072.222721,47.655,-122.3035,60.0,2.05
2026-01-20T23:02:04+00:00,SAT-66129,350.2259186214068,53.20792878864584,939.7850808741429,4.257544137639644,-149117.20509398624,10.5,10499850882.794907,47.655,-122.3035,60.0,2.066666666666667
2026-01-20T23:02:05+00:00,SAT-66129,350.4588960958622,52.8714628931941,944.0312715607488,4.291043132218792,-150290.4815847546,10.5,10499849709.518415,47.655,-122.3035,60.0,2.0833333333333335
2026-01-20T23:02:06+00:00,SAT-66129,350.6857534628847,52.537248404954,948.3108719112817,4.324085616925437,-151447.76916875306,10.5,10499848552.230831,47.655,-122.3035,60.0,2.1
2026-01-20T23:02:07+00:00,SAT-66129,350.9067011264008,52.20529753462439,952.6234266332286,4.356676329840518,-152589.2337936181,10.5,10499847410.766207,47.655,-122.3035,60.0,2.1166666666666667
2026-01-20T23:02:08+00:00,SAT-66129,351.12194038303613,51.87562058065795,956.9684851595229,4.388820042296261,-153715.0425715871,10.5,10499846284.957428,47.655,-122.3035,60.0,2.1333333333333333
2026-01-20T23:02:09+00:00,SAT-66129,351.33166388305165,51.54822603723939,961.3456016817064,4.420521575560665,-154825.3643638593,10.5,10499845174.635635,47.655,-122.3035,60.0,2.15
2026-01-20T23:02:10+00:00,SAT-66129,351.5360560665818,51.22312069490941,965.7543351997322,4.451785772232094,-155920.36877871354,10.5,10499844079.631222,47.655,-122.3035,60.0,2.1666666666666665
2026-01-20T23:02:11+00:00,SAT-66129,351.73529357431084,50.90030973761465,970.1942495432384,4.482617506320068,-157000.22652458024,10.5,10499842999.773476,47.655,-122.3035,60.0,2.183333333333333
2026-01-20T23:02:12+00:00,SAT-66129,351.9295456360252,50.57979683359017,974.6649134028748,4.513021696272847,-158065.10986632254,10.5,10499841934.890133,47.655,-122.3035,60.0,2.2
2026-01-20T23:02:13+00:00,SAT-66129,352.1189744382582,50.26158422028237,979.1659003746242,4.5430032634195285,-159115.19116970262,10.5,10499840884.80883,47.655,-122.3035,60.0,2.216666666666667
2026-01-20T23:02:14+00:00,SAT-66129,352.3037354699833,49.94567278748797,983.6967889626748,4.572567168132058,-160150.64416792837,10.5,10499839849.355831,47.655,-122.3035,60.0,2.2333333333333334
2026-01-20T23:02:15+00:00,SAT-66129,352.4839778508952,49.632062153423306,988.2571626183585,4.601718340960167,-161171.64154970754,10.5,10499838828.35845,47.655,-122.3035,60.0,2.25
2026-01-20T23:02:16+00:00,SAT-66129,352.6598446390588,49.32075074130154,992.8466097104094,4.630461773951864,-162178.35815767778,10.5,10499837821.641842,47.655,-122.3035,60.0,2.2666666666666666
2026-01-20T23:02:17+00:00,SAT-66129,352.8314731254707,49.01173584561015,997.4647235862974,4.658802424836857,-163170.9676325046,10.5,10499836829.032368,47.655,-122.3035,60.0,2.283333333333333
2026-01-20T23:02:18+00:00,SAT-66129,352.9989951089877,48.70501370115896,1002.1111025380013,4.686745250088278,-164149.643570843,10.5,10499835850.35643,47.655,-122.3035,60.0,2.3
2026-01-20T23:02:19+00:00,SAT-66129,353.1625371577879,48.40057954619344,1006.7853498007561,4.714295230994746,-165114.56043849117,10.5,10499834885.439562,47.655,-122.3035,60.0,2.316666666666667
2026-01-20T23:02:20+00:00,SAT-66129,353.32222085776436,48.09842768045647,1011.4870735778014,4.741457329387299,-166065.89201976068,10.5,10499833934.10798,47.655,-122.3035,60.0,2.3333333333333335
2026-01-20T23:02:21+00:00,SAT-66129,353.4781630460586,47.79855152296235,1016.2158870209771,4.768236484915473,-167003.8113220729,10.5,10499832996.188679,47.655,-122.3035,60.0,2.35
2026-01-20T23:02:22+00:00,SAT-66129,353.6304760322186,47.50094366683193,1020.9714082085994,4.79463762727392,-167928.49100418715,10.5,10499832071.508995,47.655,-122.3035,60.0,2.3666666666666667
2026-01-20T23:02:23+00:00,SAT-66129,353.77926780809236,47.2055959304382,1025.753260135534,4.820665674082499,-168840.10330195245,10.5,10499831159.896698,47.655,-122.3035,60.0,2.3833333333333333
2026-01-20T23:02:24+00:00,SAT-66129,353.92464224665054,46.91249940597173,1030.5610707011522,4.84632553097039,-169738.8200312534,10.5,10499830261.179968,47.655,-122.3035,60.0,2.4
2026-01-20T23:02:25+00:00,SAT-66129,354.0666992904147,46.62164450542551,1035.3944726973734,4.871622070314198,-170624.81184332888,10.5,10499829375.188156,47.655,-122.3035,60.0,2.4166666666666665
2026-01-20T23:02:26+00:00,SAT-66129,354.2055351294744,46.33302100541444,1040.2531037755,4.896560139326165,-171498.24850805532,10.5,10499828501.751492,47.655,-122.3035,60.0,2.433333333333333
2026-01-20T23:02:27+00:00,SAT-66129,354.3412423705644,46.04661808913916,1045.1366064211213,4.921144567310257,-172359.29916808548,10.5,10499827640.700832,47.655,-122.3035,60.0,2.45
2026-01-20T23:02:28+00:00,SAT-66129,354.47391019769475,45.76242438572132,1050.0446279362523,4.945380162471701,-173208.13222710512,10.5,10499826791.867773,47.655,-122.3035,60.0,2.466666666666667
2026-01-20T23:02:29+00:00,SAT-66129,354.60362452443326,45.48042800765808,1054.9768204182906,4.969271669897495,-174044.91387813265,10.5,10499825955.086123,47.655,-122.3035,60.0,2.4833333333333334
2026-01-20T23:02:30+00:00,SAT-66129,354.7304681373862,45.20061658867002,1059.9328406970683,4.992823829499689,-174869.81013293783,10.5,10499825130.189867,47.655,-122.3035,60.0,2.5
2026-01-20T23:02:31+00:00,SAT-66129,354.85452083395785,44.92297731631413,1064.9123503296894,5.016041335200384,-175682.98539252792,10.5,10499824317.014608,47.655,-122.3035,60.0,2.5166666666666666
2026-01-20T23:02:32+00:00,SAT-66129,354.9758595521504,44.647496965148164,1069.9150155546627,5.038928869718866,-176484.60366554017,10.5,10499823515.396334,47.655,-122.3035,60.0,2.533333333333333
2026-01-20T23:02:33+00:00,SAT-66129,355.09455849472556,44.374161926264485,1074.9405072807288,5.0614910104349455,-177274.82527117786,10.5,10499822725.174728,47.655,-122.3035,60.0,2.55
2026-01-20T23:02:34+00:00,SAT-66129,355.21068924496495,44.10295824030755,1079.9885009818026,5.083732397077723,-178053.81271238017,10.5,10499821946.187288,47.655,-122.3035,60.0,2.566666666666667
2026-01-20T23:02:35+00:00,SAT-66129,355.3243208807003,43.83387161987507,1085.0586767591549,5.105657532095216,-178821.7236839219,10.5,10499821178.276316,47.655,-122.3035,60.0,2.5833333333333335
2026-01-20T23:02:36+00:00,SAT-66129,355.43552007808535,43.56688748120831,1090.1507192044978,5.127270956110748,-179578.7172176388,10.5,10499820421.282782,47.655,-122.3035,60.0,2.6
2026-01-20T23:02:37+00:00,SAT-66129,355.5443512143227,43.30199096511945,1095.2643174380587,5.148577073936711,-180324.9475886931,10.5,10499819675.052412,47.655,-122.3035,60.0,2.6166666666666667
2026-01-20T23:02:38+00:00,SAT-66129,355.65087646158577,43.03916696571349,1100.3991649731317,5.1695803750236555,-181060.57203663336,10.5,10499818939.427963,47.655,-122.3035,60.0,2.6333333333333333
2026-01-20T23:02:39+00:00,SAT-66129,355.75515588112825,42.77840014646806,1105.5549598004889,5.190285166975123,-181785.74143195688,10.5,10499818214.258568,47.655,-122.3035,60.0,2.65
2026-01-20T23:02:40+00:00,SAT-66129,355.85724750729935,42.519674968765784,1110.7314042070184,5.210695823559536,-182500.60896253478,10.5,10499817499.391037,47.655,-122.3035,60.0,2.6666666666666665
2026-01-20T23:02:41+00:00,SAT-66129,355.95720743267754,42.26297570667187,1115.9282048417153,5.230816577984183,-183205.32289319273,10.5,10499816794.677107,47.655,-122.3035,60.0,2.683333333333333
2026-01-20T23:02:42+00:00,SAT-66129,356.0550898850134,42.00828647101088,1121.1450725754914,5.250651707503246,-183900.03303146502,10.5,10499816099.966969,47.655,-122.3035,60.0,2.7
2026-01-20T23:02:43+00:00,SAT-66129,356.1509473041834,41.755591223268475,1126.381722545108,5.270205367497269,-184584.88491635543,10.5,10499815415.115084,47.655,-122.3035,60.0,2.716666666666667
2026-01-20T23:02:44+00:00,SAT-66129,356.24483041234726,41.50487379665724,1131.6378740316252,5.289481732875392,-185260.024770842,10.5,10499814739.97523,47.655,-122.3035,60.0,2.7333333333333334
2026-01-20T23:02:45+00:00,SAT-66129,356.3367882835111,41.25611790940339,1136.9132504798797,5.308484844778742,-185925.59413278097,10.5,10499814074.405867,47.655,-122.3035,60.0,2.75
2026-01-20T23:02:46+00:00,SAT-66129,356.4268684070712,41.009307184435805,1142.2075793650722,5.327218790057475,-186581.73614095215,10.5,10499813418.263859,47.655,-122.3035,60.0,2.7666666666666666
2026-01-20T23:02:47+00:00,SAT-66129,356.5151167516649,40.76442515977781,1147.5205922383564,5.3456875438072675,-187228.5900200208,10.5,10499812771.40998,47.655,-122.3035,60.0,2.783333333333333
2026-01-20T23:02:48+00:00,SAT-66129,356.6015778233107,40.52145530552984,1152.8520246153803,5.363895050543964,-187866.29392361708,10.5,10499812133.706076,47.655,-122.3035,60.0,2.8
2026-01-20T23:02:49+00:00,SAT-66129,356.6862947223439,40.28038103628085,1158.2016159457892,5.381845181687299,-188494.9834452361,10.5,10499811505.016554,47.655,-122.3035,60.0,2.816666666666667
2026-01-20T23:02:50+00:00,SAT-66129,356.7693091970807,40.041185724720236,1163.5691095403254,5.399541832857672,-189114.79502598278,10.5,10499810885.204973,47.655,-122.3035,60.0,2.8333333333333335
2026-01-20T23:02:51+00:00,SAT-66129,356.85066169661684,39.803852710253906,1168.9542525949623,5.416988767959653,-189725.8604937165,10.5,10499810274.139505,47.655,-122.3035,60.0,2.85
2026-01-20T23:02:52+00:00,SAT-66129,356.93039141879603,39.56836531389893,1174.3567960595408,5.434189728936878,-190328.3109071317,10.5,10499809671.689093,47.655,-122.3035,60.0,2.8666666666666667
2026-01-20T23:02:53+00:00,SAT-66129,357.0085363578201,39.33470684763902,1179.776494615867,5.4511484260127006,-190922.2762139445,10.5,10499809077.723785,47.655,-122.3035,60.0,2.8833333333333333
2026-01-20T23:02:54+00:00,SAT-66129,357.0851333495485,39.102860623675674,1185.213106646077,5.467868488366697,-191507.88352337506,10.5,10499808492.116476,47.655,-122.3035,60.0,2.9
2026-01-20T23:02:55+00:00,SAT-66129,357.1602181141269,38.87280996522757,1190.666394151808,5.484353559925966,-192085.26046116423,10.5,10499807914.739538,47.655,-122.3035,60.0,2.9166666666666665
2026-01-20T23:02:56+00:00,SAT-66129,357.2338252981004,38.64453821275218,1196.1361227689076,5.500607129559502,-192654.52922226206,10.5,10499807345.470778,47.655,-122.3035,60.0,2.933333333333333
2026-01-20T23:02:57+00:00,SAT-66129,357.3059885123389,38.418028736762416,1201.6220616127882,5.516632738329453,-193215.81382964362,10.5,10499806784.18617,47.655,-122.3035,60.0,2.95
2026-01-20T23:02:58+00:00,SAT-66129,357.376740371203,38.193264941510364,1207.1239833304821,5.532433814002821,-193769.23433820883,10.5,10499806230.765661,47.655,-122.3035,60.0,2.966666666666667
2026-01-20T23:02:59+00:00,SAT-66129,357.44611252777224,37.970230275090316,1212.6416639876475,5.548013781660667,-194314.91070878442,10.5,10499805685.08929,47.655,-122.3035,60.0,2.9833333333333334
2026-01-20T23:03:00+00:00,SAT-66129,357.5141357090382,37.74890823456297,1218.1748830658905,5.563375958033626,-194852.95910730708,10.5,10499805147.040894,47.655,-122.3035,60.0,3.0
2026-01-20T23:03:01+00:00,SAT-66129,357.58083974827315,37.52928237491904,1223.7234233547028,5.578523695004885,-195383.49693090442,10.5,10499804616.503069,47.655,-122.3035,60.0,3.0166666666666666
2026-01-20T23:03:02+00:00,SAT-66129,357.64625361781646,37.31133631194065,1229.287070986521,5.593460213119918,-195906.63697670185,10.5,10499804093.363024,47.655,-122.3035,60.0,3.033333333333333
2026-01-20T23:03:03+00:00,SAT-66129,357.7104054584541,37.095053731277744,1234.8656153057393,5.608188731679564,-196422.49199823244,10.5,10499803577.508001,47.655,-122.3035,60.0,3.05
2026-01-20T23:03:04+00:00,SAT-66129,357.7733226091454,36.88041839202673,1240.4588488674676,5.622712442330908,-196931.1737804776,10.5,10499803068.82622,47.655,-122.3035,60.0,3.066666666666667
2026-01-20T23:03:05+00:00,SAT-66129,357.8350316352072,36.66741413108254,1246.0665674099523,5.6370344135750585,-197432.78979532604,10.5,10499802567.210205,47.655,-122.3035,60.0,3.0833333333333335
2026-01-20T23:03:06+00:00,SAT-66129,357.89555835423056,36.456024870755776,1251.6885697317578,5.651157758616901,-197927.44908038166,10.5,10499802072.55092,47.655,-122.3035,60.0,3.1
2026-01-20T23:03:07+00:00,SAT-66129,357.95492786285575,36.246234619747156,1257.3246577363518,5.665085462774167,-198415.25619409932,10.5,10499801584.743807,47.655,-122.3035,60.0,3.1166666666666667
2026-01-20T23:03:08+00:00,SAT-66129,358.01316456053013,36.03802748031551,1262.9746363045585,5.678820537905605,-198896.3166245125,10.5,10499801103.683376,47.655,-122.3035,60.0,3.1333333333333333
2026-01-20T23:03:09+00:00,SAT-66129,358.0702921740025,35.83138764943099,1268.6383133210297,5.692365892953935,-199370.73225510004,10.5,10499800629.267744,47.655,-122.3035,60.0,3.15
2026-01-20T23:03:10+00:00,SAT-66129,358.12633377942257,35.62629942444539,1274.3154995716022,5.705724435777842,-199838.60493137338,10.5,10499800161.39507,47.655,-122.3035,60.0,3.1666666666666665
2026-01-20T23:03:11+00:00,SAT-66129,358.1813118246641,35.42274720479616,1280.0060087422182,5.71889899095887,-200300.0335821261,10.5,10499799699.966417,47.655,-122.3035,60.0,3.183333333333333
2026-01-20T23:03:12+00:00,SAT-66129,358.2352481498782,35.220715496444626,1285.7096573358679,5.731892373473205,-200755.11679973165,10.5,10499799244.8832,47.655,-122.3035,60.0,3.2
2026-01-20T23:03:13+00:00,SAT-66129,358.2881640080147,35.02018891346378,1291.4262646630118,5.744707335332926,-201203.95097129405,10.5,10499798796.049028,47.655,-122.3035,60.0,3.216666666666667
2026-01-20T23:03:14+00:00,SAT-66129,358.3400800839769,34.82115218131706,1297.1556527787839,5.757346591065854,-201646.6311710599,10.5,10499798353.36883,47.655,-122.3035,60.0,3.2333333333333334
2026-01-20T23:03:15+00:00,SAT-66129,358.3910165132952,34.623590139037475,1302.8976464456068,5.769812811798098,-202083.25095316448,10.5,10499797916.749046,47.655,-122.3035,60.0,3.25
2026-01-20T23:03:16+00:00,SAT-66129,358.44099290001583,34.42748774142529,1308.6520730899067,5.782108627842157,-202513.90244227776,10.5,10499797486.097557,47.655,-122.3035,60.0,3.2666666666666666
2026-01-20T23:03:17+00:00,SAT-66129,358.49002833392564,34.23283006098863,1314.418762761408,5.794236632453947,-202938.67646519127,10.5,10499797061.323534,47.655,-122.3035,60.0,3.283333333333333
2026-01-20T23:03:18+00:00,SAT-66129,358.53814140713007,34.03960228959048,1320.1975480961755,5.806199358863285,-203357.66174632884,10.5,10499796642.338253,47.655,-122.3035,60.0,3.3
2026-01-20T23:03:19+00:00,SAT-66129,358.5853502298306,33.847789740702126,1325.9882642567484,5.817999318839907,-203770.94625849134,10.5,10499796229.053741,47.655,-122.3035,60.0,3.316666666666667
2026-01-20T23:03:20+00:00,SAT-66129,358.6316724458038,33.657377850217934,1331.790748910738,5.829639009882733,-204178.6174746554,10.5,10499795821.382524,47.655,-122.3035,60.0,3.3333333333333335
2026-01-20T23:03:21+00:00,SAT-66129,358.6771252473746,33.46835217694199,1337.6048422165943,5.841120810446811,-204580.75869837767,10.5,10499795419.241302,47.655,-122.3035,60.0,3.35
2026-01-20T23:03:22+00:00,SAT-66129,358.7217253889368,33.28069840631233,1343.43038670488,5.852447144658869,-204977.45483283012,10.5,10499795022.545168,47.655,-122.3035,60.0,3.3666666666666667
2026-01-20T23:03:23+00:00,SAT-66129,358.7654892013502,33.094402348675665,1349.26722732382,5.863620358353359,-205368.7880390582,10.5,10499794631.211962,47.655,-122.3035,60.0,3.3833333333333333
2026-01-20T23:03:24+00:00,SAT-66129,358.8084326047634,32.90944994145918,1355.1152113612175,5.874642750217695,-205754.83882681865,10.5,10499794245.161173,47.655,-122.3035,60.0,3.4
2026-01-20T23:03:25+00:00,SAT-66129,358.85057112123894,32.72582725020325,1360.9741883974348,5.885516615739542,-206135.6875937993,10.5,10499793864.312407,47.655,-122.3035,60.0,3.4166666666666665
2026-01-20T23:03:26+00:00,SAT-66129,358.8919198872441,32.543520468123475,1366.844010302199,5.896244169604446,-206511.4119076561,10.5,10499793488.588093,47.655,-122.3035,60.0,3.433333333333333
2026-01-20T23:03:27+00:00,SAT-66129,358.9324936651008,32.36251591799323,1372.724531154018,5.9068276493619996,-206882.0901368406,10.5,10499793117.909863,47.655,-122.3035,60.0,3.45
2026-01-20T23:03:28+00:00,SAT-66129,358.97230685477336,32.182800050737896,1378.6156072629815,5.9172691827083135,-207247.79680227075,10.5,10499792752.203197,47.655,-122.3035,60.0,3.466666666666667
2026-01-20T23:03:29+00:00,SAT-66129,359.0113735042901,32.00435944800283,1384.5170970612025,5.927570946375083,-207608.60814229815,10.5,10499792391.391857,47.655,-122.3035,60.0,3.4833333333333334
2026-01-20T23:03:30+00:00,SAT-66129,359.04970732089373,31.827180819819315,1390.4288611517206,5.937734978018141,-207964.59552424925,10.5,10499792035.404476,47.655,-122.3035,60.0,3.5
2026-01-20T23:03:31+00:00,SAT-66129,359.08732168050915,31.651251007846227,1396.3507621697975,5.947763400447064,-208315.83329789495,10.5,10499791684.166702,47.655,-122.3035,60.0,3.5166666666666666
2026-01-20T23:03:32+00:00,SAT-66129,359.12422963838736,31.476556981857506,1402.2826648678433,5.957658224093619,-208662.3918770598,10.5,10499791337.608124,47.655,-122.3035,60.0,3.533333333333333
2026-01-20T23:03:33+00:00,SAT-66129,359.16044393803867,31.303085842047086,1408.2244360033392,5.967421419044805,-209004.34026252403,10.5,10499790995.659737,47.655,-122.3035,60.0,3.55
2026-01-20T23:03:34+00:00,SAT-66129,359.1959770203583,31.13082481908069,1414.1759442986001,5.977054985214272,-209341.7484997233,10.5,10499790658.251501,47.655,-122.3035,60.0,3.566666666666667
2026-01-20T23:03:35+00:00,SAT-66129,359.23084103286016,30.959761272109898,1420.1370604705205,5.986560828032791,-209674.68332490308,10.5,10499790325.316675,47.655,-122.3035,60.0,3.5833333333333335
2026-01-20T23:03:36+00:00,SAT-66129,359.2650478377991,30.78988269029868,1426.107657136345,5.995940868524583,-210003.21202045755,10.5,10499789996.78798,47.655,-122.3035,60.0,3.6
2026-01-20T23:03:37+00:00,SAT-66129,359.2986090207142,30.621176691160827,1432.0876088292202,6.005196953934845,-210327.3992847274,10.5,10499789672.600716,47.655,-122.3035,60.0,3.6166666666666667
2026-01-20T23:03:38+00:00,SAT-66129,359.3315358981118,30.4536310213693,1438.0767919246111,6.014330938498065,-210647.31006084775,10.5,10499789352.68994,47.655,-122.3035,60.0,3.6333333333333333
2026-01-20T23:03:39+00:00,SAT-66129,359.3638395253875,30.287233555270834,1444.0750846472733,6.023344629244263,-210963.00763865368,10.5,10499789036.992361,47.655,-122.3035,60.0,3.65
2026-01-20T23:03:40+00:00,SAT-66129,359.3955307041347,30.12197229486609,1450.082367024173,6.0322397841813435,-211274.5535910183,10.5,10499788725.44641,47.655,-122.3035,60.0,3.6666666666666665
