satellites_20260121_005943/SAT-65670.csv

timestamp,satellite,azimuth_deg,elevation_deg,distance_km,relative_velocity_kms,doppler_shift_hz,tx_freq_ghz,rx_freq_hz,ue_lat,ue_lon,ue_alt_m,time_minutes
2026-01-20T23:07:06+00:00,SAT-65670,308.40572754598577,30.010022822372147,4027.257247080314,-1.1546545237156924,40440.88560431621,10.5,10500040440.885605,47.655,-122.3035,60.0,7.1
2026-01-20T23:07:07+00:00,SAT-65670,308.2843517627997,30.04607436953509,4026.105671635328,-1.1430099526676223,40033.04346972609,10.5,10500040033.04347,47.655,-122.3035,60.0,7.116666666666666
2026-01-20T23:07:08+00:00,SAT-65670,308.16278588765505,30.081931705154787,4024.965709709201,-1.1313538812404529,39624.79854321337,10.5,10500039624.798544,47.655,-122.3035,60.0,7.133333333333334
2026-01-20T23:07:09+00:00,SAT-65670,308.0410308476932,30.11759401888805,4023.8373727716435,-1.1196864108509632,39216.15437682263,10.5,10500039216.154377,47.655,-122.3035,60.0,7.15
2026-01-20T23:07:10+00:00,SAT-65670,307.9190875807337,30.153060503350172,4022.7206721912216,-1.1080076524425126,38807.1148562596,10.5,10500038807.114857,47.655,-122.3035,60.0,7.166666666666667
2026-01-20T23:07:11+00:00,SAT-65670,307.79695703420714,30.188330354490756,4021.6156192258522,-1.0963177017133912,38397.68333328321,10.5,10500038397.683332,47.655,-122.3035,60.0,7.183333333333334
2026-01-20T23:07:12+00:00,SAT-65670,307.67464016699705,30.223402771113207,4020.52222503801,-1.0846166738394127,37987.86384183766,10.5,10500037987.863842,47.655,-122.3035,60.0,7.2
2026-01-20T23:07:13+00:00,SAT-65670,307.55213794719856,30.25827695559165,4019.440500675301,-1.0729046661609254,37577.65979119367,10.5,10500037577.659792,47.655,-122.3035,60.0,7.216666666666667
2026-01-20T23:07:14+00:00,SAT-65670,307.4294513542459,30.292952113306704,4018.3704570882496,-1.0611817876717577,37167.074998776174,10.5,10500037167.074999,47.655,-122.3035,60.0,7.233333333333333
2026-01-20T23:07:15+00:00,SAT-65670,307.30658137765107,30.32742745308051,4017.3121051186786,-1.0494481488324592,36756.113333380854,10.5,10500036756.113333,47.655,-122.3035,60.0,7.25
2026-01-20T23:07:16+00:00,SAT-65670,307.18352901677844,30.361702187289143,4016.265455498243,-1.037703853458099,36344.77843105058,10.5,10500036344.77843,47.655,-122.3035,60.0,7.266666666666667
2026-01-20T23:07:17+00:00,SAT-65670,307.06029528173536,30.39577553167282,4015.230518855061,-1.0259490046395319,35933.07390246317,10.5,10500035933.073902,47.655,-122.3035,60.0,7.283333333333333
2026-01-20T23:07:18+00:00,SAT-65670,306.93688119353925,30.429646705348198,4014.2073057144335,-1.014183720338124,35521.00387912462,10.5,10500035521.00388,47.655,-122.3035,60.0,7.3
2026-01-20T23:07:19+00:00,SAT-65670,306.8132877822529,30.46331493139034,4013.195826484017,-1.0024081013536765,35108.57189147035,10.5,10500035108.571892,47.655,-122.3035,60.0,7.316666666666666
2026-01-20T23:07:20+00:00,SAT-65670,306.6895160892192,30.496779436263587,4012.196091470933,-0.990622257271076,34695.78177762664,10.5,10500034695.781778,47.655,-122.3035,60.0,7.333333333333333
2026-01-20T23:07:21+00:00,SAT-65670,306.565567165972,30.530039450185306,4011.2081108730144,-0.9788263021658404,34282.63753300066,10.5,10500034282.637533,47.655,-122.3035,60.0,7.35
2026-01-20T23:07:22+00:00,SAT-65670,306.44144207371545,30.563094207324642,4010.2318947743215,-0.9670203395526799,33869.14278311544,10.5,10500033869.142782,47.655,-122.3035,60.0,7.366666666666666
2026-01-20T23:07:23+00:00,SAT-65670,306.31714188470346,30.595942945482037,4009.267453155674,-0.955204487214576,33455.3016532292,10.5,10500033455.301653,47.655,-122.3035,60.0,7.383333333333334
2026-01-20T23:07:24+00:00,SAT-65670,306.19266768041575,30.628584906638512,4008.314795880425,-0.9433788461063354,33041.117679206334,10.5,10500033041.11768,47.655,-122.3035,60.0,7.4
2026-01-20T23:07:25+00:00,SAT-65670,306.06802055384486,30.661019336400287,4007.373932711242,-0.9315435347834337,32626.595013361053,10.5,10500032626.595013,47.655,-122.3035,60.0,7.416666666666667
2026-01-20T23:07:26+00:00,SAT-65670,305.94320160716325,30.693245484676222,4006.444873292551,-0.9196986628698904,32211.737495190253,10.5,10500032211.737495,47.655,-122.3035,60.0,7.433333333333334
2026-01-20T23:07:27+00:00,SAT-65670,305.8182119529149,30.725262605414777,4005.5276271594494,-0.9078443418899603,31796.549030745075,10.5,10500031796.54903,47.655,-122.3035,60.0,7.45
2026-01-20T23:07:28+00:00,SAT-65670,305.6930527138734,30.75706995669821,4004.6222037358043,-0.8959806817802192,31381.03347046943,10.5,10500031381.03347,47.655,-122.3035,60.0,7.466666666666667
2026-01-20T23:07:29+00:00,SAT-65670,305.5677250232268,30.78866680074852,4003.728612335842,-0.8841078002270853,30965.194936239513,10.5,10500030965.194937,47.655,-122.3035,60.0,7.483333333333333
2026-01-20T23:07:30+00:00,SAT-65670,305.44223002354204,30.82005240424993,4002.846862156415,-0.8722258054341055,30549.037217801215,10.5,10500030549.037218,47.655,-122.3035,60.0,7.5
2026-01-20T23:07:31+00:00,SAT-65670,305.31656886814767,30.851226038047088,4001.9769622864624,-0.8603348137216034,30132.56438918432,10.5,10500030132.564388,47.655,-122.3035,60.0,7.516666666666667
2026-01-20T23:07:32+00:00,SAT-65670,305.1907427199842,30.88218697749046,4001.118921698911,-0.8484349373919182,29715.780383691777,10.5,10500029715.780384,47.655,-122.3035,60.0,7.533333333333333
2026-01-20T23:07:33+00:00,SAT-65670,305.06475275219674,30.912934502341116,4000.2727492546856,-0.8365262935002593,29298.689301092167,10.5,10500029298.6893,47.655,-122.3035,60.0,7.55
2026-01-20T23:07:34+00:00,SAT-65670,304.93860014747304,30.943467896985105,3999.438453697968,-0.8246089933564124,28881.295039925022,10.5,10500028881.29504,47.655,-122.3035,60.0,7.566666666666666
2026-01-20T23:07:35+00:00,SAT-65670,304.8122860989393,30.97378645026711,3998.616043661927,-0.812683152724201,28463.601654729122,10.5,10500028463.601654,47.655,-122.3035,60.0,7.583333333333333
2026-01-20T23:07:36+00:00,SAT-65670,304.6858118094981,31.003889455702275,3997.8055276642767,-0.800748888843827,28045.613251752264,10.5,10500028045.613253,47.655,-122.3035,60.0,7.6
2026-01-20T23:07:37+00:00,SAT-65670,304.55917849160755,31.033776211583852,3997.0069141058034,-0.788806314510094,27627.33378154559,10.5,10500027627.333782,47.655,-122.3035,60.0,7.616666666666666
2026-01-20T23:07:38+00:00,SAT-65670,304.4323873680377,31.06344602084846,3996.2202112747987,-0.7768555508734468,27208.767487310146,10.5,10500027208.767487,47.655,-122.3035,60.0,7.633333333333334
2026-01-20T23:07:39+00:00,SAT-65670,304.30543967042115,31.092898191471143,3995.4454273387273,-0.7648967066344706,26789.918176200223,10.5,10500026789.918177,47.655,-122.3035,60.0,7.65
2026-01-20T23:07:40+00:00,SAT-65670,304.17833664153557,31.122132035978535,3994.6825703566437,-0.7529299069885314,26370.790233087115,10.5,10500026370.790234,47.655,-122.3035,60.0,7.666666666666667
2026-01-20T23:07:41+00:00,SAT-65670,304.0510795323307,31.151146872195156,3993.9316482627405,-0.7409552626081068,25951.387534189143,10.5,10500025951.387535,47.655,-122.3035,60.0,7.683333333333334
2026-01-20T23:07:42+00:00,SAT-65670,303.92366960460583,31.17994202266571,3993.192668880833,-0.7289728957017555,25531.714359766956,10.5,10500025531.71436,47.655,-122.3035,60.0,7.7
2026-01-20T23:07:43+00:00,SAT-65670,303.79610812885534,31.208516815204117,3992.465639912853,-0.7169829206626321,25111.77471635273,10.5,10500025111.774715,47.655,-122.3035,60.0,7.716666666666667
2026-01-20T23:07:44+00:00,SAT-65670,303.6683963858221,31.236870582583276,3991.7505689466457,-0.7049854581324535,24691.57282932969,10.5,10500024691.57283,47.655,-122.3035,60.0,7.733333333333333
2026-01-20T23:07:45+00:00,SAT-65670,303.5405356652525,31.26500266286668,3991.0474634497346,-0.6929806241901395,24271.11276427262,10.5,10500024271.112764,47.655,-122.3035,60.0,7.75
2026-01-20T23:07:46+00:00,SAT-65670,303.4125272668479,31.292912399240652,3990.3563307738755,-0.6809685416744408,23850.39882351419,10.5,10500023850.398823,47.655,-122.3035,60.0,7.766666666666667
2026-01-20T23:07:47+00:00,SAT-65670,303.28437249889447,31.320599140364155,3989.6771781483126,-0.6689493245312788,23429.43499792255,10.5,10500023429.434998,47.655,-122.3035,60.0,7.783333333333333
2026-01-20T23:07:48+00:00,SAT-65670,303.1560726801469,31.348062240001735,3989.0100126886464,-0.6569230968892664,23008.22563500679,10.5,10500023008.225636,47.655,-122.3035,60.0,7.8
2026-01-20T23:07:49+00:00,SAT-65670,303.02762913763866,31.375301057546032,3988.3548413866824,-0.6448899773496178,22586.774888683114,10.5,10500022586.774889,47.655,-122.3035,60.0,7.816666666666666
2026-01-20T23:07:50+00:00,SAT-65670,302.8990432079347,31.40231495778873,3987.711671115939,-0.6328500835032068,22165.086877481328,10.5,10500022165.086878,47.655,-122.3035,60.0,7.833333333333333
2026-01-20T23:07:51+00:00,SAT-65670,302.77031623730784,31.429103310930888,3987.0805086326586,-0.6208035391569428,21743.165937643094,10.5,10500021743.165937,47.655,-122.3035,60.0,7.85
2026-01-20T23:07:52+00:00,SAT-65670,302.64144958042334,31.45566549290422,3986.461360569606,-0.6087504631641173,21321.01623191345,10.5,10500021321.016232,47.655,-122.3035,60.0,7.866666666666666
2026-01-20T23:07:53+00:00,SAT-65670,302.5124446014305,31.482000885185098,3985.85423344101,-0.5966909774878186,20898.642031955635,10.5,10500020898.642033,47.655,-122.3035,60.0,7.883333333333334
2026-01-20T23:07:54+00:00,SAT-65670,302.3833026732648,31.50810887498096,3985.259133639462,-0.5846252016603196,20476.047524295474,10.5,10500020476.047523,47.655,-122.3035,60.0,7.9
2026-01-20T23:07:55+00:00,SAT-65670,302.2540251782232,31.533988855156906,3984.67606743834,-0.5725532603281088,20053.237074580255,10.5,10500020053.237074,47.655,-122.3035,60.0,7.916666666666667
2026-01-20T23:07:56+00:00,SAT-65670,302.12461350675056,31.55964022452265,3984.105040986706,-0.5604752719556901,19630.21483193799,10.5,10500019630.214832,47.655,-122.3035,60.0,7.933333333333334
2026-01-20T23:07:57+00:00,SAT-65670,301.99506905893054,31.58506238757196,3983.546060315475,-0.5483913623294885,19206.98520194137,10.5,10500019206.985203,47.655,-122.3035,60.0,7.95
2026-01-20T23:07:58+00:00,SAT-65670,301.8653932426589,31.61025475488937,3982.999131330112,-0.5363016495572374,18783.55232122281,10.5,10500018783.55232,47.655,-122.3035,60.0,7.966666666666667
2026-01-20T23:07:59+00:00,SAT-65670,301.7355874756513,31.635216742793325,3982.4642598182872,-0.5242062602156439,18359.92062303402,10.5,10500018359.920624,47.655,-122.3035,60.0,7.983333333333333
2026-01-20T23:08:00+00:00,SAT-65670,301.6056531831857,31.65994777381721,3981.941451441432,-0.5121053152162893,17936.09434221003,10.5,10500017936.094341,47.655,-122.3035,60.0,8.0
2026-01-20T23:08:01+00:00,SAT-65670,301.4755917996055,31.684447276456233,3981.4307117403896,-0.4999989389083544,17512.07783398514,10.5,10500017512.077833,47.655,-122.3035,60.0,8.016666666666667
2026-01-20T23:08:02+00:00,SAT-65670,301.3454047673954,31.708714685381594,3980.932046131985,-0.4878872529179769,17087.87535822118,10.5,10500017087.875359,47.655,-122.3035,60.0,8.033333333333333
2026-01-20T23:08:03+00:00,SAT-65670,301.21509353796034,31.73274944133372,3980.445459911741,-0.47577038188859666,16663.491280458646,10.5,10500016663.49128,47.655,-122.3035,60.0,8.05
2026-01-20T23:08:04+00:00,SAT-65670,301.08465957070644,31.756550991330478,3979.9709582508713,-0.4636484507670598,16238.929976864621,10.5,10500016238.929977,47.655,-122.3035,60.0,8.066666666666666
2026-01-20T23:08:05+00:00,SAT-65670,300.9541043329677,31.78011878871674,3979.5085461959725,-0.4515215814976506,15814.195718443762,10.5,10500015814.195719,47.655,-122.3035,60.0,8.083333333333334
2026-01-20T23:08:06+00:00,SAT-65670,300.8234293009674,31.8034522930244,3979.0582286720255,-0.43938990073432566,15389.292941153373,10.5,10500015389.292942,47.655,-122.3035,60.0,8.1
2026-01-20T23:08:07+00:00,SAT-65670,300.69263595818813,31.826550970303998,3978.6200104776935,-0.427253530495061,14964.225918579115,10.5,10500014964.225918,47.655,-122.3035,60.0,8.116666666666667
2026-01-20T23:08:08+00:00,SAT-65670,300.561725797044,31.849414292858015,3978.1938962899467,-0.4151125990062453,14538.99914175151,10.5,10500014538.999142,47.655,-122.3035,60.0,8.133333333333333
2026-01-20T23:08:09+00:00,SAT-65670,300.43070031662967,31.872041739677393,3977.779890657871,-0.40296722725264367,14113.616848068803,10.5,10500014113.616848,47.655,-122.3035,60.0,8.15
2026-01-20T23:08:10+00:00,SAT-65670,300.29956102533345,31.894432796011664,3977.3779980098907,-0.39081754389822204,13688.083543887322,10.5,10500013688.083544,47.655,-122.3035,60.0,8.166666666666666
2026-01-20T23:08:11+00:00,SAT-65670,300.1683094379524,31.916586953908244,3976.9882226461095,-0.3786636713360225,13262.40351592913,10.5,10500013262.403517,47.655,-122.3035,60.0,8.183333333333334
2026-01-20T23:08:12+00:00,SAT-65670,300.03694707819795,31.93850371181137,3976.610568744564,-0.36650573801350944,12836.581262967758,10.5,10500012836.581263,47.655,-122.3035,60.0,8.2
2026-01-20T23:08:13+00:00,SAT-65670,299.9054754761214,31.96018257503303,3976.245040355185,-0.3543438669010625,12410.62109194607,10.5,10500012410.621092,47.655,-122.3035,60.0,8.216666666666667
2026-01-20T23:08:14+00:00,SAT-65670,299.7738961705212,31.98162305537875,3975.8916414052624,-0.3421781865981036,11984.527506959792,10.5,10500011984.527508,47.655,-122.3035,60.0,8.233333333333333
2026-01-20T23:08:15+00:00,SAT-65670,299.64221070634915,32.00282467160874,3975.5503756938288,-0.3300088206614985,11558.304835493005,10.5,10500011558.304836,47.655,-122.3035,60.0,8.25
2026-01-20T23:08:16+00:00,SAT-65670,299.51042063713106,32.02378694907184,3975.2212468966886,-0.31783589777147575,11131.957584471638,10.5,10500011131.957584,47.655,-122.3035,60.0,8.266666666666667
2026-01-20T23:08:17+00:00,SAT-65670,299.3785275223664,32.044509420155734,3974.9042585613115,-0.3056595424012212,10705.490113473175,10.5,10500010705.490114,47.655,-122.3035,60.0,8.283333333333333
2026-01-20T23:08:18+00:00,SAT-65670,299.24653292972897,32.06499162396163,3974.599414111023,-0.29347988171850165,10278.906876450732,10.5,10500010278.906876,47.655,-122.3035,60.0,8.3
2026-01-20T23:08:19+00:00,SAT-65670,299.11443843362895,32.08523310656555,3974.3067168423227,-0.2812970439568209,9852.212364684035,10.5,10500009852.212364,47.655,-122.3035,60.0,8.316666666666666
2026-01-20T23:08:20+00:00,SAT-65670,298.98224561456664,32.10523342113913,3974.0261699238163,-0.26911115309537487,9425.41092044896,10.5,10500009425.410921,47.655,-122.3035,60.0,8.333333333333334
2026-01-20T23:08:21+00:00,SAT-65670,298.8499560615877,32.12499212760337,3973.7577764004627,-0.2569223387083512,8998.507081981652,10.5,10500008998.507082,47.655,-122.3035,60.0,8.35
2026-01-20T23:08:22+00:00,SAT-65670,298.71757136900646,32.14450879315462,3973.501539187991,-0.2447307267077056,8571.505259251415,10.5,10500008571.505259,47.655,-122.3035,60.0,8.366666666666667
2026-01-20T23:08:23+00:00,SAT-65670,298.58509313842694,32.16378299198127,3973.2574610765546,-0.23253644501845247,8144.409932733368,10.5,10500008144.409933,47.655,-122.3035,60.0,8.383333333333333
2026-01-20T23:08:24+00:00,SAT-65670,298.45252297768474,32.18281430544947,3973.0255447287227,-0.22033962009176877,7717.225531282619,10.5,10500007717.22553,47.655,-122.3035,60.0,8.4
2026-01-20T23:08:25+00:00,SAT-65670,298.3198625017091,32.201602322001584,3972.8057926809515,-0.2081403803720695,7289.956553565899,10.5,10500007289.956554,47.655,-122.3035,60.0,8.416666666666666
2026-01-20T23:08:26+00:00,SAT-65670,298.1871133311346,32.22014663738056,3972.598207341593,-0.19593885311250242,6862.607456526726,10.5,10500006862.607456,47.655,-122.3035,60.0,8.433333333333334
2026-01-20T23:08:27+00:00,SAT-65670,298.05427709306616,32.238446854542865,3972.402790992089,-0.18373516637835047,6435.1827255530225,10.5,10500006435.182726,47.655,-122.3035,60.0,8.45
2026-01-20T23:08:28+00:00,SAT-65670,297.92135542052614,32.25650258375829,3972.2195457861544,-0.17152944722912974,6007.686810806503,10.5,10500006007.686811,47.655,-122.3035,60.0,8.466666666666667
2026-01-20T23:08:29+00:00,SAT-65670,297.78834995322455,32.27431344252715,3972.0484737507845,-0.15932182436133227,5580.124219782703,10.5,10500005580.12422,47.655,-122.3035,60.0,8.483333333333333
2026-01-20T23:08:30+00:00,SAT-65670,297.6552623360483,32.291879055807286,3971.8895767846216,-0.14711242539808975,5152.499422383542,10.5,10500005152.499422,47.655,-122.3035,60.0,8.5
2026-01-20T23:08:31+00:00,SAT-65670,297.5220942201415,32.309199055889,3971.7428566590247,-0.13490137864608953,4724.816912451947,10.5,10500004724.816912,47.655,-122.3035,60.0,8.516666666666667
2026-01-20T23:08:32+00:00,SAT-65670,297.388847262145,32.326273082516266,3971.608315017388,-0.12268881186466633,4297.0811646602415,10.5,10500004297.081165,47.655,-122.3035,60.0,8.533333333333333
2026-01-20T23:08:33+00:00,SAT-65670,297.2555231247355,32.34310078283523,3971.485953375689,-0.11047485383721772,3869.2966895477607,10.5,10500003869.29669,47.655,-122.3035,60.0,8.55
2026-01-20T23:08:34+00:00,SAT-65670,297.1221234754421,32.35968181156774,3971.375773121462,-0.09825963252636626,3441.4679689068284,10.5,10500003441.467968,47.655,-122.3035,60.0,8.566666666666666
2026-01-20T23:08:35+00:00,SAT-65670,296.9886499873988,32.376015830929184,3971.2777755146217,-0.08604327618645267,3013.5994947469726,10.5,10500003013.599495,47.655,-122.3035,60.0,8.583333333333334
2026-01-20T23:08:36+00:00,SAT-65670,296.85510433964055,32.39210251061347,3971.191961687172,-0.07382591350532919,2585.695774261127,10.5,10500002585.695774,47.655,-122.3035,60.0,8.6
2026-01-20T23:08:37+00:00,SAT-65670,296.72148821530635,32.40794152803084,3971.1183326427695,-0.061607672761731076,2157.7613003132196,10.5,10500002157.761301,47.655,-122.3035,60.0,8.616666666666667
2026-01-20T23:08:38+00:00,SAT-65670,296.5878033034213,32.423532568104854,3971.056889257135,-0.049388682467666506,1729.8005739373814,10.5,10500001729.800573,47.655,-122.3035,60.0,8.633333333333333
2026-01-20T23:08:39+00:00,SAT-65670,296.45405129741687,32.43887532346758,3971.007632277821,-0.03716907116563684,1301.8180972357445,10.5,10500001301.818098,47.655,-122.3035,60.0,8.65
2026-01-20T23:08:40+00:00,SAT-65670,296.3202338958515,32.45396949438825,3970.970562324178,-0.024948967328009095,873.8183698540391,10.5,10500000873.818369,47.655,-122.3035,60.0,8.666666666666666
2026-01-20T23:08:41+00:00,SAT-65670,296.1863528018766,32.46881478884993,3970.9456798874294,-0.012728499778330148,445.80590373780035,10.5,10500000445.805904,47.655,-122.3035,60.0,8.683333333333334
2026-01-20T23:08:42+00:00,SAT-65670,296.052409723432,32.48341092254305,3970.932985330317,-0.0005077965696857149,17.785183847753785,10.5,10500000017.785183,47.655,-122.3035,60.0,8.7
2026-01-20T23:08:43+00:00,SAT-65670,295.9184063720717,32.49775761900393,3970.9324788878716,0.011713012985469905,-410.2392607469598,10.5,10499999589.760738,47.655,-122.3035,60.0,8.716666666666667
2026-01-20T23:08:44+00:00,SAT-65670,295.78434446517576,32.511854609389424,3970.944160666156,0.02393380103988001,-838.2629522946173,10.5,10499999161.737047,47.655,-122.3035,60.0,8.733333333333333
2026-01-20T23:08:45+00:00,SAT-65670,295.6502257227629,32.52570163283172,3970.9680306437263,0.03615443847878778,-1266.28136865028,10.5,10499998733.718632,47.655,-122.3035,60.0,8.75
2026-01-20T23:08:46+00:00,SAT-65670,295.51605186997654,32.53929843618213,3971.004088670369,0.04837479664534242,-1694.2900037068157,10.5,10499998305.709997,47.655,-122.3035,60.0,8.766666666666667
2026-01-20T23:08:47+00:00,SAT-65670,295.3818246359874,32.55264477414235,3971.0523344675566,0.060594747726846164,-2122.2843809229007,10.5,10499997877.715618,47.655,-122.3035,60.0,8.783333333333333
2026-01-20T23:08:48+00:00,SAT-65670,295.2475457527254,32.56574040939745,3971.11276762929,0.07281416208710874,-2550.2599598907914,10.5,10499997449.74004,47.655,-122.3035,60.0,8.8
2026-01-20T23:08:49+00:00,SAT-65670,295.1132169573648,32.578585112378605,3971.185387620278,0.08503291219396969,-2978.2122738947683,10.5,10499997021.787725,47.655,-122.3035,60.0,8.816666666666666
2026-01-20T23:08:50+00:00,SAT-65670,294.97883998939596,32.5911786615605,3971.2701937780394,0.09725086896214893,-3406.1368018222915,10.5,10499996593.863197,47.655,-122.3035,60.0,8.833333333333334
2026-01-20T23:08:51+00:00,SAT-65670,294.8444165925473,32.603520843280805,3971.367185311351,0.10946790394469044,-3834.0290449176337,10.5,10499996165.970955,47.655,-122.3035,60.0,8.85
2026-01-20T23:08:52+00:00,SAT-65670,294.7099485137973,32.6156114518443,3971.4763613008854,0.1216838891469538,-4261.884520267067,10.5,10499995738.11548,47.655,-122.3035,60.0,8.866666666666667
2026-01-20T23:08:53+00:00,SAT-65670,294.57543750304285,32.627450289558006,3971.597720699661,0.13389869590853065,-4689.698721638861,10.5,10499995310.30128,47.655,-122.3035,60.0,8.883333333333333
2026-01-20T23:08:54+00:00,SAT-65670,294.4408853134923,32.63903716670052,3971.7312623323805,0.1461121955908661,-5117.4671435666805,10.5,10499994882.532856,47.655,-122.3035,60.0,8.9
2026-01-20T23:08:55+00:00,SAT-65670,294.30629370167094,32.650371901529645,3971.8769848954503,0.15832426072431074,-5545.185321524208,10.5,10499994454.814678,47.655,-122.3035,60.0,8.916666666666666
2026-01-20T23:08:56+00:00,SAT-65670,294.1716644263008,32.661454320382425,3972.0348869581458,0.1705347627795769,-5972.848753872113,10.5,10499994027.151247,47.655,-122.3035,60.0,8.933333333333334
2026-01-20T23:08:57+00:00,SAT-65670,294.0369992491611,32.67228425760524,3972.2049669615576,0.18274357322890172,-6400.452939024463,10.5,10499993599.547062,47.655,-122.3035,60.0,8.95
2026-01-20T23:08:58+00:00,SAT-65670,293.9022999348382,32.682861555579784,3972.3872232185913,0.19495056461534113,-6827.99341289994,10.5,10499993172.006588,47.655,-122.3035,60.0,8.966666666666667
2026-01-20T23:08:59+00:00,SAT-65670,293.76756825006663,32.693186064778565,3972.5816539150346,0.2071556085544502,-7255.465678932213,10.5,10499992744.53432,47.655,-122.3035,60.0,8.983333333333333
2026-01-20T23:09:00+00:00,SAT-65670,293.63280596413176,32.703257643735206,3972.7882571086325,0.21935857794961283,-7682.86528566017,10.5,10499992317.134714,47.655,-122.3035,60.0,9.0
2026-01-20T23:09:01+00:00,SAT-65670,293.4980148482146,32.713076159095074,3973.0070307303745,0.23155934475384188,-8110.187748336683,10.5,10499991889.812252,47.655,-122.3035,60.0,9.016666666666667
2026-01-20T23:09:02+00:00,SAT-65670,293.36319667566977,32.72264148559468,3973.237972583542,0.2437577804840978,-8537.428566942224,10.5,10499991462.571432,47.655,-122.3035,60.0,9.033333333333333
2026-01-20T23:09:03+00:00,SAT-65670,293.2283532222428,32.731953506048974,3973.481080343279,0.2559537579492356,-8964.583286704876,10.5,10499991035.416714,47.655,-122.3035,60.0,9.05
2026-01-20T23:09:04+00:00,SAT-65670,293.09348626527105,32.74101211140739,3973.736351557873,0.26814715153765717,-9391.64750817514,10.5,10499990608.352491,47.655,-122.3035,60.0,9.066666666666666
2026-01-20T23:09:05+00:00,SAT-65670,292.95859758303595,32.74981720079443,3974.00378365034,0.2803378306165535,-9818.616656039465,10.5,10499990181.383345,47.655,-122.3035,60.0,9.083333333333334
2026-01-20T23:09:06+00:00,SAT-65670,292.8236889567605,32.75836868137588,3974.2833739134085,0.2925256706583592,-10245.486368815762,10.5,10499989754.513632,47.655,-122.3035,60.0,9.1
2026-01-20T23:09:07+00:00,SAT-65670,292.68876216802744,32.766666468526346,3974.5751195156113,0.30471054400843295,-10672.252175498512,10.5,10499989327.747824,47.655,-122.3035,60.0,9.116666666666667
2026-01-20T23:09:08+00:00,SAT-65670,292.55381899991426,32.77471048575121,3974.879017498169,0.31689232359455327,-11098.909625481003,10.5,10499988901.090374,47.655,-122.3035,60.0,9.133333333333333
2026-01-20T23:09:09+00:00,SAT-65670,292.4188612367734,32.782500664697594,3975.1950647755675,0.3290708819821378,-11525.454255465114,10.5,10499988474.545744,47.655,-122.3035,60.0,9.15
2026-01-20T23:09:10+00:00,SAT-65670,292.28389066418833,32.790036945153815,3975.5232581351975,0.3412460937938778,-11951.881674207152,10.5,10499988048.118326,47.655,-122.3035,60.0,9.166666666666666
2026-01-20T23:09:11+00:00,SAT-65670,292.14890906821597,32.79731927508791,3975.863594239408,0.3534178306504107,-12378.187385318788,10.5,10499987621.812614,47.655,-122.3035,60.0,9.183333333333334
2026-01-20T23:09:12+00:00,SAT-65670,292.0139182363077,32.80434761059147,3976.21606962251,0.3655859698131048,-12804.367089973959,10.5,10499987195.63291,47.655,-122.3035,60.0,9.2
2026-01-20T23:09:13+00:00,SAT-65670,291.87891995536813,32.811121915975455,3976.5806806964038,0.3777503812920488,-13230.416235376117,10.5,10499986769.583765,47.655,-122.3035,60.0,9.216666666666667
2026-01-20T23:09:14+00:00,SAT-65670,291.7439160140783,32.817642163643306,3976.9574237433458,0.3899109403258965,-13656.330451855174,10.5,10499986343.669548,47.655,-122.3035,60.0,9.233333333333333
2026-01-20T23:09:15+00:00,SAT-65670,291.6089082010565,32.82390833418005,3977.346294921164,0.4020675232683358,-14082.10540879426,10.5,10499985917.89459,47.655,-122.3035,60.0,9.25
2026-01-20T23:09:16+00:00,SAT-65670,291.47389830449737,32.829920416356366,3977.7472902643703,0.4142200009939372,-14507.73658367463,10.5,10499985492.263416,47.655,-122.3035,60.0,9.266666666666667
2026-01-20T23:09:17+00:00,SAT-65670,291.33888811376306,32.83567840704816,3978.160405678695,0.4263682506014388,-14933.219671974228,10.5,10499985066.780329,47.655,-122.3035,60.0,9.283333333333333
2026-01-20T23:09:18+00:00,SAT-65670,291.2038794174315,32.84118231131608,3978.585636947295,0.43851214689191714,-15358.550288697155,10.5,10499984641.44971,47.655,-122.3035,60.0,9.3
2026-01-20T23:09:19+00:00,SAT-65670,291.06887400389417,32.84643214236625,3979.022979728462,0.4506515630045701,-15783.723990641507,10.5,10499984216.276009,47.655,-122.3035,60.0,9.316666666666666
2026-01-20T23:09:20+00:00,SAT-65670,290.9338736617887,32.85142792152483,3979.472429553965,0.462786375162473,-16208.7364426158,10.5,10499983791.263557,47.655,-122.3035,60.0,9.333333333333334
2026-01-20T23:09:21+00:00,SAT-65670,290.7988801789753,32.856169678267975,3979.9339818321273,0.47491646008065824,-16633.583326658976,10.5,10499983366.416674,47.655,-122.3035,60.0,9.35
2026-01-20T23:09:22+00:00,SAT-65670,290.66389534242853,32.86065745021098,3980.407631848314,0.4870416904383844,-17058.260183460105,10.5,10499982941.739817,47.655,-122.3035,60.0,9.366666666666667
2026-01-20T23:09:23+00:00,SAT-65670,290.528920939164,32.86489128306563,3980.8933747609112,0.49916194548212667,-17482.76278371996,10.5,10499982517.237217,47.655,-122.3035,60.0,9.383333333333333
2026-01-20T23:09:24+00:00,SAT-65670,290.3939587544983,32.86887123068411,3981.391205607872,0.5112770991586438,-17907.086712520835,10.5,10499982092.913288,47.655,-122.3035,60.0,9.4
2026-01-20T23:09:25+00:00,SAT-65670,290.25901057331237,32.87259735500487,3981.901119301433,0.5233870263366059,-18331.22758723424,10.5,10499981668.772413,47.655,-122.3035,60.0,9.416666666666666
2026-01-20T23:09:26+00:00,SAT-65670,290.12407817970865,32.876069726053466,3982.4231106290326,0.5354916071716926,-18755.181210405142,10.5,10499981244.81879,47.655,-122.3035,60.0,9.433333333333334
2026-01-20T23:09:27+00:00,SAT-65670,289.989163355683,32.879288421959856,3982.957174258585,0.5475907176740356,-19178.943239383872,10.5,10499980821.05676,47.655,-122.3035,60.0,9.45
2026-01-20T23:09:28+00:00,SAT-65670,289.8542678820878,32.882253528917,3983.5033047343454,0.5596842304730879,-19602.509213115107,10.5,10499980397.490788,47.655,-122.3035,60.0,9.466666666666667
2026-01-20T23:09:29+00:00,SAT-65670,289.71939353922886,32.88496514115674,3984.0614964735373,0.5717720281533121,-20025.875019210045,10.5,10499979974.12498,47.655,-122.3035,60.0,9.483333333333333
2026-01-20T23:09:30+00:00,SAT-65670,289.58454210460695,32.88742336097998,3984.6317437762823,0.5838539873153905,-20449.036335702618,10.5,10499979550.963665,47.655,-122.3035,60.0,9.5
2026-01-20T23:09:31+00:00,SAT-65670,289.4497153541639,32.88962829871183,3985.2140408196315,0.5959299843526528,-20871.98883336436,10.5,10499979128.011168,47.655,-122.3035,60.0,9.516666666666667
2026-01-20T23:09:32+00:00,SAT-65670,289.3149150622727,32.89158007268564,3985.8083816573594,0.6079998972842225,-21294.728239909015,10.5,10499978705.27176,47.655,-122.3035,60.0,9.533333333333333
2026-01-20T23:09:33+00:00,SAT-65670,289.18014300127675,32.89327880923473,3986.414760221584,0.620063603361304,-21717.250256154515,10.5,10499978282.749744,47.655,-122.3035,60.0,9.55
2026-01-20T23:09:34+00:00,SAT-65670,289.04540094158256,32.89472464267269,3987.0331703220027,0.6321209865456349,-22139.550817950083,10.5,10499977860.449183,47.655,-122.3035,60.0,9.566666666666666
2026-01-20T23:09:35+00:00,SAT-65670,288.9106906502243,32.895917715287304,3987.663605652585,0.6441719188263116,-22561.62544181239,10.5,10499977438.374557,47.655,-122.3035,60.0,9.583333333333334
2026-01-20T23:09:36+00:00,SAT-65670,288.77601389322825,32.8968581772987,3988.306059779627,0.6562162836827717,-22983.47004669845,10.5,10499977016.529953,47.655,-122.3035,60.0,9.6
2026-01-20T23:09:37+00:00,SAT-65670,288.641372433203,32.897546186861156,3988.96052615322,0.6682539595646012,-23405.080375398615,10.5,10499976594.919624,47.655,-122.3035,60.0,9.616666666666667
2026-01-20T23:09:38+00:00,SAT-65670,288.5067680303092,32.897981910032264,3989.626998102226,0.6802848274629935,-23826.452259721063,10.5,10499976173.54774,47.655,-122.3035,60.0,9.633333333333333
2026-01-20T23:09:39+00:00,SAT-65670,288.3722024416801,32.89816552075462,3990.3054688368156,0.6923087633911291,-24247.58135712292,10.5,10499975752.418642,47.655,-122.3035,60.0,9.65
2026-01-20T23:09:40+00:00,SAT-65670,288.2376774222786,32.89809720083387,3990.9959314435046,0.704325654228944,-24668.46370566104,10.5,10499975331.536295,47.655,-122.3035,60.0,9.666666666666666
2026-01-20T23:09:41+00:00,SAT-65670,288.10319472282356,32.897777139915455,3991.6983788959888,0.7163353736009856,-25089.094879132514,10.5,10499974910.90512,47.655,-122.3035,60.0,9.683333333333334
2026-01-20T23:09:42+00:00,SAT-65670,287.96875609214055,32.89720553546467,3992.412804041927,0.7283378097822532,-25509.47096445521,10.5,10499974490.529036,47.655,-122.3035,60.0,9.7
2026-01-20T23:09:43+00:00,SAT-65670,287.8343632744552,32.89638259273391,3993.13919961755,0.7403328381125363,-25929.587595501256,10.5,10499974070.412405,47.655,-122.3035,60.0,9.716666666666667
2026-01-20T23:09:44+00:00,SAT-65670,287.7000180116372,32.89530852474962,3993.8775582347607,0.7523203433260663,-26349.440735175853,10.5,10499973650.559265,47.655,-122.3035,60.0,9.733333333333333
2026-01-20T23:09:45+00:00,SAT-65670,287.5657220414497,32.89398355227715,3994.6278723905043,0.7643002062534395,-26769.026209662403,10.5,10499973230.973791,47.655,-122.3035,60.0,9.75
2026-01-20T23:09:46+00:00,SAT-65670,287.4314770981988,32.892407903799274,3995.3901344628744,0.7762723125167478,-27188.34001296274,10.5,10499972811.659986,47.655,-122.3035,60.0,9.766666666666667
2026-01-20T23:09:47+00:00,SAT-65670,287.2972849118362,32.89058181547963,3996.1643367158913,0.7882365383416072,-27607.37780997438,10.5,10499972392.62219,47.655,-122.3035,60.0,9.783333333333333
2026-01-20T23:09:48+00:00,SAT-65670,287.16314720946383,32.88850553115794,3996.9504712901307,0.8001927733548817,-28026.135734963216,10.5,10499971973.864265,47.655,-122.3035,60.0,9.8
2026-01-20T23:09:49+00:00,SAT-65670,287.02906571305505,32.886179302289,3997.74853021609,0.8121408998005263,-28444.60966361444,10.5,10499971555.390337,47.655,-122.3035,60.0,9.816666666666666
2026-01-20T23:09:50+00:00,SAT-65670,286.89504214062947,32.88360338793074,3998.558505406824,0.8240807945617936,-28862.795283858784,10.5,10499971137.204716,47.655,-122.3035,60.0,9.833333333333334
2026-01-20T23:09:51+00:00,SAT-65670,286.761078206976,32.88077805473654,3999.3803886526007,0.8360123521327683,-29280.6889004328,10.5,10499970719.3111,47.655,-122.3035,60.0,9.85
2026-01-20T23:09:52+00:00,SAT-65670,286.62717562087755,32.877703576865585,4000.214171638461,0.8479354515617191,-29698.286277095238,10.5,10499970301.713722,47.655,-122.3035,60.0,9.866666666666667
2026-01-20T23:09:53+00:00,SAT-65670,286.4933360874274,32.87438023600383,4001.0598459288185,0.8598499784529505,-30115.58340722494,10.5,10499969884.416594,47.655,-122.3035,60.0,9.883333333333333
2026-01-20T23:09:54+00:00,SAT-65670,286.35956130697434,32.87080832131104,4001.9174029739956,0.8717558151576515,-30532.576170262902,10.5,10499969467.42383,47.655,-122.3035,60.0,9.9
2026-01-20T23:09:55+00:00,SAT-65670,286.22585297551495,32.866988129403566,4002.7868341069793,0.883652854632034,-30949.260817082853,10.5,10499969050.739183,47.655,-122.3035,60.0,9.916666666666666
2026-01-20T23:09:56+00:00,SAT-65670,286.09221278310736,32.86291996427468,4003.6681305539996,0.8955409748687941,-31365.633074472935,10.5,10499968634.366926,47.655,-122.3035,60.0,9.933333333333334
2026-01-20T23:09:57+00:00,SAT-65670,285.958642415972,32.85860413732862,4004.5612834196018,0.9074200689903309,-31781.689199127468,10.5,10499968218.3108,47.655,-122.3035,60.0,9.95
2026-01-20T23:09:58+00:00,SAT-65670,285.825143554267,32.85404096727737,4005.4662837017418,0.919290018579406,-32197.42504357385,10.5,10499967802.574957,47.655,-122.3035,60.0,9.966666666666667
2026-01-20T23:09:59+00:00,SAT-65670,285.69171787366105,32.8492307801621,4006.3831222802714,0.93115071311804,-32612.83673700497,10.5,10499967387.163263,47.655,-122.3035,60.0,9.983333333333333
2026-01-20T23:10:00+00:00,SAT-65670,285.55836704417106,32.84417390927995,4007.311789924821,0.9430020433984444,-33027.92045450211,10.5,10499966972.079546,47.655,-122.3035,60.0,10.0
2026-01-20T23:10:01+00:00,SAT-65670,285.4250927299268,32.838870695139306,4008.2522772961033,0.9548438896342365,-33442.67200063946,10.5,10499966557.328,47.655,-122.3035,60.0,10.016666666666667
2026-01-20T23:10:02+00:00,SAT-65670,285.29189659057033,32.83332148548402,4009.2045749353656,0.9666761489551278,-33857.08777246438,10.5,10499966142.912228,47.655,-122.3035,60.0,10.033333333333333
2026-01-20T23:10:03+00:00,SAT-65670,285.15878027889005,32.8275266351612,4010.168673281257,0.9784987038871358,-34271.16365554108,10.5,10499965728.836344,47.655,-122.3035,60.0,10.05
2026-01-20T23:10:04+00:00,SAT-65670,285.0257454427558,32.821486506168384,4011.144562655267,0.990311447750357,-34684.895913488086,10.5,10499965315.104086,47.655,-122.3035,60.0,10.066666666666666
2026-01-20T23:10:05+00:00,SAT-65670,284.89279372360545,32.81520146755234,4012.13223327249,1.0021142678368935,-35098.280598798054,10.5,10499964901.7194,47.655,-122.3035,60.0,10.083333333333334
2026-01-20T23:10:06+00:00,SAT-65670,284.7599267572095,32.808671895407976,4013.131675235613,1.013907055102095,-35511.31389226609,10.5,10499964488.686108,47.655,-122.3035,60.0,10.1
2026-01-20T23:10:07+00:00,SAT-65670,284.62714617312463,32.801898172816664,4014.1428785385674,1.0256897001338692,-35923.99196181788,10.5,10499964076.008038,47.655,-122.3035,60.0,10.116666666666667
2026-01-20T23:10:08+00:00,SAT-65670,284.49445359470496,32.79488068981029,4015.1658330661676,1.0374620939536339,-36336.31099056253,10.5,10499963663.689009,47.655,-122.3035,60.0,10.133333333333333
2026-01-20T23:10:09+00:00,SAT-65670,284.3618506389904,32.787619843327946,4016.2005285945374,1.049224128020386,-36748.26717693496,10.5,10499963251.732822,47.655,-122.3035,60.0,10.15
2026-01-20T23:10:10+00:00,SAT-65670,284.2293389166165,32.780116037173634,4017.2469547915503,1.0609756933458871,-37159.85670370605,10.5,10499962840.143297,47.655,-122.3035,60.0,10.166666666666666
2026-01-20T23:10:11+00:00,SAT-65670,284.09692003180174,32.77236968197875,4018.3051012163805,1.0727166858264001,-37571.075924722565,10.5,10499962428.924076,47.655,-122.3035,60.0,10.183333333333334
2026-01-20T23:10:12+00:00,SAT-65670,283.9645955817387,32.76438119512583,4019.3749573243776,1.084446993867537,-37981.920931477,10.5,10499962018.07907,47.655,-122.3035,60.0,10.2
2026-01-20T23:10:13+00:00,SAT-65670,283.83236715742305,32.7561510007617,4020.456512459595,1.0961665115481658,-38392.388014163254,10.5,10499961607.611986,47.655,-122.3035,60.0,10.216666666666667
2026-01-20T23:10:14+00:00,SAT-65670,283.7002363429477,32.74767952971478,4021.549755860446,1.107875133496033,-38802.4734821993,10.5,10499961197.526518,47.655,-122.3035,60.0,10.233333333333333
2026-01-20T23:10:15+00:00,SAT-65670,283.56820471537793,32.73896721944794,4022.654676660253,1.1195727566492517,-39212.17372592189,10.5,10499960787.826275,47.655,-122.3035,60.0,10.25
2026-01-20T23:10:16+00:00,SAT-65670,283.43627384447353,32.730014513996736,4023.7712638895505,1.1312592710925915,-39621.484895634734,10.5,10499960378.515104,47.655,-122.3035,60.0,10.266666666666667
2026-01-20T23:10:17+00:00,SAT-65670,283.3044452934149,32.72082186398077,4024.899506469254,1.1429345737453616,-40030.403381015996,10.5,10499959969.596619,47.655,-122.3035,60.0,10.283333333333333
2026-01-20T23:10:18+00:00,SAT-65670,283.17272061798815,32.71138972650577,4026.0393932174693,1.1545985592520789,-40438.925492071015,10.5,10499959561.074509,47.655,-122.3035,60.0,10.3
2026-01-20T23:10:19+00:00,SAT-65670,283.04110136679196,32.70171856513852,4027.19091284723,1.166251127496499,-40847.04772230541,10.5,10499959152.952278,47.655,-122.3035,60.0,10.316666666666666
2026-01-20T23:10:20+00:00,SAT-65670,282.90958908064374,32.691808849817775,4028.3540539717196,1.1778921683128387,-41254.76621324746,10.5,10499958745.233788,47.655,-122.3035,60.0,10.333333333333334
2026-01-20T23:10:21+00:00,SAT-65670,282.77818529361946,32.681661056894356,4029.5288050942504,1.1895215854656191,-41662.07759432361,10.5,10499958337.922405,47.655,-122.3035,60.0,10.35
2026-01-20T23:10:22+00:00,SAT-65670,282.6468915315239,32.671275668967965,4030.715154622155,1.2011392726042636,-42068.978140686806,10.5,10499957931.02186,47.655,-122.3035,60.0,10.366666666666667
2026-01-20T23:10:23+00:00,SAT-65670,282.51570931293077,32.66065317492751,4031.913090856699,1.212745129698924,-42475.464348868656,10.5,10499957524.53565,47.655,-122.3035,60.0,10.383333333333333
2026-01-20T23:10:24+00:00,SAT-65670,282.38464014849046,32.64979406985028,4033.122601999385,1.2243390512365702,-42881.532523356494,10.5,10499957118.467476,47.655,-122.3035,60.0,10.4
2026-01-20T23:10:25+00:00,SAT-65670,282.2536855414571,32.63869885500501,4034.343676146485,1.2359209422299104,-43287.1793372936,10.5,10499956712.820663,47.655,-122.3035,60.0,10.416666666666666
2026-01-20T23:10:26+00:00,SAT-65670,282.12284698656896,32.62736803771018,4035.5763012995358,1.2474907002147246,-43692.40120194955,10.5,10499956307.598799,47.655,-122.3035,60.0,10.433333333333334
2026-01-20T23:10:27+00:00,SAT-65670,281.9921259707985,32.61580213135332,4036.820465357883,1.2590482189801961,-44097.19439737227,10.5,10499955902.805603,47.655,-122.3035,60.0,10.45
2026-01-20T23:10:28+00:00,SAT-65670,281.8615239736956,32.604001655380536,4038.076156114946,1.270593409336297,-44501.555799749694,10.5,10499955498.4442,47.655,-122.3035,60.0,10.466666666666667
2026-01-20T23:10:29+00:00,SAT-65670,281.73104246562514,32.59196713508938,4039.343361275191,1.2821261639952928,-44905.481651411574,10.5,10499955094.518349,47.655,-122.3035,60.0,10.483333333333333
2026-01-20T23:10:30+00:00,SAT-65670,281.60068290958594,32.57969910175008,4040.622068436082,1.2936463897298571,-45308.96868714256,10.5,10499954691.031313,47.655,-122.3035,60.0,10.5
2026-01-20T23:10:31+00:00,SAT-65670,281.4704467597572,32.56719809242504,4041.912265102106,1.30515398537478,-45712.01336370907,10.5,10499954287.986637,47.655,-122.3035,60.0,10.516666666666667
2026-01-20T23:10:32+00:00,SAT-65670,281.3403354622784,32.554464649994834,4043.213938676853,1.3166488545619368,-46114.61230589175,10.5,10499953885.387693,47.655,-122.3035,60.0,10.533333333333333
2026-01-20T23:10:33+00:00,SAT-65670,281.2103504547415,32.541499323063945,4044.5270764678025,1.3281309003331603,-46516.762117805454,10.5,10499953483.237883,47.655,-122.3035,60.0,10.55
2026-01-20T23:10:34+00:00,SAT-65670,281.08049316623203,32.52830266591682,4045.851665685735,1.3396000274206215,-46918.45946276782,10.5,10499953081.540537,47.655,-122.3035,60.0,10.566666666666666
2026-01-20T23:10:35+00:00,SAT-65670,280.9507650171483,32.51487523845132,4047.187693446416,1.3510561365771316,-47319.700864722494,10.5,10499952680.299135,47.655,-122.3035,60.0,10.583333333333334
2026-01-20T23:10:36+00:00,SAT-65670,280.82116741955747,32.50121760616894,4048.535146766629,1.362499135790518,-47720.48310101397,10.5,10499952279.5169,47.655,-122.3035,60.0,10.6
2026-01-20T23:10:37+00:00,SAT-65670,280.6917017764854,32.487330340052225,4049.8940125713907,1.3739289291134626,-48120.8028111613,10.5,10499951879.19719,47.655,-122.3035,60.0,10.616666666666667
2026-01-20T23:10:38+00:00,SAT-65670,280.56236948228786,32.47321401655373,4051.2642776900266,1.3853454234085936,-48520.656733099786,10.5,10499951479.343267,47.655,-122.3035,60.0,10.633333333333333
2026-01-20T23:10:39+00:00,SAT-65670,280.43317192235463,32.45886921751684,4052.6459288589726,1.3967485214814221,-48920.04146266726,10.5,10499951079.958538,47.655,-122.3035,60.0,10.65
2026-01-20T23:10:40+00:00,SAT-65670,280.30411047348014,32.44429653016688,4054.0389527177304,1.4081381323834792,-49318.95381446364,10.5,10499950681.046186,47.655,-122.3035,60.0,10.666666666666666
2026-01-20T23:10:41+00:00,SAT-65670,280.1751865032618,32.42949654699592,4055.443335815094,1.4195141669023745,-49717.39066389366,10.5,10499950282.609337,47.655,-122.3035,60.0,10.683333333333334
2026-01-20T23:10:42+00:00,SAT-65670,280.0464013699596,32.41446986569203,4056.8590646108846,1.4308765271580304,-50115.34858278296,10.5,10499949884.651417,47.655,-122.3035,60.0,10.7
2026-01-20T23:10:43+00:00,SAT-65670,279.9177564232398,32.399217089179636,4058.2861254673035,1.4422251250098925,-50512.82448407648,10.5,10499949487.175516,47.655,-122.3035,60.0,10.716666666666667
2026-01-20T23:10:44+00:00,SAT-65670,279.7892530033041,32.38373882546498,4059.7245046586468,1.453559863508433,-50909.814972191685,10.5,10499949090.185028,47.655,-122.3035,60.0,10.733333333333333
2026-01-20T23:10:45+00:00,SAT-65670,279.6608924416458,32.368035687678955,4061.174188362519,1.4648806640035934,-51306.31729247081,10.5,10499948693.682707,47.655,-122.3035,60.0,10.75
2026-01-20T23:10:46+00:00,SAT-65670,279.5326760594694,32.35210829382705,4062.635162678085,1.4761874234670296,-51702.32783642545,10.5,10499948297.672163,47.655,-122.3035,60.0,10.766666666666667
2026-01-20T23:10:47+00:00,SAT-65670,279.4046051697658,32.33595726700138,4064.1074136017564,1.4874800632913734,-52097.84385089308,10.5,10499947902.156149,47.655,-122.3035,60.0,10.783333333333333
2026-01-20T23:10:48+00:00,SAT-65670,279.27668107523715,32.319583235062936,4065.590927051546,1.498758486179475,-52492.861928115904,10.5,10499947507.138071,47.655,-122.3035,60.0,10.8
2026-01-20T23:10:49+00:00,SAT-65670,279.1489050698566,32.30298683079328,4067.085688848429,1.510022609928311,-52887.379188996354,10.5,10499947112.620811,47.655,-122.3035,60.0,10.816666666666666
2026-01-20T23:10:50+00:00,SAT-65670,279.02127843761343,32.28616869167604,4068.5916847313974,1.5212723419148293,-53281.39238948335,10.5,10499946718.60761,47.655,-122.3035,60.0,10.833333333333334
2026-01-20T23:10:51+00:00,SAT-65670,278.89380245336645,32.269129459959736,4070.108900347067,1.5325075999217763,-53674.89864998088,10.5,10499946325.10135,47.655,-122.3035,60.0,10.85
2026-01-20T23:10:52+00:00,SAT-65670,278.76647838198943,32.25186978248855,4071.6373212600556,1.5437282911090897,-54067.89471883726,10.5,10499945932.105282,47.655,-122.3035,60.0,10.866666666666667
2026-01-20T23:10:53+00:00,SAT-65670,278.6393074792354,32.23439031076895,4073.1769329423887,1.5549343407857432,-54460.3779800568,10.5,10499945539.62202,47.655,-122.3035,60.0,10.883333333333333
2026-01-20T23:10:54+00:00,SAT-65670,278.5122909902807,32.21669170071093,4074.7277207915986,1.5661256457444985,-54852.34481888545,10.5,10499945147.655182,47.655,-122.3035,60.0,10.9
2026-01-20T23:10:55+00:00,SAT-65670,278.3854301519946,32.198774612899506,4076.289670102288,1.5773021375947303,-55243.79283999422,10.5,10499944756.20716,47.655,-122.3035,60.0,10.916666666666666
2026-01-20T23:10:56+00:00,SAT-65670,278.2587261901849,32.18063971214444,4077.862766100849,1.5884637257015415,-55634.718868965625,10.5,10499944365.281132,47.655,-122.3035,60.0,10.933333333333334
2026-01-20T23:10:57+00:00,SAT-65670,278.1321803213573,32.162287667680545,4079.446993923282,1.5996103262843941,-56025.11997145085,10.5,10499943974.880028,47.655,-122.3035,60.0,10.95
2026-01-20T23:10:58+00:00,SAT-65670,278.00579375219144,32.143719153036095,4081.04233862203,1.6107418535512183,-56414.99314264868,10.5,10499943585.006857,47.655,-122.3035,60.0,10.966666666666667
2026-01-20T23:10:59+00:00,SAT-65670,277.87956767968274,32.124934846003455,4082.6487851639718,1.6218582287848702,-56804.33562555179,10.5,10499943195.664375,47.655,-122.3035,60.0,10.983333333333333
2026-01-20T23:11:00+00:00,SAT-65670,277.7535032906225,32.10593542850262,4084.2663184374796,1.6329593673377898,-57193.14445544455,10.5,10499942806.855545,47.655,-122.3035,60.0,11.0
2026-01-20T23:11:01+00:00,SAT-65670,277.62760176205086,32.086721586597214,4085.8949232465043,1.6440451930339328,-57581.41696431967,10.5,10499942418.583036,47.655,-122.3035,60.0,11.016666666666667
2026-01-20T23:11:02+00:00,SAT-65670,277.50186426062965,32.067294010340554,4087.5345843190235,1.6551156171086505,-57969.1500432637,10.5,10499942030.849957,47.655,-122.3035,60.0,11.033333333333333
2026-01-20T23:11:03+00:00,SAT-65670,277.37629194360477,32.04765339387199,4089.185286294487,1.6661705645029654,-58356.34106339372,10.5,10499941643.658937,47.655,-122.3035,60.0,11.05
2026-01-20T23:11:04+00:00,SAT-65670,277.25088595778516,32.02780043519994,4090.8470137374843,1.6772099569703456,-58742.98728418521,10.5,10499941257.012716,47.655,-122.3035,60.0,11.066666666666666
2026-01-20T23:11:05+00:00,SAT-65670,277.12564743979647,32.00773583618662,4092.519751134569,1.688233705753766,-59129.08559699171,10.5,10499940870.914404,47.655,-122.3035,60.0,11.083333333333334
2026-01-20T23:11:06+00:00,SAT-65670,277.0005775168721,31.98746030262011,4094.2034828837745,1.69924174607706,-59514.63373307786,10.5,10499940485.366266,47.655,-122.3035,60.0,11.1
2026-01-20T23:11:07+00:00,SAT-65670,276.87567730510665,31.96697454387315,4095.8981933185287,1.710233990263677,-59899.628621640004,10.5,10499940100.371378,47.655,-122.3035,60.0,11.116666666666667
2026-01-20T23:11:08+00:00,SAT-65670,276.75094791115043,31.946279273124336,4097.603866684818,1.7212103624160777,-60284.06760442525,10.5,10499939715.932396,47.655,-122.3035,60.0,11.133333333333333
2026-01-20T23:11:09+00:00,SAT-65670,276.626390431365,31.925375207164226,4099.320487152934,1.732170789857818,-60667.9481359971,10.5,10499939332.051865,47.655,-122.3035,60.0,11.15
2026-01-20T23:11:10+00:00,SAT-65670,276.5020059516164,31.904263066300896,4101.048038820686,1.7431151922495176,-61051.26740253063,10.5,10499938948.732597,47.655,-122.3035,60.0,11.166666666666666
2026-01-20T23:11:11+00:00,SAT-65670,276.37779554784163,31.882943574400514,4102.786505705756,1.7540434953555146,-61434.02280397895,10.5,10499938565.977196,47.655,-122.3035,60.0,11.183333333333334
2026-01-20T23:11:12+00:00,SAT-65670,276.25376028563954,31.86141745875943,4104.535871751791,1.7649556241422422,-61816.211712349155,10.5,10499938183.788288,47.655,-122.3035,60.0,11.2
2026-01-20T23:11:13+00:00,SAT-65670,276.1299012203376,31.839685450060706,4106.296120827602,1.7758515056461135,-62197.83157214779,10.5,10499937802.168428,47.655,-122.3035,60.0,11.216666666666667
2026-01-20T23:11:14+00:00,SAT-65670,276.0062193968933,31.81774828229461,4108.067236729233,1.786731063184388,-62578.87969762093,10.5,10499937421.120302,47.655,-122.3035,60.0,11.233333333333333
2026-01-20T23:11:15+00:00,SAT-65670,275.8827158501527,31.795606692752493,4109.849203176249,1.7975942234341673,-62959.3535206905,10.5,10499937040.646479,47.655,-122.3035,60.0,11.25
2026-01-20T23:11:16+00:00,SAT-65670,275.75939160466004,31.773261421931494,4111.642003815087,1.8084409167093736,-63339.25060065528,10.5,10499936660.7494,47.655,-122.3035,60.0,11.266666666666667
2026-01-20T23:11:17+00:00,SAT-65670,275.6362476744245,31.750713213436363,4113.445622222685,1.8192710709373272,-63718.568413225184,10.5,10499936281.431587,47.655,-122.3035,60.0,11.283333333333333
2026-01-20T23:11:18+00:00,SAT-65670,275.5132850631271,31.7279628139556,4115.2600419041,1.8300846088015401,-64097.30425044973,10.5,10499935902.69575,47.655,-122.3035,60.0,11.3
2026-01-20T23:11:19+00:00,SAT-65670,275.39050476448267,31.705010973275858,4117.085246287278,1.8408814727324005,-64475.45609599761,10.5,10499935524.543903,47.655,-122.3035,60.0,11.316666666666666
2026-01-20T23:11:20+00:00,SAT-65670,275.26790776096857,31.681858443979035,4118.92121874275,1.851661571662517,-64853.020760303545,10.5,10499935146.97924,47.655,-122.3035,60.0,11.333333333333334
2026-01-20T23:11:21+00:00,SAT-65670,275.1454950260569,31.658505981814262,4120.767942550221,1.8624248567936432,-65229.99653424655,10.5,10499934770.003466,47.655,-122.3035,60.0,11.35
2026-01-20T23:11:22+00:00,SAT-65670,275.0232675214822,31.63495434510928,4122.62540094073,1.8731712471302868,-65606.38058102186,10.5,10499934393.61942,47.655,-122.3035,60.0,11.366666666666667
2026-01-20T23:11:23+00:00,SAT-65670,274.90122619936574,31.611204295127227,4124.493577064535,1.8839006755681262,-65982.17055035228,10.5,10499934017.829449,47.655,-122.3035,60.0,11.383333333333333
2026-01-20T23:11:24+00:00,SAT-65670,274.77937200135386,31.587256595837477,4126.372454004969,1.8946130820681102,-66357.3643394163,10.5,10499933642.63566,47.655,-122.3035,60.0,11.4
2026-01-20T23:11:25+00:00,SAT-65670,274.6577058582015,31.563112013773548,4128.262014785484,1.9053083837807612,-66731.95904647472,10.5,10499933268.040953,47.655,-122.3035,60.0,11.416666666666666
2026-01-20T23:11:26+00:00,SAT-65670,274.5362286912504,31.538771318273277,4130.162242346908,1.915986531090615,-67105.95293378414,10.5,10499932894.047066,47.655,-122.3035,60.0,11.433333333333334
2026-01-20T23:11:27+00:00,SAT-65670,274.4149414103737,31.51423528100052,4132.073119580583,1.9266474471177437,-67479.34330868427,10.5,10499932520.65669,47.655,-122.3035,60.0,11.45
2026-01-20T23:11:28+00:00,SAT-65670,274.29384491571983,31.48950467624458,4133.994629301174,1.9372910678234065,-67852.12792826752,10.5,10499932147.872072,47.655,-122.3035,60.0,11.466666666666667
2026-01-20T23:11:29+00:00,SAT-65670,274.1729400969539,31.464580280702908,4135.9267542594835,1.9479173315198883,-68224.3046319692,10.5,10499931775.695368,47.655,-122.3035,60.0,11.483333333333333
2026-01-20T23:11:30+00:00,SAT-65670,274.05222783314196,31.439462873400107,4137.869477144786,1.9585261723073482,-68595.87111169807,10.5,10499931404.12889,47.655,-122.3035,60.0,11.5
2026-01-20T23:11:31+00:00,SAT-65670,273.9317089930653,31.414153235690573,4139.822780580635,1.9691175297726853,-68966.82525153183,10.5,10499931033.17475,47.655,-122.3035,60.0,11.516666666666667
2026-01-20T23:11:32+00:00,SAT-65670,273.8113844349159,31.388652151137606,4141.786647130328,1.97969133274023,-69337.16455859745,10.5,10499930662.835442,47.655,-122.3035,60.0,11.533333333333333
2026-01-20T23:11:33+00:00,SAT-65670,273.6912550069925,31.362960405601196,4143.76105928618,1.9902475219805253,-69706.8869584288,10.5,10499930293.11304,47.655,-122.3035,60.0,11.55
2026-01-20T23:11:34+00:00,SAT-65670,273.57132154701867,31.337078787034713,4145.745999481436,2.000786045193183,-70075.99061924509,10.5,10499929924.00938,47.655,-122.3035,60.0,11.566666666666666
2026-01-20T23:11:35+00:00,SAT-65670,273.4515848817811,31.3110080853406,4147.741450097175,2.0113068267413805,-70444.47289192477,10.5,10499929555.527107,47.655,-122.3035,60.0,11.583333333333334
2026-01-20T23:11:36+00:00,SAT-65670,273.33204582856155,31.28474909262898,4149.7473934390455,2.0218098137870326,-70812.33192585465,10.5,10499929187.668074,47.655,-122.3035,60.0,11.6
2026-01-20T23:11:37+00:00,SAT-65670,273.2127051938237,31.258302602866895,4151.763811759995,2.0322949431873902,-71179.56550950857,10.5,10499928820.43449,47.655,-122.3035,60.0,11.616666666666667
2026-01-20T23:11:38+00:00,SAT-65670,273.09356377387047,31.231669411965836,4153.790687250001,2.042762160174658,-71546.17172468665,10.5,10499928453.828276,47.655,-122.3035,60.0,11.633333333333333
2026-01-20T23:11:39+00:00,SAT-65670,272.97462235440616,31.20485031761997,4155.828002044415,2.0532114044262,-71912.14845863501,10.5,10499928087.851542,47.655,-122.3035,60.0,11.65
2026-01-20T23:11:40+00:00,SAT-65670,272.8558817109045,31.17784611933235,4157.875738218429,2.0636426075356344,-72277.4933154728,10.5,10499927722.506685,47.655,-122.3035,60.0,11.666666666666666
2026-01-20T23:11:41+00:00,SAT-65670,272.73734260911584,31.15065761847261,4159.933877779012,2.07405572853435,-72642.20486030598,10.5,10499927357.79514,47.655,-122.3035,60.0,11.683333333333334
2026-01-20T23:11:42+00:00,SAT-65670,272.61900580355484,31.12328561786447,4162.00240269227,2.0844506985804214,-73006.2806819991,10.5,10499926993.719318,47.655,-122.3035,60.0,11.7
2026-01-20T23:11:43+00:00,SAT-65670,272.50087203913034,31.095730922107453,4164.081294855654,2.094827464602999,-73369.71892178651,10.5,10499926630.281078,47.655,-122.3035,60.0,11.716666666666667
2026-01-20T23:11:44+00:00,SAT-65670,272.3829420503073,31.06799433731956,4166.170536113685,2.1051859688017402,-73732.51755525575,10.5,10499926267.482445,47.655,-122.3035,60.0,11.733333333333333
2026-01-20T23:11:45+00:00,SAT-65670,272.26521656141847,31.040076671151944,4168.270108253237,2.115526162891193,-74094.67489124602,10.5,10499925905.32511,47.655,-122.3035,60.0,11.75
2026-01-20T23:11:46+00:00,SAT-65670,272.1476962861948,31.01197873261504,4170.379993013026,2.1258479818238016,-74456.18865151677,10.5,10499925543.811348,47.655,-122.3035,60.0,11.766666666666667
2026-01-20T23:11:47+00:00,SAT-65670,272.03038192874567,30.98370133225509,4172.500172066899,2.1361513765944746,-74817.05711970241,10.5,10499925182.94288,47.655,-122.3035,60.0,11.783333333333333
2026-01-20T23:11:48+00:00,SAT-65670,271.91327418271425,30.95524528189272,4174.630627039823,2.1464362971151045,-75177.27854150553,10.5,10499924822.721458,47.655,-122.3035,60.0,11.8
2026-01-20T23:11:49+00:00,SAT-65670,271.7963737314158,30.926611394589937,4176.771339506812,2.1567026870815473,-75536.85094491686,10.5,10499924463.149055,47.655,-122.3035,60.0,11.816666666666666
2026-01-20T23:11:50+00:00,SAT-65670,271.6796812482123,30.897800484688272,4178.922290986728,2.166950490593187,-75895.77237206034,10.5,10499924104.227629,47.655,-122.3035,60.0,11.833333333333334
2026-01-20T23:11:51+00:00,SAT-65670,271.56319739655436,30.868813367756765,4181.08346294268,2.1771796593920145,-76254.04113273641,10.5,10499923745.958868,47.655,-122.3035,60.0,11.85
2026-01-20T23:11:52+00:00,SAT-65670,271.4469228296191,30.839650860443598,4183.254836789647,2.187390147605606,-76611.65562029871,10.5,10499923388.34438,47.655,-122.3035,60.0,11.866666666666667
2026-01-20T23:11:53+00:00,SAT-65670,271.33085819025246,30.810313780397532,4185.436393896859,2.1975818959221733,-76968.61375739753,10.5,10499923031.386242,47.655,-122.3035,60.0,11.883333333333333
2026-01-20T23:11:54+00:00,SAT-65670,271.2150041117318,30.780802946405586,4187.628115574392,2.20775485602323,-77324.91385171509,10.5,10499922675.08615,47.655,-122.3035,60.0,11.9
2026-01-20T23:11:55+00:00,SAT-65670,271.09936121724405,30.751119178198724,4189.8299830841315,2.2179089821613736,-77680.55430098386,10.5,10499922319.4457,47.655,-122.3035,60.0,11.916666666666666
2026-01-20T23:11:56+00:00,SAT-65670,270.9839301198074,30.721263296372516,4192.041977642341,2.2280442272774863,-78035.53345699445,10.5,10499921964.466543,47.655,-122.3035,60.0,11.933333333333334
2026-01-20T23:11:57+00:00,SAT-65670,270.86871142241483,30.69123612236025,4194.264080418346,2.2381605324526346,-78389.84925615661,10.5,10499921610.150743,47.655,-122.3035,60.0,11.95
2026-01-20T23:11:58+00:00,SAT-65670,270.7537057186824,30.661038478551635,4196.496272522712,2.248257862581537,-78743.50046893489,10.5,10499921256.49953,47.655,-122.3035,60.0,11.966666666666667
2026-01-20T23:11:59+00:00,SAT-65670,270.6389135917085,30.630671187923497,4198.738535030993,2.258336163500165,-79096.48519827584,10.5,10499920903.514801,47.655,-122.3035,60.0,11.983333333333333
2026-01-20T23:12:00+00:00,SAT-65670,270.5243356150974,30.60013507425738,4200.990848964724,2.268395390467389,-79448.80187715591,10.5,10499920551.198122,47.655,-122.3035,60.0,12.0
2026-01-20T23:12:01+00:00,SAT-65670,270.4099723525423,30.569430961967115,4203.2531953008165,2.278435499543038,-79800.44896660442,10.5,10499920199.551033,47.655,-122.3035,60.0,12.016666666666667
2026-01-20T23:12:02+00:00,SAT-65670,270.2958243578538,30.538559676046525,4205.525554972361,2.2884564398527876,-80151.42468478733,10.5,10499919848.575315,47.655,-122.3035,60.0,12.033333333333333
2026-01-20T23:12:03+00:00,SAT-65670,270.18189217536457,30.50752204212063,4207.807908861708,2.298458170391943,-80501.72759554679,10.5,10499919498.272404,47.655,-122.3035,60.0,12.05
2026-01-20T23:12:04+00:00,SAT-65670,270.06817633949436,30.476318886269937,4210.100237810312,2.30844065438318,-80851.35641078533,10.5,10499919148.643589,47.655,-122.3035,60.0,12.066666666666666
2026-01-20T23:12:05+00:00,SAT-65670,269.9546773746272,30.444951034929016,4212.4025226229505,2.3184038317549223,-81200.30902654224,10.5,10499918799.690973,47.655,-122.3035,60.0,12.083333333333334
2026-01-20T23:12:06+00:00,SAT-65670,269.8413957962964,30.4134193151679,4214.714744044488,2.3283476685291205,-81548.58425276249,10.5,10499918451.415747,47.655,-122.3035,60.0,12.1
2026-01-20T23:12:07+00:00,SAT-65670,269.7283321099818,30.381724554289523,4217.036882785899,2.3382721338619166,-81896.18100916376,10.5,10499918103.81899,47.655,-122.3035,60.0,12.116666666666667
2026-01-20T23:12:08+00:00,SAT-65670,269.61548681103494,30.34986757974822,4219.368919527405,2.348177163253108,-82243.09703667607,10.5,10499917756.902964,47.655,-122.3035,60.0,12.133333333333333
2026-01-20T23:12:09+00:00,SAT-65670,269.5028603863567,30.317849219572185,4221.71083488489,2.358062732472808,-82589.3314866663,10.5,10499917410.668514,47.655,-122.3035,60.0,12.15
2026-01-20T23:12:10+00:00,SAT-65670,269.39045331253305,30.285670301768906,4224.062609450076,2.367928793163398,-82934.8826654461,10.5,10499917065.117334,47.655,-122.3035,60.0,12.166666666666666
2026-01-20T23:12:11+00:00,SAT-65670,269.27826605704945,30.253331654617558,4226.4242237664575,2.3777753072617585,-83279.74923988403,10.5,10499916720.250761,47.655,-122.3035,60.0,12.183333333333334
2026-01-20T23:12:12+00:00,SAT-65670,269.166299077877,30.220834106489537,4228.795658339566,2.3876022351272552,-83623.9298215974,10.5,10499916376.070179,47.655,-122.3035,60.0,12.2
2026-01-20T23:12:13+00:00,SAT-65670,269.05455282361146,30.188178485829965,4231.176893635399,2.3974095417648917,-83967.42318491335,10.5,10499916032.576815,47.655,-122.3035,60.0,12.216666666666667
2026-01-20T23:12:14+00:00,SAT-65670,268.9430277333207,30.15536562105606,4233.567910085053,2.407197175172605,-84310.22750849974,10.5,10499915689.772491,47.655,-122.3035,60.0,12.233333333333333
2026-01-20T23:12:15+00:00,SAT-65670,268.83172423740496,30.122396340754076,4235.968688067758,2.41696511491437,-84652.34207660049,10.5,10499915347.657923,47.655,-122.3035,60.0,12.25
2026-01-20T23:12:16+00:00,SAT-65670,268.7206427561997,30.089271473204068,4238.3792079423665,2.4267133159898666,-84993.76531311405,10.5,10499915006.234688,47.655,-122.3035,60.0,12.266666666666667
2026-01-20T23:12:17+00:00,SAT-65670,268.6097837011902,30.05599184668358,4240.799450022847,2.4364417378370593,-85334.49579738635,10.5,10499914665.504202,47.655,-122.3035,60.0,12.283333333333333
2026-01-20T23:12:18+00:00,SAT-65670,268.49914747486156,30.022558289369414,4243.229394582717,2.4461503501213264,-85674.53246697063,10.5,10499914325.467533,47.655,-122.3035,60.0,12.3
