satellites_20260121_005943/SAT-62178.csv

timestamp,satellite,azimuth_deg,elevation_deg,distance_km,relative_velocity_kms,doppler_shift_hz,tx_freq_ghz,rx_freq_hz,ue_lat,ue_lon,ue_alt_m,time_minutes
2026-01-20T23:03:02+00:00,SAT-62178,231.36313062806758,30.069688314091504,2564.6342539727393,-2.461235247907894,86202.86939651059,10.5,10500086202.869396,47.655,-122.3035,60.0,3.033333333333333
2026-01-20T23:03:03+00:00,SAT-62178,231.49200781157168,30.175243517194982,2562.1795820188263,-2.4460841131518043,85672.21256811585,10.5,10500085672.212568,47.655,-122.3035,60.0,3.05
2026-01-20T23:03:04+00:00,SAT-62178,231.6215165437487,30.280733017472343,2559.7400207966425,-2.430887268133967,85139.95477300049,10.5,10500085139.954773,47.655,-122.3035,60.0,3.066666666666667
2026-01-20T23:03:05+00:00,SAT-62178,231.75165913248864,30.386153889028723,2557.315615894557,-2.4156448434658455,84606.10058573047,10.5,10500084606.100586,47.655,-122.3035,60.0,3.0833333333333335
2026-01-20T23:03:06+00:00,SAT-62178,231.8824378748722,30.49150318133473,2554.906412770674,-2.4003569450436695,84070.65371523965,10.5,10500084070.653715,47.655,-122.3035,60.0,3.1
2026-01-20T23:03:07+00:00,SAT-62178,232.0138550552033,30.596777918082754,2552.5124567774837,-2.3850237032563024,83533.61872829762,10.5,10500083533.618729,47.655,-122.3035,60.0,3.1166666666666667
2026-01-20T23:03:08+00:00,SAT-62178,232.1459129456073,30.701975098102235,2550.133793137436,-2.369645230429968,82994.99955904383,10.5,10500082994.99956,47.655,-122.3035,60.0,3.1333333333333333
2026-01-20T23:03:09+00:00,SAT-62178,232.2786138043682,30.807091694494417,2547.770466960954,-2.354221665826033,82454.80108500042,10.5,10500082454.801085,47.655,-122.3035,60.0,3.15
2026-01-20T23:03:10+00:00,SAT-62178,232.41195987662627,30.912124655653848,2545.42252321957,-2.33875314579681,81913.02808180219,10.5,10500081913.028082,47.655,-122.3035,60.0,3.1666666666666665
2026-01-20T23:03:11+00:00,SAT-62178,232.5459533935155,31.017070905044246,2543.0900067488287,-2.323239794519193,81369.68489864923,10.5,10500081369.684898,47.655,-122.3035,60.0,3.183333333333333
2026-01-20T23:03:12+00:00,SAT-62178,232.6805965707695,31.121927340604866,2540.7729622604284,-2.3076817550707696,80824.7765467238,10.5,10500080824.776546,47.655,-122.3035,60.0,3.2
2026-01-20T23:03:13+00:00,SAT-62178,232.8158916089833,31.226690835439427,2538.471434323371,-2.292079165054582,80278.3078454666,10.5,10500080278.307846,47.655,-122.3035,60.0,3.216666666666667
2026-01-20T23:03:14+00:00,SAT-62178,232.95184069255473,31.33135823750707,2536.1854673694233,-2.2764321847377356,79730.2844081095,10.5,10500079730.284409,47.655,-122.3035,60.0,3.2333333333333334
2026-01-20T23:03:15+00:00,SAT-62178,233.08844599016726,31.43592637049831,2533.9151056705114,-2.2607409434276002,79180.71076354363,10.5,10500079180.710764,47.655,-122.3035,60.0,3.25
2026-01-20T23:03:16+00:00,SAT-62178,233.2257096523057,31.540392032454033,2531.6603933695997,-2.2450056040396147,78629.59261775677,10.5,10500078629.592617,47.655,-122.3035,60.0,3.2666666666666666
2026-01-20T23:03:17+00:00,SAT-62178,233.36363381231132,31.644751997107363,2529.421374447171,-2.229226321857788,78076.93540945175,10.5,10500078076.93541,47.655,-122.3035,60.0,3.283333333333333
2026-01-20T23:03:18+00:00,SAT-62178,233.50222058516567,31.74900301350686,2527.1980927288378,-2.213403251925233,77522.74456889422,10.5,10500077522.74457,47.655,-122.3035,60.0,3.3
2026-01-20T23:03:19+00:00,SAT-62178,233.64147206664927,31.853141805926914,2524.9905918855843,-2.1975365583445883,76967.02584365274,10.5,10500076967.025845,47.655,-122.3035,60.0,3.316666666666667
2026-01-20T23:03:20+00:00,SAT-62178,233.78139033304558,31.957165074219606,2522.798915424729,-2.1816264073758855,76409.7850568569,10.5,10500076409.785057,47.655,-122.3035,60.0,3.3333333333333335
2026-01-20T23:03:21+00:00,SAT-62178,233.92197744040647,32.06106949383361,2520.6231066877726,-2.1656729678421076,75851.02812140167,10.5,10500075851.028122,47.655,-122.3035,60.0,3.35
2026-01-20T23:03:22+00:00,SAT-62178,234.0632354238793,32.16485171590427,2518.4632088478447,-2.1496764167302813,75290.7612361214,10.5,10500075290.761236,47.655,-122.3035,60.0,3.3666666666666667
2026-01-20T23:03:23+00:00,SAT-62178,234.20516629731625,32.26850836755086,2516.3192649015587,-2.1336369181928503,74728.99015032903,10.5,10500074728.99015,47.655,-122.3035,60.0,3.3833333333333333
2026-01-20T23:03:24+00:00,SAT-62178,234.3477720516094,32.37203605127337,2514.1913176818143,-2.1175546659382882,74165.72164851466,10.5,10500074165.72165,47.655,-122.3035,60.0,3.4
2026-01-20T23:03:25+00:00,SAT-62178,234.49105465561888,32.47543134623864,2512.0794098283186,-2.1014298331384142,73600.96179588798,10.5,10500073600.961796,47.655,-122.3035,60.0,3.4166666666666665
2026-01-20T23:03:26+00:00,SAT-62178,234.63501605400626,32.57869080733358,2509.983583808069,-2.0852626144698614,73034.7174108481,10.5,10500073034.717411,47.655,-122.3035,60.0,3.433333333333333
2026-01-20T23:03:27+00:00,SAT-62178,234.7796581676627,32.68181096610786,2507.9038818939043,-2.0690531940941934,72466.99494351198,10.5,10500072466.994944,47.655,-122.3035,60.0,3.45
2026-01-20T23:03:28+00:00,SAT-62178,234.9249828921195,32.784788330287945,2505.8403461749945,-2.0528017678894726,71897.80125435798,10.5,10500071897.801254,47.655,-122.3035,60.0,3.466666666666667
2026-01-20T23:03:29+00:00,SAT-62178,235.07099209735424,32.88761938428739,2503.793018545153,-2.0365085365608353,71327.14337292891,10.5,10500071327.143373,47.655,-122.3035,60.0,3.4833333333333334
2026-01-20T23:03:30+00:00,SAT-62178,235.2176876271763,32.990300589443024,2501.7619406980225,-2.020173689896346,70755.02794640562,10.5,10500070755.027946,47.655,-122.3035,60.0,3.5
2026-01-20T23:03:31+00:00,SAT-62178,235.365071297503,33.09282838348019,2499.747154137966,-2.0037974467120585,70181.4626386519,10.5,10500070181.462639,47.655,-122.3035,60.0,3.5166666666666666
2026-01-20T23:03:32+00:00,SAT-62178,235.51314489738172,33.195199181907135,2497.7487001511117,-1.9873800025084296,69606.45429692068,10.5,10500069606.454296,47.655,-122.3035,60.0,3.533333333333333
2026-01-20T23:03:33+00:00,SAT-62178,235.66191018634305,33.297409376885994,2495.76661982861,-1.9709215769883566,69030.01061613679,10.5,10500069030.010616,47.655,-122.3035,60.0,3.55
2026-01-20T23:03:34+00:00,SAT-62178,235.81136889516756,33.39945533845103,2493.8009540424937,-1.9544223785204191,68452.1388942493,10.5,10500068452.138895,47.655,-122.3035,60.0,3.566666666666667
2026-01-20T23:03:35+00:00,SAT-62178,235.96152272397762,33.5013334139329,2491.8517434569826,-1.9378826320498033,67872.84700979013,10.5,10500067872.84701,47.655,-122.3035,60.0,3.5833333333333335
2026-01-20T23:03:36+00:00,SAT-62178,236.11237334247625,33.6030399288373,2489.9190285119516,-1.9213025531369057,67292.1425125962,10.5,10500067292.142513,47.655,-122.3035,60.0,3.6
2026-01-20T23:03:37+00:00,SAT-62178,236.2639223881527,33.70457118637401,2488.0028494322896,-1.904682371744566,66710.03345693887,10.5,10500066710.033457,47.655,-122.3035,60.0,3.6166666666666667
2026-01-20T23:03:38+00:00,SAT-62178,236.41617146637083,33.80592346825606,2486.1032462135367,-1.8880223177273707,66126.52789329809,10.5,10500066126.527893,47.655,-122.3035,60.0,3.6333333333333333
2026-01-20T23:03:39+00:00,SAT-62178,236.5691221492136,33.90709303468702,2484.2202586219896,-1.8713226196078638,65541.63382549994,10.5,10500065541.633825,47.655,-122.3035,60.0,3.65
2026-01-20T23:03:40+00:00,SAT-62178,236.72277597437716,34.00807612439384,2482.353926196034,-1.8545835173226968,64955.35965714093,10.5,10500064955.359657,47.655,-122.3035,60.0,3.6666666666666665
2026-01-20T23:03:41+00:00,SAT-62178,236.87713444491118,34.10886895522686,2480.504288234758,-1.8378052468372914,64367.71365272824,10.5,10500064367.713654,47.655,-122.3035,60.0,3.683333333333333
2026-01-20T23:03:42+00:00,SAT-62178,237.03219902784076,34.20946772404703,2478.671383801912,-1.8209880516910688,63778.7043420426,10.5,10500063778.704342,47.655,-122.3035,60.0,3.7
2026-01-20T23:03:43+00:00,SAT-62178,237.18797115361158,34.30986860716273,2476.8552517183584,-1.804132185084708,63188.340593242785,10.5,10500063188.340593,47.655,-122.3035,60.0,3.716666666666667
2026-01-20T23:03:44+00:00,SAT-62178,237.34445221578233,34.41006776092536,2475.0559305524343,-1.7872378890111176,62596.63088194412,10.5,10500062596.630882,47.655,-122.3035,60.0,3.7333333333333334
2026-01-20T23:03:45+00:00,SAT-62178,237.50164356897392,34.51006132122965,2473.273458631127,-1.770305420791114,62003.58422061003,10.5,10500062003.58422,47.655,-122.3035,60.0,3.75
2026-01-20T23:03:46+00:00,SAT-62178,237.65954652894044,34.60984540439342,2471.507874024792,-1.7533350360165507,61409.209561148404,10.5,10500061409.20956,47.655,-122.3035,60.0,3.7666666666666666
2026-01-20T23:03:47+00:00,SAT-62178,237.81816237131824,34.70941610718255,2469.759214548871,-1.7363269972012334,60813.516097903135,10.5,10500060813.516098,47.655,-122.3035,60.0,3.783333333333333
2026-01-20T23:03:48+00:00,SAT-62178,237.9774923310074,34.80876950727706,2468.0275177569956,-1.719281576558851,60216.513364949074,10.5,10500060216.513365,47.655,-122.3035,60.0,3.8
2026-01-20T23:03:49+00:00,SAT-62178,238.13753760187174,34.90790166391197,2466.3128209313077,-1.7021990227567625,59618.210071669004,10.5,10500059618.210072,47.655,-122.3035,60.0,3.816666666666667
2026-01-20T23:03:50+00:00,SAT-62178,238.29829933348435,35.00680861673884,2464.615161105945,-1.6850796235947403,59018.616298028326,10.5,10500059018.616299,47.655,-122.3035,60.0,3.8333333333333335
2026-01-20T23:03:51+00:00,SAT-62178,238.45977863329182,35.105486388030094,2462.934575028013,-1.6679236502537709,58417.7415419323,10.5,10500058417.741543,47.655,-122.3035,60.0,3.85
2026-01-20T23:03:52+00:00,SAT-62178,238.62197656404763,35.2039309819669,2461.27109917416,-1.6507313796663632,57815.5955027288,10.5,10500057815.595503,47.655,-122.3035,60.0,3.8666666666666667
2026-01-20T23:03:53+00:00,SAT-62178,238.78489414305523,35.30213838507218,2459.6247697448393,-1.633503091955122,57212.18799149637,10.5,10500057212.187992,47.655,-122.3035,60.0,3.8833333333333333
2026-01-20T23:03:54+00:00,SAT-62178,238.94853234123613,35.40010456654935,2457.9956226611293,-1.6162390726943259,56607.52901025423,10.5,10500056607.52901,47.655,-122.3035,60.0,3.9
2026-01-20T23:03:55+00:00,SAT-62178,239.11289208237605,35.49782547872837,2456.3836935592954,-1.5989396193414473,56001.62897722129,10.5,10500056001.628977,47.655,-122.3035,60.0,3.9166666666666665
2026-01-20T23:03:56+00:00,SAT-62178,239.27797424303645,35.595297057922515,2454.789017778939,-1.5816050063087341,55394.49750347525,10.5,10500055394.497503,47.655,-122.3035,60.0,3.933333333333333
2026-01-20T23:03:57+00:00,SAT-62178,239.44377964908134,35.692515223294905,2453.2116303859807,-1.564235544144384,54786.1454657276,10.5,10500054786.145466,47.655,-122.3035,60.0,3.95
2026-01-20T23:03:58+00:00,SAT-62178,239.61030907786156,35.78947587908225,2451.6515661366207,-1.5468315287029444,54176.583226056064,10.5,10500054176.583225,47.655,-122.3035,60.0,3.966666666666667
2026-01-20T23:03:59+00:00,SAT-62178,239.7775632555867,35.88617491397387,2450.1088594919943,-1.52939325946257,53565.821273452406,10.5,10500053565.821274,47.655,-122.3035,60.0,3.9833333333333334
2026-01-20T23:04:00+00:00,SAT-62178,239.94554285636093,35.98260820151107,2448.5835446145566,-1.511921041051207,52953.87027727586,10.5,10500052953.870277,47.655,-122.3035,60.0,4.0
2026-01-20T23:04:01+00:00,SAT-62178,240.11424850138542,36.07877160058264,2447.0756553629485,-1.4944151894976943,52340.741306193195,10.5,10500052340.741306,47.655,-122.3035,60.0,4.016666666666667
2026-01-20T23:04:02+00:00,SAT-62178,240.28368075887943,36.174660956329106,2445.5852252806226,-1.4768760146133109,51726.44521110589,10.5,10500051726.445211,47.655,-122.3035,60.0,4.033333333333333
2026-01-20T23:04:03+00:00,SAT-62178,240.45384014211834,36.27027209999315,2444.1122876020486,-1.4593038264344778,51110.99285080085,10.5,10500051110.992851,47.655,-122.3035,60.0,4.05
2026-01-20T23:04:04+00:00,SAT-62178,240.62472710815152,36.365600849181305,2442.6568752524845,-1.4416989514929037,50494.39566179977,10.5,10500050494.395662,47.655,-122.3035,60.0,4.066666666666666
2026-01-20T23:04:05+00:00,SAT-62178,240.79634205819718,36.460643009059744,2441.2190208315287,-1.4240617064064558,49876.66473339962,10.5,10500049876.664734,47.655,-122.3035,60.0,4.083333333333333
2026-01-20T23:04:06+00:00,SAT-62178,240.96868533531722,36.55539437205125,2439.798756623006,-1.4063924212913168,49257.81162766552,10.5,10500049257.811628,47.655,-122.3035,60.0,4.1
2026-01-20T23:04:07+00:00,SAT-62178,241.14175722451523,36.64985071888079,2438.3961145815047,-1.3886914274991524,48637.847949934425,10.5,10500048637.84795,47.655,-122.3035,60.0,4.116666666666666
2026-01-20T23:04:08+00:00,SAT-62178,241.31555795160656,36.744007818951815,2437.011126331146,-1.3709590470659605,48016.78497926918,10.5,10500048016.784979,47.655,-122.3035,60.0,4.133333333333334
2026-01-20T23:04:09+00:00,SAT-62178,241.49008768075242,36.83786143002123,2435.643823174872,-1.353195625731616,47394.63482494269,10.5,10500047394.634825,47.655,-122.3035,60.0,4.15
2026-01-20T23:04:10+00:00,SAT-62178,241.66534651588603,36.93140729997786,2434.294236070809,-1.3354014972084656,46771.409174972934,10.5,10500046771.409176,47.655,-122.3035,60.0,4.166666666666667
2026-01-20T23:04:11+00:00,SAT-62178,241.84133449794467,37.02464116637236,2432.9623956442597,-1.3175770019798678,46147.119954527385,10.5,10500046147.119955,47.655,-122.3035,60.0,4.183333333333334
2026-01-20T23:04:12+00:00,SAT-62178,242.01805160432394,37.11755875716063,2431.648332180952,-1.2997224915534844,45521.77947489121,10.5,10500045521.779474,47.655,-122.3035,60.0,4.2
2026-01-20T23:04:13+00:00,SAT-62178,242.19549774885036,37.21015579170521,2430.3520756160424,-1.2818383112712546,44895.39983139993,10.5,10500044895.399832,47.655,-122.3035,60.0,4.216666666666667
2026-01-20T23:04:14+00:00,SAT-62178,242.37367277971393,37.30242798072792,2429.0736555402677,-1.2639248089765756,44267.9932070007,10.5,10500044267.993208,47.655,-122.3035,60.0,4.233333333333333
2026-01-20T23:04:15+00:00,SAT-62178,242.55257647836112,37.39437102677332,2427.8131011974488,-1.245982340023825,43639.572047706955,10.5,10500043639.572048,47.655,-122.3035,60.0,4.25
2026-01-20T23:04:16+00:00,SAT-62178,242.7322085591093,37.485980625059504,2426.570441476998,-1.228011264787574,43010.14897536057,10.5,10500043010.148975,47.655,-122.3035,60.0,4.266666666666667
2026-01-20T23:04:17+00:00,SAT-62178,242.91256866836852,37.57725246412228,2425.3457049089166,-1.210011942923264,42379.73658661644,10.5,10500042379.736588,47.655,-122.3035,60.0,4.283333333333333
2026-01-20T23:04:18+00:00,SAT-62178,243.09365638333307,37.66818222619043,2424.1389196645077,-1.1919847373435164,41748.347592209684,10.5,10500041748.347591,47.655,-122.3035,60.0,4.3
2026-01-20T23:04:19+00:00,SAT-62178,243.27547121088537,37.758765587700964,2422.9501135531304,-1.173930011749202,41115.994730483246,10.5,10500041115.99473,47.655,-122.3035,60.0,4.316666666666666
2026-01-20T23:04:20+00:00,SAT-62178,243.45801258645287,37.848998219777556,2421.7793140214126,-1.1558481380682522,40482.69102792656,10.5,10500040482.691029,47.655,-122.3035,60.0,4.333333333333333
2026-01-20T23:04:21+00:00,SAT-62178,243.64127987369653,37.9388757891429,2420.626548145046,-1.1377394917475128,39848.44963427627,10.5,10500039848.449635,47.655,-122.3035,60.0,4.35
2026-01-20T23:04:22+00:00,SAT-62178,243.825272363705,38.02839395877972,2419.4918426252766,-1.1196044425122915,39213.28349887662,10.5,10500039213.283499,47.655,-122.3035,60.0,4.366666666666666
2026-01-20T23:04:23+00:00,SAT-62178,244.00998927279204,38.11754838791801,2418.3752237946105,-1.1014433694833545,38577.20590014049,10.5,10500038577.2059,47.655,-122.3035,60.0,4.383333333333334
2026-01-20T23:04:24+00:00,SAT-62178,244.19542974248083,38.20633473310882,2417.276717607446,-1.083256656919062,37940.2302964211,10.5,10500037940.230297,47.655,-122.3035,60.0,4.4
2026-01-20T23:04:25+00:00,SAT-62178,244.3815928389164,38.29474864900197,2416.1963496349454,-1.0650446848194002,37302.36999692534,10.5,10500037302.369997,47.655,-122.3035,60.0,4.416666666666667
2026-01-20T23:04:26+00:00,SAT-62178,244.56847755094248,38.38278578849945,2415.1341450692858,-1.046807841042958,36663.63858610165,10.5,10500036663.638586,47.655,-122.3035,60.0,4.433333333333334
2026-01-20T23:04:27+00:00,SAT-62178,244.75608278984012,38.470441803715396,2414.0901287158185,-1.0285465154522349,36024.04971858387,10.5,10500036024.049719,47.655,-122.3035,60.0,4.45
2026-01-20T23:04:28+00:00,SAT-62178,244.94440738840012,38.55771234660657,2413.0643249910745,-1.0102610960059393,35383.616982327025,10.5,10500035383.616982,47.655,-122.3035,60.0,4.466666666666667
2026-01-20T23:04:29+00:00,SAT-62178,245.13345009920755,38.64459306925504,2412.0567579246576,-0.9919519841478821,34742.35443759149,10.5,10500034742.354437,47.655,-122.3035,60.0,4.483333333333333
2026-01-20T23:04:30+00:00,SAT-62178,245.32320959552646,38.73107962535535,2411.0674511458014,-0.9736195719955342,34100.27581798976,10.5,10500034100.275818,47.655,-122.3035,60.0,4.5
2026-01-20T23:04:31+00:00,SAT-62178,245.51368446846385,38.817167669979035,2410.096427892664,-0.9552642588932512,33457.39511025036,10.5,10500033457.395111,47.655,-122.3035,60.0,4.516666666666667
2026-01-20T23:04:32+00:00,SAT-62178,245.7048732268741,38.90285286062067,2409.143711005128,-0.9368864466990432,32813.72638914069,10.5,10500032813.726389,47.655,-122.3035,60.0,4.533333333333333
2026-01-20T23:04:33+00:00,SAT-62178,245.89677429635856,38.988130857825155,2408.2093229222864,-0.9184865444063268,32169.283979340238,10.5,10500032169.28398,47.655,-122.3035,60.0,4.55
2026-01-20T23:04:34+00:00,SAT-62178,246.08938601936939,39.07299732630496,2407.293285675332,-0.900064956514839,31524.082048140812,10.5,10500031524.082048,47.655,-122.3035,60.0,4.566666666666666
2026-01-20T23:04:35+00:00,SAT-62178,246.28270665306425,39.15744793505571,2406.395620892035,-0.881622090976145,30878.13488373187,10.5,10500030878.134884,47.655,-122.3035,60.0,4.583333333333333
2026-01-20T23:04:36+00:00,SAT-62178,246.47673436861083,39.241478358138075,2405.516349793301,-0.8631583641289613,30231.457068056374,10.5,10500030231.457067,47.655,-122.3035,60.0,4.6
2026-01-20T23:04:37+00:00,SAT-62178,246.6714672515509,39.325084275898604,2404.65549318481,-0.8446741848726838,29584.062922500805,10.5,10500029584.062923,47.655,-122.3035,60.0,4.616666666666666
2026-01-20T23:04:38+00:00,SAT-62178,246.86690329912835,39.408261374885925,2403.81307146443,-0.8261699738455676,28935.96717959616,10.5,10500028935.96718,47.655,-122.3035,60.0,4.633333333333334
2026-01-20T23:04:39+00:00,SAT-62178,247.06304042120587,39.49100534931786,2402.989104610515,-0.8076461477563136,28287.184434243813,10.5,10500028287.184435,47.655,-122.3035,60.0,4.65
2026-01-20T23:04:40+00:00,SAT-62178,247.2598764384344,39.5733119013613,2402.183612185819,-0.7891031314273503,27637.729565522222,10.5,10500027637.729565,47.655,-122.3035,60.0,4.666666666666667
2026-01-20T23:04:41+00:00,SAT-62178,247.45740908255544,39.65517674231921,2401.3966133294093,-0.7705413447620482,26987.617280223592,10.5,10500026987.617281,47.655,-122.3035,60.0,4.683333333333334
2026-01-20T23:04:42+00:00,SAT-62178,247.655635994254,39.73659559279524,2400.6281267615664,-0.7519612125914756,26336.86245772899,10.5,10500026336.862457,47.655,-122.3035,60.0,4.7
2026-01-20T23:04:43+00:00,SAT-62178,247.8545547229599,39.81756418366615,2399.8781707788753,-0.7333631638831021,25685.48012229371,10.5,10500025685.480122,47.655,-122.3035,60.0,4.716666666666667
2026-01-20T23:04:44+00:00,SAT-62178,248.05416272663413,39.89807825704813,2399.146763250096,-0.7147476316040868,25033.48543825913,10.5,10500025033.485437,47.655,-122.3035,60.0,4.733333333333333
2026-01-20T23:04:45+00:00,SAT-62178,248.25445737145282,39.97813356720715,2398.433921612176,-0.6961150403303721,24380.893276070696,10.5,10500024380.893276,47.655,-122.3035,60.0,4.75
2026-01-20T23:04:46+00:00,SAT-62178,248.45543592885025,40.05772588040815,2397.73966287862,-0.6774658286037796,23727.718995318035,10.5,10500023727.718996,47.655,-122.3035,60.0,4.766666666666667
2026-01-20T23:04:47+00:00,SAT-62178,248.65709557749753,40.136850976753614,2397.0640036255586,-0.6588004326511899,23073.977874511755,10.5,10500023073.977875,47.655,-122.3035,60.0,4.783333333333333
2026-01-20T23:04:48+00:00,SAT-62178,248.85943340194495,40.215504650657834,2396.4069599940613,-0.6401192877043894,22419.685157310025,10.5,10500022419.685158,47.655,-122.3035,60.0,4.8
2026-01-20T23:04:49+00:00,SAT-62178,249.0624463910084,40.293682711247364,2395.7685476911247,-0.6214228312974001,21764.85616800507,10.5,10500021764.856169,47.655,-122.3035,60.0,4.816666666666666
2026-01-20T23:04:50+00:00,SAT-62178,249.26613143747392,40.37138098326986,2395.148781987377,-0.602711509204519,21109.506519498398,10.5,10500021109.50652,47.655,-122.3035,60.0,4.833333333333333
2026-01-20T23:04:51+00:00,SAT-62178,249.4704853391632,40.44859530850796,2394.547677708864,-0.5839857596168961,20453.651559097627,10.5,10500020453.65156,47.655,-122.3035,60.0,4.85
2026-01-20T23:04:52+00:00,SAT-62178,249.6755047958909,40.52532154562819,2393.9652492446057,-0.5652460304464011,19797.306974571093,10.5,10500019797.306974,47.655,-122.3035,60.0,4.866666666666666
2026-01-20T23:04:53+00:00,SAT-62178,249.88118641126414,40.60155557185133,2393.401510536907,-0.5464927633812443,19140.488235708268,10.5,10500019140.488235,47.655,-122.3035,60.0,4.883333333333334
2026-01-20T23:04:54+00:00,SAT-62178,250.0875266897015,40.67729328284095,2392.8564750875616,-0.527726412185954,18483.211235262348,10.5,10500018483.211235,47.655,-122.3035,60.0,4.9
2026-01-20T23:04:55+00:00,SAT-62178,250.29452203934227,40.75253059475205,2392.330155945808,-0.508947420391037,17825.491507547827,10.5,10500017825.491508,47.655,-122.3035,60.0,4.916666666666667
2026-01-20T23:04:56+00:00,SAT-62178,250.50216876787422,40.82726344367128,2391.822565718538,-0.49015624135444597,17167.344931077896,10.5,10500017167.34493,47.655,-122.3035,60.0,4.933333333333334
2026-01-20T23:04:57+00:00,SAT-62178,250.71046308477804,40.90148778740995,2391.333716560494,-0.471353327246424,16508.787342767147,10.5,10500016508.787342,47.655,-122.3035,60.0,4.95
2026-01-20T23:04:58+00:00,SAT-62178,250.91940110007832,40.97519960599935,2390.863620175454,-0.45253912985350797,15849.834566091165,10.5,10500015849.834566,47.655,-122.3035,60.0,4.966666666666667
2026-01-20T23:04:59+00:00,SAT-62178,251.12897882341747,41.0483949023136,2390.412287816613,-0.4337141060800081,15190.50260377159,10.5,10500015190.502604,47.655,-122.3035,60.0,4.983333333333333
2026-01-20T23:05:00+00:00,SAT-62178,251.33919216501283,41.121069703343906,2389.9797302814823,-0.4148787104731112,14530.80737597364,10.5,10500014530.807377,47.655,-122.3035,60.0,5.0
2026-01-20T23:05:01+00:00,SAT-62178,251.5500369340814,41.193220060573736,2389.5659579142375,-0.3960334008697107,13870.76491808197,10.5,10500013870.764917,47.655,-122.3035,60.0,5.016666666666667
2026-01-20T23:05:02+00:00,SAT-62178,251.7615088393099,41.26484205105945,2389.170980602437,-0.37717863519360556,13210.391268525036,10.5,10500013210.391268,47.655,-122.3035,60.0,5.033333333333333
2026-01-20T23:05:03+00:00,SAT-62178,251.97360348823275,41.33593177812796,2388.794807776937,-0.35831487491800157,12549.702590046534,10.5,10500012549.70259,47.655,-122.3035,60.0,5.05
2026-01-20T23:05:04+00:00,SAT-62178,252.1863163879812,41.406485372517835,2388.4374484083523,-0.3394425779138429,11888.714919223721,10.5,10500011888.71492,47.655,-122.3035,60.0,5.066666666666666
2026-01-20T23:05:05+00:00,SAT-62178,252.39964294323477,41.476498992581895,2388.0989110106457,-0.3205622081852699,11227.444507444327,10.5,10500011227.444508,47.655,-122.3035,60.0,5.083333333333333
2026-01-20T23:05:06+00:00,SAT-62178,252.61357845814865,41.54596882580049,2387.779203635016,-0.3016742272923939,10565.907520495848,10.5,10500010565.90752,47.655,-122.3035,60.0,5.1
2026-01-20T23:05:07+00:00,SAT-62178,252.82811813492413,41.61489108916992,2387.4783338723296,-0.2827790987438409,9904.12019241101,10.5,10500009904.120192,47.655,-122.3035,60.0,5.116666666666666
2026-01-20T23:05:08+00:00,SAT-62178,253.043257073955,41.68326203010281,2387.1963088511825,-0.263877286723661,9242.09878087874,10.5,10500009242.098782,47.655,-122.3035,60.0,5.133333333333334
2026-01-20T23:05:09+00:00,SAT-62178,253.2589902739487,41.751077927304074,2386.9331352372233,-0.24496925701425554,8579.85959956899,10.5,10500008579.8596,47.655,-122.3035,60.0,5.15
2026-01-20T23:05:10+00:00,SAT-62178,253.47531263213543,41.818335091662696,2386.688819231561,-0.2260554762675897,7917.418992607519,10.5,10500007917.418993,47.655,-122.3035,60.0,5.166666666666667
2026-01-20T23:05:11+00:00,SAT-62178,253.69221894467194,41.88502986718058,2386.4633665698966,-0.20713640974768058,7254.793255508269,10.5,10500007254.793255,47.655,-122.3035,60.0,5.183333333333334
2026-01-20T23:05:12+00:00,SAT-62178,253.9097039052292,41.951158631335495,2386.2567825239084,-0.18821252540956898,6591.998778036218,10.5,10500006591.998777,47.655,-122.3035,60.0,5.2
2026-01-20T23:05:13+00:00,SAT-62178,254.12776210658063,42.016717796356964,2386.0690718985666,-0.16928429027012198,5929.05191709753,10.5,10500005929.051918,47.655,-122.3035,60.0,5.216666666666667
2026-01-20T23:05:14+00:00,SAT-62178,254.34638803927925,42.081703809599084,2385.9002390330706,-0.15035217475534485,5265.969149000809,10.5,10500005265.969149,47.655,-122.3035,60.0,5.233333333333333
2026-01-20T23:05:15+00:00,SAT-62178,254.56557609463988,42.14611315518314,2385.7502877974484,-0.131416645728114,4602.766825258817,10.5,10500004602.766825,47.655,-122.3035,60.0,5.25
2026-01-20T23:05:16+00:00,SAT-62178,254.78532056140511,42.209942353747444,2385.619221596108,-0.11247817296238888,3939.461399342752,10.5,10500003939.4614,47.655,-122.3035,60.0,5.266666666666667
2026-01-20T23:05:17+00:00,SAT-62178,255.00561562806928,42.273187963870946,2385.5070433649407,-0.09353722663158945,3276.0693387146157,10.5,10500003276.069338,47.655,-122.3035,60.0,5.283333333333333
2026-01-20T23:05:18+00:00,SAT-62178,255.226455383203,42.33584658287428,2385.4137555709135,-0.07459427670686433,2612.6071037520082,10.5,10500002612.607103,47.655,-122.3035,60.0,5.3
2026-01-20T23:05:19+00:00,SAT-62178,255.44783381578648,42.39791484760464,2385.339360212278,-0.055649792631829974,1949.091136356121,10.5,10500001949.091137,47.655,-122.3035,60.0,5.316666666666666
2026-01-20T23:05:20+00:00,SAT-62178,255.6697448138936,42.45938943475653,2385.283858819093,-0.0367042449209219,1285.5379159327617,10.5,10500001285.537916,47.655,-122.3035,60.0,5.333333333333333
2026-01-20T23:05:21+00:00,SAT-62178,255.89218216698742,42.52026706218491,2385.2472524521586,-0.01775810505063566,621.9639555831469,10.5,10500000621.963955,47.655,-122.3035,60.0,5.35
2026-01-20T23:05:22+00:00,SAT-62178,256.115139566642,42.58054448975111,2385.229541702055,0.001188157123754277,-41.61428837352509,10.5,10499999958.385712,47.655,-122.3035,60.0,5.366666666666666
2026-01-20T23:05:23+00:00,SAT-62178,256.33861060584434,42.64021851976016,2385.2307266907596,0.02013407116557001,-705.1803392548492,10.5,10499999294.81966,47.655,-122.3035,60.0,5.383333333333334
2026-01-20T23:05:24+00:00,SAT-62178,256.56258877880384,42.69928599754339,2385.2508070710687,0.039079165738584665,-1368.7176888724098,10.5,10499998631.28231,47.655,-122.3035,60.0,5.4
2026-01-20T23:05:25+00:00,SAT-62178,256.7870674846169,42.75774381303774,2385.2897820256985,0.05802297086555102,-2032.2098766350075,10.5,10499997967.790123,47.655,-122.3035,60.0,5.416666666666667
2026-01-20T23:05:26+00:00,SAT-62178,257.01204002481893,42.8155889007149,2385.3476502686417,0.07696501605642807,-2695.640423991236,10.5,10499997304.359575,47.655,-122.3035,60.0,5.433333333333334
2026-01-20T23:05:27+00:00,SAT-62178,257.2374996050155,42.872818240594405,2385.4244100446554,0.09590483097262438,-3358.992857694092,10.5,10499996641.007143,47.655,-122.3035,60.0,5.45
2026-01-20T23:05:28+00:00,SAT-62178,257.46343933638616,42.929428859179,2385.5200591294124,0.11484194584678745,-4022.2507245037777,10.5,10499995977.749275,47.655,-122.3035,60.0,5.466666666666667
2026-01-20T23:05:29+00:00,SAT-62178,257.6898522358556,42.98541783003014,2385.63459483007,0.1337758909969458,-4685.397574170898,10.5,10499995314.602427,47.655,-122.3035,60.0,5.483333333333333
2026-01-20T23:05:30+00:00,SAT-62178,257.91673122691213,43.040782274494745,2385.768013985358,0.15270619708468441,-5348.416968478861,10.5,10499994651.58303,47.655,-122.3035,60.0,5.5
2026-01-20T23:05:31+00:00,SAT-62178,258.1440691392434,43.0955193621275,2385.9203129659163,0.17163239542617537,-6011.292492137482,10.5,10499993988.707508,47.655,-122.3035,60.0,5.516666666666667
2026-01-20T23:05:32+00:00,SAT-62178,258.37185871260925,43.14962631211834,2386.091487674955,0.19055401739451136,-6674.007731850177,10.5,10499993325.992268,47.655,-122.3035,60.0,5.533333333333333
2026-01-20T23:05:33+00:00,SAT-62178,258.60009259479546,43.20310039326507,2386.281533548303,0.20947059544021107,-7336.546312056377,10.5,10499992663.453688,47.655,-122.3035,60.0,5.55
2026-01-20T23:05:34+00:00,SAT-62178,258.8287633445774,43.25593892512972,2386.4904455554893,0.2283816624056305,-7998.891870919315,10.5,10499992001.10813,47.655,-122.3035,60.0,5.566666666666666
2026-01-20T23:05:35+00:00,SAT-62178,259.05786343152795,43.30813927842354,2386.718218200128,0.24728675122409707,-8661.028049788427,10.5,10499991338.97195,47.655,-122.3035,60.0,5.583333333333333
2026-01-20T23:05:36+00:00,SAT-62178,259.28738523730397,43.35969887573162,2386.964845520016,0.26618539637087685,-9322.938544018365,10.5,10499990677.061457,47.655,-122.3035,60.0,5.6
2026-01-20T23:05:37+00:00,SAT-62178,259.5173210571103,43.41061519223741,2387.230321088663,0.285077132570772,-9984.607057703586,10.5,10499990015.392942,47.655,-122.3035,60.0,5.616666666666666
2026-01-20T23:05:38+00:00,SAT-62178,259.74766310067145,43.46088575632532,2387.514638015547,0.30396149563465025,-10646.01733297716,10.5,10499989353.982668,47.655,-122.3035,60.0,5.633333333333334
2026-01-20T23:05:39+00:00,SAT-62178,259.97840349359797,43.510508150245954,2387.817788947193,0.3228380214440217,-11307.153114446355,10.5,10499988692.846886,47.655,-122.3035,60.0,5.65
2026-01-20T23:05:40+00:00,SAT-62178,260.2095342778383,43.559480010559874,2388.1397660672465,0.3417062484306437,-11967.998236038875,10.5,10499988032.001764,47.655,-122.3035,60.0,5.666666666666667
2026-01-20T23:05:41+00:00,SAT-62178,260.4410474143031,43.60779902902948,2388.4805610990147,0.36056571429748596,-12628.536506157212,10.5,10499987371.463493,47.655,-122.3035,60.0,5.683333333333334
2026-01-20T23:05:42+00:00,SAT-62178,260.6729347830313,43.65546295296232,2388.840165304741,0.37941595782748544,-13288.751771028867,10.5,10499986711.248228,47.655,-122.3035,60.0,5.7
2026-01-20T23:05:43+00:00,SAT-62178,260.9051881840712,43.702469585691546,2389.2185694866803,0.39825652150443547,-13948.628006500992,10.5,10499986051.371994,47.655,-122.3035,60.0,5.716666666666667
2026-01-20T23:05:44+00:00,SAT-62178,261.1377993417541,43.74881678772704,2389.615763990794,0.41708694519530565,-14608.149096768504,10.5,10499985391.850903,47.655,-122.3035,60.0,5.733333333333333
2026-01-20T23:05:45+00:00,SAT-62178,261.3707599022364,43.794502476501165,2390.0317387041355,0.43590677140167694,-15267.29901830155,10.5,10499984732.700981,47.655,-122.3035,60.0,5.75
2026-01-20T23:05:46+00:00,SAT-62178,261.60406143703887,43.83952462733438,2390.46648305748,0.45471554611253456,-15926.061869713925,10.5,10499984073.93813,47.655,-122.3035,60.0,5.766666666666667
2026-01-20T23:05:47+00:00,SAT-62178,261.8376954455187,43.88388127412488,2390.9199860288036,0.4735128129383949,-16584.42166631539,10.5,10499983415.578333,47.655,-122.3035,60.0,5.783333333333333
2026-01-20T23:05:48+00:00,SAT-62178,262.0716533540205,43.927570509383244,2391.3922361409072,0.49229811936190077,-17242.36255903395,10.5,10499982757.637442,47.655,-122.3035,60.0,5.8
2026-01-20T23:05:49+00:00,SAT-62178,262.3059265192647,43.970590485071504,2391.883221465284,0.5110710123239328,-17899.86867982281,10.5,10499982100.13132,47.655,-122.3035,60.0,5.816666666666666
2026-01-20T23:05:50+00:00,SAT-62178,262.5405062287713,44.01293941284298,2392.3929296215756,0.5298310424530146,-18556.92428979202,10.5,10499981443.07571,47.655,-122.3035,60.0,5.833333333333333
2026-01-20T23:05:51+00:00,SAT-62178,262.7753837037072,44.0546155647164,2392.921347781248,0.5485777597093601,-19213.513626644606,10.5,10499980786.486374,47.655,-122.3035,60.0,5.85
2026-01-20T23:05:52+00:00,SAT-62178,263.0105500996033,44.095617273335016,2393.468462666932,0.5673107184091354,-19869.62108064747,10.5,10499980130.37892,47.655,-122.3035,60.0,5.866666666666666
2026-01-20T23:05:53+00:00,SAT-62178,263.24599650926683,44.13594293259026,2394.0342605567585,0.5860294709489601,-20525.230974836868,10.5,10499979474.769026,47.655,-122.3035,60.0,5.883333333333334
2026-01-20T23:05:54+00:00,SAT-62178,263.481713962939,44.175590997746866,2394.6187272824513,0.6047335726533085,-21180.327734794915,10.5,10499978819.672266,47.655,-122.3035,60.0,5.9
2026-01-20T23:05:55+00:00,SAT-62178,263.7176934306858,44.21455998593619,2395.2218482322446,0.6234225825236246,-21834.89591488675,10.5,10499978165.104086,47.655,-122.3035,60.0,5.916666666666667
2026-01-20T23:05:56+00:00,SAT-62178,263.9539258252711,44.25284847669714,2395.843608354548,0.6420960579919693,-22488.920014511103,10.5,10499977511.079985,47.655,-122.3035,60.0,5.933333333333334
2026-01-20T23:05:57+00:00,SAT-62178,264.1904020023539,44.290455112049905,2396.4839921563853,0.6607535615715856,-23142.38471103115,10.5,10499976857.61529,47.655,-122.3035,60.0,5.95
2026-01-20T23:05:58+00:00,SAT-62178,264.42711276406214,44.32737859710413,2397.1429837084593,0.6793946544787388,-23795.274636384474,10.5,10499976204.725363,47.655,-122.3035,60.0,5.966666666666667
2026-01-20T23:05:59+00:00,SAT-62178,264.6640488592129,44.36361770009514,2397.82056664386,0.6980189034992755,-24447.574617578917,10.5,10499975552.425383,47.655,-122.3035,60.0,5.983333333333333
2026-01-20T23:06:00+00:00,SAT-62178,264.90120098717875,44.399171252985376,2398.516724163616,0.7166258711921778,-25099.269333579658,10.5,10499974900.730667,47.655,-122.3035,60.0,6.0
2026-01-20T23:06:01+00:00,SAT-62178,265.1385597971429,44.43403815132224,2399.2314390324855,0.7352151317439881,-25750.343870598223,10.5,10499974249.65613,47.655,-122.3035,60.0,6.016666666666667
2026-01-20T23:06:02+00:00,SAT-62178,265.37611589405765,44.4682173550917,2399.964693590545,0.7537862504839947,-26400.78300462764,10.5,10499973599.216995,47.655,-122.3035,60.0,6.033333333333333
2026-01-20T23:06:03+00:00,SAT-62178,265.6138598363156,44.501707888306434,2400.7164697443604,0.7723388029704255,-27050.57186992165,10.5,10499972949.42813,47.655,-122.3035,60.0,6.05
2026-01-20T23:06:04+00:00,SAT-62178,265.85178214115194,44.534508839723124,2401.48674897719,0.7908723619312318,-27699.69550160576,10.5,10499972300.304499,47.655,-122.3035,60.0,6.066666666666666
2026-01-20T23:06:05+00:00,SAT-62178,266.0898732846027,44.56661936273184,2402.275512346156,0.8093865068348841,-28348.13917088696,10.5,10499971651.860828,47.655,-122.3035,60.0,6.083333333333333
2026-01-20T23:06:06+00:00,SAT-62178,266.328123705539,44.59803867581164,2403.0827404889724,0.8278808127059796,-28995.88799332899,10.5,10499971004.112007,47.655,-122.3035,60.0,6.1
2026-01-20T23:06:07+00:00,SAT-62178,266.56652380524815,44.62876606234232,2403.9084136195115,0.846354866100621,-29642.927488377714,10.5,10499970357.072512,47.655,-122.3035,60.0,6.116666666666666
2026-01-20T23:06:08+00:00,SAT-62178,266.80506395295464,44.65880087120022,2404.7525115393023,0.8648082437388271,-30289.242830977706,10.5,10499969710.75717,47.655,-122.3035,60.0,6.133333333333334
2026-01-20T23:06:09+00:00,SAT-62178,267.04373448378885,44.6881425163306,2405.6150136277247,0.8832405371104983,-30934.81971337729,10.5,10499969065.180286,47.655,-122.3035,60.0,6.15
2026-01-20T23:06:10+00:00,SAT-62178,267.2825257051599,44.716790477391385,2406.4958988567364,0.9016513352655724,-31579.64374236696,10.5,10499968420.356258,47.655,-122.3035,60.0,6.166666666666667
2026-01-20T23:06:11+00:00,SAT-62178,267.52142789728396,44.74474429961208,2407.395145788441,0.9200402211385785,-32223.700310549753,10.5,10499967776.29969,47.655,-122.3035,60.0,6.183333333333334
2026-01-20T23:06:12+00:00,SAT-62178,267.7604313129149,44.77200359356841,2408.3127325689898,0.9384067946843264,-32866.97540665092,10.5,10499967133.024593,47.655,-122.3035,60.0,6.2
2026-01-20T23:06:13+00:00,SAT-62178,267.99952618393047,44.798568035743756,2409.248636945555,0.9567506507403604,-33509.454840167404,10.5,10499966490.54516,47.655,-122.3035,60.0,6.216666666666667
2026-01-20T23:06:14+00:00,SAT-62178,268.238702721314,44.82443736827795,2410.202836261227,0.9750713836664984,-34151.124403864196,10.5,10499965848.875597,47.655,-122.3035,60.0,6.233333333333333
2026-01-20T23:06:15+00:00,SAT-62178,268.47795111655495,44.849611398880484,2411.175307454537,0.9933685969135934,-34791.97020891276,10.5,10499965208.02979,47.655,-122.3035,60.0,6.25
2026-01-20T23:06:16+00:00,SAT-62178,268.7172615458161,44.87409000102524,2412.166027068525,1.0116418936087626,-35431.97835514597,10.5,10499964568.021645,47.655,-122.3035,60.0,6.266666666666667
2026-01-20T23:06:17+00:00,SAT-62178,268.95662417136424,44.89787311381712,2413.1749712504175,1.0298908788068009,-36071.13500991212,10.5,10499963928.86499,47.655,-122.3035,60.0,6.283333333333333
2026-01-20T23:06:18+00:00,SAT-62178,269.1960291436612,44.92096074191352,2414.202115753548,1.048115158464593,-36709.42637215452,10.5,10499963290.573627,47.655,-122.3035,60.0,6.3
2026-01-20T23:06:19+00:00,SAT-62178,269.4354666032202,44.9433529554106,2415.2474359382563,1.066314349288888,-37346.83901732219,10.5,10499962653.160982,47.655,-122.3035,60.0,6.316666666666666
2026-01-20T23:06:20+00:00,SAT-62178,269.6749266850222,44.96504988994914,2416.3109067826135,1.084488058659078,-37983.35919418066,10.5,10499962016.640806,47.655,-122.3035,60.0,6.333333333333333
2026-01-20T23:06:21+00:00,SAT-62178,269.914399517651,44.98605174629253,2417.3925028731164,1.102635909748501,-38618.97370466625,10.5,10499961381.026295,47.655,-122.3035,60.0,6.35
2026-01-20T23:06:22+00:00,SAT-62178,270.1538752289806,45.00635879050843,2418.492198420439,1.1207575178779905,-39253.66907568736,10.5,10499960746.330925,47.655,-122.3035,60.0,6.366666666666666
2026-01-20T23:06:23+00:00,SAT-62178,270.3933439457297,45.02597135355556,2419.6099672516025,1.138852504087378,-39887.43203445588,10.5,10499960112.567966,47.655,-122.3035,60.0,6.383333333333334
2026-01-20T23:06:24+00:00,SAT-62178,270.63279579665186,45.04488983119722,2420.745782815679,1.1569204954236523,-40520.24951857978,10.5,10499959479.75048,47.655,-122.3035,60.0,6.4
2026-01-20T23:06:25+00:00,SAT-62178,270.87222091540553,45.06311468384525,2421.8996181897814,1.1749611233878396,-41152.108621666244,10.5,10499958847.891378,47.655,-122.3035,60.0,6.416666666666667
2026-01-20T23:06:26+00:00,SAT-62178,271.1116094433414,45.08064643638124,2423.071446083507,1.192974009746526,-41782.9960963812,10.5,10499958217.003904,47.655,-122.3035,60.0,6.433333333333334
2026-01-20T23:06:27+00:00,SAT-62178,271.350951528821,45.09748567769067,2424.2612388292278,1.2109587974870129,-42412.899438629756,10.5,10499957587.100561,47.655,-122.3035,60.0,6.45
2026-01-20T23:06:28+00:00,SAT-62178,271.59023733374033,45.11363306073422,2425.4689684032546,1.2289151209121425,-43041.805840150584,10.5,10499956958.19416,47.655,-122.3035,60.0,6.466666666666667
2026-01-20T23:06:29+00:00,SAT-62178,271.82945703304915,45.129089302056535,2426.6946064171775,1.2468426166696835,-43669.702574811534,10.5,10499956330.297424,47.655,-122.3035,60.0,6.483333333333333
2026-01-20T23:06:30+00:00,SAT-62178,272.0686008170886,45.14385518151384,2427.9381241202027,1.264740927651901,-44296.577135189174,10.5,10499955703.422865,47.655,-122.3035,60.0,6.5
2026-01-20T23:06:31+00:00,SAT-62178,272.3076588944397,45.15793154200089,2429.199492405381,1.2826097047473886,-44922.41729392532,10.5,10499955077.582706,47.655,-122.3035,60.0,6.516666666666667
2026-01-20T23:06:32+00:00,SAT-62178,272.5466214952534,45.171319289184716,2430.478681817582,1.3004485940664592,-45547.210656306175,10.5,10499954452.789343,47.655,-122.3035,60.0,6.533333333333333
2026-01-20T23:06:33+00:00,SAT-62178,272.7854788718084,45.1840193910511,2431.7756625487314,1.3182572465561522,-46170.94499702057,10.5,10499953829.055002,47.655,-122.3035,60.0,6.55
2026-01-20T23:06:34+00:00,SAT-62178,273.0242213011986,45.196032877571014,2433.09040444263,1.3360353185882456,-46793.60828075461,10.5,10499953206.39172,47.655,-122.3035,60.0,6.566666666666666
2026-01-20T23:06:35+00:00,SAT-62178,273.2628390879244,45.20736084033663,2434.4228770003688,1.3537824662422904,-47415.188461959406,10.5,10499952584.811539,47.655,-122.3035,60.0,6.583333333333333
2026-01-20T23:06:36+00:00,SAT-62178,273.50132256552604,45.2180044321342,2435.7730493800345,1.3714983566892263,-48035.67388355339,10.5,10499951964.326117,47.655,-122.3035,60.0,6.6
2026-01-20T23:06:37+00:00,SAT-62178,273.73966210017164,45.22796486658728,2437.1408904077725,1.3891826537091503,-48655.05276969335,10.5,10499951344.94723,47.655,-122.3035,60.0,6.616666666666666
2026-01-20T23:06:38+00:00,SAT-62178,273.97784809161857,45.23724341766156,2438.5263685744053,1.406835017494636,-49273.31321888584,10.5,10499950726.68678,47.655,-122.3035,60.0,6.633333333333334
2026-01-20T23:06:39+00:00,SAT-62178,274.21587097409827,45.24584141916535,2439.929452031853,1.4244551270810137,-49890.443989590436,10.5,10499950109.556011,47.655,-122.3035,60.0,6.65
2026-01-20T23:06:40+00:00,SAT-62178,274.45372122136945,45.253760264404825,2441.3501086119286,1.4420426583455355,-50506.43372965748,10.5,10499949493.56627,47.655,-122.3035,60.0,6.666666666666667
2026-01-20T23:06:41+00:00,SAT-62178,274.6913893475567,45.26100140563603,2442.788305823185,1.459597278632952,-51121.270788093,10.5,10499948878.729212,47.655,-122.3035,60.0,6.683333333333334
2026-01-20T23:06:42+00:00,SAT-62178,274.92886590718126,45.26756635350042,2444.2440108424084,1.4771186806822314,-51734.944403315945,10.5,10499948265.055597,47.655,-122.3035,60.0,6.7
2026-01-20T23:06:43+00:00,SAT-62178,275.1661415011562,45.27345667664088,2445.7171905399423,1.4946065431424562,-52347.44332025788,10.5,10499947652.55668,47.655,-122.3035,60.0,6.716666666666667
2026-01-20T23:06:44+00:00,SAT-62178,275.4032067757187,45.27867400106451,2447.2078114656365,1.5120605550695259,-52958.75664834111,10.5,10499947041.243351,47.655,-122.3035,60.0,6.733333333333333
2026-01-20T23:06:45+00:00,SAT-62178,275.6400524256551,45.283220009634505,2448.715839859226,1.5294804074947892,-53568.87356617653,10.5,10499946431.126434,47.655,-122.3035,60.0,6.75
2026-01-20T23:06:46+00:00,SAT-62178,275.8766691961267,45.287096441506314,2450.2412416523007,1.5468657963925418,-54177.783425497946,10.5,10499945822.216574,47.655,-122.3035,60.0,6.766666666666667
2026-01-20T23:06:47+00:00,SAT-62178,276.1130478847758,45.29030509154897,2451.783982473236,1.5642164170575878,-54785.475554240504,10.5,10499945214.524446,47.655,-122.3035,60.0,6.783333333333333
2026-01-20T23:06:48+00:00,SAT-62178,276.34917934307737,45.29284780974898,2453.3440276465144,1.581531973431076,-55391.9395831709,10.5,10499944608.060417,47.655,-122.3035,60.0,6.8
2026-01-20T23:06:49+00:00,SAT-62178,276.58505447902917,45.294726500617244,2454.92134220135,1.5988121650661844,-55997.16498937054,10.5,10499944002.83501,47.655,-122.3035,60.0,6.816666666666666
2026-01-20T23:06:50+00:00,SAT-62178,276.82066425780386,45.295943122558995,2456.5158908673093,1.6160567079671653,-56601.14182610703,10.5,10499943398.858173,47.655,-122.3035,60.0,6.833333333333333
2026-01-20T23:06:51+00:00,SAT-62178,277.0559997056086,45.29649968726224,2458.1276380907216,1.6332653098786836,-57203.85985736232,10.5,10499942796.140142,47.655,-122.3035,60.0,6.85
2026-01-20T23:06:52+00:00,SAT-62178,277.29105190967095,45.296398259037844,2459.7565480264407,1.6504376845688244,-57805.30905808396,10.5,10499942194.690943,47.655,-122.3035,60.0,6.866666666666666
2026-01-20T23:06:53+00:00,SAT-62178,277.5258120203835,45.29564095417033,2461.402584543851,1.6675735532739626,-58405.47966479066,10.5,10499941594.520336,47.655,-122.3035,60.0,6.883333333333334
2026-01-20T23:06:54+00:00,SAT-62178,277.7602712536725,45.294229940253324,2463.065711234316,1.684672632520801,-59004.36174904844,10.5,10499940995.63825,47.655,-122.3035,60.0,6.9
2026-01-20T23:06:55+00:00,SAT-62178,277.99442089146015,45.29216743551392,2464.7458914064837,1.7017346574709349,-59601.94603509611,10.5,10499940398.053965,47.655,-122.3035,60.0,6.916666666666667
2026-01-20T23:06:56+00:00,SAT-62178,278.2282522855735,45.2894557081137,2466.443088104868,1.7187593489023263,-60198.222743396786,10.5,10499939801.777256,47.655,-122.3035,60.0,6.933333333333334
2026-01-20T23:06:57+00:00,SAT-62178,278.46175685670727,45.2860970754617,2468.1572640955064,1.7357464420314586,-60793.18260011169,10.5,10499939206.8174,47.655,-122.3035,60.0,6.95
2026-01-20T23:06:58+00:00,SAT-62178,278.69492609766314,45.28209390349817,2469.8883818803592,1.7526956714852815,-61386.816310754075,10.5,10499938613.18369,47.655,-122.3035,60.0,6.966666666666667
2026-01-20T23:06:59+00:00,SAT-62178,278.9277515742608,45.27744860597902,2471.6364036967207,1.7696067825862292,-61979.114955438294,10.5,10499938020.885044,47.655,-122.3035,60.0,6.983333333333333
2026-01-20T23:07:00+00:00,SAT-62178,279.1602249278902,45.272163643730124,2473.4012915278863,1.7864795067152515,-62570.06912598896,10.5,10499937429.930874,47.655,-122.3035,60.0,7.0
2026-01-20T23:07:01+00:00,SAT-62178,279.3923378745397,45.266241523955586,2475.18300708925,1.8033136051533911,-63159.670461458394,10.5,10499936840.329538,47.655,-122.3035,60.0,7.016666666666667
2026-01-20T23:07:02+00:00,SAT-62178,279.6240822098778,45.25968479941728,2476.981511858123,1.820108819254395,-63747.90990296076,10.5,10499936252.090097,47.655,-122.3035,60.0,7.033333333333333
2026-01-20T23:07:03+00:00,SAT-62178,279.8554498073939,45.25249606774633,2478.7967670538596,1.836864902665845,-64334.77882219229,10.5,10499935665.221178,47.655,-122.3035,60.0,7.05
2026-01-20T23:07:04+00:00,SAT-62178,280.086432620986,45.24467797065975,2480.6287336501186,1.8535816155608658,-64920.26881940135,10.5,10499935079.73118,47.655,-122.3035,60.0,7.066666666666666
2026-01-20T23:07:05+00:00,SAT-62178,280.31702268666726,45.2362331931774,2482.4773723813714,1.870258712579084,-65504.3713010298,10.5,10499934495.628698,47.655,-122.3035,60.0,7.083333333333333
2026-01-20T23:07:06+00:00,SAT-62178,280.54721212262547,45.22716446288426,2484.3426437373837,1.8868959687798899,-66087.07838870598,10.5,10499933912.921612,47.655,-122.3035,60.0,7.1
2026-01-20T23:07:07+00:00,SAT-62178,280.7769931326783,45.21747454907113,2486.2245079835798,1.9034931411951004,-66668.38157265636,10.5,10499933331.618427,47.655,-122.3035,60.0,7.116666666666666
2026-01-20T23:07:08+00:00,SAT-62178,281.0063580046307,45.20716626204582,2488.1229251430655,1.9200500058029673,-67248.2730066917,10.5,10499932751.726994,47.655,-122.3035,60.0,7.133333333333334
2026-01-20T23:07:09+00:00,SAT-62178,281.23529911344855,45.196242452267185,2490.0378550155197,1.936566340803169,-67826.74492242654,10.5,10499932173.255077,47.655,-122.3035,60.0,7.15
2026-01-20T23:07:10+00:00,SAT-62178,281.46380892214063,45.18470600954636,2491.969257179414,1.953041924752664,-68403.78956398887,10.5,10499931596.210436,47.655,-122.3035,60.0,7.166666666666667
2026-01-20T23:07:11+00:00,SAT-62178,281.69187998243393,45.17255986225808,2493.917090992367,1.9694765267296028,-68979.3988435187,10.5,10499931020.601156,47.655,-122.3035,60.0,7.183333333333334
2026-01-20T23:07:12+00:00,SAT-62178,281.9195049341949,45.159806976615876,2495.881315581692,1.985869948488127,-69553.5658176075,10.5,10499930446.434183,47.655,-122.3035,60.0,7.2
2026-01-20T23:07:13+00:00,SAT-62178,282.14667650999877,45.14645035568015,2497.861889876984,2.0022219710139764,-70126.28281544945,10.5,10499929873.717184,47.655,-122.3035,60.0,7.216666666666667
2026-01-20T23:07:14+00:00,SAT-62178,282.3733875330727,45.13249303869003,2499.858772589409,2.0185323903184083,-70697.5426924959,10.5,10499929302.457308,47.655,-122.3035,60.0,7.233333333333333
2026-01-20T23:07:15+00:00,SAT-62178,282.59963091957366,45.11793810017124,2501.8719222266864,2.034800999236307,-71267.33819294823,10.5,10499928732.661806,47.655,-122.3035,60.0,7.25
2026-01-20T23:07:16+00:00,SAT-62178,282.8253996786497,45.102788649159585,2503.9012970899244,2.051027599150814,-71835.66236040382,10.5,10499928164.337639,47.655,-122.3035,60.0,7.266666666666667
2026-01-20T23:07:17+00:00,SAT-62178,283.0506869138559,45.08704782834165,2505.9468552821445,2.067211991611764,-72402.50824429854,10.5,10499927597.491756,47.655,-122.3035,60.0,7.283333333333333
2026-01-20T23:07:18+00:00,SAT-62178,283.27548582349306,45.070718813251965,2508.0085547084454,2.083353990277331,-72967.86931815335,10.5,10499927032.130682,47.655,-122.3035,60.0,7.3
2026-01-20T23:07:19+00:00,SAT-62178,283.4997897023412,45.05380481137718,2510.086353088082,2.099453396863031,-73531.73863720689,10.5,10499926468.261362,47.655,-122.3035,60.0,7.316666666666666
2026-01-20T23:07:20+00:00,SAT-62178,283.723591940551,45.03630906144729,2512.1802079425534,2.1155100268124123,-74094.10973751158,10.5,10499925905.890263,47.655,-122.3035,60.0,7.333333333333333
2026-01-20T23:07:21+00:00,SAT-62178,283.94688602547956,45.018234832527774,2514.290076609294,2.131523700964793,-74654.97634410246,10.5,10499925345.023657,47.655,-122.3035,60.0,7.35
2026-01-20T23:07:22+00:00,SAT-62178,284.1696655424469,44.99958542316885,2516.4159162470564,2.1474942419555405,-75214.33224491983,10.5,10499924785.667755,47.655,-122.3035,60.0,7.366666666666666
2026-01-20T23:07:23+00:00,SAT-62178,284.3919241751373,44.980364160586944,2518.5576838377,2.1634214633549043,-75772.17091040527,10.5,10499924227.82909,47.655,-122.3035,60.0,7.383333333333334
2026-01-20T23:07:24+00:00,SAT-62178,284.6136557046982,44.96057439994763,2520.7153361771525,2.179305205457872,-76328.48674701368,10.5,10499923671.513252,47.655,-122.3035,60.0,7.4
2026-01-20T23:07:25+00:00,SAT-62178,284.8348540127951,44.940219523326455,2522.8888299020628,2.195145290506956,-76883.27352892593,10.5,10499923116.72647,47.655,-122.3035,60.0,7.416666666666667
2026-01-20T23:07:26+00:00,SAT-62178,285.0555130796498,44.91930293907538,2525.078121471795,2.210941562347568,-77436.52578694778,10.5,10499922563.474213,47.655,-122.3035,60.0,7.433333333333334
2026-01-20T23:07:27+00:00,SAT-62178,285.27562698642475,44.897828080825214,2527.283167189976,2.226693851836543,-77988.23759697018,10.5,10499922011.762403,47.655,-122.3035,60.0,7.45
2026-01-20T23:07:28+00:00,SAT-62178,285.49518991377766,44.87579840681504,2529.503923191541,2.2424019967699547,-78538.40327792543,10.5,10499921461.596722,47.655,-122.3035,60.0,7.466666666666667
2026-01-20T23:07:29+00:00,SAT-62178,285.71419614261225,44.85321739903938,2531.740345449653,2.2580658552563997,-79087.01786017643,10.5,10499920912.98214,47.655,-122.3035,60.0,7.483333333333333
2026-01-20T23:07:30+00:00,SAT-62178,285.93264005602083,44.830088562255476,2533.9923897959625,2.273685260711602,-79634.0755092372,10.5,10499920365.92449,47.655,-122.3035,60.0,7.5
2026-01-20T23:07:31+00:00,SAT-62178,286.1505161366888,44.80641542344775,2536.2600118959786,2.2892600801334324,-80179.57156681053,10.5,10499919820.428432,47.655,-122.3035,60.0,7.516666666666667
2026-01-20T23:07:32+00:00,SAT-62178,286.3678189700952,44.782201530702864,2538.543167282565,2.3047901554553794,-80723.50049673858,10.5,10499919276.499504,47.655,-122.3035,60.0,7.533333333333333
2026-01-20T23:07:33+00:00,SAT-62178,286.58454324186124,44.75745045269229,2540.841811330939,2.320275354877759,-81265.85768283892,10.5,10499918734.142317,47.655,-122.3035,60.0,7.55
2026-01-20T23:07:34+00:00,SAT-62178,286.800683740087,44.73216577762273,2543.1558992848704,2.335715532667538,-81806.63802092429,10.5,10499918193.361979,47.655,-122.3035,60.0,7.566666666666666
2026-01-20T23:07:35+00:00,SAT-62178,287.0162353537744,44.706351112616616,2545.485386242784,2.3511105619674706,-82345.83706791731,10.5,10499917654.162931,47.655,-122.3035,60.0,7.583333333333333
2026-01-20T23:07:36+00:00,SAT-62178,287.2311930743433,44.68001008274059,2547.8302271765865,2.3664603056232725,-82883.45002009478,10.5,10499917116.54998,47.655,-122.3035,60.0,7.6
2026-01-20T23:07:37+00:00,SAT-62178,287.44555199433745,44.65314633036048,2550.190376921395,2.3817646415869826,-83419.47260282084,10.5,10499916580.527397,47.655,-122.3035,60.0,7.616666666666666
2026-01-20T23:07:38+00:00,SAT-62178,287.6593073085064,44.62576351421649,2552.5657901906043,2.397023433251668,-83953.90003154286,10.5,10499916046.099968,47.655,-122.3035,60.0,7.633333333333334
2026-01-20T23:07:39+00:00,SAT-62178,287.8724543120819,44.59786530884258,2554.9564215613673,2.4122365731852597,-84486.72854353537,10.5,10499915513.271456,47.655,-122.3035,60.0,7.65
2026-01-20T23:07:40+00:00,SAT-62178,288.0849884030665,44.5694554034856,2557.3622255036908,2.4274039353248607,-85017.95372354244,10.5,10499914982.046276,47.655,-122.3035,60.0,7.666666666666667
2026-01-20T23:07:41+00:00,SAT-62178,288.29690508008565,44.540537501583245,2559.7831563618547,2.4425254047594414,-85547.57154689373,10.5,10499914452.428453,47.655,-122.3035,60.0,7.683333333333334
2026-01-20T23:07:42+00:00,SAT-62178,288.5081999429251,44.51111531990414,2562.2191683655346,2.4576008781735124,-86075.5783950438,10.5,10499913924.421604,47.655,-122.3035,60.0,7.7
2026-01-20T23:07:43+00:00,SAT-62178,288.71886869312044,44.48119258768021,2564.670215641366,2.4726302327699963,-86601.96996711958,10.5,10499913398.030033,47.655,-122.3035,60.0,7.716666666666667
2026-01-20T23:07:44+00:00,SAT-62178,288.92890713163683,44.450773046126784,2567.1362521935157,2.487613379985501,-87126.74316125645,10.5,10499912873.256838,47.655,-122.3035,60.0,7.733333333333333
2026-01-20T23:07:45+00:00,SAT-62178,289.1383111614196,44.4198604473106,2569.617231937821,2.502550205448724,-87649.89397168759,10.5,10499912350.106028,47.655,-122.3035,60.0,7.75
2026-01-20T23:07:46+00:00,SAT-62178,289.34707678449286,44.38845855376298,2572.1131086760556,2.5174406145494745,-88171.4190847639,10.5,10499911828.580915,47.655,-122.3035,60.0,7.766666666666667
2026-01-20T23:07:47+00:00,SAT-62178,289.5552001031217,44.3565711375368,2574.6238361156325,2.5322845095052515,-88691.31507572862,10.5,10499911308.684925,47.655,-122.3035,60.0,7.783333333333333
2026-01-20T23:07:48+00:00,SAT-62178,289.76267731888464,44.32420197955699,2577.1493678664456,2.547081804335435,-89209.57893317673,10.5,10499910790.421066,47.655,-122.3035,60.0,7.8
2026-01-20T23:07:49+00:00,SAT-62178,289.96950473306487,44.291354868783465,2579.6896574526363,2.561832403247714,-89726.20730205628,10.5,10499910273.792698,47.655,-122.3035,60.0,7.816666666666666
2026-01-20T23:07:50+00:00,SAT-62178,290.1756787450879,44.258033601663804,2582.244658302809,2.57653622438059,-90241.1973152313,10.5,10499909758.802685,47.655,-122.3035,60.0,7.833333333333333
2026-01-20T23:07:51+00:00,SAT-62178,290.38119585305174,44.2242419812838,2584.8143237639247,2.591193180242503,-90754.54590837733,10.5,10499909245.454092,47.655,-122.3035,60.0,7.85
2026-01-20T23:07:52+00:00,SAT-62178,290.5860526524933,44.18998381678173,2587.398607095686,2.605803197307776,-91266.25050631411,10.5,10499908733.749495,47.655,-122.3035,60.0,7.866666666666666
2026-01-20T23:07:53+00:00,SAT-62178,290.79024583682667,44.155262922512286,2589.997461484468,2.6203661809499543,-91776.30779482292,10.5,10499908223.692205,47.655,-122.3035,60.0,7.883333333333334
2026-01-20T23:07:54+00:00,SAT-62178,290.99377219483847,44.12008311768549,2592.610840022269,2.6348820857855197,-92284.71618438099,10.5,10499907715.283815,47.655,-122.3035,60.0,7.9
2026-01-20T23:07:55+00:00,SAT-62178,291.19662861391816,44.084448225069224,2595.2386957558256,2.6493508165481687,-92791.47233835941,10.5,10499907208.527662,47.655,-122.3035,60.0,7.916666666666667
2026-01-20T23:07:56+00:00,SAT-62178,291.398812075196,44.04836207103441,2597.8809816368625,2.6637723162812046,-93296.57426189371,10.5,10499906703.425737,47.655,-122.3035,60.0,7.933333333333334
2026-01-20T23:07:57+00:00,SAT-62178,291.60031965581834,44.01182848441927,2600.537650560301,2.6781465177217396,-93800.01959915305,10.5,10499906199.9804,47.655,-122.3035,60.0,7.95
2026-01-20T23:07:58+00:00,SAT-62178,291.8011485272663,43.97485129605845,2603.208655353975,2.6924733633006723,-94301.80633382397,10.5,10499905698.193666,47.655,-122.3035,60.0,7.966666666666667
2026-01-20T23:07:59+00:00,SAT-62178,292.0012959552566,43.937434338048014,2605.893948788307,2.7067527824704913,-94801.93199503423,10.5,10499905198.068005,47.655,-122.3035,60.0,7.983333333333333
2026-01-20T23:08:00+00:00,SAT-62178,292.2007592978515,43.89958144333537,2608.5934835633575,2.7209847280338435,-95300.39492973288,10.5,10499904699.60507,47.655,-122.3035,60.0,8.0
2026-01-20T23:08:01+00:00,SAT-62178,292.3995360063914,43.86129644480975,2611.3072123321163,2.735169144265448,-95797.19318618483,10.5,10499904202.806814,47.655,-122.3035,60.0,8.016666666666667
2026-01-20T23:08:02+00:00,SAT-62178,292.5976236238927,43.82258317484787,2614.035087691997,2.749305982939822,-96292.32507532972,10.5,10499903707.674925,47.655,-122.3035,60.0,8.033333333333333
2026-01-20T23:08:03+00:00,SAT-62178,292.7950197847153,43.78344546464161,2616.777062192316,2.763395191747938,-96785.7887650841,10.5,10499903214.211235,47.655,-122.3035,60.0,8.05
2026-01-20T23:08:04+00:00,SAT-62178,292.99172221330775,43.74388714370123,2619.5330883302195,2.777436728033895,-97277.58276145792,10.5,10499902722.417238,47.655,-122.3035,60.0,8.066666666666666
2026-01-20T23:08:05+00:00,SAT-62178,293.18772872397375,43.70391203917165,2622.3031185603118,2.7914305496225666,-97767.70558729983,10.5,10499902232.294413,47.655,-122.3035,60.0,8.083333333333334
2026-01-20T23:08:06+00:00,SAT-62178,293.3830372199331,43.663523975287504,2625.087105295135,2.805376617245336,-98256.15586725676,10.5,10499901743.844133,47.655,-122.3035,60.0,8.1
2026-01-20T23:08:07+00:00,SAT-62178,293.5776456925762,43.622726772802885,2627.885000908068,2.8192748941828167,-98742.93231526049,10.5,10499901257.067684,47.655,-122.3035,60.0,8.116666666666667
2026-01-20T23:08:08+00:00,SAT-62178,293.7715522206237,43.5815242484361,2630.6967577358664,2.8331253489640087,-99228.03382906347,10.5,10499900771.966171,47.655,-122.3035,60.0,8.133333333333333
2026-01-20T23:08:09+00:00,SAT-62178,293.96475496953,43.53992021428306,2633.5223280839,2.846927945576457,-99711.4591473572,10.5,10499900288.540854,47.655,-122.3035,60.0,8.15
2026-01-20T23:08:10+00:00,SAT-62178,294.1572521901213,43.49791847738571,2636.3616642216216,2.8606826603737145,-100193.20744194307,10.5,10499899806.792559,47.655,-122.3035,60.0,8.166666666666666
2026-01-20T23:08:11+00:00,SAT-62178,294.3490422184789,43.45552283905711,2639.2147183949005,2.874389455181361,-100673.27737579138,10.5,10499899326.722624,47.655,-122.3035,60.0,8.183333333333334
2026-01-20T23:08:12+00:00,SAT-62178,294.54012347385986,43.4127370946197,2642.081442811535,2.8880483311561043,-101151.66898941499,10.5,10499898848.33101,47.655,-122.3035,60.0,8.2
2026-01-20T23:08:13+00:00,SAT-62178,294.730494460409,43.36956503234462,2644.961789680475,2.901659240727049,-101628.38061667987,10.5,10499898371.619383,47.655,-122.3035,60.0,8.216666666666667
2026-01-20T23:08:14+00:00,SAT-62178,294.9201537627258,43.32601043372013,2647.8557111632267,2.9152221904100815,-102103.41248579994,10.5,10499897896.587515,47.655,-122.3035,60.0,8.233333333333333
2026-01-20T23:08:15+00:00,SAT-62178,295.1091000485277,43.28207707218645,2650.7631594277955,2.9287371399267523,-102576.76318605353,10.5,10499897423.236814,47.655,-122.3035,60.0,8.25
2026-01-20T23:08:16+00:00,SAT-62178,295.2973320643986,43.23776871339963,2653.6840866020157,2.9422040986313536,-103048.43304506752,10.5,10499896951.566956,47.655,-122.3035,60.0,8.266666666666667
