satellites_20260121_005943/SAT-59768.csv

timestamp,satellite,azimuth_deg,elevation_deg,distance_km,relative_velocity_kms,doppler_shift_hz,tx_freq_ghz,rx_freq_hz,ue_lat,ue_lon,ue_alt_m,time_minutes
2026-01-20T23:07:29+00:00,SAT-59768,210.51916009651114,30.05507529237279,1498.342066941266,-5.946067328142499,208256.42967141033,10.5,10500208256.429672,47.655,-122.3035,60.0,7.483333333333333
2026-01-20T23:07:30+00:00,SAT-59768,210.5432739789612,30.21838334355908,1492.4118557926652,-5.937209159974707,207946.1791521601,10.5,10500207946.179152,47.655,-122.3035,60.0,7.5
2026-01-20T23:07:31+00:00,SAT-59768,210.5678906539262,30.382768268149412,1486.4904791904503,-5.928237909302385,207631.96800526264,10.5,10500207631.968006,47.655,-122.3035,60.0,7.516666666666667
2026-01-20T23:07:32+00:00,SAT-59768,210.59301868684452,30.548240966703766,1480.5780499155728,-5.9191519420734435,207313.73899930186,10.5,10500207313.738998,47.655,-122.3035,60.0,7.533333333333333
2026-01-20T23:07:33+00:00,SAT-59768,210.6186668379842,30.714812450624848,1474.6746823786784,-5.909949647664225,206991.43572342422,10.5,10500206991.435724,47.655,-122.3035,60.0,7.55
2026-01-20T23:07:34+00:00,SAT-59768,210.64484406819562,30.882493843966078,1468.7804925967412,-5.900629345462847,206664.99931549275,10.5,10500206664.999315,47.655,-122.3035,60.0,7.566666666666666
2026-01-20T23:07:35+00:00,SAT-59768,210.67155954443817,31.051296382602473,1462.8955982628663,-5.891189333078185,206334.37015056913,10.5,10500206334.370152,47.655,-122.3035,60.0,7.583333333333333
2026-01-20T23:07:36+00:00,SAT-59768,210.69882264569515,31.22123141470304,1457.0201187680095,-5.88162790171224,205999.4883793191,10.5,10500205999.488379,47.655,-122.3035,60.0,7.6
2026-01-20T23:07:37+00:00,SAT-59768,210.72664296921272,31.392310401618346,1451.1541752073686,-5.87194331568193,205660.2932107794,10.5,10500205660.293211,47.655,-122.3035,60.0,7.616666666666666
2026-01-20T23:07:38+00:00,SAT-59768,210.75503033682122,31.56454491816112,1445.2978904071952,-5.862133797477945,205316.722389055,10.5,10500205316.72239,47.655,-122.3035,60.0,7.633333333333334
2026-01-20T23:07:39+00:00,SAT-59768,210.78399480141505,31.737946652406865,1439.4513889665106,-5.85219752055615,204968.711940844,10.5,10500204968.71194,47.655,-122.3035,60.0,7.65
2026-01-20T23:07:40+00:00,SAT-59768,210.8135466536204,31.91252740522526,1433.614797306009,-5.842132691541371,204616.19905456193,10.5,10500204616.199055,47.655,-122.3035,60.0,7.666666666666667
2026-01-20T23:07:41+00:00,SAT-59768,210.84369642914217,32.08829909218792,1427.7882436349785,-5.83193742244952,204259.11760501977,10.5,10500204259.117605,47.655,-122.3035,60.0,7.683333333333334
2026-01-20T23:07:42+00:00,SAT-59768,210.87445491566334,32.26527374166815,1421.9718580456556,-5.821609862694106,203897.40277685074,10.5,10500203897.402777,47.655,-122.3035,60.0,7.7
2026-01-20T23:07:43+00:00,SAT-59768,210.90583316075111,32.44346349680284,1416.1657724759286,-5.811148060887572,203530.98622420814,10.5,10500203530.986225,47.655,-122.3035,60.0,7.716666666666667
2026-01-20T23:07:44+00:00,SAT-59768,210.93784247923386,32.62288061326555,1410.37012080987,-5.800550087466079,203159.80036560437,10.5,10500203159.800365,47.655,-122.3035,60.0,7.733333333333333
2026-01-20T23:07:45+00:00,SAT-59768,210.97049446157624,32.80353746065983,1404.5850388559707,-5.789813986464534,202783.77669486802,10.5,10500202783.776695,47.655,-122.3035,60.0,7.75
2026-01-20T23:07:46+00:00,SAT-59768,211.00380098227106,32.98544652243552,1398.81066437347,-5.778937707860085,202402.84341152737,10.5,10500202402.843412,47.655,-122.3035,60.0,7.766666666666667
2026-01-20T23:07:47+00:00,SAT-59768,211.03777420811608,33.16862039359946,1393.047137166164,-5.767919248847565,202016.9303688735,10.5,10500202016.930368,47.655,-122.3035,60.0,7.783333333333333
2026-01-20T23:07:48+00:00,SAT-59768,211.07242660768577,33.35307178276308,1387.2945990353137,-5.756756527838337,201625.9646608673,10.5,10500201625.96466,47.655,-122.3035,60.0,7.8
2026-01-20T23:07:49+00:00,SAT-59768,211.10777096034735,33.5388135101801,1381.553193858216,-5.745447463909029,201229.8734047699,10.5,10500201229.873405,47.655,-122.3035,60.0,7.816666666666666
2026-01-20T23:07:50+00:00,SAT-59768,211.14382036613185,33.725858508222245,1375.8230675875443,-5.733989896870495,200828.58094161996,10.5,10500200828.580942,47.655,-122.3035,60.0,7.833333333333333
2026-01-20T23:07:51+00:00,SAT-59768,211.18058825544713,33.91421981919018,1370.1043683303985,-5.722381682058186,200422.0121561929,10.5,10500200422.012156,47.655,-122.3035,60.0,7.85
2026-01-20T23:07:52+00:00,SAT-59768,211.2180883997802,34.103910596101414,1364.397246332826,-5.710620627720732,200010.09028408476,10.5,10500200010.090284,47.655,-122.3035,60.0,7.866666666666666
2026-01-20T23:07:53+00:00,SAT-59768,211.256334922409,34.29494410137351,1358.701854026779,-5.698704479435645,199592.73636588373,10.5,10500199592.736366,47.655,-122.3035,60.0,7.883333333333334
2026-01-20T23:07:54+00:00,SAT-59768,211.2953423093671,34.48733370485918,1353.018346092622,-5.686630983924692,199169.87148225482,10.5,10500199169.871483,47.655,-122.3035,60.0,7.9
2026-01-20T23:07:55+00:00,SAT-59768,211.33512542132164,34.681092883890436,1347.3468794579878,-5.6743978629807,198741.41584074587,10.5,10500198741.41584,47.655,-122.3035,60.0,7.916666666666667
2026-01-20T23:07:56+00:00,SAT-59768,211.3756995057057,34.876235222386,1341.6876133226417,-5.662002770680529,198307.2872772055,10.5,10500198307.287277,47.655,-122.3035,60.0,7.933333333333334
2026-01-20T23:07:57+00:00,SAT-59768,211.41708020900484,35.07277440837144,1336.0407092260161,-5.649443331183416,197867.40257964015,10.5,10500197867.40258,47.655,-122.3035,60.0,7.95
2026-01-20T23:07:58+00:00,SAT-59768,211.45928358979899,35.27072423263576,1330.4063310770493,-5.636717157693916,197421.67815237737,10.5,10500197421.678152,47.655,-122.3035,60.0,7.966666666666667
2026-01-20T23:07:59+00:00,SAT-59768,211.5023261324819,35.47009858793942,1324.7846451651094,-5.623821813648657,196970.02865666122,10.5,10500196970.028656,47.655,-122.3035,60.0,7.983333333333333
2026-01-20T23:08:00+00:00,SAT-59768,211.5462247611926,35.670911466742986,1319.1758202096303,-5.610754822269348,196512.36734523904,10.5,10500196512.367346,47.655,-122.3035,60.0,8.0
2026-01-20T23:08:01+00:00,SAT-59768,211.59099685440364,35.87317695910788,1313.5800274002206,-5.5975136560121275,196048.60569283346,10.5,10500196048.605692,47.655,-122.3035,60.0,8.016666666666667
2026-01-20T23:08:02+00:00,SAT-59768,211.63666025996025,36.076909250054825,1307.997440447291,-5.584095803912283,195578.65575483884,10.5,10500195578.655754,47.655,-122.3035,60.0,8.033333333333333
2026-01-20T23:08:03+00:00,SAT-59768,211.68323331134698,36.282122619196535,1302.4282355655225,-5.570498680316875,195102.42697075184,10.5,10500195102.426971,47.655,-122.3035,60.0,8.05
2026-01-20T23:08:04+00:00,SAT-59768,211.73073484378833,36.48883143693185,1296.8725915483533,-5.55671964776808,194619.82696564315,10.5,10500194619.826965,47.655,-122.3035,60.0,8.066666666666666
2026-01-20T23:08:05+00:00,SAT-59768,211.7791842112132,36.69705016123816,1291.3306898196458,-5.542756060100245,194130.76305959825,10.5,10500194130.76306,47.655,-122.3035,60.0,8.083333333333334
2026-01-20T23:08:06+00:00,SAT-59768,211.8286013042967,36.90679333587394,1285.8027144423722,-5.528605220567647,193635.14080117483,10.5,10500193635.1408,47.655,-122.3035,60.0,8.1
2026-01-20T23:08:07+00:00,SAT-59768,211.87900656886208,37.118075586837165,1280.2888521690597,-5.5142644119270505,193132.86502102076,10.5,10500193132.86502,47.655,-122.3035,60.0,8.116666666666667
2026-01-20T23:08:08+00:00,SAT-59768,211.93042102532786,37.330911619760975,1274.789292462231,-5.499730846996806,192623.83810024487,10.5,10500192623.8381,47.655,-122.3035,60.0,8.133333333333333
2026-01-20T23:08:09+00:00,SAT-59768,211.98286628849428,37.545316215192294,1269.3042275641596,-5.485001737343771,192107.96237612356,10.5,10500192107.962376,47.655,-122.3035,60.0,8.15
2026-01-20T23:08:10+00:00,SAT-59768,212.03636458881292,37.76130422627601,1263.8338524981152,-5.470074214856622,191585.13739526604,10.5,10500191585.137396,47.655,-122.3035,60.0,8.166666666666666
2026-01-20T23:08:11+00:00,SAT-59768,212.0909387937867,37.97889057315824,1258.3783651478316,-5.4549454317139405,191055.2634149201,10.5,10500191055.263414,47.655,-122.3035,60.0,8.183333333333334
2026-01-20T23:08:12+00:00,SAT-59768,212.1466124312952,38.198090241066275,1252.9379662372692,-5.439612419242194,190518.23645958112,10.5,10500190518.23646,47.655,-122.3035,60.0,8.2
2026-01-20T23:08:13+00:00,SAT-59768,212.20340971242672,38.41891827251807,1247.5128594511448,-5.424072251774165,189973.95406000753,10.5,10500189973.95406,47.655,-122.3035,60.0,8.216666666666667
2026-01-20T23:08:14+00:00,SAT-59768,212.26135555705298,38.641389765785675,1242.103251392042,-5.408321905427898,189422.31030706226,10.5,10500189422.310307,47.655,-122.3035,60.0,8.233333333333333
2026-01-20T23:08:15+00:00,SAT-59768,212.32047561895615,38.86551986740135,1236.7093516783618,-5.392358353847676,188863.19920496666,10.5,10500188863.199205,47.655,-122.3035,60.0,8.25
2026-01-20T23:08:16+00:00,SAT-59768,212.38079631313036,39.091323768228186,1231.3313729467911,-5.3761785168313905,188296.5128720136,10.5,10500188296.512873,47.655,-122.3035,60.0,8.266666666666667
2026-01-20T23:08:17+00:00,SAT-59768,212.44234484368096,39.31881669711137,1225.9695309060046,-5.359779261017144,187722.1415646154,10.5,10500187722.141565,47.655,-122.3035,60.0,8.283333333333333
2026-01-20T23:08:18+00:00,SAT-59768,212.5051492329472,39.54801391419407,1220.6240443896836,-5.343157441835525,187139.97514664964,10.5,10500187139.975147,47.655,-122.3035,60.0,8.3
2026-01-20T23:08:19+00:00,SAT-59768,212.5692383524428,39.7789307056404,1215.2951353676929,-5.326309865351954,186549.90175301713,10.5,10500186549.901752,47.655,-122.3035,60.0,8.316666666666666
2026-01-20T23:08:20+00:00,SAT-59768,212.6346419546846,40.0115823763997,1209.9830289953154,-5.30923327107285,185951.80718744075,10.5,10500185951.807188,47.655,-122.3035,60.0,8.333333333333334
2026-01-20T23:08:21+00:00,SAT-59768,212.70139070624734,40.24598424178485,1204.6879536796318,-5.291924395558231,185345.57715044796,10.5,10500185345.57715,47.655,-122.3035,60.0,8.35
2026-01-20T23:08:22+00:00,SAT-59768,212.76951622310145,40.48215162140441,1199.410141082462,-5.274379923033928,184731.09550960167,10.5,10500184731.09551,47.655,-122.3035,60.0,8.366666666666667
2026-01-20T23:08:23+00:00,SAT-59768,212.83905110693658,40.72009983052996,1194.149826172556,-5.256596515167927,184108.24534239364,10.5,10500184108.245342,47.655,-122.3035,60.0,8.383333333333333
2026-01-20T23:08:24+00:00,SAT-59768,212.91002898355245,40.95984417233863,1188.9072472480952,-5.238570737453219,183476.9063578604,10.5,10500183476.906359,47.655,-122.3035,60.0,8.4
2026-01-20T23:08:25+00:00,SAT-59768,212.9824845419623,41.20139992632,1183.6826460326085,-5.2202991877818,182836.95939978882,10.5,10500182836.9594,47.655,-122.3035,60.0,8.416666666666666
2026-01-20T23:08:26+00:00,SAT-59768,213.05645357713362,41.44478234201883,1178.4762676426608,-5.201778390117478,182188.2827226878,10.5,10500182188.282722,47.655,-122.3035,60.0,8.433333333333334
2026-01-20T23:08:27+00:00,SAT-59768,213.13197303322437,41.69000662744485,1173.2883606615837,-5.183004829434969,181530.7532155034,10.5,10500181530.753216,47.655,-122.3035,60.0,8.45
2026-01-20T23:08:28+00:00,SAT-59768,213.2090810493122,41.937087938498294,1168.1191771783606,-5.163974945287859,180864.24617634152,10.5,10500180864.246176,47.655,-122.3035,60.0,8.466666666666667
2026-01-20T23:08:29+00:00,SAT-59768,213.28781700720734,42.186041367494965,1162.9689728329267,-5.144685178536372,180188.63694907198,10.5,10500180188.63695,47.655,-122.3035,60.0,8.483333333333333
2026-01-20T23:08:30+00:00,SAT-59768,213.3682215822639,42.43688193335426,1157.8380068148665,-5.125131889219553,179503.79804686515,10.5,10500179503.798046,47.655,-122.3035,60.0,8.5
2026-01-20T23:08:31+00:00,SAT-59768,213.45033679533736,42.68962456721402,1152.7265419440182,-5.105311422665013,178809.60146763475,10.5,10500178809.601467,47.655,-122.3035,60.0,8.516666666666667
2026-01-20T23:08:32+00:00,SAT-59768,213.53420606828115,42.94428410054534,1147.634844685147,-5.0852200761486905,178105.91752632166,10.5,10500178105.917526,47.655,-122.3035,60.0,8.533333333333333
2026-01-20T23:08:33+00:00,SAT-59768,213.61987428159782,43.20087525094946,1142.5631851958678,-5.0648541448369055,177392.6164639789,10.5,10500177392.616465,47.655,-122.3035,60.0,8.55
2026-01-20T23:08:34+00:00,SAT-59768,213.70738783571716,43.45941260954318,1137.5118373287507,-5.044209843078614,176669.5656910937,10.5,10500176669.565691,47.655,-122.3035,60.0,8.566666666666666
2026-01-20T23:08:35+00:00,SAT-59768,213.79679471388238,43.7199106236085,1132.4810787119202,-5.023283367855762,175936.632009887,10.5,10500175936.63201,47.655,-122.3035,60.0,8.583333333333334
2026-01-20T23:08:36+00:00,SAT-59768,213.88814454925955,43.98238358160761,1127.4711907663789,-5.002070896547493,175193.68153600674,10.5,10500175193.681536,47.655,-122.3035,60.0,8.6
2026-01-20T23:08:37+00:00,SAT-59768,213.98148869540572,44.24684559728814,1122.4824587255553,-4.980568569646873,174440.57909319442,10.5,10500174440.579094,47.655,-122.3035,60.0,8.616666666666667
2026-01-20T23:08:38+00:00,SAT-59768,214.07688029991596,44.513310592030436,1117.515171672094,-4.958772496916691,173677.1884288872,10.5,10500173677.188429,47.655,-122.3035,60.0,8.633333333333333
2026-01-20T23:08:39+00:00,SAT-59768,214.17437438194384,44.781792276584866,1112.5696225685026,-4.936678728054516,172903.3711867842,10.5,10500172903.371187,47.655,-122.3035,60.0,8.65
2026-01-20T23:08:40+00:00,SAT-59768,214.27402791301878,45.0523041302265,1107.6461083170561,-4.914283339371101,172118.9899426908,10.5,10500172118.989943,47.655,-122.3035,60.0,8.666666666666666
2026-01-20T23:08:41+00:00,SAT-59768,214.37589990382565,45.32485938359205,1102.7449297332569,-4.891582331960033,171323.9046379891,10.5,10500171323.904638,47.655,-122.3035,60.0,8.683333333333334
2026-01-20T23:08:42+00:00,SAT-59768,214.48005149332315,45.59947099493837,1097.8663916208488,-4.868571707494274,170517.97523435322,10.5,10500170517.975235,47.655,-122.3035,60.0,8.7
2026-01-20T23:08:43+00:00,SAT-59768,214.58654604410057,45.87615162940001,1093.010802771241,-4.845247411914261,169701.05974146866,10.5,10500169701.059742,47.655,-122.3035,60.0,8.716666666666667
2026-01-20T23:08:44+00:00,SAT-59768,214.69544924146518,46.15491363393843,1088.178476019092,-4.821605426679528,168873.01741304997,10.5,10500168873.017412,47.655,-122.3035,60.0,8.733333333333333
2026-01-20T23:08:45+00:00,SAT-59768,214.80682919988135,46.4357690162516,1083.3697282068836,-4.7976416446502625,168033.7043996876,10.5,10500168033.7044,47.655,-122.3035,60.0,8.75
2026-01-20T23:08:46+00:00,SAT-59768,214.92075657210665,46.71872941529592,1078.5848802732858,-4.773351976205873,167182.97746556945,10.5,10500167182.977465,47.655,-122.3035,60.0,8.766666666666667
2026-01-20T23:08:47+00:00,SAT-59768,215.0373046667094,47.003806076513364,1073.824257235683,-4.748732308621339,166320.6925656684,10.5,10500166320.692566,47.655,-122.3035,60.0,8.783333333333333
2026-01-20T23:08:48+00:00,SAT-59768,215.15654957090652,47.29100982332993,1069.088188213218,-4.723778489267871,165446.70425735877,10.5,10500165446.704258,47.655,-122.3035,60.0,8.8
2026-01-20T23:08:49+00:00,SAT-59768,215.2785702796236,47.58035102609111,1064.3770064665882,-4.698486410674042,164560.8686796165,10.5,10500164560.86868,47.655,-122.3035,60.0,8.816666666666666
2026-01-20T23:08:50+00:00,SAT-59768,215.40344883384176,47.8718395746116,1059.6910493530092,-4.672851873396021,163663.038750155,10.5,10500163663.03875,47.655,-122.3035,60.0,8.833333333333334
2026-01-20T23:08:51+00:00,SAT-59768,215.5312704628403,48.165484840685146,1055.0306584179423,-4.646870723882729,162753.06899404604,10.5,10500162753.068995,47.655,-122.3035,60.0,8.85
2026-01-20T23:08:52+00:00,SAT-59768,215.6621237380745,48.461295647282476,1050.3961793493233,-4.620538792997636,161830.8133904929,10.5,10500161830.81339,47.655,-122.3035,60.0,8.866666666666667
2026-01-20T23:08:53+00:00,SAT-59768,215.7961007339584,48.75928023219657,1045.787961993107,-4.593851890248567,160896.1251707338,10.5,10500160896.125172,47.655,-122.3035,60.0,8.883333333333333
2026-01-20T23:08:54+00:00,SAT-59768,215.93329719743798,49.059446209339086,1041.2063603745657,-4.566805820126965,159948.8573903121,10.5,10500159948.85739,47.655,-122.3035,60.0,8.9
2026-01-20T23:08:55+00:00,SAT-59768,216.07381272762154,49.36180052899684,1036.6517327032923,-4.539396421219715,158988.86429893778,10.5,10500158988.8643,47.655,-122.3035,60.0,8.916666666666666
2026-01-20T23:08:56+00:00,SAT-59768,216.21775096686764,49.666349438571274,1032.124441339196,-4.511619497372439,158015.9989295348,10.5,10500158015.99893,47.655,-122.3035,60.0,8.933333333333334
2026-01-20T23:08:57+00:00,SAT-59768,216.36521980063387,49.97309843652443,1027.6248528271499,-4.48347087391346,157030.1150674422,10.5,10500157030.115067,47.655,-122.3035,60.0,8.95
2026-01-20T23:08:58+00:00,SAT-59768,216.51633157062406,50.282052227634786,1023.1533378755668,-4.4549464013711795,156031.0673806123,10.5,10500156031.06738,47.655,-122.3035,60.0,8.966666666666667
2026-01-20T23:08:59+00:00,SAT-59768,216.67120330051185,50.59321467607528,1018.7102713312661,-4.426041904528856,155018.70963529372,10.5,10500155018.709635,47.655,-122.3035,60.0,8.983333333333333
2026-01-20T23:09:00+00:00,SAT-59768,216.82995693301766,50.90658875230289,1014.2960322051492,-4.396753271132714,153992.8978029644,10.5,10500153992.897802,47.655,-122.3035,60.0,9.0
2026-01-20T23:09:01+00:00,SAT-59768,216.9927195841499,51.22217648331764,1009.9110036094062,-4.367076351373822,152953.48653976189,10.5,10500152953.48654,47.655,-122.3035,60.0,9.016666666666667
2026-01-20T23:09:02+00:00,SAT-59768,217.15962380872102,51.539978892879226,1005.5555727949693,-4.337007102466839,151900.3342502426,10.5,10500151900.33425,47.655,-122.3035,60.0,9.033333333333333
2026-01-20T23:09:03+00:00,SAT-59768,217.33080788732684,51.859995948969434,1001.2301310447757,-4.306541416109525,150833.29704428394,10.5,10500150833.297045,47.655,-122.3035,60.0,9.05
2026-01-20T23:09:04+00:00,SAT-59768,217.5064161236454,52.18222649546112,996.9350737391092,-4.275675290329126,149752.23475587173,10.5,10500149752.234756,47.655,-122.3035,60.0,9.066666666666666
2026-01-20T23:09:05+00:00,SAT-59768,217.68659916669984,52.50666819281578,992.6708002495542,-4.244404714744262,148657.00692448625,10.5,10500148657.006924,47.655,-122.3035,60.0,9.083333333333334
2026-01-20T23:09:06+00:00,SAT-59768,217.8715143478925,52.833317446642276,988.4377139473827,-4.212725735635996,147547.47507416602,10.5,10500147547.475075,47.655,-122.3035,60.0,9.1
2026-01-20T23:09:07+00:00,SAT-59768,218.0613260414311,53.16216933713618,984.2362221470416,-4.180634457491927,146423.50276758877,10.5,10500146423.502768,47.655,-122.3035,60.0,9.116666666666667
2026-01-20T23:09:08+00:00,SAT-59768,218.25620604704454,53.49321754455722,980.066736048103,-4.148127003914052,145284.95423689927,10.5,10500145284.954237,47.655,-122.3035,60.0,9.133333333333333
2026-01-20T23:09:09+00:00,SAT-59768,218.4563339945079,53.826454267191146,975.9296707161994,-4.115199571180684,144131.69625967435,10.5,10500144131.69626,47.655,-122.3035,60.0,9.15
2026-01-20T23:09:10+00:00,SAT-59768,218.66189777583463,54.16187013876126,971.8254450105419,-4.0818484371324235,142963.59847014712,10.5,10500142963.59847,47.655,-122.3035,60.0,9.166666666666666
2026-01-20T23:09:11+00:00,SAT-59768,218.8730940051085,54.499454141676296,967.7544815025752,-4.048069895877855,141780.53107232432,10.5,10500141780.531073,47.655,-122.3035,60.0,9.183333333333334
2026-01-20T23:09:12+00:00,SAT-59768,219.09012850370252,54.83919350956679,963.717206459753,-4.013860368571743,140582.36871990724,10.5,10500140582.36872,47.655,-122.3035,60.0,9.2
2026-01-20T23:09:13+00:00,SAT-59768,219.3132168221379,55.18107363325573,959.7140497188309,-3.9792163011919524,139368.98693600725,10.5,10500139368.986937,47.655,-122.3035,60.0,9.216666666666667
2026-01-20T23:09:14+00:00,SAT-59768,219.54258478937007,55.525077952170115,955.7454446611086,-3.9441342633288667,138140.26557316896,10.5,10500138140.265574,47.655,-122.3035,60.0,9.233333333333333
2026-01-20T23:09:15+00:00,SAT-59768,219.77846910274684,55.87118784759611,951.8118280891488,-3.9086108791744754,136896.08639631618,10.5,10500136896.086397,47.655,-122.3035,60.0,9.25
2026-01-20T23:09:16+00:00,SAT-59768,220.02111795160465,56.21938252312919,947.9136401723187,-3.8726429045679844,135636.33578121514,10.5,10500135636.335781,47.655,-122.3035,60.0,9.266666666666667
2026-01-20T23:09:17+00:00,SAT-59768,220.27079168569338,56.569638884460524,944.0513243154962,-3.836227166154794,134360.90258356446,10.5,10500134360.902584,47.655,-122.3035,60.0,9.283333333333333
2026-01-20T23:09:18+00:00,SAT-59768,220.5277635228088,56.921931405902754,940.2253270884511,-3.7993606011816308,133069.67953278907,10.5,10500133069.679533,47.655,-122.3035,60.0,9.3
2026-01-20T23:09:19+00:00,SAT-59768,220.79232030458618,57.27623199190788,936.4360981155394,-3.762040281110092,131762.5640590864,10.5,10500131762.564058,47.655,-122.3035,60.0,9.316666666666666
2026-01-20T23:09:20+00:00,SAT-59768,221.06476330300433,57.632509831752806,932.6840899418455,-3.724263368121291,130439.45677003507,10.5,10500130439.45677,47.655,-122.3035,60.0,9.333333333333334
2026-01-20T23:09:21+00:00,SAT-59768,221.34540907592165,57.990731240410526,928.9697579427059,-3.686027187881363,129100.26399915075,10.5,10500129100.264,47.655,-122.3035,60.0,9.35
2026-01-20T23:09:22+00:00,SAT-59768,221.6345903835865,58.35085949582225,925.2935601606589,-3.64732917146745,127744.89577188839,10.5,10500127744.895771,47.655,-122.3035,60.0,9.366666666666667
2026-01-20T23:09:23+00:00,SAT-59768,221.93265716006724,58.71285465940102,921.6559572003154,-3.608166892572184,126373.26710870067,10.5,10500126373.267109,47.655,-122.3035,60.0,9.383333333333333
2026-01-20T23:09:24+00:00,SAT-59768,222.23997755039355,59.07667338791276,918.0574120861233,-3.568538101323166,124985.2992095393,10.5,10500124985.29921,47.655,-122.3035,60.0,9.4
2026-01-20T23:09:25+00:00,SAT-59768,222.55693901774018,59.44226873578946,914.4983900864037,-3.52844067637068,123580.91777576385,10.5,10500123580.917776,47.655,-122.3035,60.0,9.416666666666666
2026-01-20T23:09:26+00:00,SAT-59768,222.88394951770897,59.80958993860704,910.97935858517,-3.487872664025695,122160.05438092041,10.5,10500122160.05438,47.655,-122.3035,60.0,9.433333333333334
2026-01-20T23:09:27+00:00,SAT-59768,223.22143875117408,60.17858218529066,907.5007869149151,-3.44683229985463,120722.6472270814,10.5,10500120722.647226,47.655,-122.3035,60.0,9.45
2026-01-20T23:09:28+00:00,SAT-59768,223.56985949914974,60.54918637633678,904.0631461678602,-3.4053179742949866,119268.63994055967,10.5,10500119268.63994,47.655,-122.3035,60.0,9.466666666666667
2026-01-20T23:09:29+00:00,SAT-59768,223.92968903838616,60.92133886076448,900.6669090414965,-3.3633282833195195,117797.9833463821,10.5,10500117797.983347,47.655,-122.3035,60.0,9.483333333333333
2026-01-20T23:09:30+00:00,SAT-59768,224.30143065059113,61.29497115942579,897.3125496335992,-3.3208620189526044,116310.63513613257,10.5,10500116310.635136,47.655,-122.3035,60.0,9.5
2026-01-20T23:09:31+00:00,SAT-59768,224.68561522381103,61.6700096668365,894.0005432466971,-3.277918151172913,114806.55923410718,10.5,10500114806.559235,47.655,-122.3035,60.0,9.516666666666667
2026-01-20T23:09:32+00:00,SAT-59768,225.0828029485938,62.04637532867945,890.731366210594,-3.2344958907268344,113285.72799730592,10.5,10500113285.727997,47.655,-122.3035,60.0,9.533333333333333
2026-01-20T23:09:33+00:00,SAT-59768,225.49358512239874,62.42398330238448,887.5054956422425,-3.190594641659731,111748.12055287654,10.5,10500111748.120552,47.655,-122.3035,60.0,9.55
2026-01-20T23:09:34+00:00,SAT-59768,225.91858605280402,62.80274258638735,884.3234092529605,-3.1462140584785963,110193.72480019246,10.5,10500110193.7248,47.655,-122.3035,60.0,9.566666666666666
2026-01-20T23:09:35+00:00,SAT-59768,226.35846507511584,63.18255562798625,881.1855850986378,-3.1013539947357103,108622.53561003512,10.5,10500108622.53561,47.655,-122.3035,60.0,9.583333333333334
2026-01-20T23:09:36+00:00,SAT-59768,226.81391867217826,63.56331789479606,878.0925013812215,-3.056014590665806,107034.557894018,10.5,10500107034.557894,47.655,-122.3035,60.0,9.6
2026-01-20T23:09:37+00:00,SAT-59768,227.2856827164132,63.94491742407682,875.0446361627974,-3.010196198875697,105429.80400192329,10.5,10500105429.804003,47.655,-122.3035,60.0,9.616666666666667
2026-01-20T23:09:38+00:00,SAT-59768,227.77453481047124,64.32723432777918,872.0424671537854,-2.96389944725439,103808.29592507992,10.5,10500103808.295925,47.655,-122.3035,60.0,9.633333333333333
2026-01-20T23:09:39+00:00,SAT-59768,228.28129674345882,64.7101402672466,869.0864714383903,-2.9171252153756786,102170.06446988278,10.5,10500102170.06447,47.655,-122.3035,60.0,9.65
2026-01-20T23:09:40+00:00,SAT-59768,228.80683704469388,65.09349788404101,866.177125223589,-2.8698746722157993,100515.15057882441,10.5,10500100515.15058,47.655,-122.3035,60.0,9.666666666666666
2026-01-20T23:09:41+00:00,SAT-59768,229.35207363661524,65.47716019164676,863.3149035504991,-2.822149243920102,98843.60420154755,10.5,10500098843.604202,47.655,-122.3035,60.0,9.683333333333334
2026-01-20T23:09:42+00:00,SAT-59768,229.91797656204943,65.86096991574408,860.5002800378961,-2.773950671561718,97155.48631779803,10.5,10500097155.486319,47.655,-122.3035,60.0,9.7
2026-01-20T23:09:43+00:00,SAT-59768,230.50557078526165,66.24475879172363,857.7337265681252,-2.7252809583558224,95450.86708864481,10.5,10500095450.867088,47.655,-122.3035,60.0,9.716666666666667
2026-01-20T23:09:44+00:00,SAT-59768,231.1159390216261,66.62834680121803,855.0157130256584,-2.6761424217220475,93729.82767992615,10.5,10500093729.82768,47.655,-122.3035,60.0,9.733333333333333
2026-01-20T23:09:45+00:00,SAT-59768,231.75022458548173,67.01154135847887,852.3467069837275,-2.626537701035852,91992.46053373512,10.5,10500091992.460533,47.655,-122.3035,60.0,9.75
2026-01-20T23:09:46+00:00,SAT-59768,232.40963420842854,67.3941364376103,849.7271733832278,-2.576469709328965,90238.867676765,10.5,10500090238.867678,47.655,-122.3035,60.0,9.766666666666667
2026-01-20T23:09:47+00:00,SAT-59768,233.09544076133582,67.77591162920238,847.1575742597904,-2.5259417161895583,88469.16362382393,10.5,10500088469.163624,47.655,-122.3035,60.0,9.783333333333333
2026-01-20T23:09:48+00:00,SAT-59768,233.8089858478192,68.15663114269007,844.6383683881774,-2.4749572965160365,86683.4735829758,10.5,10500086683.473583,47.655,-122.3035,60.0,9.8
2026-01-20T23:09:49+00:00,SAT-59768,234.55168215489272,68.53604273276932,842.1700109777853,-2.4235203546144004,84881.93429953199,10.5,10500084881.9343,47.655,-122.3035,60.0,9.816666666666666
2026-01-20T23:09:50+00:00,SAT-59768,235.32501547892826,68.91387655928018,839.7529533441166,-2.3716351219988008,83064.69397901735,10.5,10500083064.69398,47.655,-122.3035,60.0,9.833333333333334
2026-01-20T23:09:51+00:00,SAT-59768,236.130546296844,69.28984397621963,837.387642582443,-2.319306193035915,81231.91353558702,10.5,10500081231.913536,47.655,-122.3035,60.0,9.85
2026-01-20T23:09:52+00:00,SAT-59768,236.96991074640266,69.66363625694311,835.0745212059219,-2.266538476865192,79383.76490807022,10.5,10500079383.764908,47.655,-122.3035,60.0,9.866666666666667
2026-01-20T23:09:53+00:00,SAT-59768,237.8448208066464,70.03492324504926,832.8140268316617,-2.2133372461816023,77520.43276854826,10.5,10500077520.432768,47.655,-122.3035,60.0,9.883333333333333
2026-01-20T23:09:54+00:00,SAT-59768,238.75706349593986,70.40335195160743,830.6065918181366,-2.1597080956234898,75642.11306492121,10.5,10500075642.113066,47.655,-122.3035,60.0,9.9
2026-01-20T23:09:55+00:00,SAT-59768,239.70849879841433,70.76854509241817,828.4526429441015,-2.105657011799159,73749.01547353526,10.5,10500073749.015474,47.655,-122.3035,60.0,9.916666666666666
2026-01-20T23:09:56+00:00,SAT-59768,240.70105606480325,71.13009959616087,826.3526010176671,-2.051190298611346,71841.3607837297,10.5,10500071841.360785,47.655,-122.3035,60.0,9.933333333333334
2026-01-20T23:09:57+00:00,SAT-59768,241.73672847749816,71.48758507622101,824.306880559852,-1.9963146392557163,69919.38306928662,10.5,10500069919.38307,47.655,-122.3035,60.0,9.95
2026-01-20T23:09:58+00:00,SAT-59768,242.81756523921143,71.84054231229351,822.315889426301,-1.9410370393257816,67983.32769572444,10.5,10500067983.327696,47.655,-122.3035,60.0,9.966666666666667
2026-01-20T23:09:59+00:00,SAT-59768,243.94566097505316,72.18848175146852,820.3800284857467,-1.8853648955614457,66033.45372816277,10.5,10500066033.453728,47.655,-122.3035,60.0,9.983333333333333
2026-01-20T23:10:00+00:00,SAT-59768,245.12314190971074,72.53088208963976,818.4996912299068,-1.8293059495583113,64070.03231002652,10.5,10500064070.03231,47.655,-122.3035,60.0,10.0
2026-01-20T23:10:01+00:00,SAT-59768,246.35214820993593,72.86718896168576,816.6752634295473,-1.7728682663570188,62093.34591315401,10.5,10500062093.345913,47.655,-122.3035,60.0,10.016666666666667
2026-01-20T23:10:02+00:00,SAT-59768,247.6348119132592,73.19681380454507,814.9071228119005,-1.716060312242161,60103.69106264405,10.5,10500060103.691063,47.655,-122.3035,60.0,10.033333333333333
2026-01-20T23:10:03+00:00,SAT-59768,248.9732299161228,73.51913298485398,813.1956386604911,-1.6588908692054694,58101.375340994826,10.5,10500058101.375341,47.655,-122.3035,60.0,10.05
2026-01-20T23:10:04+00:00,SAT-59768,250.36943132503325,73.83348724798321,811.5411715002701,-1.6013690736001156,56086.71874194118,10.5,10500056086.718742,47.655,-122.3035,60.0,10.066666666666666
2026-01-20T23:10:05+00:00,SAT-59768,251.82533872413558,74.13918161323998,809.9440727441996,-1.543504406299803,54060.05332578423,10.5,10500054060.053326,47.655,-122.3035,60.0,10.083333333333334
2026-01-20T23:10:06+00:00,SAT-59768,253.3427229086532,74.43548582287355,808.40468434965,-1.48530668998525,52021.72312435267,10.5,10500052021.723124,47.655,-122.3035,60.0,10.1
2026-01-20T23:10:07+00:00,SAT-59768,254.92315085202614,74.7216354763711,806.9233384775047,-1.4267860716151852,49972.08352706272,10.5,10500049972.083527,47.655,-122.3035,60.0,10.116666666666667
2026-01-20T23:10:08+00:00,SAT-59768,256.56792692169245,74.9968339883034,805.5003571687471,-1.3679530363106551,47911.5017672055,10.5,10500047911.501768,47.655,-122.3035,60.0,10.133333333333333
2026-01-20T23:10:09+00:00,SAT-59768,258.2780277780514,75.26025552338642,804.1360520072,-1.3088183758149061,45840.35581727848,10.5,10500045840.355818,47.655,-122.3035,60.0,10.15
2026-01-20T23:10:10+00:00,SAT-59768,260.0540317875743,75.51104904702382,802.8307238137206,-1.2493932100561338,43759.03514420434,10.5,10500043759.035145,47.655,-122.3035,60.0,10.166666666666666
2026-01-20T23:10:11+00:00,SAT-59768,261.896044485767,75.7483436383636,801.5846623188912,-1.189688955865919,41667.9396137182,10.5,10500041667.939613,47.655,-122.3035,60.0,10.183333333333334
2026-01-20T23:10:12+00:00,SAT-59768,263.80362218429127,75.97125516948138,800.3981458669076,-1.1297173248530918,39567.47941590133,10.5,10500039567.479416,47.655,-122.3035,60.0,10.2
2026-01-20T23:10:13+00:00,SAT-59768,265.77569666477524,76.17889443204426,799.2714411215875,-1.0694903234171995,37458.075065652905,10.5,10500037458.075066,47.655,-122.3035,60.0,10.216666666666667
2026-01-20T23:10:14+00:00,SAT-59768,267.81050463472036,76.37037673182222,798.2048027723661,-1.0090202235351438,35340.156379514425,10.5,10500035340.15638,47.655,-122.3035,60.0,10.233333333333333
2026-01-20T23:10:15+00:00,SAT-59768,269.90552623656583,76.54483289195414,797.198473269427,-0.9483195773204073,33214.16298559544,10.5,10500033214.162985,47.655,-122.3035,60.0,10.25
2026-01-20T23:10:16+00:00,SAT-59768,272.05743753589854,76.70142152898462,796.2526825443127,-0.8874011740032666,31080.54281683864,10.5,10500031080.542816,47.655,-122.3035,60.0,10.266666666666667
2026-01-20T23:10:17+00:00,SAT-59768,274.26208191131883,76.83934234398545,795.3676477734402,-0.8262780641836749,28939.752960458354,10.5,10500028939.75296,47.655,-122.3035,60.0,10.283333333333333
2026-01-20T23:10:18+00:00,SAT-59768,276.5144653130716,76.95785008389171,794.5435731174276,-0.7649635146088506,26792.258074060457,10.5,10500026792.258074,47.655,-122.3035,60.0,10.3
2026-01-20T23:10:19+00:00,SAT-59768,278.8087793169016,77.05626869983809,793.7806495055245,-0.7034710119067861,24638.530516405634,10.5,10500024638.530516,47.655,-122.3035,60.0,10.316666666666666
2026-01-20T23:10:20+00:00,SAT-59768,281.1384548839494,77.13400516079633,793.0790544163161,-0.6418142463642552,22479.04977924655,10.5,10500022479.04978,47.655,-122.3035,60.0,10.333333333333334
2026-01-20T23:10:21+00:00,SAT-59768,283.49624777142805,77.19056231037654,792.4389516746089,-0.5800070956181668,20314.301916130094,10.5,10500020314.301916,47.655,-122.3035,60.0,10.35
2026-01-20T23:10:22+00:00,SAT-59768,285.8743543707267,77.2255501415025,791.860491264579,-0.5180636099940599,18144.779028889476,10.5,10500018144.779028,47.655,-122.3035,60.0,10.366666666666667
2026-01-20T23:10:23+00:00,SAT-59768,288.2645543602547,77.23869489766652,791.3438091575449,-0.45599799921107514,15970.978801996043,10.5,10500015970.978802,47.655,-122.3035,60.0,10.383333333333333
2026-01-20T23:10:24+00:00,SAT-59768,290.6583742660761,77.22984549639376,790.8890271529983,-0.3938246124251803,13793.403803588659,10.5,10500013793.403803,47.655,-122.3035,60.0,10.4
2026-01-20T23:10:25+00:00,SAT-59768,293.04726407331276,77.19897690721203,790.4962527395397,-0.33155792632424963,11612.56106851301,10.5,10500011612.561068,47.655,-122.3035,60.0,10.416666666666666
2026-01-20T23:10:26+00:00,SAT-59768,295.4227778654977,77.14619029117996,790.1655789676856,-0.2692125260586416,9428.961430429768,10.5,10500009428.96143,47.655,-122.3035,60.0,10.433333333333334
2026-01-20T23:10:27+00:00,SAT-59768,297.77674900536556,77.07170990351314,789.8970843416964,-0.2068030910605965,7243.1190251499365,10.5,10500007243.119024,47.655,-122.3035,60.0,10.45
2026-01-20T23:10:28+00:00,SAT-59768,300.10145097156203,76.97587695401249,789.6908327255454,-0.14434437248639434,5055.550500563762,10.5,10500005055.5505,47.655,-122.3035,60.0,10.466666666666667
2026-01-20T23:10:29+00:00,SAT-59768,302.3897361922303,76.85914079698266,789.5468732713856,-0.08185118355979779,2866.77467842729,10.5,10500002866.77468,47.655,-122.3035,60.0,10.483333333333333
2026-01-20T23:10:30+00:00,SAT-59768,304.6351474414836,76.72204794770622,789.4652403576486,-0.019338375931447344,677.3117263683702,10.5,10500000677.311726,47.655,-122.3035,60.0,10.5
2026-01-20T23:10:31+00:00,SAT-59768,306.8319983939204,76.56522951899996,789.4459535507197,0.04317917491911621,-1512.3173533962624,10.5,10499998487.682646,47.655,-122.3035,60.0,10.516666666666667
2026-01-20T23:10:32+00:00,SAT-59768,308.97542255448525,76.38938769476698,789.4890175811723,0.10568658811264411,-3701.59136952926,10.5,10499996298.40863,47.655,-122.3035,60.0,10.533333333333333
2026-01-20T23:10:33+00:00,SAT-59768,311.061391876665,76.19528183886744,789.5944223383834,0.16816899484163172,-5889.989553496816,10.5,10499994110.010447,47.655,-122.3035,60.0,10.55
2026-01-20T23:10:34+00:00,SAT-59768,313.0867080236676,75.98371478701719,789.762142882572,0.2306115552465184,-8076.992150644574,10.5,10499991923.007849,47.655,-122.3035,60.0,10.566666666666666
2026-01-20T23:10:35+00:00,SAT-59768,315.0489705681924,75.7555197714056,789.9921394736712,0.29299947723773345,-10262.08107942529,10.5,10499989737.91892,47.655,-122.3035,60.0,10.583333333333334
2026-01-20T23:10:36+00:00,SAT-59768,316.9465269970219,75.51154832908007,790.2843576189696,0.3553180346359657,-12444.740566747812,10.5,10499987555.259434,47.655,-122.3035,60.0,10.6
2026-01-20T23:10:37+00:00,SAT-59768,318.7784095491692,75.25265943764722,790.6387281388465,0.41755257967170145,-14624.457585763766,10.5,10499985375.542414,47.655,-122.3035,60.0,10.616666666666667
2026-01-20T23:10:38+00:00,SAT-59768,320.54426364594167,74.97971002413468,791.0551672449725,0.47968856769918966,-16800.722721455157,10.5,10499983199.277279,47.655,-122.3035,60.0,10.633333333333333
2026-01-20T23:10:39+00:00,SAT-59768,322.2442722253107,74.69354689177942,791.5335766431579,0.5417115632480688,-18973.030382587953,10.5,10499981026.969618,47.655,-122.3035,60.0,10.65
2026-01-20T23:10:40+00:00,SAT-59768,323.8790794458091,74.39500005907654,792.0738436422372,0.6036072686342338,-21140.87980378564,10.5,10499978859.120195,47.655,-122.3035,60.0,10.666666666666666
2026-01-20T23:10:41+00:00,SAT-59768,325.449716641584,74.08487742479696,792.6758412914885,0.6653615325922033,-23303.775347871277,10.5,10499976696.224651,47.655,-122.3035,60.0,10.683333333333334
2026-01-20T23:10:42+00:00,SAT-59768,326.9575325012879,73.76396066152657,793.3394285266604,0.726960365481817,-25461.227038470322,10.5,10499974538.77296,47.655,-122.3035,60.0,10.7
2026-01-20T23:10:43+00:00,SAT-59768,328.40412887839403,73.4330022012087,794.0644503311677,0.7883899544646947,-27612.751091554463,10.5,10499972387.248909,47.655,-122.3035,60.0,10.716666666666667
2026-01-20T23:10:44+00:00,SAT-59768,329.79130303144467,73.09272317091298,794.8507379124204,0.849636690525646,-29757.87086184564,10.5,10499970242.129139,47.655,-122.3035,60.0,10.733333333333333
2026-01-20T23:10:45+00:00,SAT-59768,331.1209966478046,72.74381213163079,795.6981089051047,0.9106871554649124,-31896.116387229395,10.5,10499968103.883614,47.655,-122.3035,60.0,10.75
2026-01-20T23:10:46+00:00,SAT-59768,332.39525156960104,72.38692450006067,796.6063675614882,0.971528167241916,-34027.02597688471,10.5,10499965972.974024,47.655,-122.3035,60.0,10.766666666666667
2026-01-20T23:10:47+00:00,SAT-59768,333.6161720480601,72.02268250314856,797.575304986951,1.0321467702258265,-36150.145869817636,10.5,10499963849.85413,47.655,-122.3035,60.0,10.783333333333333
2026-01-20T23:10:48+00:00,SAT-59768,334.78589299658967,71.65167557506791,798.6046993657895,1.092530260717848,-38265.031128759765,10.5,10499961734.968872,47.655,-122.3035,60.0,10.8
2026-01-20T23:10:49+00:00,SAT-59768,335.906553755828,71.27446108358221,799.6943162124788,1.1526661894502641,-40371.2457276953,10.5,10499959628.754272,47.655,-122.3035,60.0,10.816666666666666
2026-01-20T23:10:50+00:00,SAT-59768,336.9802767511021,70.89156530981302,800.8439086254238,1.2125423755356728,-42468.36304042233,10.5,10499957531.63696,47.655,-122.3035,60.0,10.833333333333334
2026-01-20T23:10:51+00:00,SAT-59768,338.00915045940957,70.50348460590287,802.0532175546248,1.2721469293522492,-44555.966642091495,10.5,10499955444.033358,47.655,-122.3035,60.0,10.85
2026-01-20T23:10:52+00:00,SAT-59768,338.9952161105902,70.11068666947156,803.3219720921654,1.3314682357379342,-46633.64972059541,10.5,10499953366.350279,47.655,-122.3035,60.0,10.866666666666667
2026-01-20T23:10:53+00:00,SAT-59768,339.9404575478256,69.7136118994179,804.6498897459414,1.390494997093697,-48701.01658622719,10.5,10499951298.983414,47.655,-122.3035,60.0,10.883333333333333
2026-01-20T23:10:54+00:00,SAT-59768,340.8467937988038,69.31267477658136,806.0366767563762,1.449216206684845,-50757.681736579485,10.5,10499949242.318264,47.655,-122.3035,60.0,10.9
2026-01-20T23:10:55+00:00,SAT-59768,341.7160738601029,68.90826526049395,807.4820283865099,1.5076211854550652,-52803.271145927836,10.5,10499947196.728853,47.655,-122.3035,60.0,10.916666666666666
2026-01-20T23:10:56+00:00,SAT-59768,342.550073348167,68.50075016066674,808.9856292488037,1.5656995780881025,-54837.42212729406,10.5,10499945162.577873,47.655,-122.3035,60.0,10.933333333333334
2026-01-20T23:10:57+00:00,SAT-59768,343.350492646833,68.09047447737939,810.5471536280169,1.6234413481734478,-56859.783163128144,10.5,10499943140.216837,47.655,-122.3035,60.0,10.95
2026-01-20T23:10:58+00:00,SAT-59768,344.11895626178375,67.67776269922624,812.1662657992619,1.6808368003498524,-58870.01468086782,10.5,10499941129.98532,47.655,-122.3035,60.0,10.966666666666667
2026-01-20T23:10:59+00:00,SAT-59768,344.8570131466479,67.26292004180253,813.8426203681441,1.7378765871519384,-60867.78929273581,10.5,10499939132.210707,47.655,-122.3035,60.0,10.983333333333333
2026-01-20T23:11:00+00:00,SAT-59768,345.56613778090446,66.84623362649108,815.5758626177303,1.7945516937348907,-62852.79126073395,10.5,10499937147.208738,47.655,-122.3035,60.0,11.0
2026-01-20T23:11:01+00:00,SAT-59768,346.24773181666103,66.42797360115507,817.3656288402818,1.8508534541669683,-64824.717067275815,10.5,10499935175.282932,47.655,-122.3035,60.0,11.016666666666667
2026-01-20T23:11:02+00:00,SAT-59768,346.90312616336087,66.00839419368188,819.2115466852377,1.9067735603709937,-66783.2757283555,10.5,10499933216.724272,47.655,-122.3035,60.0,11.033333333333333
2026-01-20T23:11:03+00:00,SAT-59768,347.533583386662,65.5877347005293,821.1132355161144,1.9623040498065034,-68728.18836212446,10.5,10499931271.811638,47.655,-122.3035,60.0,11.05
2026-01-20T23:11:04+00:00,SAT-59768,348.1403003171259,65.16622041617289,823.0703067551215,2.017437325447107,-70659.18888858313,10.5,10499929340.811111,47.655,-122.3035,60.0,11.066666666666666
2026-01-20T23:11:05+00:00,SAT-59768,348.7244108017658,64.74406349803836,825.0823642477006,2.0721661194961345,-72576.02275874936,10.5,10499927423.977242,47.655,-122.3035,60.0,11.083333333333334
2026-01-20T23:11:06+00:00,SAT-59768,349.28698851859843,64.32146378125347,827.1490045908781,2.126483555735925,-74478.44913839432,10.5,10499925521.550861,47.655,-122.3035,60.0,11.1
2026-01-20T23:11:07+00:00,SAT-59768,349.8290498330791,63.89860952548413,829.2698175237988,2.1803830795890438,-76366.23845849038,10.5,10499923633.761541,47.655,-122.3035,60.0,11.116666666666667
2026-01-20T23:11:08+00:00,SAT-59768,350.3515566204789,63.47567812396525,831.444386248509,2.2338585108575093,-78239.17426236202,10.5,10499921760.825737,47.655,-122.3035,60.0,11.133333333333333
2026-01-20T23:11:09+00:00,SAT-59768,350.85541905839085,63.05283675268899,833.6722878033374,2.286904013236854,-80097.05213793927,10.5,10499919902.947863,47.655,-122.3035,60.0,11.15
2026-01-20T23:11:10+00:00,SAT-59768,351.34149834434044,62.63024297969025,835.9530934058723,2.3395141016144145,-81939.67997337462,10.5,10499918060.320026,47.655,-122.3035,60.0,11.166666666666666
2026-01-20T23:11:11+00:00,SAT-59768,351.8106093323193,62.20804532968844,838.2863688032159,2.3916836384311106,-83766.87782961725,10.5,10499916233.12217,47.655,-122.3035,60.0,11.183333333333334
2026-01-20T23:11:12+00:00,SAT-59768,352.2635230734911,61.786383809299096,840.6716746186111,2.4434078345188674,-85578.477969743,10.5,10499914421.52203,47.655,-122.3035,60.0,11.2
2026-01-20T23:11:13+00:00,SAT-59768,352.70096925421564,61.36539039475711,843.1085666989046,2.494682224011328,-87374.32398022151,10.5,10499912625.67602,47.655,-122.3035,60.0,11.216666666666667
2026-01-20T23:11:14+00:00,SAT-59768,353.12363852225036,60.94518948917853,845.5965964369852,2.545502702732235,-89154.2721154395,10.5,10499910845.727884,47.655,-122.3035,60.0,11.233333333333333
2026-01-20T23:11:15+00:00,SAT-59768,353.5321847098135,60.525898341144796,848.1353111325102,2.595865484047648,-90918.18975145901,10.5,10499909081.81025,47.655,-122.3035,60.0,11.25
2026-01-20T23:11:16+00:00,SAT-59768,353.92722693860344,60.10762744100287,850.7242543086003,2.6457671007710073,-92665.9554527405,10.5,10499907334.044548,47.655,-122.3035,60.0,11.266666666666667
2026-01-20T23:11:17+00:00,SAT-59768,354.3093516165537,59.69048088898225,853.362966030436,2.6952044303189955,-94397.45985320769,10.5,10499905602.540146,47.655,-122.3035,60.0,11.283333333333333
2026-01-20T23:11:18+00:00,SAT-59768,354.67911433104615,59.27455673391282,856.0509832489408,2.744174643058366,-96112.60384713495,10.5,10499903887.396152,47.655,-122.3035,60.0,11.3
2026-01-20T23:11:19+00:00,SAT-59768,355.0370416305939,58.859947296388675,858.787840092951,2.7926752361400404,-97811.29977416052,10.5,10499902188.700226,47.655,-122.3035,60.0,11.316666666666666
2026-01-20T23:11:20+00:00,SAT-59768,355.38363271084984,58.44673946484103,861.573068195128,2.8407039882429004,-99493.46983422262,10.5,10499900506.530167,47.655,-122.3035,60.0,11.333333333333334
2026-01-20T23:11:21+00:00,SAT-59768,355.71936099832794,58.03501497810009,864.4061969727355,2.888258999800651,-101159.0474964745,10.5,10499898840.952503,47.655,-122.3035,60.0,11.35
2026-01-20T23:11:22+00:00,SAT-59768,356.0446756468023,57.6248506833735,867.2867539485368,2.9353386672902224,-102807.97659875531,10.5,10499897192.023401,47.655,-122.3035,60.0,11.366666666666667
2026-01-20T23:11:23+00:00,SAT-59768,356.36000294231974,57.21631878083636,870.2142650460476,2.981941623269333,-104440.2092474521,10.5,10499895559.790752,47.655,-122.3035,60.0,11.383333333333333
2026-01-20T23:11:24+00:00,SAT-59768,356.6657476186502,56.80948706032112,873.1882548249882,3.028066841619654,-106055.70950356052,10.5,10499893944.290497,47.655,-122.3035,60.0,11.4
2026-01-20T23:11:25+00:00,SAT-59768,356.9622941049068,56.40441910862811,876.2082468216969,3.0737135053253075,-107654.44875172853,10.5,10499892345.551249,47.655,-122.3035,60.0,11.416666666666666
2026-01-20T23:11:26+00:00,SAT-59768,357.2500076846939,56.00117452113263,879.2737637576746,3.118881104269976,-109236.40912552492,10.5,10499890763.590874,47.655,-122.3035,60.0,11.433333333333334
2026-01-20T23:11:27+00:00,SAT-59768,357.52923559484424,55.59980908732346,882.3843278456666,3.1635693652605035,-110801.58105656978,10.5,10499889198.418943,47.655,-122.3035,60.0,11.45
2026-01-20T23:11:28+00:00,SAT-59768,357.8003080508265,55.20037497386545,885.5394610259531,3.207778239377435,-112349.9628314968,10.5,10499887650.037169,47.655,-122.3035,60.0,11.466666666666667
2026-01-20T23:11:29+00:00,SAT-59768,358.06353920920645,54.80292089788976,888.7386851900255,3.2515079737411074,-113881.56310550557,10.5,10499886118.436895,47.655,-122.3035,60.0,11.483333333333333
2026-01-20T23:11:30+00:00,SAT-59768,358.3192280773512,54.407492281179216,891.9815224758365,3.2947589835717728,-115396.39642136566,10.5,10499884603.603579,47.655,-122.3035,60.0,11.5
2026-01-20T23:11:31+00:00,SAT-59768,358.56765935769965,54.01413141051151,895.2674954354522,3.337531942430751,-116894.48637004365,10.5,10499883105.51363,47.655,-122.3035,60.0,11.516666666666667
2026-01-20T23:11:32+00:00,SAT-59768,358.8091042479404,53.622877577876295,898.5961272927032,3.379827728617982,-118375.86371331867,10.5,10499881624.136286,47.655,-122.3035,60.0,11.533333333333333
2026-01-20T23:11:33+00:00,SAT-59768,359.04382118859957,53.23376721887835,901.9669421473781,3.421647438733363,-119840.56685875771,10.5,10499880159.433142,47.655,-122.3035,60.0,11.55
2026-01-20T23:11:34+00:00,SAT-59768,359.27205656643105,52.84683404166133,905.3794651929414,3.4629923462556933,-121288.64040897513,10.5,10499878711.35959,47.655,-122.3035,60.0,11.566666666666666
2026-01-20T23:11:35+00:00,SAT-59768,359.49404537264286,52.46210915319934,908.8332228929405,3.503863950907079,-122720.13689058291,10.5,10499877279.86311,47.655,-122.3035,60.0,11.583333333333334
2026-01-20T23:11:36+00:00,SAT-59768,359.7100118247863,52.07962117315022,912.3277432066451,3.544263899148043,-124135.1139695931,10.5,10499875864.88603,47.655,-122.3035,60.0,11.6
2026-01-20T23:11:37+00:00,SAT-59768,359.9201699463861,51.69939635006748,915.8625557353955,3.5841940328404656,-125533.63615579979,10.5,10499874466.363844,47.655,-122.3035,60.0,11.616666666666667
2026-01-20T23:11:38+00:00,SAT-59768,0.12472411512313172,51.321458666050894,919.4371919174818,3.623656370505576,-126915.77414635477,10.5,10499873084.225853,47.655,-122.3035,60.0,11.633333333333333
2026-01-20T23:11:39+00:00,SAT-59768,0.32386957717653064,50.945829937888114,923.0511852043326,3.662653065574082,-128281.60336351042,10.5,10499871718.396637,47.655,-122.3035,60.0,11.65
2026-01-20T23:11:40+00:00,SAT-59768,0.5177929290107294,50.572529916994675,926.7040711950651,3.701186470112355,-129631.20618658034,10.5,10499870368.793814,47.655,-122.3035,60.0,11.666666666666666
2026-01-20T23:11:41+00:00,SAT-59768,0.7066725741216499,50.20157637782331,930.3953878345906,3.7392590057349917,-130964.66743075108,10.5,10499869035.33257,47.655,-122.3035,60.0,11.683333333333334
2026-01-20T23:11:42+00:00,SAT-59768,0.8906791465538634,49.83298521433977,934.124675482977,3.7768733358279123,-132282.0803790637,10.5,10499867717.91962,47.655,-122.3035,60.0,11.7
2026-01-20T23:11:43+00:00,SAT-59768,1.0699759182293804,49.466770514907765,937.891477156576,3.8140321654857416,-133583.5397753745,10.5,10499866416.460224,47.655,-122.3035,60.0,11.716666666666667
2026-01-20T23:11:44+00:00,SAT-59768,1.2447191730851206,49.1029446524999,941.6953385696204,3.8507383707926337,-134869.14635231637,10.5,10499865130.853647,47.655,-122.3035,60.0,11.733333333333333
2026-01-20T23:11:45+00:00,SAT-59768,1.415058565788541,48.74151835815502,945.5358083047576,3.8869949350115887,-136139.00459637874,10.5,10499863860.995403,47.655,-122.3035,60.0,11.75
2026-01-20T23:11:46+00:00,SAT-59768,1.581137457017223,48.38250079670667,949.4124379199425,3.9228049540113505,-137393.22293798058,10.5,10499862606.777061,47.655,-122.3035,60.0,11.766666666666667
2026-01-20T23:11:47+00:00,SAT-59768,1.7430932298926034,48.025899638303066,953.3247820607431,3.958171621308995,-138631.91322759842,10.5,10499861368.086773,47.655,-122.3035,60.0,11.783333333333333
2026-01-20T23:11:48+00:00,SAT-59768,1.901057587940889,47.6717211277191,957.2723985577286,3.993098253142061,-139855.19161389858,10.5,10499860144.808386,47.655,-122.3035,60.0,11.8
2026-01-20T23:11:49+00:00,SAT-59768,2.0551568372902795,47.31997014813153,961.2548485488622,4.027588234091448,-141063.17663922088,10.5,10499858936.82336,47.655,-122.3035,60.0,11.816666666666666
2026-01-20T23:11:50+00:00,SAT-59768,2.2055121509834934,46.970650286515344,965.2716965476628,4.061645024611584,-142255.9895033171,10.5,10499857744.010496,47.655,-122.3035,60.0,11.833333333333334
2026-01-20T23:11:51+00:00,SAT-59768,2.35223981901849,46.623763895208945,969.3225105188754,4.095272206972472,-143433.75567243574,10.5,10499856566.244328,47.655,-122.3035,60.0,11.85
2026-01-20T23:11:52+00:00,SAT-59768,2.495451486189547,46.27931214671167,973.4068619999628,4.128473396445746,-144596.60176868204,10.5,10499855403.398232,47.655,-122.3035,60.0,11.866666666666667
2026-01-20T23:11:53+00:00,SAT-59768,2.6352543737817893,45.93729509324866,977.5243261340179,4.161252315927985,-145744.65818364196,10.5,10499854255.341816,47.655,-122.3035,60.0,11.883333333333333
2026-01-20T23:11:54+00:00,SAT-59768,2.7717514917643293,45.59771171740898,981.6744817771034,4.193612688046654,-146878.05529947614,10.5,10499853121.9447,47.655,-122.3035,60.0,11.9
2026-01-20T23:11:55+00:00,SAT-59768,2.905041835991922,45.2605599890498,985.856911497982,4.225558397442451,-147996.92917273368,10.5,10499852003.070827,47.655,-122.3035,60.0,11.916666666666666
2026-01-20T23:11:56+00:00,SAT-59768,3.0352205799378846,44.92583690671676,990.0712017396978,4.257093263723245,-149101.4135822392,10.5,10499850898.586418,47.655,-122.3035,60.0,11.933333333333334
2026-01-20T23:11:57+00:00,SAT-59768,3.162379249187598,44.59353855484897,994.3169427547178,4.288221259487452,-150191.64766519325,10.5,10499849808.352335,47.655,-122.3035,60.0,11.95
2026-01-20T23:11:58+00:00,SAT-59768,3.286605893264523,44.26366014150347,998.5937287575133,4.318946317667949,-151267.7691695415,10.5,10499848732.230831,47.655,-122.3035,60.0,11.966666666666667
2026-01-20T23:11:59+00:00,SAT-59768,3.407985242758806,43.93619604898161,1002.9011578850008,4.349272460907424,-152329.91898524662,10.5,10499847670.081015,47.655,-122.3035,60.0,11.983333333333333
2026-01-20T23:12:00+00:00,SAT-59768,3.526598861959652,43.611139872371396,1007.2388322860124,4.379203740168222,-153378.2389941455,10.5,10499846621.761005,47.655,-122.3035,60.0,12.0
2026-01-20T23:12:01+00:00,SAT-59768,3.6425252917858972,43.288484460911526,1011.6063581495403,4.4087442137733595,-154412.87133587687,10.5,10499845587.128664,47.655,-122.3035,60.0,12.016666666666667
2026-01-20T23:12:02+00:00,SAT-59768,3.755840184854011,42.96822195889981,1016.003345712077,4.43789799701615,-155433.96014542025,10.5,10499844566.039854,47.655,-122.3035,60.0,12.033333333333333
2026-01-20T23:12:03+00:00,SAT-59768,3.866616434879524,42.65034384119006,1020.4294093144343,4.46666919704835,-156441.64927260336,10.5,10499843558.350727,47.655,-122.3035,60.0,12.05
2026-01-20T23:12:04+00:00,SAT-59768,3.974924297852817,42.33484095163126,1024.884167393624,4.495061978539109,-157436.08458175638,10.5,10499842563.915419,47.655,-122.3035,60.0,12.066666666666666
2026-01-20T23:12:05+00:00,SAT-59768,4.080831508690536,42.021703535192344,1029.3672425402203,4.523080458546912,-158417.41026968253,10.5,10499841582.589731,47.655,-122.3035,60.0,12.083333333333334
2026-01-20T23:12:06+00:00,SAT-59768,4.184403389565077,41.71092127575181,1033.8782614508777,4.550728844627414,-159385.77370277885,10.5,10499840614.226297,47.655,-122.3035,60.0,12.1
2026-01-20T23:12:07+00:00,SAT-59768,4.285702955968059,41.40248332288007,1038.4168550185861,4.578011285245302,-160341.32017782674,10.5,10499839658.679823,47.655,-122.3035,60.0,12.116666666666667
2026-01-20T23:12:08+00:00,SAT-59768,4.3847910141779645,41.096378327312316,1042.9826582737373,4.604931993943189,-161284.19727091162,10.5,10499838715.802729,47.655,-122.3035,60.0,12.133333333333333
2026-01-20T23:12:09+00:00,SAT-59768,4.481726256626065,40.79259446665901,1047.5753104490302,4.631495122854219,-162214.5504072998,10.5,10499837785.449593,47.655,-122.3035,60.0,12.15
2026-01-20T23:12:10+00:00,SAT-59768,4.576565349921863,40.491119478099556,1052.1944549182235,4.657704851377914,-163132.5259672413,10.5,10499836867.474033,47.655,-122.3035,60.0,12.166666666666666
2026-01-20T23:12:11+00:00,SAT-59768,4.669363020463164,40.19194068387144,1056.839739223331,4.683565406884014,-164038.27201110625,10.5,10499835961.72799,47.655,-122.3035,60.0,12.183333333333334
2026-01-20T23:12:12+00:00,SAT-59768,4.760172136261347,39.895045014329725,1061.5108151224633,4.709080911522354,-164931.93291401851,10.5,10499835068.067085,47.655,-122.3035,60.0,12.2
2026-01-20T23:12:13+00:00,SAT-59768,4.849043781876228,39.60041903945868,1066.2073384848882,4.734255554386106,-165813.65539574088,10.5,10499834186.344604,47.655,-122.3035,60.0,12.216666666666667
2026-01-20T23:12:14+00:00,SAT-59768,4.936027333084224,39.30804898828987,1070.928969357796,4.759093482044809,-166683.58468667849,10.5,10499833316.415314,47.655,-122.3035,60.0,12.233333333333333
2026-01-20T23:12:15+00:00,SAT-59768,5.021170525953119,39.017920774114906,1075.6753719238886,4.783598856555489,-167541.86655967386,10.5,10499832458.13344,47.655,-122.3035,60.0,12.25
2026-01-20T23:12:16+00:00,SAT-59768,5.104519523682991,38.73002001503853,1080.4462145168268,4.807775763282393,-168388.6441014641,10.5,10499831611.355898,47.655,-122.3035,60.0,12.266666666666667
2026-01-20T23:12:17+00:00,SAT-59768,5.186118978776474,38.44433205898744,1085.2411695447404,4.831628348063224,-169224.0625168224,10.5,10499830775.937483,47.655,-122.3035,60.0,12.283333333333333
2026-01-20T23:12:18+00:00,SAT-59768,5.266012094623224,38.16084199955336,1090.059913550542,4.855160693158785,-170048.26478379,10.5,10499829951.735216,47.655,-122.3035,60.0,12.3
2026-01-20T23:12:19+00:00,SAT-59768,5.344240682148535,37.87953469827829,1094.902127148519,4.878376863498317,-170861.39327338358,10.5,10499829138.606726,47.655,-122.3035,60.0,12.316666666666666
2026-01-20T23:12:20+00:00,SAT-59768,5.420845214664437,37.60039480320417,1099.7674950070482,4.901280894086065,-171663.58930851982,10.5,10499828336.410692,47.655,-122.3035,60.0,12.333333333333334
2026-01-20T23:12:21+00:00,SAT-59768,5.495864879996973,37.32340676727796,1104.65570581875,4.923876827795928,-172454.99448774406,10.5,10499827545.005512,47.655,-122.3035,60.0,12.35
2026-01-20T23:12:22+00:00,SAT-59768,5.569337630853407,37.04855486376152,1109.5664523083383,4.946168663278173,-173235.74886070288,10.5,10499826764.251139,47.655,-122.3035,60.0,12.366666666666667
2026-01-20T23:12:23+00:00,SAT-59768,5.641300232084822,36.7758232038238,1114.4994311885146,4.9681603490437585,-174005.99072095222,10.5,10499825994.00928,47.655,-122.3035,60.0,12.383333333333333
2026-01-20T23:12:24+00:00,SAT-59768,5.711788305821175,36.50519575352175,1119.4543431099607,4.9898558449074635,-174765.8587579557,10.5,10499825234.141243,47.655,-122.3035,60.0,12.4
2026-01-20T23:12:25+00:00,SAT-59768,5.780836375439996,36.23665634674567,1124.430892672615,5.011259059430616,-175515.48986606413,10.5,10499824484.510134,47.655,-122.3035,60.0,12.416666666666666
2026-01-20T23:12:26+00:00,SAT-59768,5.848477906710264,35.97018870081627,1129.428788374554,5.0323738711808055,-176255.01988912097,10.5,10499823744.98011,47.655,-122.3035,60.0,12.433333333333334
2026-01-20T23:12:27+00:00,SAT-59768,5.914745347444509,35.70577643022482,1134.4477425820783,5.053204148231015,-176984.58430340386,10.5,10499823015.415697,47.655,-122.3035,60.0,12.45
2026-01-20T23:12:28+00:00,SAT-59768,5.979670165657462,35.44340305869515,1139.4874715192475,5.073753679813713,-177704.31582386233,10.5,10499822295.684175,47.655,-122.3035,60.0,12.466666666666667
2026-01-20T23:12:29+00:00,SAT-59768,6.043282885183313,35.18305203414205,1144.5476951892483,5.0940262851941025,-178414.34821731932,10.5,10499821585.651783,47.655,-122.3035,60.0,12.483333333333333
2026-01-20T23:12:30+00:00,SAT-59768,6.105613121169148,34.92470673739082,1149.6281374043485,5.1140256856541475,-179114.81181881015,10.5,10499820885.18818,47.655,-122.3035,60.0,12.5
2026-01-20T23:12:31+00:00,SAT-59768,6.166689612420449,34.66835049686213,1154.7285256881742,5.133755619374111,-179805.83755522018,10.5,10499820194.162445,47.655,-122.3035,60.0,12.516666666666667
2026-01-20T23:12:32+00:00,SAT-59768,6.226540253773151,34.413966596857556,1159.8485912925635,5.153219741126251,-180487.5534321335,10.5,10499819512.446568,47.655,-122.3035,60.0,12.533333333333333
2026-01-20T23:12:33+00:00,SAT-59768,6.285192125930494,34.161538290307256,1164.9880691143799,5.172421735135175,-181160.0884866801,10.5,10499818839.911512,47.655,-122.3035,60.0,12.55
2026-01-20T23:12:34+00:00,SAT-59768,6.3426715253027455,33.91104880546252,1170.146697724888,5.191365178929575,-181823.56801904782,10.5,10499818176.43198,47.655,-122.3035,60.0,12.566666666666666
2026-01-20T23:12:35+00:00,SAT-59768,6.3990039910989065,33.66248135870604,1175.3242192633406,5.210053652203163,-182478.11740525241,10.5,10499817521.882595,47.655,-122.3035,60.0,12.583333333333334
2026-01-20T23:12:36+00:00,SAT-59768,6.45421433247722,33.41581916159137,1180.520379439138,5.22849068847077,-183123.86040393013,10.5,10499816876.139597,47.655,-122.3035,60.0,12.6
2026-01-20T23:12:37+00:00,SAT-59768,6.5083266540548435,33.17104542977078,1185.7349274857727,5.2466797828560505,-183760.9194290956,10.5,10499816239.08057,47.655,-122.3035,60.0,12.616666666666667
2026-01-20T23:12:38+00:00,SAT-59768,6.561364380451255,32.928143391096036,1190.9676161225411,5.26462440182821,-184389.41589116366,10.5,10499815610.584108,47.655,-122.3035,60.0,12.633333333333333
2026-01-20T23:12:39+00:00,SAT-59768,6.613350279917383,32.68709629286754,1196.2182015259643,5.28232792288827,-185009.46808450678,10.5,10499814990.531916,47.655,-122.3035,60.0,12.65
2026-01-20T23:12:40+00:00,SAT-59768,6.664306486422229,32.44788741136697,1201.4864432410584,5.299793802667826,-185621.19707498502,10.5,10499814378.802925,47.655,-122.3035,60.0,12.666666666666666
2026-01-20T23:12:41+00:00,SAT-59768,6.714254522470196,32.2105000534934,1206.7721042602523,5.317025300266408,-186224.71701004996,10.5,10499813775.28299,47.655,-122.3035,60.0,12.683333333333334
2026-01-20T23:12:42+00:00,SAT-59768,6.763215318349824,31.97491757036761,1212.0749508263846,5.334025780739244,-186820.1457481698,10.5,10499813179.854252,47.655,-122.3035,60.0,12.7
2026-01-20T23:12:43+00:00,SAT-59768,6.811209233487981,31.74112335710299,1217.3947525383753,5.350798451094103,-187407.59561232215,10.5,10499812592.404388,47.655,-122.3035,60.0,12.716666666666667
