satellites_20260121_005943/SAT-54789.csv

timestamp,satellite,azimuth_deg,elevation_deg,distance_km,relative_velocity_kms,doppler_shift_hz,tx_freq_ghz,rx_freq_hz,ue_lat,ue_lon,ue_alt_m,time_minutes
2026-01-20T23:05:29+00:00,SAT-54789,211.2781288675099,30.050189048980993,1658.5967529848078,-6.469170617228034,226577.7195799047,10.5,10500226577.71958,47.655,-122.3035,60.0,5.483333333333333
2026-01-20T23:05:30+00:00,SAT-54789,211.22996252634084,30.161518096793888,1652.1448334892257,-6.4656534175836065,226454.53237061712,10.5,10500226454.532372,47.655,-122.3035,60.0,5.5
2026-01-20T23:05:31+00:00,SAT-54789,211.181509587823,30.273507976904895,1645.696421814089,-6.462087423123438,226329.6361604804,10.5,10500226329.63616,47.655,-122.3035,60.0,5.516666666666667
2026-01-20T23:05:32+00:00,SAT-54789,211.13276576633197,30.38616600415568,1639.2515666240938,-6.458471834540058,226203.0029543659,10.5,10500226203.002954,47.655,-122.3035,60.0,5.533333333333333
2026-01-20T23:05:33+00:00,SAT-54789,211.0837266908248,30.499499592301298,1632.8103173811126,-6.454806000853495,226074.6099522013,10.5,10500226074.609953,47.655,-122.3035,60.0,5.55
2026-01-20T23:05:34+00:00,SAT-54789,211.03438790160683,30.613516258387907,1626.3727241962613,-6.4510891236004335,225944.42918842394,10.5,10500225944.429188,47.655,-122.3035,60.0,5.566666666666666
2026-01-20T23:05:35+00:00,SAT-54789,210.9847448489958,30.728223621959497,1619.9388379769905,-6.447320503404911,225812.4361679291,10.5,10500225812.436169,47.655,-122.3035,60.0,5.583333333333333
2026-01-20T23:05:36+00:00,SAT-54789,210.9347928902656,30.84362940866175,1613.5087103282613,-6.443499291738121,225678.60117164877,10.5,10500225678.601171,47.655,-122.3035,60.0,5.6
2026-01-20T23:05:37+00:00,SAT-54789,210.88452728820522,30.95974144942813,1607.0823937013013,-6.439624782746586,225542.89947760844,10.5,10500225542.899477,47.655,-122.3035,60.0,5.616666666666666
2026-01-20T23:05:38+00:00,SAT-54789,210.83394320760164,31.076567684953087,1600.6599412513087,-6.435696127822726,225405.301363981,10.5,10500225405.301365,47.655,-122.3035,60.0,5.633333333333334
2026-01-20T23:05:39+00:00,SAT-54789,210.78303571360286,31.194116165040285,1594.2414069798267,-6.431712547262886,225265.77952224636,10.5,10500225265.779522,47.655,-122.3035,60.0,5.65
2026-01-20T23:05:40+00:00,SAT-54789,210.73179976855843,31.31239505182047,1587.8268456660232,-6.427673178454218,225124.3037400537,10.5,10500225124.30374,47.655,-122.3035,60.0,5.666666666666667
2026-01-20T23:05:41+00:00,SAT-54789,210.68023022980233,31.43141262021639,1581.4163129493784,-6.423577195053234,224980.8450753586,10.5,10500224980.845076,47.655,-122.3035,60.0,5.683333333333334
2026-01-20T23:05:42+00:00,SAT-54789,210.6283218465557,31.551177260643854,1575.009865293512,-6.419423741960097,224835.3735789478,10.5,10500224835.373579,47.655,-122.3035,60.0,5.7
2026-01-20T23:05:43+00:00,SAT-54789,210.5760692571465,31.671697480535663,1568.6075600148636,-6.415211938716586,224687.85841344998,10.5,10500224687.858414,47.655,-122.3035,60.0,5.716666666666667
2026-01-20T23:05:44+00:00,SAT-54789,210.52346698616853,31.792981905966563,1562.2094553079835,-6.4109409031223,224538.26868047542,10.5,10500224538.26868,47.655,-122.3035,60.0,5.733333333333333
2026-01-20T23:05:45+00:00,SAT-54789,210.4705094413241,31.915039283744026,1555.8156102472694,-6.406609693996664,224386.57141589923,10.5,10500224386.571415,47.655,-122.3035,60.0,5.75
2026-01-20T23:05:46+00:00,SAT-54789,210.41719091063473,32.03787848244628,1549.4260848457902,-6.402217428677053,224232.7357051426,10.5,10500224232.735704,47.655,-122.3035,60.0,5.766666666666667
2026-01-20T23:05:47+00:00,SAT-54789,210.36350555863163,32.161508495739994,1543.040939996923,-6.397763113675389,224076.72675205057,10.5,10500224076.726751,47.655,-122.3035,60.0,5.783333333333333
2026-01-20T23:05:48+00:00,SAT-54789,210.30944742374734,32.285938442471476,1536.660237584884,-6.3932458427435845,223918.51281598164,10.5,10500223918.512815,47.655,-122.3035,60.0,5.8
2026-01-20T23:05:49+00:00,SAT-54789,210.25501041406804,32.41117757063308,1530.2840403977211,-6.388664602999638,223758.05842152375,10.5,10500223758.058422,47.655,-122.3035,60.0,5.816666666666666
2026-01-20T23:05:50+00:00,SAT-54789,210.20018830447194,32.53723525758586,1523.9124122336627,-6.384018384415461,223595.32819322078,10.5,10500223595.328194,47.655,-122.3035,60.0,5.833333333333333
2026-01-20T23:05:51+00:00,SAT-54789,210.14497473278445,32.66412101243446,1517.5454178982725,-6.379306197667075,223430.28748076208,10.5,10500223430.287481,47.655,-122.3035,60.0,5.85
2026-01-20T23:05:52+00:00,SAT-54789,210.08936319570654,32.79184447882684,1511.1831231837991,-6.37452699385266,223262.89954716916,10.5,10500223262.899548,47.655,-122.3035,60.0,5.866666666666666
2026-01-20T23:05:53+00:00,SAT-54789,210.0333470451927,32.92041543617045,1504.825594928597,-6.3696797274238826,223093.12777291672,10.5,10500223093.127773,47.655,-122.3035,60.0,5.883333333333334
2026-01-20T23:05:54+00:00,SAT-54789,209.97691948423875,33.04984380215403,1498.4729010137794,-6.364763293278964,222920.93345266583,10.5,10500222920.933453,47.655,-122.3035,60.0,5.9
2026-01-20T23:05:55+00:00,SAT-54789,209.9200735630108,33.18013963401343,1492.125110422616,-6.3597766100754,222746.27871322798,10.5,10500222746.278713,47.655,-122.3035,60.0,5.916666666666667
2026-01-20T23:05:56+00:00,SAT-54789,209.86280217418448,33.31131313153669,1485.782293216834,-6.35471856923341,222569.12472744996,10.5,10500222569.124727,47.655,-122.3035,60.0,5.933333333333334
2026-01-20T23:05:57+00:00,SAT-54789,209.80509804850624,33.443374639072914,1479.4445205637853,-6.349588008625399,222389.43079270757,10.5,10500222389.430792,47.655,-122.3035,60.0,5.95
2026-01-20T23:05:58+00:00,SAT-54789,209.7469537504636,33.576334647013894,1473.1118647898493,-6.3443837913584105,222207.1570902004,10.5,10500222207.157091,47.655,-122.3035,60.0,5.966666666666667
2026-01-20T23:05:59+00:00,SAT-54789,209.68836167309,33.710203794953294,1466.784399355268,-6.3391046943881015,222022.26078374215,10.5,10500222022.260784,47.655,-122.3035,60.0,5.983333333333333
2026-01-20T23:06:00+00:00,SAT-54789,209.62931403358468,33.844992872544275,1460.462198940065,-6.333749546773587,221834.70086202992,10.5,10500221834.700863,47.655,-122.3035,60.0,6.0
2026-01-20T23:06:01+00:00,SAT-54789,209.56980286754808,33.98071282331245,1454.1453393920829,-6.328317089129256,221644.4332160524,10.5,10500221644.433216,47.655,-122.3035,60.0,6.016666666666667
2026-01-20T23:06:02+00:00,SAT-54789,209.5098200242601,34.1173747455159,1447.8338978151912,-6.322806086326572,221451.41458638365,10.5,10500221451.414587,47.655,-122.3035,60.0,6.033333333333333
2026-01-20T23:06:03+00:00,SAT-54789,209.4493571607768,34.2549898954501,1441.5279525450949,-6.317215241749013,221255.5995600284,10.5,10500221255.59956,47.655,-122.3035,60.0,6.05
2026-01-20T23:06:04+00:00,SAT-54789,209.3884057366006,34.3935696889397,1435.227583210657,-6.311543248056367,221056.9423484024,10.5,10500221056.942348,47.655,-122.3035,60.0,6.066666666666666
2026-01-20T23:06:05+00:00,SAT-54789,209.32695700766303,34.533125703948485,1428.9328707445954,-6.305788796015303,220855.39709661636,10.5,10500220855.397097,47.655,-122.3035,60.0,6.083333333333333
2026-01-20T23:06:06+00:00,SAT-54789,209.26500202006835,34.6736696834568,1422.6438973853697,-6.299950482945105,220650.91467685823,10.5,10500220650.914677,47.655,-122.3035,60.0,6.1
2026-01-20T23:06:07+00:00,SAT-54789,209.20253160436496,34.81521353629155,1416.3607467703791,-6.294026979011247,220443.4485126977,10.5,10500220443.448513,47.655,-122.3035,60.0,6.116666666666666
2026-01-20T23:06:08+00:00,SAT-54789,209.1395363681649,34.9577693417529,1410.0835038633118,-6.288016832856484,220232.9477714649,10.5,10500220232.947771,47.655,-122.3035,60.0,6.133333333333334
2026-01-20T23:06:09+00:00,SAT-54789,209.07600669019905,35.10134934986593,1403.812255075343,-6.281918615136605,220019.36239147934,10.5,10500220019.362392,47.655,-122.3035,60.0,6.15
2026-01-20T23:06:10+00:00,SAT-54789,209.0119327128905,35.24596598492207,1397.5470882431803,-6.27573085127787,219802.64072693128,10.5,10500219802.640726,47.655,-122.3035,60.0,6.166666666666667
2026-01-20T23:06:11+00:00,SAT-54789,208.94730433522858,35.39163184751882,1391.2880926741723,-6.269452059108402,219582.73086589196,10.5,10500219582.730865,47.655,-122.3035,60.0,6.183333333333334
2026-01-20T23:06:12+00:00,SAT-54789,208.88211120504485,35.53835971750328,1385.0353591538883,-6.263080693763348,219359.5787006595,10.5,10500219359.578701,47.655,-122.3035,60.0,6.2
2026-01-20T23:06:13+00:00,SAT-54789,208.81634271150443,35.68616255565145,1378.7889800086416,-6.256615202093111,219133.12983336515,10.5,10500219133.129833,47.655,-122.3035,60.0,6.216666666666667
2026-01-20T23:06:14+00:00,SAT-54789,208.74998797681144,35.835053506652905,1372.5490491137539,-6.250053993666617,218903.32856038515,10.5,10500218903.32856,47.655,-122.3035,60.0,6.233333333333333
2026-01-20T23:06:15+00:00,SAT-54789,208.68303584784172,35.9850459014373,1366.3156619307372,-6.243395441232522,218670.11788849434,10.5,10500218670.11789,47.655,-122.3035,60.0,6.25
2026-01-20T23:06:16+00:00,SAT-54789,208.6154748874918,36.136153259537195,1360.0889155440148,-6.236637906517213,218433.44043842072,10.5,10500218433.44044,47.655,-122.3035,60.0,6.266666666666667
2026-01-20T23:06:17+00:00,SAT-54789,208.5472933653942,36.288389292102075,1353.8689086719148,-6.22977968528066,218193.23652046957,10.5,10500218193.23652,47.655,-122.3035,60.0,6.283333333333333
2026-01-20T23:06:18+00:00,SAT-54789,208.47847924885534,36.441767903592904,1347.6557417324616,-6.222819055485739,217949.4458216166,10.5,10500217949.445822,47.655,-122.3035,60.0,6.3
2026-01-20T23:06:19+00:00,SAT-54789,208.4090201929175,36.59630319466715,1341.4495168611238,-6.215754271593973,217702.00720572067,10.5,10500217702.007206,47.655,-122.3035,60.0,6.316666666666666
2026-01-20T23:06:20+00:00,SAT-54789,208.33890353012734,36.75200946496518,1335.250337934254,-6.208583551332755,217450.85825005625,10.5,10500217450.85825,47.655,-122.3035,60.0,6.333333333333333
2026-01-20T23:06:21+00:00,SAT-54789,208.2681162599813,36.90890121557776,1329.0583106057247,-6.201305013406934,217195.93306370903,10.5,10500217195.933064,47.655,-122.3035,60.0,6.35
2026-01-20T23:06:22+00:00,SAT-54789,208.19664503866068,37.06699314993368,1322.873542405687,-6.193916866497337,216937.16890710453,10.5,10500216937.168907,47.655,-122.3035,60.0,6.366666666666666
2026-01-20T23:06:23+00:00,SAT-54789,208.12447616629893,37.226300179528124,1316.6961426508335,-6.186417138447751,216674.49670698983,10.5,10500216674.496708,47.655,-122.3035,60.0,6.383333333333334
2026-01-20T23:06:24+00:00,SAT-54789,208.05159557668068,37.38683742272458,1310.526222624755,-6.178803950031218,216407.8506448878,10.5,10500216407.850645,47.655,-122.3035,60.0,6.4
2026-01-20T23:06:25+00:00,SAT-54789,207.9779888235049,37.54862021061723,1304.3638954852572,-6.17107526711057,216137.15947671034,10.5,10500216137.159477,47.655,-122.3035,60.0,6.416666666666667
2026-01-20T23:06:26+00:00,SAT-54789,207.90364106885966,37.71166408646477,1298.209276418859,-6.163229082653264,215862.35290768812,10.5,10500215862.352907,47.655,-122.3035,60.0,6.433333333333334
2026-01-20T23:06:27+00:00,SAT-54789,207.82853706914605,37.8759848098597,1292.0624826137594,-6.155263360593432,215583.35962618192,10.5,10500215583.359627,47.655,-122.3035,60.0,6.45
2026-01-20T23:06:28+00:00,SAT-54789,207.75266116110495,38.04159835948559,1285.9236332887942,-6.1471759677225615,215300.1049182061,10.5,10500215300.104918,47.655,-122.3035,60.0,6.466666666666667
2026-01-20T23:06:29+00:00,SAT-54789,207.67599724797074,38.20852093398521,1279.7928497903188,-6.138964751102535,215012.5133787609,10.5,10500215012.513378,47.655,-122.3035,60.0,6.483333333333333
2026-01-20T23:06:30+00:00,SAT-54789,207.5985287842211,38.37676895491779,1273.670255611886,-6.1306275278227185,214720.50855308224,10.5,10500214720.508553,47.655,-122.3035,60.0,6.5
2026-01-20T23:06:31+00:00,SAT-54789,207.5202387597474,38.546359069422714,1267.5559764241375,-6.1221620710142695,214424.01244680354,10.5,10500214424.012447,47.655,-122.3035,60.0,6.516666666666667
2026-01-20T23:06:32+00:00,SAT-54789,207.4411096835525,38.71730815250997,1261.450140118646,-6.113566075607548,214122.94432663565,10.5,10500214122.944326,47.655,-122.3035,60.0,6.533333333333333
2026-01-20T23:06:33+00:00,SAT-54789,207.36112356712442,38.889633308339086,1255.3528768859069,-6.104837232592944,213817.22332129488,10.5,10500213817.223322,47.655,-122.3035,60.0,6.55
2026-01-20T23:06:34+00:00,SAT-54789,207.2802619062466,39.06335187357195,1249.2643192192672,-6.095973141936905,213506.76537145406,10.5,10500213506.765371,47.655,-122.3035,60.0,6.566666666666666
2026-01-20T23:06:35+00:00,SAT-54789,207.19850566302415,39.23848141820765,1243.184602005709,-6.086971403212517,213191.48640400893,10.5,10500213191.486404,47.655,-122.3035,60.0,6.583333333333333
2026-01-20T23:06:36+00:00,SAT-54789,207.11583524606772,39.41503974899357,1237.113862526238,-6.07782950686614,212871.29852377562,10.5,10500212871.298523,47.655,-122.3035,60.0,6.6
2026-01-20T23:06:37+00:00,SAT-54789,207.03223049110883,39.5930449096132,1231.0522405647237,-6.068544935489594,212546.11356047104,10.5,10500212546.11356,47.655,-122.3035,60.0,6.616666666666666
2026-01-20T23:06:38+00:00,SAT-54789,206.9476706395271,39.77251518378393,1224.999878415729,-6.059115139634756,212215.84222163766,10.5,10500212215.842222,47.655,-122.3035,60.0,6.633333333333334
2026-01-20T23:06:39+00:00,SAT-54789,206.86213431618899,39.953469097616846,1218.9569209164665,-6.049537438857048,211880.39062676823,10.5,10500211880.390627,47.655,-122.3035,60.0,6.65
2026-01-20T23:06:40+00:00,SAT-54789,206.77559950761773,40.13592541892145,1212.9235155774463,-6.039809165970848,211539.66535974,10.5,10500211539.66536,47.655,-122.3035,60.0,6.666666666666667
2026-01-20T23:06:41+00:00,SAT-54789,206.68804353724855,40.319903160749355,1206.8998125692515,-6.029927592809495,211193.57086861637,10.5,10500211193.57087,47.655,-122.3035,60.0,6.683333333333334
2026-01-20T23:06:42+00:00,SAT-54789,206.59944304057558,40.50542158265213,1200.885964783356,-6.01988987834393,210842.0076485422,10.5,10500210842.007648,47.655,-122.3035,60.0,6.7
2026-01-20T23:06:43+00:00,SAT-54789,206.50977393985113,40.69250019020272,1194.882127944688,-6.009693221674891,210484.87760017748,10.5,10500210484.8776,47.655,-122.3035,60.0,6.716666666666667
2026-01-20T23:06:44+00:00,SAT-54789,206.41901141553342,40.88115873916805,1188.8884605716041,-5.999334648574762,210122.07655349025,10.5,10500210122.076553,47.655,-122.3035,60.0,6.733333333333333
2026-01-20T23:06:45+00:00,SAT-54789,206.32712987935506,41.071417232873245,1182.905124148759,-5.988811219206147,209753.50154293922,10.5,10500209753.501543,47.655,-122.3035,60.0,6.75
2026-01-20T23:06:46+00:00,SAT-54789,206.23410294326087,41.263295925990114,1176.9322830928038,-5.9781198943286835,209379.04612147107,10.5,10500209379.046122,47.655,-122.3035,60.0,6.766666666666667
2026-01-20T23:06:47+00:00,SAT-54789,206.1399033887256,41.456815323934144,1170.9701048515267,-5.967257553105553,208998.60098417924,10.5,10500208998.600985,47.655,-122.3035,60.0,6.783333333333333
2026-01-20T23:06:48+00:00,SAT-54789,206.04450313443496,41.65199618265158,1165.0187599852295,-5.956221025367044,208612.05509831058,10.5,10500208612.055098,47.655,-122.3035,60.0,6.8
2026-01-20T23:06:49+00:00,SAT-54789,205.94787320191597,41.8488595092499,1159.07842221593,-5.9450071222963485,208219.2967780119,10.5,10500208219.296778,47.655,-122.3035,60.0,6.816666666666666
2026-01-20T23:06:50+00:00,SAT-54789,205.84998367906277,42.04742656352576,1153.1492684459597,-5.933612511312725,207820.2093022087,10.5,10500207820.209303,47.655,-122.3035,60.0,6.833333333333333
2026-01-20T23:06:51+00:00,SAT-54789,205.75080368379173,42.24771885507794,1147.231478901344,-5.922033838806061,207414.67521328919,10.5,10500207414.675213,47.655,-122.3035,60.0,6.85
2026-01-20T23:06:52+00:00,SAT-54789,205.65030132408242,42.44975814430016,1141.3252371527747,-5.910267671265833,207002.57425519108,10.5,10500207002.574255,47.655,-122.3035,60.0,6.866666666666666
2026-01-20T23:06:53+00:00,SAT-54789,205.54844365692236,42.65356644115066,1135.4307301952988,-5.898310494865012,206583.78335882828,10.5,10500206583.78336,47.655,-122.3035,60.0,6.883333333333334
2026-01-20T23:06:54+00:00,SAT-54789,205.44519664529295,42.8591660036245,1129.5481485284201,-5.886158769783155,206158.17854471554,10.5,10500206158.178545,47.655,-122.3035,60.0,6.9
2026-01-20T23:06:55+00:00,SAT-54789,205.34052511208347,43.06657933786434,1123.677686182023,-5.873808801676749,205725.63042131593,10.5,10500205725.63042,47.655,-122.3035,60.0,6.916666666666667
2026-01-20T23:06:56+00:00,SAT-54789,205.23439269385705,43.27582919339909,1117.8195408704842,-5.8612568875849025,205286.00929527546,10.5,10500205286.009295,47.655,-122.3035,60.0,6.933333333333334
2026-01-20T23:06:57+00:00,SAT-54789,205.12676178983185,43.486938563202116,1111.9739140012662,-5.848499238774345,204839.18246912878,10.5,10500204839.182468,47.655,-122.3035,60.0,6.95
2026-01-20T23:06:58+00:00,SAT-54789,205.01759350958315,43.69993068068989,1106.141010760462,-5.835531963480923,204385.013636833,10.5,10500204385.013638,47.655,-122.3035,60.0,6.966666666666667
2026-01-20T23:06:59+00:00,SAT-54789,204.9068476183507,43.914829015642546,1100.3210402155503,-5.822351106723787,203923.36427822936,10.5,10500203923.364279,47.655,-122.3035,60.0,6.983333333333333
2026-01-20T23:07:00+00:00,SAT-54789,204.7944824788783,44.13165727115683,1094.5142153784443,-5.808952648725469,203454.09360370706,10.5,10500203454.093603,47.655,-122.3035,60.0,7.0
2026-01-20T23:07:01+00:00,SAT-54789,204.68045499020351,44.35043938011923,1088.7207532701154,-5.795332462377687,202977.05706447663,10.5,10500202977.057064,47.655,-122.3035,60.0,7.016666666666667
2026-01-20T23:07:02+00:00,SAT-54789,204.5647205240579,44.571199499561416,1082.9408750276375,-5.781486333070318,202492.10704706368,10.5,10500202492.107046,47.655,-122.3035,60.0,7.033333333333333
2026-01-20T23:07:03+00:00,SAT-54789,204.44723285753628,44.79396200521138,1077.1748059914555,-5.767410006604693,201999.09455143558,10.5,10500201999.094551,47.655,-122.3035,60.0,7.05
2026-01-20T23:07:04+00:00,SAT-54789,204.3279441012945,45.01875148735254,1071.4227757448682,-5.753099088356447,201497.86565925783,10.5,10500201497.86566,47.655,-122.3035,60.0,7.066666666666666
2026-01-20T23:07:05+00:00,SAT-54789,204.2068046258292,45.245592742149256,1065.685018254081,-5.738549145898689,200988.26512819156,10.5,10500200988.26513,47.655,-122.3035,60.0,7.083333333333333
2026-01-20T23:07:06+00:00,SAT-54789,204.08376298177373,45.47451076632271,1059.9617719059045,-5.723755603920569,200470.13271149728,10.5,10500200470.132711,47.655,-122.3035,60.0,7.1
2026-01-20T23:07:07+00:00,SAT-54789,203.95876581799052,45.70553074694189,1054.253279650261,-5.708713841436004,199943.3065626956,10.5,10500199943.306562,47.655,-122.3035,60.0,7.116666666666666
2026-01-20T23:07:08+00:00,SAT-54789,203.83175779316463,45.93867805433845,1048.5597890457354,-5.693419136179602,199407.6212880773,10.5,10500199407.621288,47.655,-122.3035,60.0,7.133333333333334
2026-01-20T23:07:09+00:00,SAT-54789,203.70268148369337,46.173978231992415,1042.8815523605858,-5.677866672666655,198862.90822899842,10.5,10500198862.90823,47.655,-122.3035,60.0,7.15
2026-01-20T23:07:10+00:00,SAT-54789,203.57147728625037,46.41145698585263,1037.2188266657129,-5.662051512450453,198308.99442016566,10.5,10500198308.994421,47.655,-122.3035,60.0,7.166666666666667
2026-01-20T23:07:11+00:00,SAT-54789,203.4380833155827,46.651140171438385,1031.5718739572956,-5.645968655283372,197745.70473175618,10.5,10500197745.704731,47.655,-122.3035,60.0,7.183333333333334
2026-01-20T23:07:12+00:00,SAT-54789,203.3024352951555,46.893053782499905,1025.9409612184263,-5.62961302360155,197172.8613260053,10.5,10500197172.861326,47.655,-122.3035,60.0,7.2
2026-01-20T23:07:13+00:00,SAT-54789,203.16446644190242,47.137223938027354,1020.326360496221,-5.612979364280796,196590.28021628337,10.5,10500196590.280216,47.655,-122.3035,60.0,7.216666666666667
2026-01-20T23:07:14+00:00,SAT-54789,203.0241073466344,47.38367686375733,1014.7283490769117,-5.596062411119411,195997.7769579307,10.5,10500195997.776958,47.655,-122.3035,60.0,7.233333333333333
2026-01-20T23:07:15+00:00,SAT-54789,202.88128584372663,47.632438879534455,1009.1472094988886,-5.578856744748802,195395.1617417354,10.5,10500195395.161741,47.655,-122.3035,60.0,7.25
2026-01-20T23:07:16+00:00,SAT-54789,202.735926876518,47.88353637921199,1003.5832297054591,-5.561356848794818,194782.24136094042,10.5,10500194782.241362,47.655,-122.3035,60.0,7.266666666666667
2026-01-20T23:07:17+00:00,SAT-54789,202.58795235348543,48.13699581154384,998.0367031415944,-5.543557127347549,194158.81982310998,10.5,10500194158.819822,47.655,-122.3035,60.0,7.283333333333333
2026-01-20T23:07:18+00:00,SAT-54789,202.43728099537947,48.39284366036828,992.5079288332531,-5.525451856953871,193524.69666870552,10.5,10500193524.696669,47.655,-122.3035,60.0,7.3
2026-01-20T23:07:19+00:00,SAT-54789,202.28382817450697,48.65110642095627,986.9972115145845,-5.507035227608291,192879.6684067584,10.5,10500192879.668407,47.655,-122.3035,60.0,7.316666666666666
2026-01-20T23:07:20+00:00,SAT-54789,202.12750574320492,48.911810576473215,981.5048617142498,-5.488301318817451,192223.52767654762,10.5,10500192223.527676,47.655,-122.3035,60.0,7.333333333333333
2026-01-20T23:07:21+00:00,SAT-54789,201.96822185255516,49.174982571459495,976.0311958656158,-5.469244069045825,191556.06217745866,10.5,10500191556.062178,47.655,-122.3035,60.0,7.35
2026-01-20T23:07:22+00:00,SAT-54789,201.8058807608224,49.44064878172345,970.5765364474208,-5.449857366900132,190877.05786264772,10.5,10500190877.057863,47.655,-122.3035,60.0,7.366666666666666
2026-01-20T23:07:23+00:00,SAT-54789,201.64038262754383,49.70883548654805,965.1412120334991,-5.430134962302426,190186.29582794732,10.5,10500190186.295828,47.655,-122.3035,60.0,7.383333333333334
2026-01-20T23:07:24+00:00,SAT-54789,201.47162329720905,49.979568834214575,959.7255574310961,-5.410070469551998,189483.55241910715,10.5,10500189483.55242,47.655,-122.3035,60.0,7.4
2026-01-20T23:07:25+00:00,SAT-54789,201.29949406943052,50.25287480511391,954.3299138161295,-5.389657456731397,188768.60236317109,10.5,10500188768.602364,47.655,-122.3035,60.0,7.416666666666667
2026-01-20T23:07:26+00:00,SAT-54789,201.12388145171226,50.5287791766834,948.9546287792828,-5.368889308711338,188041.21397032958,10.5,10500188041.21397,47.655,-122.3035,60.0,7.433333333333334
2026-01-20T23:07:27+00:00,SAT-54789,200.94466690076024,50.807307478514545,943.600056508728,-5.347759363083618,187301.15389486548,10.5,10500187301.153894,47.655,-122.3035,60.0,7.45
2026-01-20T23:07:28+00:00,SAT-54789,200.76172654274686,51.08848495130481,938.2665578372793,-5.326260820103678,186548.18398096133,10.5,10500186548.18398,47.655,-122.3035,60.0,7.466666666666667
2026-01-20T23:07:29+00:00,SAT-54789,200.5749308783567,51.37233649790876,932.9545003793626,-5.304386744762489,185782.06133526593,10.5,10500185782.061335,47.655,-122.3035,60.0,7.483333333333333
2026-01-20T23:07:30+00:00,SAT-54789,200.38414446842543,51.65888663076151,927.6642586659194,-5.282130129053381,185002.54050774185,10.5,10500185002.540508,47.655,-122.3035,60.0,7.5
2026-01-20T23:07:31+00:00,SAT-54789,200.18922559675443,51.94815941889342,922.3962142172102,-5.259483848526502,184209.3719700189,10.5,10500184209.37197,47.655,-122.3035,60.0,7.516666666666667
2026-01-20T23:07:32+00:00,SAT-54789,199.9900259118471,52.240178428484214,917.1507556589464,-5.236440646813009,183402.30157336578,10.5,10500183402.301573,47.655,-122.3035,60.0,7.533333333333333
2026-01-20T23:07:33+00:00,SAT-54789,199.78639004526045,52.534966658111635,911.9282788538583,-5.212993174702604,182581.07191735072,10.5,10500182581.071917,47.655,-122.3035,60.0,7.55
2026-01-20T23:07:34+00:00,SAT-54789,199.57815520257452,52.83254647135803,906.7291869942883,-5.189133965983264,181745.42150364662,10.5,10500181745.421503,47.655,-122.3035,60.0,7.566666666666666
2026-01-20T23:07:35+00:00,SAT-54789,199.36515072741634,53.13293952299221,901.5538907188809,-5.164855468206461,180895.0858135592,10.5,10500180895.085814,47.655,-122.3035,60.0,7.583333333333333
2026-01-20T23:07:36+00:00,SAT-54789,199.14719763415567,53.436166681396,896.4028081985897,-5.140149973199156,180029.7948742631,10.5,10500180029.794874,47.655,-122.3035,60.0,7.6
2026-01-20T23:07:37+00:00,SAT-54789,198.9241081110303,53.742247940936856,891.2763652919857,-5.1150097339867475,179149.27735393815,10.5,10500179149.277353,47.655,-122.3035,60.0,7.616666666666666
2026-01-20T23:07:38+00:00,SAT-54789,198.69568498361028,54.05120233490366,886.1749955839563,-5.089426825325117,178253.2556770115,10.5,10500178253.255676,47.655,-122.3035,60.0,7.633333333333334
2026-01-20T23:07:39+00:00,SAT-54789,198.4617211463439,54.36304783314566,881.0991405634987,-5.063393306971563,177341.45174259658,10.5,10500177341.451742,47.655,-122.3035,60.0,7.65
2026-01-20T23:07:40+00:00,SAT-54789,198.22199894645934,54.677801242204566,876.049249638679,-5.036901048179107,176413.58077754118,10.5,10500176413.580778,47.655,-122.3035,60.0,7.666666666666667
2026-01-20T23:07:41+00:00,SAT-54789,197.9762895316434,54.99547808659525,871.0257803266284,-5.009941885899724,175469.35687737382,10.5,10500175469.356878,47.655,-122.3035,60.0,7.683333333333334
2026-01-20T23:07:42+00:00,SAT-54789,197.724352143242,55.3160924911972,866.0291982857578,-4.982507528787849,174508.48964410042,10.5,10500174508.489645,47.655,-122.3035,60.0,7.7
2026-01-20T23:07:43+00:00,SAT-54789,197.46593336258638,55.639657048290466,861.0599774437134,-4.954589637641907,173530.68700360708,10.5,10500173530.687004,47.655,-122.3035,60.0,7.716666666666667
2026-01-20T23:07:44+00:00,SAT-54789,197.20076629790324,55.966182679584826,856.118600045105,-4.92617970794228,172535.65109164268,10.5,10500172535.651093,47.655,-122.3035,60.0,7.733333333333333
2026-01-20T23:07:45+00:00,SAT-54789,196.9285697173255,56.295678479533706,851.205556816384,-4.897269245803341,171523.08441640344,10.5,10500171523.084417,47.655,-122.3035,60.0,7.75
2026-01-20T23:07:46+00:00,SAT-54789,196.6490471079769,56.62815155843215,846.3213469552362,-4.8678496101605395,170492.68433125713,10.5,10500170492.684332,47.655,-122.3035,60.0,7.766666666666667
2026-01-20T23:07:47+00:00,SAT-54789,196.3618856730562,56.963606862071344,841.4664782773694,-4.837912085340634,169444.14557645962,10.5,10500169444.145576,47.655,-122.3035,60.0,7.783333333333333
2026-01-20T23:07:48+00:00,SAT-54789,196.06675524937873,57.30204698211545,836.641467290923,-4.807447945734302,168377.16254426312,10.5,10500168377.162544,47.655,-122.3035,60.0,7.8
2026-01-20T23:07:49+00:00,SAT-54789,195.76330713883974,57.643471956026644,831.8468392063772,-4.776448333938387,167291.4250109423,10.5,10500167291.42501,47.655,-122.3035,60.0,7.816666666666666
2026-01-20T23:07:50+00:00,SAT-54789,195.4511728578476,57.98787904174557,827.0831280679961,-4.7449044018924615,166186.6230799937,10.5,10500166186.62308,47.655,-122.3035,60.0,7.833333333333333
2026-01-20T23:07:51+00:00,SAT-54789,195.1299627820727,58.33526248461733,822.3508767445087,-4.712807163716297,165062.4420278816,10.5,10500165062.442028,47.655,-122.3035,60.0,7.85
2026-01-20T23:07:52+00:00,SAT-54789,194.79926469603282,58.68561325390412,817.6506370665624,-4.680147663511079,163918.5681811459,10.5,10500163918.568182,47.655,-122.3035,60.0,7.866666666666666
2026-01-20T23:07:53+00:00,SAT-54789,194.45864221915457,59.03891877040036,812.9829697968205,-4.646916899917602,162754.68627411174,10.5,10500162754.686274,47.655,-122.3035,60.0,7.883333333333334
2026-01-20T23:07:54+00:00,SAT-54789,194.10763311414337,59.395162605353484,808.3484446753027,-4.613105807603993,161570.47880051046,10.5,10500161570.4788,47.655,-122.3035,60.0,7.9
2026-01-20T23:07:55+00:00,SAT-54789,193.74574746485405,59.75432415248487,803.7476404831858,-4.578705313806679,160365.62799378403,10.5,10500160365.627995,47.655,-122.3035,60.0,7.916666666666667
2026-01-20T23:07:56+00:00,SAT-54789,193.37246570736718,60.11637827658497,799.1811450502158,-4.543706363527037,159139.8167095781,10.5,10500159139.81671,47.655,-122.3035,60.0,7.933333333333334
2026-01-20T23:07:57+00:00,SAT-54789,192.98723650455045,60.48129493399045,794.6495552369917,-4.508099881499149,157892.7270936918,10.5,10500157892.727093,47.655,-122.3035,60.0,7.95
2026-01-20T23:07:58+00:00,SAT-54789,192.58947445686348,60.8490387569099,790.1534769551764,-4.4718767839169695,156624.04099281304,10.5,10500156624.040993,47.655,-122.3035,60.0,7.966666666666667
2026-01-20T23:07:59+00:00,SAT-54789,192.17855763303825,61.219568602288504,785.6935251760165,-4.435028047575343,155333.44237612907,10.5,10500155333.442375,47.655,-122.3035,60.0,7.983333333333333
2026-01-20T23:08:00+00:00,SAT-54789,191.75382490145134,61.59283706671069,781.2703238699014,-4.397544645017471,154020.6150639168,10.5,10500154020.615065,47.655,-122.3035,60.0,8.0
2026-01-20T23:08:01+00:00,SAT-54789,191.3145730595462,61.96878995229215,776.884506010604,-4.359417636914283,152685.24596305878,10.5,10500152685.245962,47.655,-122.3035,60.0,8.016666666666667
2026-01-20T23:08:02+00:00,SAT-54789,190.86005373210673,62.34736569260194,772.536713487388,-4.320638102656468,151327.02263608284,10.5,10500151327.022636,47.655,-122.3035,60.0,8.033333333333333
2026-01-20T23:08:03+00:00,SAT-54789,190.38947003825405,62.72849472009447,768.2275970863388,-4.2811972335580535,149945.63656554546,10.5,10500149945.636566,47.655,-122.3035,60.0,8.05
2026-01-20T23:08:04+00:00,SAT-54789,189.90197299567055,63.11209878402925,763.9578163787369,-4.241086265464045,148540.78079366652,10.5,10500148540.780794,47.655,-122.3035,60.0,8.066666666666666
2026-01-20T23:08:05+00:00,SAT-54789,189.39665766302448,63.498090198919265,759.7280396766474,-4.200296590496135,147112.15383613628,10.5,10500147112.153835,47.655,-122.3035,60.0,8.083333333333334
2026-01-20T23:08:06+00:00,SAT-54789,188.87255898636369,63.886371033464854,755.5389438770593,-4.158819682738021,145659.45707930124,10.5,10500145659.457079,47.655,-122.3035,60.0,8.1
2026-01-20T23:08:07+00:00,SAT-54789,188.32864735628186,64.27683221612654,751.3912143801418,-4.116647168847702,144182.3972533054,10.5,10500144182.397253,47.655,-122.3035,60.0,8.116666666666667
2026-01-20T23:08:08+00:00,SAT-54789,187.7638238475555,64.66935256287367,747.2855449370778,-4.073770843286547,142680.68696547643,10.5,10500142680.686966,47.655,-122.3035,60.0,8.133333333333333
2026-01-20T23:08:09+00:00,SAT-54789,187.17691513809797,65.0637977140228,743.2226374827065,-4.030182658186029,141154.04434541616,10.5,10500141154.044346,47.655,-122.3035,60.0,8.15
2026-01-20T23:08:10+00:00,SAT-54789,186.56666810594848,65.46001896833846,739.2032019782757,-3.9858747619447255,139602.19439683043,10.5,10500139602.194397,47.655,-122.3035,60.0,8.166666666666666
2026-01-20T23:08:11+00:00,SAT-54789,185.9317440990522,65.85785200932006,735.2279562156962,-3.940839528200401,138024.8700122543,10.5,10500138024.870012,47.655,-122.3035,60.0,8.183333333333334
2026-01-20T23:08:12+00:00,SAT-54789,185.27071288705773,66.25711551203229,731.2976255929044,-3.8950695818349814,136421.81288385615,10.5,10500136421.812883,47.655,-122.3035,60.0,8.2
2026-01-20T23:08:13+00:00,SAT-54789,184.58204631485893,66.65760961898478,727.4129428632876,-3.8485577720777835,134792.7725613989,10.5,10500134792.772562,47.655,-122.3035,60.0,8.216666666666667
2026-01-20T23:08:14+00:00,SAT-54789,183.86411170064682,67.05911426689025,723.5746479119354,-3.801297244834718,133137.5089855147,10.5,10500133137.508986,47.655,-122.3035,60.0,8.233333333333333
2026-01-20T23:08:15+00:00,SAT-54789,183.1151650143324,67.46138736194892,719.7834874597535,-3.753281460251982,131455.7931028599,10.5,10500131455.793102,47.655,-122.3035,60.0,8.25
2026-01-20T23:08:16+00:00,SAT-54789,182.33334391997153,67.86416278441601,716.0402147500622,-3.7045042148631357,129747.40764179906,10.5,10500129747.407642,47.655,-122.3035,60.0,8.266666666666667
2026-01-20T23:08:17+00:00,SAT-54789,181.5166607878135,68.26714820951803,712.3455892131054,-3.654959614519278,128012.14616430551,10.5,10500128012.146164,47.655,-122.3035,60.0,8.283333333333333
2026-01-20T23:08:18+00:00,SAT-54789,180.66299583240738,68.67002272520332,708.7003761575581,-3.6046422059920595,126249.81767525528,10.5,10500126249.817675,47.655,-122.3035,60.0,8.3
2026-01-20T23:08:19+00:00,SAT-54789,179.77009053556952,69.07243425183809,705.105346330782,-3.553546906777972,124460.24416387657,10.5,10500124460.244164,47.655,-122.3035,60.0,8.316666666666666
2026-01-20T23:08:20+00:00,SAT-54789,178.83554165178634,69.47399672968152,701.5612755490888,-3.5016690677716418,122643.26279883346,10.5,10500122643.262798,47.655,-122.3035,60.0,8.333333333333334
2026-01-20T23:08:21+00:00,SAT-54789,177.85679609761092,69.87428707984498,698.068944265498,-3.4490045091353396,120798.72718452798,10.5,10500120798.727184,47.655,-122.3035,60.0,8.35
2026-01-20T23:08:22+00:00,SAT-54789,176.8311471505182,70.27284193058541,694.6291371017203,-3.395549533028232,118926.50780693235,10.5,10500118926.507807,47.655,-122.3035,60.0,8.366666666666667
2026-01-20T23:08:23+00:00,SAT-54789,175.75573249584988,70.66915410651951,691.2426423674468,-3.3413009682641683,117026.49359769339,10.5,10500117026.493597,47.655,-122.3035,60.0,8.383333333333333
2026-01-20T23:08:24+00:00,SAT-54789,174.6275347774564,71.06266889262493,687.9102515350979,-3.286256173496304,115098.59204567179,10.5,10500115098.592045,47.655,-122.3035,60.0,8.4
2026-01-20T23:08:25+00:00,SAT-54789,173.44338548517499,71.45278008742113,684.6327587113976,-3.2304130799618207,113142.73069404274,10.5,10500113142.730694,47.655,-122.3035,60.0,8.416666666666666
2026-01-20T23:08:26+00:00,SAT-54789,172.19997316646584,71.83882588366718,681.4109600663157,-3.1737702340486305,111158.85863116215,10.5,10500111158.858631,47.655,-122.3035,60.0,8.433333333333334
2026-01-20T23:08:27+00:00,SAT-54789,170.89385715918203,72.22008462994546,678.245653219558,-3.1163267975250935,109146.94649861232,10.5,10500109146.946499,47.655,-122.3035,60.0,8.45
2026-01-20T23:08:28+00:00,SAT-54789,169.52148827656558,72.59577054577784,675.1376366268263,-3.058082604041986,107106.98847013975,10.5,10500107106.98847,47.655,-122.3035,60.0,8.466666666666667
2026-01-20T23:08:29+00:00,SAT-54789,168.0792380586784,72.9650295067944,672.0877089097283,-2.999038157399217,105039.0021909483,10.5,10500105039.002192,47.655,-122.3035,60.0,8.483333333333333
2026-01-20T23:08:30+00:00,SAT-54789,166.56343845835784,73.32693504069871,669.0966681874156,-2.9391946864902265,102943.0307020845,10.5,10500102943.030703,47.655,-122.3035,60.0,8.5
2026-01-20T23:08:31+00:00,SAT-54789,164.97043394807216,73.68048473610604,666.1653113534226,-2.8785541616343955,100819.14301246748,10.5,10500100819.143013,47.655,-122.3035,60.0,8.516666666666667
2026-01-20T23:08:32+00:00,SAT-54789,163.2966481602837,74.02459730879241,663.2944333362193,-2.8171193101256446,98667.4346434668,10.5,10500098667.434643,47.655,-122.3035,60.0,8.533333333333333
2026-01-20T23:08:33+00:00,SAT-54789,161.53866710881874,74.35811063622316,660.484826344254,-2.754893677801862,96488.0297853242,10.5,10500096488.029785,47.655,-122.3035,60.0,8.55
2026-01-20T23:08:34+00:00,SAT-54789,159.69334074545796,74.67978114260995,657.7372790495929,-2.691881606994393,94281.08052485138,10.5,10500094281.080524,47.655,-122.3035,60.0,8.566666666666666
2026-01-20T23:08:35+00:00,SAT-54789,157.75790412695557,74.98828496695998,655.0525757935504,-2.6280882961349747,92046.76893311717,10.5,10500092046.768932,47.655,-122.3035,60.0,8.583333333333334
2026-01-20T23:08:36+00:00,SAT-54789,155.73011841912015,75.28222142480699,652.4314957328718,-2.5635198089010256,89785.30738575407,10.5,10500089785.307386,47.655,-122.3035,60.0,8.6
2026-01-20T23:08:37+00:00,SAT-54789,153.60843061397117,75.56011929904022,649.8748119767946,-2.498183093835339,87496.93925012303,10.5,10500087496.93925,47.655,-122.3035,60.0,8.616666666666667
2026-01-20T23:08:38+00:00,SAT-54789,151.39214882658985,75.82044651132927,647.3832907045428,-2.4320860258424872,85181.94033869296,10.5,10500085181.940338,47.655,-122.3035,60.0,8.633333333333333
2026-01-20T23:08:39+00:00,SAT-54789,149.0816275016619,76.06162368717423,644.9576902414359,-2.3652373860906297,82840.61820511712,10.5,10500082840.618206,47.655,-122.3035,60.0,8.65
2026-01-20T23:08:40+00:00,SAT-54789,146.6784539689627,76.28204201214538,642.5987601550414,-2.2976468997627157,80473.3134664399,10.5,10500080473.313467,47.655,-122.3035,60.0,8.666666666666666
2026-01-20T23:08:41+00:00,SAT-54789,144.18562451381828,76.4800856016374,640.3072403136782,-2.22932527853273,78080.40129079453,10.5,10500078080.40129,47.655,-122.3035,60.0,8.683333333333334
2026-01-20T23:08:42+00:00,SAT-54789,141.6076952051245,76.65415831729923,638.0838599025549,-2.160284178519146,75662.28992475531,10.5,10500075662.289925,47.655,-122.3035,60.0,8.7
2026-01-20T23:08:43+00:00,SAT-54789,138.95089067784318,76.8027145842317,635.9293364818451,-2.0905362511323142,73219.42247422815,10.5,10500073219.422474,47.655,-122.3035,60.0,8.716666666666667
2026-01-20T23:08:44+00:00,SAT-54789,136.22315322470791,76.92429333665689,633.8443749940491,-2.020095128899196,70752.27640797273,10.5,10500070752.276407,47.655,-122.3035,60.0,8.733333333333333
2026-01-20T23:08:45+00:00,SAT-54789,133.4341162500017,77.01755373540567,631.8296667854936,-1.9489754481502957,68261.36435219496,10.5,10500068261.364351,47.655,-122.3035,60.0,8.75
2026-01-20T23:08:46+00:00,SAT-54789,130.59499020631074,77.08131087390508,629.8858886052051,-1.8771928405407712,65747.23379358028,10.5,10500065747.233793,47.655,-122.3035,60.0,8.766666666666667
2026-01-20T23:08:47+00:00,SAT-54789,127.71835609196465,77.11456936374186,628.0137016122392,-1.804763932714889,63210.46706754156,10.5,10500063210.467068,47.655,-122.3035,60.0,8.783333333333333
2026-01-20T23:08:48+00:00,SAT-54789,124.81787054420145,77.11655256440477,626.2137503833449,-1.731706343377403,60651.6812556463,10.5,10500060651.681255,47.655,-122.3035,60.0,8.8
2026-01-20T23:08:49+00:00,SAT-54789,121.90789651636501,77.08672534183628,624.4866619235497,-1.6580386769573245,58071.52796369516,10.5,10500058071.527964,47.655,-122.3035,60.0,8.816666666666666
2026-01-20T23:08:50+00:00,SAT-54789,119.00308275534637,77.02480863041622,622.8330446830644,-1.5837805220915238,55470.69326861118,10.5,10500055470.693268,47.655,-122.3035,60.0,8.833333333333334
2026-01-20T23:08:51+00:00,SAT-54789,116.11792202962042,76.93078470094792,621.2534875756983,-1.5089524230828526,52849.89671878254,10.5,10500052849.896719,47.655,-122.3035,60.0,8.85
2026-01-20T23:08:52+00:00,SAT-54789,113.26632101039823,76.8048928223137,619.7485590257437,-1.433575884485811,50209.89149467201,10.5,10500050209.891495,47.655,-122.3035,60.0,8.866666666666667
2026-01-20T23:08:53+00:00,SAT-54789,110.46121300660896,76.64761582547925,618.3188060102832,-1.3576733200215667,47551.462619604834,10.5,10500047551.46262,47.655,-122.3035,60.0,8.883333333333333
2026-01-20T23:08:54+00:00,SAT-54789,107.71423919743516,76.45965882160017,616.9647531524483,-1.281268061167251,44875.42726060218,10.5,10500044875.427261,47.655,-122.3035,60.0,8.9
2026-01-20T23:08:55+00:00,SAT-54789,105.03551510948066,76.24192186529639,615.6869018061109,-1.2043843159929521,42182.6332866786,10.5,10500042182.633287,47.655,-122.3035,60.0,8.916666666666666
2026-01-20T23:08:56+00:00,SAT-54789,102.43348938691341,75.99546865996092,614.4857291816272,-1.1270471415450531,39473.95830158962,10.5,10500039473.958302,47.655,-122.3035,60.0,8.933333333333334
2026-01-20T23:08:57+00:00,SAT-54789,99.91489234346834,75.7214934352176,613.3616874991263,-1.0492824043888123,36750.30826186604,10.5,10500036750.308262,47.655,-122.3035,60.0,8.95
2026-01-20T23:08:58+00:00,SAT-54789,97.48476425104022,75.42128794363352,612.3152031811492,-0.9711167586981178,34012.61670942448,10.5,10500034012.616709,47.655,-122.3035,60.0,8.966666666666667
2026-01-20T23:08:59+00:00,SAT-54789,95.14654824706413,75.09621017250112,611.3466760671408,-0.8925775845610396,31261.8426107668,10.5,10500031261.842611,47.655,-122.3035,60.0,8.983333333333333
2026-01-20T23:09:00+00:00,SAT-54789,92.90223060410348,74.7476559573954,610.4564786894721,-0.8136929735085258,28498.969850133853,10.5,10500028498.96985,47.655,-122.3035,60.0,9.0
2026-01-20T23:09:01+00:00,SAT-54789,90.75251095880134,74.37703422130173,609.6449555638928,-0.7344916596578649,25725.0048178583,10.5,10500025725.004818,47.655,-122.3035,60.0,9.016666666666667
2026-01-20T23:09:02+00:00,SAT-54789,88.69698714259766,73.98574620078683,608.9124225486607,-0.6550029752340555,22940.97485253476,10.5,10500022940.974852,47.655,-122.3035,60.0,9.033333333333333
2026-01-20T23:09:03+00:00,SAT-54789,86.73434184344386,73.57516867472566,608.2591662480273,-0.5752568120525913,20147.92689198408,10.5,10500020147.926891,47.655,-122.3035,60.0,9.05
2026-01-20T23:09:04+00:00,SAT-54789,84.86252152245687,73.14664097270601,607.6854434541402,-0.4952835551828057,17346.925149863044,10.5,10500017346.92515,47.655,-122.3035,60.0,9.066666666666666
2026-01-20T23:09:05+00:00,SAT-54789,83.07890117387528,72.70145540748085,607.1914806551047,-0.4151140314630495,14539.049312448078,10.5,10500014539.049313,47.655,-122.3035,60.0,9.083333333333334
2026-01-20T23:09:06+00:00,SAT-54789,81.38043106294921,72.24085067086541,606.7774735943921,-0.33477945125984837,11725.392498794641,10.5,10500011725.392498,47.655,-122.3035,60.0,9.1
2026-01-20T23:09:07+00:00,SAT-54789,79.7637637744758,71.76600771521733,606.4435868883356,-0.25431134990789966,8907.059209718167,10.5,10500008907.05921,47.655,-122.3035,60.0,9.116666666666667
2026-01-20T23:09:08+00:00,SAT-54789,78.22536147978492,71.27804765261577,606.1899537020274,-0.1737415270697973,6085.163203915129,10.5,10500006085.163204,47.655,-122.3035,60.0,9.133333333333333
2026-01-20T23:09:09+00:00,SAT-54789,76.7615844020658,70.77803123854345,606.0166754856965,-0.09310198285509395,3260.825260582394,10.5,10500003260.82526,47.655,-122.3035,60.0,9.15
2026-01-20T23:09:10+00:00,SAT-54789,75.36876215694767,70.26695956790914,605.9238217747957,-0.01242485576844622,435.17100609877684,10.5,10500000435.171005,47.655,-122.3035,60.0,9.166666666666666
2026-01-20T23:09:11+00:00,SAT-54789,74.04324993155339,69.74577565202671,605.911430051976,0.0682576409156887,-2390.6713144022165,10.5,10499997609.328686,47.655,-122.3035,60.0,9.183333333333334
2026-01-20T23:09:12+00:00,SAT-54789,72.7814716359342,69.21536662230392,605.9795056725159,0.14891328387471353,-5215.57310385871,10.5,10499994784.426897,47.655,-122.3035,60.0,9.2
2026-01-20T23:09:13+00:00,SAT-54789,71.57995202463546,68.67656632802937,606.1280218543003,0.22950990389009115,-8038.407660161874,10.5,10499991961.59234,47.655,-122.3035,60.0,9.216666666666667
2026-01-20T23:09:14+00:00,SAT-54789,70.43533973901658,68.13015817888146,606.35691973178,0.31001544756453664,-10858.052337753055,10.5,10499989141.947662,47.655,-122.3035,60.0,9.233333333333333
2026-01-20T23:09:15+00:00,SAT-54789,69.34442294435135,67.5768780945313,606.6661084714843,0.39039804484269847,-13673.390912483643,10.5,10499986326.609087,47.655,-122.3035,60.0,9.25
2026-01-20T23:09:16+00:00,SAT-54789,68.30413903014455,67.01741745827161,607.0554654548741,0.4706260665241021,-16483.31559596163,10.5,10499983516.684404,47.655,-122.3035,60.0,9.266666666666667
2026-01-20T23:09:17+00:00,SAT-54789,67.31157966851539,66.45242602090231,607.5248365185541,0.5506681902046657,-19286.729345102438,10.5,10499980713.270655,47.655,-122.3035,60.0,9.283333333333333
2026-01-20T23:09:18+00:00,SAT-54789,66.36399225366857,65.88251469057414,608.0740362602517,0.6304934587547528,-22082.547910277666,10.5,10499977917.45209,47.655,-122.3035,60.0,9.3
2026-01-20T23:09:19+00:00,SAT-54789,65.45877861355518,65.30825818657247,608.7028484031164,0.7100713364849539,-24869.701802478354,10.5,10499975130.298197,47.655,-122.3035,60.0,9.316666666666666
2026-01-20T23:09:20+00:00,SAT-54789,64.59349169821148,64.73019753689586,609.4110262160374,0.7893717660505635,-27647.138286350473,10.5,10499972352.861713,47.655,-122.3035,60.0,9.333333333333334
2026-01-20T23:09:21+00:00,SAT-54789,63.76583080817261,64.14884240640403,610.1982929907117,0.8683652269776615,-30413.823430025866,10.5,10499969586.17657,47.655,-122.3035,60.0,9.35
2026-01-20T23:09:22+00:00,SAT-54789,62.9736358144751,63.56467325244217,611.0643425770842,0.9470227849138003,-33168.74383008963,10.5,10499966831.25617,47.655,-122.3035,60.0,9.366666666666667
2026-01-20T23:09:23+00:00,SAT-54789,62.21488073177961,62.978143314660365,612.0088399679048,1.0253161347584585,-35910.90812219103,10.5,10499964089.091877,47.655,-122.3035,60.0,9.383333333333333
2026-01-20T23:09:24+00:00,SAT-54789,61.487666919547884,62.389680446250324,613.031421926304,1.1032176667044182,-38639.34929409195,10.5,10499961360.650705,47.655,-122.3035,60.0,9.4
2026-01-20T23:09:25+00:00,SAT-54789,60.790216103083964,61.799688780457494,614.1316976792305,1.1807004711010503,-41353.12485599964,10.5,10499958646.875143,47.655,-122.3035,60.0,9.416666666666666
2026-01-20T23:09:26+00:00,SAT-54789,60.12086341245216,61.208550273500975,615.309249615742,1.257738434215749,-44051.32019453726,10.5,10499955948.679806,47.655,-122.3035,60.0,9.433333333333334
2026-01-20T23:09:27+00:00,SAT-54789,59.47805049486348,60.6166260854696,616.5636340807997,1.3343062259600433,-46733.0481428604,10.5,10499953266.951857,47.655,-122.3035,60.0,9.45
2026-01-20T23:09:28+00:00,SAT-54789,58.86031885044653,60.02425786326678,617.894382156824,1.410379362065333,-49397.45115831432,10.5,10499950602.548841,47.655,-122.3035,60.0,9.466666666666667
2026-01-20T23:09:29+00:00,SAT-54789,58.266303401571605,59.43176889690066,619.3010005072571,1.4859342217519076,-52043.70194127776,10.5,10499947956.29806,47.655,-122.3035,60.0,9.483333333333333
2026-01-20T23:09:30+00:00,SAT-54789,57.694726358064365,58.839465179722865,620.782972237751,1.5609480846098231,-54671.00472688724,10.5,10499945328.995274,47.655,-122.3035,60.0,9.5
2026-01-20T23:09:31+00:00,SAT-54789,57.14439139009308,58.247636371697396,622.3397577941353,1.635399159509108,-57278.59629759476,10.5,10499942721.403702,47.655,-122.3035,60.0,9.516666666666667
2026-01-20T23:09:32+00:00,SAT-54789,56.61417812388855,57.65655667837904,623.970795889219,1.7092665733593404,-59865.745589480684,10.5,10499940134.25441,47.655,-122.3035,60.0,9.533333333333333
2026-01-20T23:09:33+00:00,SAT-54789,56.10303697403767,57.066485665679146,625.6755044183826,1.7825304398993553,-62431.756101560204,10.5,10499937568.243898,47.655,-122.3035,60.0,9.55
2026-01-20T23:09:34+00:00,SAT-54789,55.609984281613166,56.47766898962941,627.4532814437756,1.8551718200400904,-64975.96450682208,10.5,10499935024.035494,47.655,-122.3035,60.0,9.566666666666666
2026-01-20T23:09:35+00:00,SAT-54789,55.134097783725686,55.890339084360846,629.3035061389623,1.9271727842201054,-67497.7428361827,10.5,10499932502.257164,47.655,-122.3035,60.0,9.583333333333334
2026-01-20T23:09:36+00:00,SAT-54789,54.674512371467046,55.30471577990835,631.2255397957579,1.9985163695593502,-69996.49697782983,10.5,10499930003.503021,47.655,-122.3035,60.0,9.6
2026-01-20T23:09:37+00:00,SAT-54789,54.23041615107839,54.72100688805622,633.2187267883317,2.0691866297283577,-72471.6684238526,10.5,10499927528.331575,47.655,-122.3035,60.0,9.616666666666667
2026-01-20T23:09:38+00:00,SAT-54789,53.80104676863668,54.13940873227443,635.2823955870474,2.1391685999424475,-74922.73304419052,10.5,10499925077.266956,47.655,-122.3035,60.0,9.633333333333333
2026-01-20T23:09:39+00:00,SAT-54789,53.38568800292905,53.56010665069104,637.4158597373901,2.2084483219539406,-77349.20196196655,10.5,10499922650.798038,47.655,-122.3035,60.0,9.65
2026-01-20T23:09:40+00:00,SAT-54789,52.98366659627104,52.983275458299566,639.6184188638188,2.27701282777299,-79750.62098332171,10.5,10499920249.379017,47.655,-122.3035,60.0,9.666666666666666
2026-01-20T23:09:41+00:00,SAT-54789,52.59434931638764,52.4090798831551,641.8893596573844,2.3448501326328053,-82126.57035102749,10.5,10499917873.42965,47.655,-122.3035,60.0,9.683333333333334
2026-01-20T23:09:42+00:00,SAT-54789,52.21714023128846,51.837674976373876,644.2279568563301,2.4119492245773695,-84476.66437980364,10.5,10499915523.33562,47.655,-122.3035,60.0,9.7
2026-01-20T23:09:43+00:00,SAT-54789,51.8514781826565,51.2692064989954,646.6334742163086,2.478300053034884,-86800.5510561119,10.5,10499913199.448944,47.655,-122.3035,60.0,9.716666666666667
2026-01-20T23:09:44+00:00,SAT-54789,51.496834443477475,50.70381128815257,649.1051654692021,2.5438935273187706,-89097.91198565473,10.5,10499910902.088015,47.655,-122.3035,60.0,9.733333333333333
2026-01-20T23:09:45+00:00,SAT-54789,51.15271054510121,50.141617602119766,651.6422752804481,2.608721482290696,-91368.46119074918,10.5,10499908631.538809,47.655,-122.3035,60.0,9.75
2026-01-20T23:09:46+00:00,SAT-54789,50.81863626566283,49.58274545329388,654.2440401721193,2.672776674536975,-93611.94497640844,10.5,10499906388.055023,47.655,-122.3035,60.0,9.766666666666667
2026-01-20T23:09:47+00:00,SAT-54789,50.49416776332031,49.02730692333318,656.9096894421908,2.7360527379987034,-95828.14037632123,10.5,10499904171.859623,47.655,-122.3035,60.0,9.783333333333333
2026-01-20T23:09:48+00:00,SAT-54789,50.17888584837414,48.475406470307675,659.6384460395549,2.798544201499874,-98016.85576676074,10.5,10499901983.144234,47.655,-122.3035,60.0,9.8
2026-01-20T23:09:49+00:00,SAT-54789,49.87239437612717,47.92714121607057,662.4295274565173,2.860246457620186,-100177.92977637867,10.5,10499899822.070223,47.655,-122.3035,60.0,9.816666666666666
2026-01-20T23:09:50+00:00,SAT-54789,49.57431875735179,47.38260122530104,665.2821465902506,2.9211556861266557,-102311.22860445638,10.5,10499897688.771395,47.655,-122.3035,60.0,9.833333333333334
2026-01-20T23:09:51+00:00,SAT-54789,49.284304581545086,46.84186978430147,668.1955125278809,2.981268903327218,-104416.6477494767,10.5,10499895583.352251,47.655,-122.3035,60.0,9.85
2026-01-20T23:09:52+00:00,SAT-54789,49.00201633091242,46.30502365707695,671.1688313807992,3.0405838809207375,-106494.10916690821,10.5,10499893505.890833,47.655,-122.3035,60.0,9.866666666666667
2026-01-20T23:09:53+00:00,SAT-54789,48.727136191832436,45.772133343204914,674.2013070380376,3.099099171222621,-108543.56215271272,10.5,10499891456.437847,47.655,-122.3035,60.0,9.883333333333333
2026-01-20T23:09:54+00:00,SAT-54789,48.459362945683964,45.243263319169955,677.2921419448036,3.156814014683304,-110564.98010425163,10.5,10499889435.019896,47.655,-122.3035,60.0,9.9
2026-01-20T23:09:55+00:00,SAT-54789,48.198410943782974,44.71847228358979,680.440537788781,3.2137283660098612,-112558.36143517506,10.5,10499887441.638565,47.655,-122.3035,60.0,9.916666666666666
2026-01-20T23:09:56+00:00,SAT-54789,47.94400914932999,44.19781338650383,683.6456962124815,3.269842844083103,-114523.72782130691,10.5,10499885476.272179,47.655,-122.3035,60.0,9.933333333333334
2026-01-20T23:09:57+00:00,SAT-54789,47.69590024801213,43.681334455970756,686.906819475647,3.325158724665006,-116461.12394522801,10.5,10499883538.876055,47.655,-122.3035,60.0,9.95
2026-01-20T23:09:58+00:00,SAT-54789,47.45383981852648,43.16907821540729,690.2231111103797,3.3796778499312756,-118370.61432772399,10.5,10499881629.385672,47.655,-122.3035,60.0,9.966666666666667
2026-01-20T23:09:59+00:00,SAT-54789,47.21759556464277,42.661082504290455,693.5937764860444,3.433402684465724,-120252.28528894513,10.5,10499879747.71471,47.655,-122.3035,60.0,9.983333333333333
2026-01-20T23:10:00+00:00,SAT-54789,46.98694659339215,42.157380480349126,697.0180234300183,3.4863362282567385,-122106.24190117471,10.5,10499877893.758099,47.655,-122.3035,60.0,10.0
2026-01-20T23:10:01+00:00,SAT-54789,46.761682746413776,41.658000825049896,700.4950627616663,3.53848201253,-123932.60784287308,10.5,10499876067.392157,47.655,-122.3035,60.0,10.016666666666667
2026-01-20T23:10:02+00:00,SAT-54789,46.54160397451877,41.16296794010216,704.0241088221628,3.589844049044415,-125731.52362280694,10.5,10499874268.476377,47.655,-122.3035,60.0,10.033333333333333
2026-01-20T23:10:03+00:00,SAT-54789,46.32651975540436,40.67230214166457,707.6043799537432,3.6404268505299204,-127503.14729586747,10.5,10499872496.852705,47.655,-122.3035,60.0,10.05
2026-01-20T23:10:04+00:00,SAT-54789,46.11624854695172,40.18601984290803,711.2350989993383,3.6902353391893747,-129247.6512584197,10.5,10499870752.348742,47.655,-122.3035,60.0,10.066666666666666
2026-01-20T23:10:05+00:00,SAT-54789,45.91061728034416,39.70413373993977,714.9154937109565,3.7392748683452894,-130965.22300646249,10.5,10499869034.776993,47.655,-122.3035,60.0,10.083333333333334
2026-01-20T23:10:06+00:00,SAT-54789,45.7094608832883,39.226652986189116,718.644797179653,3.787551176099589,-132656.06351259738,10.5,10499867343.936487,47.655,-122.3035,60.0,10.1
2026-01-20T23:10:07+00:00,SAT-54789,45.51262183527474,38.75358336434855,722.4222482192829,3.8350703637833092,-134320.38647124587,10.5,10499865679.61353,47.655,-122.3035,60.0,10.116666666666667
2026-01-20T23:10:08+00:00,SAT-54789,45.319949751096885,38.28492745280924,726.2470917287628,3.8818388660561345,-135958.41725140868,10.5,10499864041.582748,47.655,-122.3035,60.0,10.133333333333333
2026-01-20T23:10:09+00:00,SAT-54789,45.1313009911729,37.820684787612535,730.1185790245094,3.9278634522892486,-137570.39294509907,10.5,10499862429.607056,47.655,-122.3035,60.0,10.15
2026-01-20T23:10:10+00:00,SAT-54789,44.94653829513663,37.36085201660542,734.0359681742593,3.9731511326310844,-139156.55907736806,10.5,10499860843.440922,47.655,-122.3035,60.0,10.166666666666666
2026-01-20T23:10:11+00:00,SAT-54789,44.765530441801765,36.90542305669071,737.9985242372032,4.017709238539573,-140717.17242688444,10.5,10499859282.827574,47.655,-122.3035,60.0,10.183333333333334
2026-01-20T23:10:12+00:00,SAT-54789,44.588151925334415,36.454389234387506,742.0055195844402,4.061545310817133,-142252.49710444646,10.5,10499857747.502895,47.655,-122.3035,60.0,10.2
2026-01-20T23:10:13+00:00,SAT-54789,44.414282655569174,36.00773943185971,746.0562341077617,4.104667138684896,-143762.80592152657,10.5,10499856237.194078,47.655,-122.3035,60.0,10.216666666666667
2026-01-20T23:10:14+00:00,SAT-54789,44.243807673879694,35.565460221511614,750.1499554674101,4.1470826723990175,-145248.37732972484,10.5,10499854751.622671,47.655,-122.3035,60.0,10.233333333333333
2026-01-20T23:10:15+00:00,SAT-54789,44.07661688920363,35.12753600289156,754.2859792526828,4.188800095960539,-146709.497967376,10.5,10499853290.502033,47.655,-122.3035,60.0,10.25
2026-01-20T23:10:16+00:00,SAT-54789,43.91260482598929,34.6939491253686,758.4636092150541,4.229827715542461,-148146.4587517937,10.5,10499851853.541248,47.655,-122.3035,60.0,10.266666666666667
2026-01-20T23:10:17+00:00,SAT-54789,43.75167039104817,34.26468001579831,762.6821573900219,4.270174000433849,-149559.55631330598,10.5,10499850440.443687,47.655,-122.3035,60.0,10.283333333333333
2026-01-20T23:10:18+00:00,SAT-54789,43.59371665177352,33.83970729558989,766.9409442597878,4.309847546757123,-150949.09172448158,10.5,10499849050.908276,47.655,-122.3035,60.0,10.3
2026-01-20T23:10:19+00:00,SAT-54789,43.43865062813653,33.41900789529594,771.2392988797536,4.348857046136183,-152315.369402755,10.5,10499847684.630598,47.655,-122.3035,60.0,10.316666666666666
2026-01-20T23:10:20+00:00,SAT-54789,43.28638309733058,33.00255716621555,775.5765589737667,4.387211306516528,-153658.69783963528,10.5,10499846341.30216,47.655,-122.3035,60.0,10.333333333333334
2026-01-20T23:10:21+00:00,SAT-54789,43.13682840835643,32.59032898419874,779.9520710501325,4.424919200872282,-154979.38780420873,10.5,10499845020.612196,47.655,-122.3035,60.0,10.35
2026-01-20T23:10:22+00:00,SAT-54789,42.98990430851545,32.18229585276242,784.3651904664691,4.461989673555507,-156277.75256551927,10.5,10499843722.247435,47.655,-122.3035,60.0,10.366666666666667
2026-01-20T23:10:23+00:00,SAT-54789,42.84553177906292,31.778429000055507,788.8152815008951,4.498431700883134,-157554.1065121555,10.5,10499842445.893488,47.655,-122.3035,60.0,10.383333333333333
2026-01-20T23:10:24+00:00,SAT-54789,42.70363488096073,31.378698474142162,793.3017173839092,4.534254339845496,-158808.76685823,10.5,10499841191.23314,47.655,-122.3035,60.0,10.4
2026-01-20T23:10:25+00:00,SAT-54789,42.564140607262516,30.98307322894087,797.8238803788486,4.569466614801283,-160042.04967495703,10.5,10499839957.950325,47.655,-122.3035,60.0,10.416666666666666
2026-01-20T23:10:26+00:00,SAT-54789,42.42697874690511,30.591521215124942,802.3811617493437,4.604077622972398,-161254.2735855289,10.5,10499838745.726414,47.655,-122.3035,60.0,10.433333333333334
2026-01-20T23:10:27+00:00,SAT-54789,42.29208175235472,30.204009457189073,806.9729618319882,4.63809642196209,-162445.75582552495,10.5,10499837554.244175,47.655,-122.3035,60.0,10.45
