satellites_20260121_005943/SAT-55403.csv

timestamp,satellite,azimuth_deg,elevation_deg,distance_km,relative_velocity_kms,doppler_shift_hz,tx_freq_ghz,rx_freq_hz,ue_lat,ue_lon,ue_alt_m,time_minutes
2026-01-20T23:02:46+00:00,SAT-55403,250.32773084194082,30.030895956257247,3520.402287203879,-6.758497185074868,236711.15983606936,10.5,10500236711.159836,47.655,-122.3035,60.0,2.7666666666666666
2026-01-20T23:02:47+00:00,SAT-55403,250.2933659250815,30.073365883081813,3513.6618126779645,-6.759020128878098,236729.4755401086,10.5,10500236729.47554,47.655,-122.3035,60.0,2.783333333333333
2026-01-20T23:02:48+00:00,SAT-55403,250.2588961761569,30.115877696792456,3506.9208166027634,-6.759538261618384,236747.62274037272,10.5,10500236747.62274,47.655,-122.3035,60.0,2.8
2026-01-20T23:02:49+00:00,SAT-55403,250.22432093129765,30.158431610100074,3500.1793037765096,-6.760051595064059,236765.6018490386,10.5,10500236765.601849,47.655,-122.3035,60.0,2.816666666666667
2026-01-20T23:02:50+00:00,SAT-55403,250.18963952086608,30.201027837273692,3493.437278985699,-6.760560095257408,236783.41167676332,10.5,10500236783.411676,47.655,-122.3035,60.0,2.8333333333333335
2026-01-20T23:02:51+00:00,SAT-55403,250.15485126960303,30.243666593863395,3486.6947470506957,-6.7610637564225105,236801.05202124984,10.5,10500236801.052021,47.655,-122.3035,60.0,2.85
2026-01-20T23:02:52+00:00,SAT-55403,250.11995549642776,30.286348096888542,3479.9517127976237,-6.761562549869851,236818.5218776699,10.5,10500236818.521877,47.655,-122.3035,60.0,2.8666666666666667
2026-01-20T23:02:53+00:00,SAT-55403,250.0849515144972,30.329072564704198,3473.20818108122,-6.762056411555101,236835.8190029202,10.5,10500236835.819002,47.655,-122.3035,60.0,2.8833333333333333
2026-01-20T23:02:54+00:00,SAT-55403,250.04983863127433,30.371840216783966,3466.4641568200955,-6.76254538748079,236852.94500820397,10.5,10500236852.945007,47.655,-122.3035,60.0,2.9
2026-01-20T23:02:55+00:00,SAT-55403,250.01461614800752,30.414651274436867,3459.7196448869813,-6.763029407410436,236869.89743354244,10.5,10500236869.897434,47.655,-122.3035,60.0,2.9166666666666665
2026-01-20T23:02:56+00:00,SAT-55403,249.97928336015605,30.457505960072876,3452.974650224657,-6.763508464830695,236886.67605081078,10.5,10500236886.67605,47.655,-122.3035,60.0,2.933333333333333
2026-01-20T23:02:57+00:00,SAT-55403,249.94383955705584,30.50040449762335,3446.2291777824,-6.763982512148816,236903.27919310957,10.5,10500236903.279194,47.655,-122.3035,60.0,2.95
2026-01-20T23:02:58+00:00,SAT-55403,249.90828402202976,30.543347112287638,3439.48323255695,-6.764451559760443,236919.7072245381,10.5,10500236919.707224,47.655,-122.3035,60.0,2.966666666666667
2026-01-20T23:02:59+00:00,SAT-55403,249.87261603207355,30.58633403091786,3432.736819534682,-6.764915559535628,236935.95845938224,10.5,10500236935.95846,47.655,-122.3035,60.0,2.9833333333333334
2026-01-20T23:03:00+00:00,SAT-55403,249.83683485802925,30.62936548165302,3425.9899437499716,-6.765374492614343,236952.0322370838,10.5,10500236952.032238,47.655,-122.3035,60.0,3.0
2026-01-20T23:03:01+00:00,SAT-55403,249.8009397644126,30.67244169412036,3419.242610256005,-6.765828333428046,236967.92766212445,10.5,10500236967.927662,47.655,-122.3035,60.0,3.0166666666666666
2026-01-20T23:03:02+00:00,SAT-55403,249.76493000934556,30.715562899401426,3412.4948241314655,-6.766277056738042,236983.6438505382,10.5,10500236983.64385,47.655,-122.3035,60.0,3.033333333333333
2026-01-20T23:03:03+00:00,SAT-55403,249.7288048445118,30.758729330047903,3405.746590480212,-6.766720636671874,236999.17989616227,10.5,10500236999.179895,47.655,-122.3035,60.0,3.05
2026-01-20T23:03:04+00:00,SAT-55403,249.69256351506397,30.80194122008781,3398.997914431905,-6.767159047335744,237014.5348920863,10.5,10500237014.534893,47.655,-122.3035,60.0,3.066666666666667
2026-01-20T23:03:05+00:00,SAT-55403,249.6562052595727,30.845198805037846,3392.2488011420287,-6.767592262249374,237029.70791085885,10.5,10500237029.70791,47.655,-122.3035,60.0,3.0833333333333335
2026-01-20T23:03:06+00:00,SAT-55403,249.61972930994017,30.888502321910412,3385.4992557924784,-6.768020249536707,237044.6978360457,10.5,10500237044.697836,47.655,-122.3035,60.0,3.1
2026-01-20T23:03:07+00:00,SAT-55403,249.583134891363,30.931852009192628,3378.7492835969406,-6.768442999524799,237059.50432885936,10.5,10500237059.50433,47.655,-122.3035,60.0,3.1166666666666667
2026-01-20T23:03:08+00:00,SAT-55403,249.54642122214673,30.975248107000088,3371.9988897787475,-6.768860467942118,237074.12583872353,10.5,10500237074.12584,47.655,-122.3035,60.0,3.1333333333333333
2026-01-20T23:03:09+00:00,SAT-55403,249.5095875137989,31.018690856865792,3365.248079605387,-6.769272638911876,237088.56180956596,10.5,10500237088.56181,47.655,-122.3035,60.0,3.15
2026-01-20T23:03:10+00:00,SAT-55403,249.47263297080514,31.062180501935778,3358.496858360179,-6.769679467707688,237102.81067487935,10.5,10500237102.810675,47.655,-122.3035,60.0,3.1666666666666665
2026-01-20T23:03:11+00:00,SAT-55403,249.43555679070727,31.105717286794505,3351.7452313710514,-6.770080943641686,237116.8720603295,10.5,10500237116.87206,47.655,-122.3035,60.0,3.183333333333333
2026-01-20T23:03:12+00:00,SAT-55403,249.39835816384317,31.14930145769788,3344.993203976593,-6.770477032953853,237130.7447834977,10.5,10500237130.744783,47.655,-122.3035,60.0,3.2
2026-01-20T23:03:13+00:00,SAT-55403,249.3610362733955,31.192933262436277,3338.24078154906,-6.770867701355107,237144.42764343534,10.5,10500237144.427643,47.655,-122.3035,60.0,3.216666666666667
2026-01-20T23:03:14+00:00,SAT-55403,249.32359029529803,31.236612950342593,3331.487969494909,-6.771252943568095,237157.92045530712,10.5,10500237157.920456,47.655,-122.3035,60.0,3.2333333333333334
2026-01-20T23:03:15+00:00,SAT-55403,249.28601939802726,31.280340772495975,3324.7347732258568,-6.771632689655679,237171.22076961864,10.5,10500237171.22077,47.655,-122.3035,60.0,3.25
2026-01-20T23:03:16+00:00,SAT-55403,249.24832274281331,31.324116981308542,3317.9811982233737,-6.772006956963904,237184.32919390182,10.5,10500237184.329193,47.655,-122.3035,60.0,3.2666666666666666
2026-01-20T23:03:17+00:00,SAT-55403,249.21049948315965,31.367941831112343,3311.2272499516284,-6.772375675256293,237197.24326817814,10.5,10500237197.243269,47.655,-122.3035,60.0,3.283333333333333
2026-01-20T23:03:18+00:00,SAT-55403,249.17254876515196,31.411815577596617,3304.4729339448395,-6.772738837987483,237209.96276320127,10.5,10500237209.962763,47.655,-122.3035,60.0,3.3
2026-01-20T23:03:19+00:00,SAT-55403,249.13446972709338,31.45573847823958,3297.718255743753,-6.773096408948341,237222.48641077415,10.5,10500237222.48641,47.655,-122.3035,60.0,3.316666666666667
2026-01-20T23:03:20+00:00,SAT-55403,249.09626149953283,31.499710792124738,3290.9632209252286,-6.77344834597492,237234.8127341371,10.5,10500237234.812735,47.655,-122.3035,60.0,3.3333333333333335
2026-01-20T23:03:21+00:00,SAT-55403,249.05792320523148,31.543732779917054,3284.2078351081764,-6.773794654191601,237246.94191276756,10.5,10500237246.941914,47.655,-122.3035,60.0,3.35
2026-01-20T23:03:22+00:00,SAT-55403,249.01945395881918,31.587804704184965,3277.452103906396,-6.774135272106843,237258.8717929717,10.5,10500237258.871794,47.655,-122.3035,60.0,3.3666666666666667
2026-01-20T23:03:23+00:00,SAT-55403,248.98085286704753,31.631926828976955,3270.696032995015,-6.774470168716697,237270.60128886002,10.5,10500237270.60129,47.655,-122.3035,60.0,3.3833333333333333
2026-01-20T23:03:24+00:00,SAT-55403,248.94211902853368,31.67609942003345,3263.939628080081,-6.774799312465288,237282.1292952124,10.5,10500237282.129295,47.655,-122.3035,60.0,3.4
2026-01-20T23:03:25+00:00,SAT-55403,248.90325153367968,31.72032274479815,3257.182894899116,-6.775122676880978,237293.45488487993,10.5,10500237293.454885,47.655,-122.3035,60.0,3.4166666666666665
2026-01-20T23:03:26+00:00,SAT-55403,248.86424946454693,31.764597072463612,3250.42583921604,-6.77544024714814,237304.57753895686,10.5,10500237304.57754,47.655,-122.3035,60.0,3.433333333333333
2026-01-20T23:03:27+00:00,SAT-55403,248.82511189471273,31.808922674064057,3243.668466809551,-6.775751949759901,237315.49468292145,10.5,10500237315.494682,47.655,-122.3035,60.0,3.45
2026-01-20T23:03:28+00:00,SAT-55403,248.78583788944235,31.85329982209715,3236.9107835316568,-6.776057792407656,237326.20658615898,10.5,10500237326.206587,47.655,-122.3035,60.0,3.466666666666667
2026-01-20T23:03:29+00:00,SAT-55403,248.74642650521565,31.897728791078876,3230.152795226696,-6.776357718296327,237336.7112594655,10.5,10500237336.71126,47.655,-122.3035,60.0,3.4833333333333334
2026-01-20T23:03:30+00:00,SAT-55403,248.70687678991953,31.9422098571267,3223.394507795648,-6.776651711243176,237347.00813605305,10.5,10500237347.008137,47.655,-122.3035,60.0,3.5
2026-01-20T23:03:31+00:00,SAT-55403,248.6671877825696,31.98674329824589,3216.6359271556353,-6.776939696269525,237357.09458985127,10.5,10500237357.09459,47.655,-122.3035,60.0,3.5166666666666666
2026-01-20T23:03:32+00:00,SAT-55403,248.62735851347992,32.03132939394777,3209.8770592985557,-6.777221691589972,237366.97125881232,10.5,10500237366.971258,47.655,-122.3035,60.0,3.533333333333333
2026-01-20T23:03:33+00:00,SAT-55403,248.58738800371185,32.07596842589064,3203.1179101981434,-6.777497632713968,237376.63588420444,10.5,10500237376.635883,47.655,-122.3035,60.0,3.55
2026-01-20T23:03:34+00:00,SAT-55403,248.54727526536317,32.12066067733534,3196.35848589245,-6.777767490876272,237386.08745854726,10.5,10500237386.087458,47.655,-122.3035,60.0,3.566666666666667
2026-01-20T23:03:35+00:00,SAT-55403,248.50701930130447,32.1654064334038,3189.598792448216,-6.778031229922641,237395.32471556618,10.5,10500237395.324715,47.655,-122.3035,60.0,3.5833333333333335
2026-01-20T23:03:36+00:00,SAT-55403,248.466619105081,32.210205981038534,3182.83883596824,-6.778288802949473,237404.34601249866,10.5,10500237404.346012,47.655,-122.3035,60.0,3.6
2026-01-20T23:03:37+00:00,SAT-55403,248.42607366088902,32.25505960894974,3176.078622602098,-6.778540219258204,237413.15167512032,10.5,10500237413.151674,47.655,-122.3035,60.0,3.6166666666666667
2026-01-20T23:03:38+00:00,SAT-55403,248.38538194314322,32.29996760800169,3169.3181584900913,-6.77878537329972,237421.7380066548,10.5,10500237421.738007,47.655,-122.3035,60.0,3.6333333333333333
2026-01-20T23:03:39+00:00,SAT-55403,248.34454291698546,32.344930270460296,3162.557449877787,-6.779024273885539,237430.10531571863,10.5,10500237430.105316,47.655,-122.3035,60.0,3.65
2026-01-20T23:03:40+00:00,SAT-55403,248.30355553755362,32.389947890772426,3155.796503001965,-6.779256872186408,237438.25189210492,10.5,10500237438.251892,47.655,-122.3035,60.0,3.6666666666666665
2026-01-20T23:03:41+00:00,SAT-55403,248.26241875018763,32.435020765195105,3149.0353241481043,-6.779483130121932,237446.17640207708,10.5,10500237446.176401,47.655,-122.3035,60.0,3.683333333333333
2026-01-20T23:03:42+00:00,SAT-55403,248.2211314902366,32.48014919188042,3142.273919639663,-6.779703015399825,237453.87771462268,10.5,10500237453.877714,47.655,-122.3035,60.0,3.7
2026-01-20T23:03:43+00:00,SAT-55403,248.17969268292154,32.52533347093133,3135.512295832304,-6.779916465920206,237461.35365474122,10.5,10500237461.353655,47.655,-122.3035,60.0,3.716666666666667
2026-01-20T23:03:44+00:00,SAT-55403,248.13810124336132,32.57057390421197,3128.7504591436264,-6.780123483253984,237468.6042774526,10.5,10500237468.604277,47.655,-122.3035,60.0,3.7333333333333334
2026-01-20T23:03:45+00:00,SAT-55403,248.09635607612927,32.615870795795864,3121.988415989661,-6.780323987383477,237475.62678019912,10.5,10500237475.62678,47.655,-122.3035,60.0,3.75
2026-01-20T23:03:46+00:00,SAT-55403,248.05445607553986,32.66122445142687,3115.226172866244,-6.7805179614530715,237482.4205726258,10.5,10500237482.420572,47.655,-122.3035,60.0,3.7666666666666666
2026-01-20T23:03:47+00:00,SAT-55403,248.01240012521004,32.70663517896191,3108.4637362860217,-6.7807053534632455,237488.9838334895,10.5,10500237488.983833,47.655,-122.3035,60.0,3.783333333333333
2026-01-20T23:03:48+00:00,SAT-55403,247.97018709809532,32.75210328814712,3101.701112813501,-6.7808861514865875,237495.3161450418,10.5,10500237495.316145,47.655,-122.3035,60.0,3.8
2026-01-20T23:03:49+00:00,SAT-55403,247.9278158561669,32.79762909090626,3094.938309025085,-6.781060262064533,237501.41423396848,10.5,10500237501.414234,47.655,-122.3035,60.0,3.816666666666667
2026-01-20T23:03:50+00:00,SAT-55403,247.88528525069987,32.84321290079852,3088.175331590386,-6.781227672840225,237507.27766748008,10.5,10500237507.277668,47.655,-122.3035,60.0,3.8333333333333335
2026-01-20T23:03:51+00:00,SAT-55403,247.84259412172102,32.888855033589635,3081.4121871913403,-6.781388370275706,237512.90597142008,10.5,10500237512.905972,47.655,-122.3035,60.0,3.85
2026-01-20T23:03:52+00:00,SAT-55403,247.79974129786478,32.934555807256366,3074.648882523385,-6.781542271308553,237518.29623659115,10.5,10500237518.296236,47.655,-122.3035,60.0,3.8666666666666667
2026-01-20T23:03:53+00:00,SAT-55403,247.75672559662314,32.98031554152729,3067.8854243648,-6.7816893268986105,237523.44674539947,10.5,10500237523.446745,47.655,-122.3035,60.0,3.8833333333333333
2026-01-20T23:03:54+00:00,SAT-55403,247.7135458240074,33.02613455812894,3061.121819542773,-6.781829516877173,237528.35679145175,10.5,10500237528.35679,47.655,-122.3035,60.0,3.9
2026-01-20T23:03:55+00:00,SAT-55403,247.67020077427446,33.07201318100168,3054.3580749046077,-6.781962802804532,237533.0250284268,10.5,10500237533.025028,47.655,-122.3035,60.0,3.9166666666666665
2026-01-20T23:03:56+00:00,SAT-55403,247.6266892298547,33.11795173618768,3047.5941973359436,-6.782089128723658,237537.4494964727,10.5,10500237537.449497,47.655,-122.3035,60.0,3.933333333333333
2026-01-20T23:03:57+00:00,SAT-55403,247.5830099613289,33.16395055172718,3040.83019377823,-6.782208432192639,237541.62800860955,10.5,10500237541.628008,47.655,-122.3035,60.0,3.95
2026-01-20T23:03:58+00:00,SAT-55403,247.53916172729507,33.210009957627506,3034.06607123519,-6.782320702434162,237545.56018737037,10.5,10500237545.560188,47.655,-122.3035,60.0,3.966666666666667
2026-01-20T23:03:59+00:00,SAT-55403,247.49514327395266,33.25613028623547,3027.3018367212953,-6.782425881821194,237549.24401441257,10.5,10500237549.244015,47.655,-122.3035,60.0,3.9833333333333334
2026-01-20T23:04:00+00:00,SAT-55403,247.45095333519475,33.30231187192942,3020.5374973084927,-6.782523894965934,237552.67684933654,10.5,10500237552.67685,47.655,-122.3035,60.0,4.0
2026-01-20T23:04:01+00:00,SAT-55403,247.40659063256467,33.348555051011516,3013.773060143913,-6.7826147236573435,237555.85805431474,10.5,10500237555.858055,47.655,-122.3035,60.0,4.016666666666667
2026-01-20T23:04:02+00:00,SAT-55403,247.362053874774,33.394860162117986,3007.0085323928524,-6.782698326323048,237558.7861733066,10.5,10500237558.786173,47.655,-122.3035,60.0,4.033333333333333
2026-01-20T23:04:03+00:00,SAT-55403,247.3173417576857,33.44122754607534,3000.2439212620657,-6.782774648818836,237561.45930995294,10.5,10500237561.45931,47.655,-122.3035,60.0,4.05
2026-01-20T23:04:04+00:00,SAT-55403,247.2724529642028,33.487657545825776,2993.479234012311,-6.782843608077203,237563.87455487836,10.5,10500237563.874556,47.655,-122.3035,60.0,4.066666666666666
2026-01-20T23:04:05+00:00,SAT-55403,247.2273861642999,33.53415050624328,2986.7144779871883,-6.7829052067546165,237566.03200112347,10.5,10500237566.032001,47.655,-122.3035,60.0,4.083333333333333
2026-01-20T23:04:06+00:00,SAT-55403,247.1821400143412,33.58070677474434,2979.9496605276518,-6.782959372214269,237567.9291046402,10.5,10500237567.929104,47.655,-122.3035,60.0,4.1
2026-01-20T23:04:07+00:00,SAT-55403,247.13671315736667,33.62732670078086,2973.1847890470967,-6.783006048123562,237569.56389242256,10.5,10500237569.563892,47.655,-122.3035,60.0,4.116666666666666
2026-01-20T23:04:08+00:00,SAT-55403,247.0911042228107,33.67401063596691,2966.4198710151018,-6.7830451780655245,237570.93438850957,10.5,10500237570.93439,47.655,-122.3035,60.0,4.133333333333334
2026-01-20T23:04:09+00:00,SAT-55403,247.04531182634304,33.720758934095215,2959.654913957511,-6.783076739419804,237572.0398006408,10.5,10500237572.0398,47.655,-122.3035,60.0,4.15
2026-01-20T23:04:10+00:00,SAT-55403,246.99933456948963,33.767571951388746,2952.8899254227294,-6.783100657160964,237572.8775011082,10.5,10500237572.8775,47.655,-122.3035,60.0,4.166666666666667
2026-01-20T23:04:11+00:00,SAT-55403,246.95317103976987,33.81445004614982,2946.124913033988,-6.7831168843056115,237573.44584435452,10.5,10500237573.445845,47.655,-122.3035,60.0,4.183333333333334
2026-01-20T23:04:12+00:00,SAT-55403,246.90681981033447,33.86139357897045,2939.3598844613734,-6.783125373656904,237573.74317734665,10.5,10500237573.743177,47.655,-122.3035,60.0,4.2
2026-01-20T23:04:13+00:00,SAT-55403,246.86027943980932,33.90840291274916,2932.5948474220468,-6.78312605961688,237573.76720256664,10.5,10500237573.767202,47.655,-122.3035,60.0,4.216666666666667
2026-01-20T23:04:14+00:00,SAT-55403,246.8135484721911,33.9554784125738,2925.8298096985886,-6.783118887961542,237573.51602086064,10.5,10500237573.516022,47.655,-122.3035,60.0,4.233333333333333
2026-01-20T23:04:15+00:00,SAT-55403,246.7666254366189,34.002620445819424,2919.0647791276615,-6.783103814965691,237572.98810078722,10.5,10500237572.9881,47.655,-122.3035,60.0,4.25
2026-01-20T23:04:16+00:00,SAT-55403,246.71950884709372,34.04982938223575,2912.299763589536,-6.783080779727321,237572.18130930056,10.5,10500237572.181309,47.655,-122.3035,60.0,4.266666666666667
2026-01-20T23:04:17+00:00,SAT-55403,246.67219720241752,34.09710559384602,2905.534771025221,-6.783049719411156,237571.09344564346,10.5,10500237571.093445,47.655,-122.3035,60.0,4.283333333333333
2026-01-20T23:04:18+00:00,SAT-55403,246.6246889859758,34.144449454940016,2898.769809438395,-6.783010606737994,237569.72355438286,10.5,10500237569.723555,47.655,-122.3035,60.0,4.3
2026-01-20T23:04:19+00:00,SAT-55403,246.5769826653505,34.191861342352595,2892.004886859942,-6.78296333136214,237568.0677707458,10.5,10500237568.06777,47.655,-122.3035,60.0,4.316666666666666
2026-01-20T23:04:20+00:00,SAT-55403,246.5290766925981,34.23934163487811,2885.240011430796,-6.7829078816961825,237566.12568889215,10.5,10500237566.125689,47.655,-122.3035,60.0,4.333333333333333
2026-01-20T23:04:21+00:00,SAT-55403,246.48096950346644,34.286890713995525,2878.4751913034515,-6.782844163850587,237563.8940204132,10.5,10500237563.89402,47.655,-122.3035,60.0,4.35
2026-01-20T23:04:22+00:00,SAT-55403,246.4326595176645,34.33450896329337,2871.710434724038,-6.782772158918053,237561.3721030953,10.5,10500237561.372103,47.655,-122.3035,60.0,4.366666666666666
2026-01-20T23:04:23+00:00,SAT-55403,246.38414513821522,34.3821967690235,2864.9457499575433,-6.782691771635835,237558.55660043412,10.5,10500237558.5566,47.655,-122.3035,60.0,4.383333333333334
2026-01-20T23:04:24+00:00,SAT-55403,246.33542475168437,34.4299545195668,2858.1811453639657,-6.782602941238634,237555.44538417194,10.5,10500237555.445385,47.655,-122.3035,60.0,4.4
2026-01-20T23:04:25+00:00,SAT-55403,246.2864967277771,34.47778260569764,2851.416629363903,-6.7825056345153065,237552.03729111396,10.5,10500237552.03729,47.655,-122.3035,60.0,4.416666666666667
2026-01-20T23:04:26+00:00,SAT-55403,246.23735941891852,34.52568142079382,2844.65221041108,-6.78239976619674,237548.32933477522,10.5,10500237548.329334,47.655,-122.3035,60.0,4.433333333333334
2026-01-20T23:04:27+00:00,SAT-55403,246.18801116037147,34.573651360480795,2837.88789704426,-6.782285290219416,237544.31990181646,10.5,10500237544.319902,47.655,-122.3035,60.0,4.45
2026-01-20T23:04:28+00:00,SAT-55403,246.13845026975133,34.621692822926036,2831.123697848148,-6.782162107927719,237540.00553690063,10.5,10500237540.005537,47.655,-122.3035,60.0,4.466666666666667
2026-01-20T23:04:29+00:00,SAT-55403,246.08867504713598,34.669806208474654,2824.359621505841,-6.782030195325031,237535.38539956475,10.5,10500237535.385399,47.655,-122.3035,60.0,4.483333333333333
2026-01-20T23:04:30+00:00,SAT-55403,246.0386837743473,34.717991920205236,2817.59567672437,-6.781889457936857,237530.45618091233,10.5,10500237530.45618,47.655,-122.3035,60.0,4.5
2026-01-20T23:04:31+00:00,SAT-55403,245.9884747151733,34.76625036343203,2810.831872304988,-6.78173984069301,237525.2159521525,10.5,10500237525.215952,47.655,-122.3035,60.0,4.516666666666667
2026-01-20T23:04:32+00:00,SAT-55403,245.9380461148495,34.8145819460032,2804.06821710387,-6.781581288708807,237519.66279099145,10.5,10500237519.66279,47.655,-122.3035,60.0,4.533333333333333
2026-01-20T23:04:33+00:00,SAT-55403,245.88739619984574,34.86298707832231,2797.304720031931,-6.781413722188658,237513.79390265016,10.5,10500237513.793903,47.655,-122.3035,60.0,4.55
2026-01-20T23:04:34+00:00,SAT-55403,245.8365231777404,34.911466173175995,2790.5413900796684,-6.781237072650967,237507.60688861343,10.5,10500237507.606888,47.655,-122.3035,60.0,4.566666666666666
2026-01-20T23:04:35+00:00,SAT-55403,245.78542523692192,34.96001964583232,2783.778236305878,-6.78105125327757,237501.0987081419,10.5,10500237501.098707,47.655,-122.3035,60.0,4.583333333333333
2026-01-20T23:04:36+00:00,SAT-55403,245.73410054643443,35.00864791391995,2777.015267855942,-6.780856216958018,237494.26771122837,10.5,10500237494.267712,47.655,-122.3035,60.0,4.6
2026-01-20T23:04:37+00:00,SAT-55403,245.68254725546336,35.057351397732006,2770.2524939222294,-6.7806519038499395,237487.11180193987,10.5,10500237487.111801,47.655,-122.3035,60.0,4.616666666666666
2026-01-20T23:04:38+00:00,SAT-55403,245.63076349314116,35.10613052014542,2763.4899237567897,-6.780438207689666,237479.62725847322,10.5,10500237479.627258,47.655,-122.3035,60.0,4.633333333333334
2026-01-20T23:04:39+00:00,SAT-55403,245.57874736860524,35.15498570629732,2756.727566717654,-6.780215084031341,237471.81252414655,10.5,10500237471.812525,47.655,-122.3035,60.0,4.65
2026-01-20T23:04:40+00:00,SAT-55403,245.52649697028224,35.203917384045965,2749.96543220718,-6.779982424811692,237463.66381412692,10.5,10500237463.663815,47.655,-122.3035,60.0,4.666666666666667
2026-01-20T23:04:41+00:00,SAT-55403,245.47401036606954,35.252925983521045,2743.2035297355014,-6.779740230617711,237455.1811489733,10.5,10500237455.181149,47.655,-122.3035,60.0,4.683333333333334
2026-01-20T23:04:42+00:00,SAT-55403,245.4212856022932,35.30201193793626,2736.441868812165,-6.779488309868842,237446.35781872418,10.5,10500237446.357819,47.655,-122.3035,60.0,4.7
2026-01-20T23:04:43+00:00,SAT-55403,245.36832070473048,35.35117568217799,2729.6804591377895,-6.779226684513572,237437.19459210846,10.5,10500237437.194592,47.655,-122.3035,60.0,4.716666666666667
2026-01-20T23:04:44+00:00,SAT-55403,245.31511367686835,35.40041765440012,2722.919310391101,-6.77895524286959,237427.68755753918,10.5,10500237427.687557,47.655,-122.3035,60.0,4.733333333333333
2026-01-20T23:04:45+00:00,SAT-55403,245.26166250052148,35.44973829504983,2716.1584323622124,-6.778673894358917,237417.83354259242,10.5,10500237417.833542,47.655,-122.3035,60.0,4.75
2026-01-20T23:04:46+00:00,SAT-55403,245.2079651353696,35.49913804702601,2709.397834931572,-6.778382583503271,237407.630604184,10.5,10500237407.630604,47.655,-122.3035,60.0,4.766666666666667
2026-01-20T23:04:47+00:00,SAT-55403,245.15401951843913,35.548617355962755,2702.637528034958,-6.778081194562713,237397.0746886117,10.5,10500237397.074688,47.655,-122.3035,60.0,4.783333333333333
2026-01-20T23:04:48+00:00,SAT-55403,245.09982356416901,35.59817666977895,2695.8775217235807,-6.7777697165637605,237386.16541153775,10.5,10500237386.165411,47.655,-122.3035,60.0,4.8
2026-01-20T23:04:49+00:00,SAT-55403,245.0453751634156,35.64781643948605,2689.1178260595943,-6.777447968089747,237374.89641898312,10.5,10500237374.89642,47.655,-122.3035,60.0,4.816666666666666
2026-01-20T23:04:50+00:00,SAT-55403,244.99067218426745,35.697537117908496,2682.358451286086,-6.777115953148998,237363.26785133628,10.5,10500237363.26785,47.655,-122.3035,60.0,4.833333333333333
2026-01-20T23:04:51+00:00,SAT-55403,244.93571247047015,35.74733916109351,2675.5994076421457,-6.776773535117814,237351.27492345736,10.5,10500237351.274923,47.655,-122.3035,60.0,4.85
2026-01-20T23:04:52+00:00,SAT-55403,244.88049384204453,35.79722302726014,2668.8407055031216,-6.776420657429298,237338.91565413438,10.5,10500237338.915653,47.655,-122.3035,60.0,4.866666666666666
2026-01-20T23:04:53+00:00,SAT-55403,244.82501409440817,35.847189177411046,2662.0823553007785,-6.776057210853301,237326.18621766547,10.5,10500237326.186218,47.655,-122.3035,60.0,4.883333333333334
2026-01-20T23:04:54+00:00,SAT-55403,244.76927099840333,35.89723807494782,2655.324367575821,-6.775683119212762,237313.08394600774,10.5,10500237313.083946,47.655,-122.3035,60.0,4.9
2026-01-20T23:04:55+00:00,SAT-55403,244.7132622997028,35.94737018592448,2648.566752944926,-6.775298317223294,237299.6065526258,10.5,10500237299.606552,47.655,-122.3035,60.0,4.916666666666667
2026-01-20T23:04:56+00:00,SAT-55403,244.65698571839658,35.99758597914239,2641.809522089882,-6.774902668601704,237285.7492643057,10.5,10500237285.749264,47.655,-122.3035,60.0,4.933333333333334
2026-01-20T23:04:57+00:00,SAT-55403,244.60043894911905,36.04788592561492,2635.0526858283965,-6.774496105896551,237271.50971861268,10.5,10500237271.509718,47.655,-122.3035,60.0,4.95
2026-01-20T23:04:58+00:00,SAT-55403,244.54361966021716,36.0982704991012,2628.2962550454495,-6.774078542732838,237256.884890329,10.5,10500237256.88489,47.655,-122.3035,60.0,4.966666666666667
2026-01-20T23:04:59+00:00,SAT-55403,244.48652549349242,36.14874017596595,2621.5402407121637,-6.773649886096182,237241.87152169755,10.5,10500237241.871521,47.655,-122.3035,60.0,4.983333333333333
2026-01-20T23:05:00+00:00,SAT-55403,244.42915406388528,36.19929543513816,2614.7846538924305,-6.773210024212794,237226.4656979274,10.5,10500237226.465698,47.655,-122.3035,60.0,5.0
2026-01-20T23:05:01+00:00,SAT-55403,244.37150295922504,36.24993675797065,2608.0295057616154,-6.772758884802642,237210.6648874661,10.5,10500237210.664888,47.655,-122.3035,60.0,5.016666666666667
2026-01-20T23:05:02+00:00,SAT-55403,244.31356973955832,36.30066462854953,2601.274807567172,-6.772296347771363,237194.46488410095,10.5,10500237194.464884,47.655,-122.3035,60.0,5.033333333333333
2026-01-20T23:05:03+00:00,SAT-55403,244.25535193708845,36.35147953332894,2594.5205706763286,-6.771822338589543,237177.8630774968,10.5,10500237177.863077,47.655,-122.3035,60.0,5.05
2026-01-20T23:05:04+00:00,SAT-55403,244.19684705546416,36.40238196149015,2587.766806530642,-6.771336734494666,237160.85516799087,10.5,10500237160.855167,47.655,-122.3035,60.0,5.066666666666666
2026-01-20T23:05:05+00:00,SAT-55403,244.13805256969715,36.45337240456685,2581.013526694106,-6.770839452718564,237143.43825669197,10.5,10500237143.438257,47.655,-122.3035,60.0,5.083333333333333
2026-01-20T23:05:06+00:00,SAT-55403,244.0789659254832,36.5044513567633,2574.260742813261,-6.770330385385497,237125.60856533528,10.5,10500237125.608566,47.655,-122.3035,60.0,5.1
2026-01-20T23:05:07+00:00,SAT-55403,244.0195845389345,36.5556193147564,2567.5084666422367,-6.769809441338626,237107.3629012227,10.5,10500237107.362902,47.655,-122.3035,60.0,5.116666666666666
2026-01-20T23:05:08+00:00,SAT-55403,243.95990579605655,36.60687677783318,2560.7567100260753,-6.769276475235733,237088.69617385505,10.5,10500237088.696175,47.655,-122.3035,60.0,5.133333333333334
2026-01-20T23:05:09+00:00,SAT-55403,243.8999270526984,36.65822424746218,2554.005484954773,-6.768731445296076,237069.60691989388,10.5,10500237069.60692,47.655,-122.3035,60.0,5.15
2026-01-20T23:05:10+00:00,SAT-55403,243.83964563333467,36.70966222810705,2547.2548034599977,-6.768174186214056,237050.089349638,10.5,10500237050.08935,47.655,-122.3035,60.0,5.166666666666667
2026-01-20T23:05:11+00:00,SAT-55403,243.7790588315518,36.76119122625707,2540.5046777382804,-6.767604612847111,237030.1404810346,10.5,10500237030.140482,47.655,-122.3035,60.0,5.183333333333334
2026-01-20T23:05:12+00:00,SAT-55403,243.71816390898925,36.81281175105518,2533.7551200710673,-6.767022620735747,237009.75665547044,10.5,10500237009.756655,47.655,-122.3035,60.0,5.2
2026-01-20T23:05:13+00:00,SAT-55403,243.65695809499627,36.86452431414016,2527.0061428439867,-6.766428093246577,236988.93378795093,10.5,10500236988.933788,47.655,-122.3035,60.0,5.216666666666667
2026-01-20T23:05:14+00:00,SAT-55403,243.59543858629104,36.91632942955605,2520.257758558989,-6.765820922727982,236967.66810806099,10.5,10500236967.668108,47.655,-122.3035,60.0,5.233333333333333
2026-01-20T23:05:15+00:00,SAT-55403,243.53360254636345,36.96822761380747,2513.5099798253887,-6.765200983579544,236945.9552167427,10.5,10500236945.955217,47.655,-122.3035,60.0,5.25
2026-01-20T23:05:16+00:00,SAT-55403,243.47144710516775,37.02021938572125,2506.762819377765,-6.764568159879385,236923.79105392154,10.5,10500236923.791054,47.655,-122.3035,60.0,5.266666666666667
2026-01-20T23:05:17+00:00,SAT-55403,243.40896935852552,37.07230526651221,2500.016290066312,-6.76392235181619,236901.17212378304,10.5,10500236901.172123,47.655,-122.3035,60.0,5.283333333333333
2026-01-20T23:05:18+00:00,SAT-55403,243.34616636750184,37.12448577990693,2493.2704048407672,-6.763263422791667,236878.0936420772,10.5,10500236878.093641,47.655,-122.3035,60.0,5.3
2026-01-20T23:05:19+00:00,SAT-55403,243.28303515817353,37.17676145183928,2486.525176787103,-6.762591247128149,236854.55120704058,10.5,10500236854.551207,47.655,-122.3035,60.0,5.316666666666666
2026-01-20T23:05:20+00:00,SAT-55403,243.21957272104666,37.229132810535276,2479.780619116634,-6.761905742567215,236830.54193763528,10.5,10500236830.541937,47.655,-122.3035,60.0,5.333333333333333
2026-01-20T23:05:21+00:00,SAT-55403,243.15577601012365,37.2816003868376,2473.0367451227135,-6.761206722400108,236806.05929453083,10.5,10500236806.059294,47.655,-122.3035,60.0,5.35
2026-01-20T23:05:22+00:00,SAT-55403,243.09164194327093,37.33416471337229,2466.2935682849065,-6.760494130186477,236781.1013009474,10.5,10500236781.101301,47.655,-122.3035,60.0,5.366666666666666
2026-01-20T23:05:23+00:00,SAT-55403,243.02716740054694,37.38682632556724,2459.5511021390676,-6.759767775656469,236755.66129282987,10.5,10500236755.661293,47.655,-122.3035,60.0,5.383333333333334
2026-01-20T23:05:24+00:00,SAT-55403,242.96234922479346,37.439585760574296,2452.8093604108126,-6.759027570408806,236729.73617399164,10.5,10500236729.736174,47.655,-122.3035,60.0,5.4
2026-01-20T23:05:25+00:00,SAT-55403,242.89718422018493,37.49244355806525,2446.0683569139246,-6.758273383990087,236703.32137540268,10.5,10500236703.321375,47.655,-122.3035,60.0,5.416666666666667
2026-01-20T23:05:26+00:00,SAT-55403,242.83166915202224,37.545400259881085,2439.328105592292,-6.7575050496157925,236676.41105556375,10.5,10500236676.411055,47.655,-122.3035,60.0,5.433333333333334
2026-01-20T23:05:27+00:00,SAT-55403,242.7658007464421,37.59845640971945,2432.588620556142,-6.756722473785686,236649.00193970092,10.5,10500236649.00194,47.655,-122.3035,60.0,5.45
2026-01-20T23:05:28+00:00,SAT-55403,242.69957568920074,37.65161255370766,2425.849916008953,-6.75592548585075,236621.08805096382,10.5,10500236621.08805,47.655,-122.3035,60.0,5.466666666666667
2026-01-20T23:05:29+00:00,SAT-55403,242.6329906257149,37.70486923975486,2419.112006324398,-6.755113988887373,236592.66599467758,10.5,10500236592.665995,47.655,-122.3035,60.0,5.483333333333333
2026-01-20T23:05:30+00:00,SAT-55403,242.5660421598251,37.75822701813213,2412.3749059728143,-6.754287802680318,236563.72945894237,10.5,10500236563.72946,47.655,-122.3035,60.0,5.5
2026-01-20T23:05:31+00:00,SAT-55403,242.49872685385918,37.811686440766536,2405.6386296042742,-6.753446826445033,236534.27491385673,10.5,10500236534.274914,47.655,-122.3035,60.0,5.516666666666667
2026-01-20T23:05:32+00:00,SAT-55403,242.4310412273296,37.86524806186612,2398.903191969366,-6.752590853341153,236504.29511499623,10.5,10500236504.295115,47.655,-122.3035,60.0,5.533333333333333
2026-01-20T23:05:33+00:00,SAT-55403,242.36298175718758,37.91891243702461,2392.1686080249674,-6.751719813201317,236473.78760480302,10.5,10500236473.787605,47.655,-122.3035,60.0,5.55
2026-01-20T23:05:34+00:00,SAT-55403,242.29454487597562,37.972680124310855,2385.434892797935,-6.750833512156961,236442.74559317998,10.5,10500236442.745594,47.655,-122.3035,60.0,5.566666666666666
2026-01-20T23:05:35+00:00,SAT-55403,242.22572697221904,38.02655168322038,2378.7020615084766,-6.749931801506539,236411.1638719699,10.5,10500236411.163872,47.655,-122.3035,60.0,5.583333333333333
2026-01-20T23:05:36+00:00,SAT-55403,242.15652438937337,38.08052767502147,2371.970129525108,-6.749014564033735,236379.03833576167,10.5,10500236379.038336,47.655,-122.3035,60.0,5.6
2026-01-20T23:05:37+00:00,SAT-55403,242.08693342480876,38.13460866296991,2365.2391123332445,-6.7480816118136175,236346.36240262917,10.5,10500236346.362402,47.655,-122.3035,60.0,5.616666666666666
2026-01-20T23:05:38+00:00,SAT-55403,242.0169503297598,38.18879521169502,2358.509025605729,-6.747132800831951,236313.13102858473,10.5,10500236313.13103,47.655,-122.3035,60.0,5.633333333333334
2026-01-20T23:05:39+00:00,SAT-55403,241.94657130818894,38.24308788752143,2351.779885159033,-6.746167973547214,236279.33869585788,10.5,10500236279.338696,47.655,-122.3035,60.0,5.65
2026-01-20T23:05:40+00:00,SAT-55403,241.8757925161965,38.29748725831837,2345.0517069667485,-6.745186963765444,236244.97958363302,10.5,10500236244.979584,47.655,-122.3035,60.0,5.666666666666667
2026-01-20T23:05:41+00:00,SAT-55403,241.80461006131148,38.35199389337497,2338.32450716822,-6.744189627242689,236210.04863987683,10.5,10500236210.04864,47.655,-122.3035,60.0,5.683333333333334
2026-01-20T23:05:42+00:00,SAT-55403,241.73302000157668,38.40660836355188,2331.5983020466497,-6.743175775846154,236174.53927538305,10.5,10500236174.539276,47.655,-122.3035,60.0,5.7
2026-01-20T23:05:43+00:00,SAT-55403,241.66101834512762,38.46133124085123,2324.873108072872,-6.742145266537899,236138.44648035787,10.5,10500236138.44648,47.655,-122.3035,60.0,5.716666666666667
2026-01-20T23:05:44+00:00,SAT-55403,241.58860104903314,38.51616309875775,2318.1489418603787,-6.741097912283893,236101.76370407848,10.5,10500236101.763704,47.655,-122.3035,60.0,5.733333333333333
2026-01-20T23:05:45+00:00,SAT-55403,241.51576401885686,38.57110451180183,2311.4258202091946,-6.740033553860414,236064.4853698566,10.5,10500236064.48537,47.655,-122.3035,60.0,5.75
2026-01-20T23:05:46+00:00,SAT-55403,241.4425031076257,38.626156055753,2304.703760078144,-6.738951988092376,236026.60436164125,10.5,10500236026.604362,47.655,-122.3035,60.0,5.766666666666667
2026-01-20T23:05:47+00:00,SAT-55403,241.36881411537237,38.68131830717567,2297.9827786286864,-6.737853084804369,235988.11612013893,10.5,10500235988.11612,47.655,-122.3035,60.0,5.783333333333333
2026-01-20T23:05:48+00:00,SAT-55403,241.29469278761903,38.73659184399188,2291.2628931521085,-6.736736647937913,235949.01377855235,10.5,10500235949.013779,47.655,-122.3035,60.0,5.8
2026-01-20T23:05:49+00:00,SAT-55403,241.22013481512707,38.79197724485972,2284.5441211352318,-6.735602467374115,235909.28997762915,10.5,10500235909.289978,47.655,-122.3035,60.0,5.816666666666666
2026-01-20T23:05:50+00:00,SAT-55403,241.14513583318455,38.84747508898487,2277.826480274437,-6.734450393456486,235868.93947576592,10.5,10500235868.939476,47.655,-122.3035,60.0,5.833333333333333
2026-01-20T23:05:51+00:00,SAT-55403,241.06969142009063,38.90308595655968,2271.109988415363,-6.733280228558177,235827.95535123456,10.5,10500235827.95535,47.655,-122.3035,60.0,5.85
2026-01-20T23:05:52+00:00,SAT-55403,240.99379709675577,38.95881042829054,2264.394663600748,-6.732091800188385,235786.33156267743,10.5,10500235786.331562,47.655,-122.3035,60.0,5.866666666666666
2026-01-20T23:05:53+00:00,SAT-55403,240.91744832548483,39.0146490855239,2257.68052404536,-6.73088486478126,235744.05957938815,10.5,10500235744.05958,47.655,-122.3035,60.0,5.883333333333334
2026-01-20T23:05:54+00:00,SAT-55403,240.84064050977724,39.070602509563564,2250.967588206885,-6.72965927926404,235701.13439035355,10.5,10500235701.13439,47.655,-122.3035,60.0,5.9
2026-01-20T23:05:55+00:00,SAT-55403,240.7633689923452,39.12667128244379,2244.2558746856985,-6.728414834702756,235657.5486778221,10.5,10500235657.548677,47.655,-122.3035,60.0,5.916666666666667
2026-01-20T23:05:56+00:00,SAT-55403,240.6856290548118,39.182855986280344,2237.545402290555,-6.7271513189913765,235613.29501294342,10.5,10500235613.295013,47.655,-122.3035,60.0,5.933333333333334
2026-01-20T23:05:57+00:00,SAT-55403,240.6074159167295,39.23915720314536,2230.836190041748,-6.725868535040496,235568.36649281284,10.5,10500235568.366493,47.655,-122.3035,60.0,5.95
2026-01-20T23:05:58+00:00,SAT-55403,240.5287247344553,39.295575515109235,2224.128257156134,-6.724566264257424,235522.75546138972,10.5,10500235522.75546,47.655,-122.3035,60.0,5.966666666666667
2026-01-20T23:05:59+00:00,SAT-55403,240.44955060028528,39.35211150393761,2217.4216230685815,-6.723244344054017,235476.45622414947,10.5,10500235476.456224,47.655,-122.3035,60.0,5.983333333333333
2026-01-20T23:06:00+00:00,SAT-55403,240.3698885408822,39.408765751493846,2210.716307376111,-6.7219024869054484,235429.4587107565,10.5,10500235429.458712,47.655,-122.3035,60.0,6.0
2026-01-20T23:06:01+00:00,SAT-55403,240.2897335174673,39.465538838526214,2204.0123299625047,-6.720540540912961,235381.7576010738,10.5,10500235381.7576,47.655,-122.3035,60.0,6.016666666666667
2026-01-20T23:06:02+00:00,SAT-55403,240.20908042334787,39.52243134574781,2197.309710863034,-6.719158246836193,235333.34381540716,10.5,10500235333.343815,47.655,-122.3035,60.0,6.033333333333333
2026-01-20T23:06:03+00:00,SAT-55403,240.12792408390868,39.57944385277051,2190.608470371523,-6.717755429460787,235284.21121700888,10.5,10500235284.211218,47.655,-122.3035,60.0,6.05
2026-01-20T23:06:04+00:00,SAT-55403,240.04625925463188,39.63657693873329,2183.9086289565403,-6.716331811130785,235234.35008119268,10.5,10500235234.35008,47.655,-122.3035,60.0,6.066666666666666
2026-01-20T23:06:05+00:00,SAT-55403,239.96408062099067,39.69383118125347,2177.210207363573,-6.714887187140347,235183.75323829407,10.5,10500235183.753239,47.655,-122.3035,60.0,6.083333333333333
2026-01-20T23:06:06+00:00,SAT-55403,239.8813827965643,39.75120715695532,2170.513226542265,-6.7134213365099225,235132.4129486746,10.5,10500235132.412949,47.655,-122.3035,60.0,6.1
2026-01-20T23:06:07+00:00,SAT-55403,239.7981603219583,39.80870544117196,2163.817707662652,-6.711934007350808,235080.32039012632,10.5,10500235080.32039,47.655,-122.3035,60.0,6.116666666666666
2026-01-20T23:06:08+00:00,SAT-55403,239.71440766399004,39.86632660754262,2157.1236721459877,-6.710424971844086,235027.46758346705,10.5,10500235027.467583,47.655,-122.3035,60.0,6.133333333333334
2026-01-20T23:06:09+00:00,SAT-55403,239.63011921413738,39.924071228062125,2150.4311416407354,-6.708893959133526,234973.84504216592,10.5,10500234973.845041,47.655,-122.3035,60.0,6.15
2026-01-20T23:06:10+00:00,SAT-55403,239.545289287804,39.981939872549255,2143.740138065493,-6.707340769260058,234919.44576281038,10.5,10500234919.445763,47.655,-122.3035,60.0,6.166666666666667
2026-01-20T23:06:11+00:00,SAT-55403,239.4599121222273,40.039933109117946,2137.0506835382844,-6.7057651353308,234864.26039768287,10.5,10500234864.260397,47.655,-122.3035,60.0,6.183333333333334
2026-01-20T23:06:12+00:00,SAT-55403,239.3739818759284,40.098051503410275,2130.362800443314,-6.704166775010359,234808.27905820354,10.5,10500234808.279058,47.655,-122.3035,60.0,6.2
2026-01-20T23:06:13+00:00,SAT-55403,239.28749262755997,40.15629561827725,2123.67651144637,-6.702545477233033,234751.4943519588,10.5,10500234751.494352,47.655,-122.3035,60.0,6.216666666666667
2026-01-20T23:06:14+00:00,SAT-55403,239.20043837375988,40.214666014246504,2116.991839423743,-6.700900940445094,234693.89571726148,10.5,10500234693.895718,47.655,-122.3035,60.0,6.233333333333333
2026-01-20T23:06:15+00:00,SAT-55403,239.11281302878496,40.2731632485097,2110.308807552473,-6.699232916869336,234635.47447590568,10.5,10500234635.474476,47.655,-122.3035,60.0,6.25
2026-01-20T23:06:16+00:00,SAT-55403,239.02461042252185,40.33178787521758,2103.627439256715,-6.697541143235973,234576.2214070699,10.5,10500234576.221407,47.655,-122.3035,60.0,6.266666666666667
2026-01-20T23:06:17+00:00,SAT-55403,238.93582429921668,40.390540445137496,2096.9477582231943,-6.69582535194036,234516.12713810758,10.5,10500234516.127138,47.655,-122.3035,60.0,6.283333333333333
2026-01-20T23:06:18+00:00,SAT-55403,238.8464483160834,40.44942150540047,2090.2697884055256,-6.694085236777291,234455.1809444171,10.5,10500234455.180944,47.655,-122.3035,60.0,6.3
2026-01-20T23:06:19+00:00,SAT-55403,238.7564760422624,40.50843159892839,2083.5935540627133,-6.692320533620129,234393.37357516633,10.5,10500234393.373575,47.655,-122.3035,60.0,6.316666666666666
2026-01-20T23:06:20+00:00,SAT-55403,238.66590095685098,40.567571264597916,2076.9190797171827,-6.690530973184307,234330.6955988707,10.5,10500234330.695599,47.655,-122.3035,60.0,6.333333333333333
2026-01-20T23:06:21+00:00,SAT-55403,238.57471644737743,40.62684103694714,2070.246390159927,-6.6887162254728185,234267.13545763915,10.5,10500234267.135458,47.655,-122.3035,60.0,6.35
2026-01-20T23:06:22+00:00,SAT-55403,238.48291580902253,40.68624144538618,2063.575510511055,-6.686876035344093,234202.68421533465,10.5,10500234202.684216,47.655,-122.3035,60.0,6.366666666666666
2026-01-20T23:06:23+00:00,SAT-55403,238.3904922420714,40.74577301462136,2056.906466145139,-6.6850100695584285,234137.33020049325,10.5,10500234137.3302,47.655,-122.3035,60.0,6.383333333333334
2026-01-20T23:06:24+00:00,SAT-55403,238.29743885129687,40.80543626368388,2050.239282769099,-6.683118063435479,234071.0641428896,10.5,10500234071.064142,47.655,-122.3035,60.0,6.4
2026-01-20T23:06:25+00:00,SAT-55403,238.20374864339777,40.865231706275246,2043.573986353833,-6.681199674483656,234003.87404701952,10.5,10500234003.874046,47.655,-122.3035,60.0,6.416666666666667
2026-01-20T23:06:26+00:00,SAT-55403,238.1094145263475,40.925159849782155,2036.9106032118145,-6.679254599951613,233935.74930925027,10.5,10500233935.74931,47.655,-122.3035,60.0,6.433333333333334
2026-01-20T23:06:27+00:00,SAT-55403,238.01442930712426,40.9852211953323,2030.249159957463,-6.677282527661802,233866.67899580355,10.5,10500233866.678995,47.655,-122.3035,60.0,6.45
2026-01-20T23:06:28+00:00,SAT-55403,237.91878569014054,41.04541623742446,2023.5896835165415,-6.675283116292301,233796.65115214195,10.5,10500233796.651152,47.655,-122.3035,60.0,6.466666666666667
2026-01-20T23:06:29+00:00,SAT-55403,237.82247627577925,41.10574546331816,2016.932201155226,-6.673256060910995,233725.6550982528,10.5,10500233725.655098,47.655,-122.3035,60.0,6.483333333333333
2026-01-20T23:06:30+00:00,SAT-55403,237.72549355817003,41.16620935307352,2010.276740443811,-6.6712009929231115,233653.67792438818,10.5,10500233653.677925,47.655,-122.3035,60.0,6.5
2026-01-20T23:06:31+00:00,SAT-55403,237.62782992412093,41.226808378592125,2003.6233293202022,-6.669117624997457,233580.70956699416,10.5,10500233580.709566,47.655,-122.3035,60.0,6.516666666666667
2026-01-20T23:06:32+00:00,SAT-55403,237.52947765020988,41.28754300404854,1996.9719960088714,-6.667005566818199,233506.73635555932,10.5,10500233506.736355,47.655,-122.3035,60.0,6.533333333333333
2026-01-20T23:06:33+00:00,SAT-55403,237.43042890218993,41.348413684544596,1990.3227691235647,-6.664864503176002,233431.74725011934,10.5,10500233431.74725,47.655,-122.3035,60.0,6.55
2026-01-20T23:06:34+00:00,SAT-55403,237.33067573208666,41.40942086645631,1983.6756775923973,-6.662694044007621,233355.72858900946,10.5,10500233355.728588,47.655,-122.3035,60.0,6.566666666666666
2026-01-20T23:06:35+00:00,SAT-55403,237.230210077163,41.470564986319644,1977.030750732507,-6.6604938573561,233278.66874569288,10.5,10500233278.668745,47.655,-122.3035,60.0,6.583333333333333
2026-01-20T23:06:36+00:00,SAT-55403,237.1290237571689,41.53184647099776,1970.3880181921036,-6.658263547336282,233200.5538545968,10.5,10500233200.553854,47.655,-122.3035,60.0,6.6
2026-01-20T23:06:37+00:00,SAT-55403,237.02710847309174,41.59326573663395,1963.747510014227,-6.656002770107253,233121.37187295803,10.5,10500233121.371874,47.655,-122.3035,60.0,6.616666666666666
2026-01-20T23:06:38+00:00,SAT-55403,236.92445580438573,41.654823188733864,1957.1092565848398,-6.653711141051088,233041.10932982984,10.5,10500233041.10933,47.655,-122.3035,60.0,6.633333333333334
2026-01-20T23:06:39+00:00,SAT-55403,236.8210572073637,41.71651922131794,1950.4732886734985,-6.651388258481048,232959.75215644354,10.5,10500232959.752157,47.655,-122.3035,60.0,6.65
2026-01-20T23:06:40+00:00,SAT-55403,236.7169040132832,41.77835421629846,1943.8396374503732,-6.6490337541385465,232877.28745482562,10.5,10500232877.287455,47.655,-122.3035,60.0,6.666666666666667
2026-01-20T23:06:41+00:00,SAT-55403,236.6119874256342,41.840328543320474,1937.2083344529124,-6.646647213370632,232793.70070207582,10.5,10500232793.700703,47.655,-122.3035,60.0,6.683333333333334
2026-01-20T23:06:42+00:00,SAT-55403,236.50629851854455,41.902442558811984,1930.5794116321108,-6.644228244250925,232708.97817127444,10.5,10500232708.97817,47.655,-122.3035,60.0,6.7
2026-01-20T23:06:43+00:00,SAT-55403,236.39982823416054,41.964696605702734,1923.9529013298445,-6.641776419228619,232623.10488778376,10.5,10500232623.104887,47.655,-122.3035,60.0,6.716666666666667
2026-01-20T23:06:44+00:00,SAT-55403,236.2925673808117,42.02709101253385,1917.3288363144004,-6.639291338014831,232536.06683179378,10.5,10500232536.066832,47.655,-122.3035,60.0,6.733333333333333
2026-01-20T23:06:45+00:00,SAT-55403,236.18450663020275,42.089626093172846,1910.707249753287,-6.636772571733826,232447.84898226216,10.5,10500232447.848982,47.655,-122.3035,60.0,6.75
2026-01-20T23:06:46+00:00,SAT-55403,236.07563651544734,42.15230214597804,1904.0881752417447,-6.6342196775681295,232358.43582984785,10.5,10500232358.43583,47.655,-122.3035,60.0,6.766666666666667
2026-01-20T23:06:47+00:00,SAT-55403,235.9659474287384,42.21511945305066,1897.47164681665,-6.631632258043888,232267.8134533352,10.5,10500232267.813454,47.655,-122.3035,60.0,6.783333333333333
2026-01-20T23:06:48+00:00,SAT-55403,235.8554296181979,42.2780782800952,1890.8576989112942,-6.629009816652496,232175.96446289253,10.5,10500232175.964462,47.655,-122.3035,60.0,6.8
2026-01-20T23:06:49+00:00,SAT-55403,235.74407318675262,42.341178874791204,1884.2463664541526,-6.626351935227171,232082.87421255038,10.5,10500232082.874212,47.655,-122.3035,60.0,6.816666666666666
2026-01-20T23:06:50+00:00,SAT-55403,235.63186808836682,42.404421466925506,1877.637684790753,-6.62365812532831,231988.5255950877,10.5,10500231988.525595,47.655,-122.3035,60.0,6.833333333333333
2026-01-20T23:06:51+00:00,SAT-55403,235.51880412641378,42.46780626701025,1871.0316897537587,-6.6209279537549754,231892.9034379752,10.5,10500231892.903439,47.655,-122.3035,60.0,6.85
2026-01-20T23:06:52+00:00,SAT-55403,235.40487095015237,42.531333466145334,1864.4284176078804,-6.618160922350912,231795.99029367368,10.5,10500231795.990294,47.655,-122.3035,60.0,6.866666666666666
2026-01-20T23:06:53+00:00,SAT-55403,235.29005805292326,42.59500323463575,1857.8279051146558,-6.615356553605021,231697.76943772455,10.5,10500231697.769438,47.655,-122.3035,60.0,6.883333333333334
2026-01-20T23:06:54+00:00,SAT-55403,235.17435476904552,42.65881572145417,1851.2301895118605,-6.612514356349834,231598.22366736544,10.5,10500231598.223667,47.655,-122.3035,60.0,6.9
2026-01-20T23:06:55+00:00,SAT-55403,235.05775027115246,42.72277105333133,1844.6353085271276,-6.609633819766546,231497.335091561,10.5,10500231497.33509,47.655,-122.3035,60.0,6.916666666666667
2026-01-20T23:06:56+00:00,SAT-55403,234.94023356759175,42.78686933375345,1838.043300397547,-6.606714486825316,231395.08770319304,10.5,10500231395.087704,47.655,-122.3035,60.0,6.933333333333334
2026-01-20T23:06:57+00:00,SAT-55403,234.82179349857444,42.85111064268134,1831.45420381602,-6.603755744975465,231291.46004814564,10.5,10500231291.460049,47.655,-122.3035,60.0,6.95
2026-01-20T23:06:58+00:00,SAT-55403,234.7024187356869,42.91549503411164,1824.8680580863643,-6.600757170829777,231186.4372976076,10.5,10500231186.437298,47.655,-122.3035,60.0,6.966666666666667
2026-01-20T23:06:59+00:00,SAT-55403,234.5820977757115,42.98002253711875,1818.2849029346567,-6.597718168143039,231079.9985685494,10.5,10500231079.99857,47.655,-122.3035,60.0,6.983333333333333
2026-01-20T23:07:00+00:00,SAT-55403,234.46081894033588,43.04469315317226,1811.7047786816288,-6.594638205411395,230972.12524545784,10.5,10500230972.125246,47.655,-122.3035,60.0,7.0
2026-01-20T23:07:01+00:00,SAT-55403,234.33857037190037,43.10950685585772,1805.1277261780986,-6.591516735755563,230862.798174307,10.5,10500230862.798174,47.655,-122.3035,60.0,7.016666666666667
2026-01-20T23:07:02+00:00,SAT-55403,234.2153400303983,43.174463589728184,1798.553786820305,-6.58835320313966,230751.9978803684,10.5,10500230751.99788,47.655,-122.3035,60.0,7.033333333333333
2026-01-20T23:07:03+00:00,SAT-55403,234.09111569031265,43.23956326920309,1791.9830025590402,-6.585147035600711,230639.70433107918,10.5,10500230639.70433,47.655,-122.3035,60.0,7.05
2026-01-20T23:07:04+00:00,SAT-55403,233.96588493753308,43.30480577735262,1785.4154159155346,-6.581897642431319,230525.8968373676,10.5,10500230525.896837,47.655,-122.3035,60.0,7.066666666666666
2026-01-20T23:07:05+00:00,SAT-55403,233.83963516625425,43.3701909646235,1778.8510700001498,-6.578604436734469,230410.5548436176,10.5,10500230410.554844,47.655,-122.3035,60.0,7.083333333333333
2026-01-20T23:07:06+00:00,SAT-55403,233.71235357541735,43.43571864775287,1772.2900085085798,-6.575266817823364,230293.65731123666,10.5,10500230293.65731,47.655,-122.3035,60.0,7.1
2026-01-20T23:07:07+00:00,SAT-55403,233.58402716542463,43.50138860846897,1765.7322757356042,-6.571884168415288,230175.18262037303,10.5,10500230175.182621,47.655,-122.3035,60.0,7.116666666666666
2026-01-20T23:07:08+00:00,SAT-55403,233.45464273480138,43.567200592116514,1759.1779165916378,-6.5684558889265325,230055.109771069,10.5,10500230055.109772,47.655,-122.3035,60.0,7.133333333333334
2026-01-20T23:07:09+00:00,SAT-55403,233.32418687623,43.633154306607025,1752.6269765850818,-6.5649813011939795,229933.41501118348,10.5,10500229933.41501,47.655,-122.3035,60.0,7.15
2026-01-20T23:07:10+00:00,SAT-55403,233.19264597420795,43.69924942030224,1746.0795019006912,-6.561459823453884,229810.0779648892,10.5,10500229810.077965,47.655,-122.3035,60.0,7.166666666666667
2026-01-20T23:07:11+00:00,SAT-55403,233.06000619952835,43.765485561720126,1739.5355393034329,-6.557890755273187,229685.0741000578,10.5,10500229685.0741,47.655,-122.3035,60.0,7.183333333333334
2026-01-20T23:07:12+00:00,SAT-55403,232.92625350755156,43.83186231689772,1732.9951362568406,-6.554273424596551,229558.37987846843,10.5,10500229558.379879,47.655,-122.3035,60.0,7.2
2026-01-20T23:07:13+00:00,SAT-55403,232.79137363379965,43.89837922828018,1726.4583408947096,-6.550607175900774,229429.9723409257,10.5,10500229429.972342,47.655,-122.3035,60.0,7.216666666666667
2026-01-20T23:07:14+00:00,SAT-55403,232.65535208964184,43.96503579343939,1719.9252020046113,-6.546891324253756,229299.82749821022,10.5,10500229299.827497,47.655,-122.3035,60.0,7.233333333333333
2026-01-20T23:07:15+00:00,SAT-55403,232.51817415876383,44.03183146323278,1713.3957690572222,-6.543125156361171,229167.92036773753,10.5,10500229167.920368,47.655,-122.3035,60.0,7.25
2026-01-20T23:07:16+00:00,SAT-55403,232.3798248935903,44.09876563994902,1706.8700922346113,-6.539307935262937,229034.22513804815,10.5,10500229034.225138,47.655,-122.3035,60.0,7.266666666666667
2026-01-20T23:07:17+00:00,SAT-55403,232.24028911157342,44.16583767543166,1700.3482224538425,-6.535438995238677,228898.71849279848,10.5,10500228898.718493,47.655,-122.3035,60.0,7.283333333333333
2026-01-20T23:07:18+00:00,SAT-55403,232.0995513895054,44.23304687017399,1693.8302112959243,-6.531517517802486,228761.37176514996,10.5,10500228761.371765,47.655,-122.3035,60.0,7.3
2026-01-20T23:07:19+00:00,SAT-55403,231.95759606220665,44.300392469941755,1687.3161111581694,-6.527542816900112,228622.1609265807,10.5,10500228622.160927,47.655,-122.3035,60.0,7.316666666666666
2026-01-20T23:07:20+00:00,SAT-55403,231.8144072155011,44.36787366542283,1680.8059751221142,-6.523514075750476,228481.05736996225,10.5,10500228481.05737,47.655,-122.3035,60.0,7.333333333333333
2026-01-20T23:07:21+00:00,SAT-55403,231.66996868435928,44.43548958896361,1674.2998570838993,-6.519430552729307,228338.03512047563,10.5,10500228338.03512,47.655,-122.3035,60.0,7.35
2026-01-20T23:07:22+00:00,SAT-55403,231.52426404681987,44.50323931346584,1667.7978116793104,-6.515291437473828,228193.06579578863,10.5,10500228193.065796,47.655,-122.3035,60.0,7.366666666666666
2026-01-20T23:07:23+00:00,SAT-55403,231.37727662082133,44.57112184968982,1661.2998943523364,-6.511095904104305,228046.12047009935,10.5,10500228046.12047,47.655,-122.3035,60.0,7.383333333333334
2026-01-20T23:07:24+00:00,SAT-55403,231.22898945978412,44.639136144013314,1654.8061613706432,-6.506843169495746,227897.17171505807,10.5,10500227897.171715,47.655,-122.3035,60.0,7.4
2026-01-20T23:07:25+00:00,SAT-55403,231.07938534705096,44.70728107682941,1648.3166697829326,-6.50253234497354,227746.18840552075,10.5,10500227746.188406,47.655,-122.3035,60.0,7.416666666666667
2026-01-20T23:07:26+00:00,SAT-55403,230.92844679318725,44.775555459170576,1641.8314775242125,-6.49816265093034,227593.1432363404,10.5,10500227593.143236,47.655,-122.3035,60.0,7.433333333333334
2026-01-20T23:07:27+00:00,SAT-55403,230.7761560288728,44.84395803170429,1635.350643307018,-6.493733123627222,227438.0024533033,10.5,10500227438.002453,47.655,-122.3035,60.0,7.45
2026-01-20T23:07:28+00:00,SAT-55403,230.62249500378692,44.91248746032271,1628.8742268050537,-6.4892429578791555,227280.73785542374,10.5,10500227280.737856,47.655,-122.3035,60.0,7.466666666666667
2026-01-20T23:07:29+00:00,SAT-55403,230.4674453782594,44.98114233554512,1622.402288495062,-6.484691225203437,227121.31692330993,10.5,10500227121.316923,47.655,-122.3035,60.0,7.483333333333333
2026-01-20T23:07:30+00:00,SAT-55403,230.31098852075326,45.04992116862614,1615.9348897797927,-6.480076993015517,226959.70699390623,10.5,10500226959.706993,47.655,-122.3035,60.0,7.5
2026-01-20T23:07:31+00:00,SAT-55403,230.15310550287197,45.11882238896734,1609.4720929920918,-6.475399366865889,226795.87673980725,10.5,10500226795.87674,47.655,-122.3035,60.0,7.516666666666667
2026-01-20T23:07:32+00:00,SAT-55403,229.99377709321422,45.187844341880144,1603.0139613568708,-6.470657352729539,226629.79134605234,10.5,10500226629.791346,47.655,-122.3035,60.0,7.533333333333333
2026-01-20T23:07:33+00:00,SAT-55403,229.83298375436567,45.25698528474297,1596.5605590904152,-6.465850032643401,226461.41866169198,10.5,10500226461.418661,47.655,-122.3035,60.0,7.55
2026-01-20T23:07:34+00:00,SAT-55403,229.67070563573546,45.3262433850088,1590.1119513245258,-6.460976360646981,226290.72205276525,10.5,10500226290.722054,47.655,-122.3035,60.0,7.566666666666666
2026-01-20T23:07:35+00:00,SAT-55403,229.50692257111288,45.3956167158486,1583.6682042341738,-6.456035383343877,226117.66812729725,10.5,10500226117.668127,47.655,-122.3035,60.0,7.583333333333333
2026-01-20T23:07:36+00:00,SAT-55403,229.34161407100007,45.46510325417475,1577.2293849451853,-6.451026073273806,225942.2208992828,10.5,10500225942.2209,47.655,-122.3035,60.0,7.6
2026-01-20T23:07:37+00:00,SAT-55403,229.17475931876788,45.53470087667857,1570.7955616081072,-6.445947362150178,225764.3429528066,10.5,10500225764.342953,47.655,-122.3035,60.0,7.616666666666666
2026-01-20T23:07:38+00:00,SAT-55403,229.0063371660046,45.604407356139056,1564.3668034389227,-6.440798218239596,225583.99815220086,10.5,10500225583.998152,47.655,-122.3035,60.0,7.633333333333334
2026-01-20T23:07:39+00:00,SAT-55403,228.8363261259931,45.674220358526675,1557.9431806825983,-6.435577533912145,225401.1477035807,10.5,10500225401.147703,47.655,-122.3035,60.0,7.65
2026-01-20T23:07:40+00:00,SAT-55403,228.66470436974177,45.74413743866312,1551.5247646887765,-6.4302842431781295,225215.7542714779,10.5,10500225215.75427,47.655,-122.3035,60.0,7.666666666666667
2026-01-20T23:07:41+00:00,SAT-55403,228.49144971922675,45.81415603717673,1545.111627870247,-6.424917209069375,225027.77803445753,10.5,10500225027.778034,47.655,-122.3035,60.0,7.683333333333334
2026-01-20T23:07:42+00:00,SAT-55403,228.31653964321646,45.88427347598893,1538.703843773735,-6.419475280353248,224837.17867148315,10.5,10500224837.17867,47.655,-122.3035,60.0,7.7
2026-01-20T23:07:43+00:00,SAT-55403,228.1399512518184,45.95448695438663,1532.3014870941295,-6.41395730529957,224643.915844092,10.5,10500224643.915844,47.655,-122.3035,60.0,7.716666666666667
2026-01-20T23:07:44+00:00,SAT-55403,227.96166129045466,46.02479354506875,1525.9046336749773,-6.40836211708937,224447.9486853481,10.5,10500224447.948685,47.655,-122.3035,60.0,7.733333333333333
2026-01-20T23:07:45+00:00,SAT-55403,227.78164613431574,46.09519018996351,1519.5133605235335,-6.402688481915227,224249.2339820967,10.5,10500224249.233982,47.655,-122.3035,60.0,7.75
2026-01-20T23:07:46+00:00,SAT-55403,227.5998817839948,46.16567369524734,1513.12774587757,-6.396935176798618,224047.72890045648,10.5,10500224047.7289,47.655,-122.3035,60.0,7.766666666666667
2026-01-20T23:07:47+00:00,SAT-55403,227.41634385918059,46.236240727174255,1506.7478691945762,-6.391100960400305,223843.3899634767,10.5,10500223843.389963,47.655,-122.3035,60.0,7.783333333333333
2026-01-20T23:07:48+00:00,SAT-55403,227.23100759297918,46.306887807391405,1500.3738111700704,-6.385184552632854,223636.1723370805,10.5,10500223636.172337,47.655,-122.3035,60.0,7.8
2026-01-20T23:07:49+00:00,SAT-55403,227.04384782688223,46.37761130792427,1494.0056537762446,-6.3791846587728624,223426.03067457772,10.5,10500223426.030674,47.655,-122.3035,60.0,7.816666666666666
2026-01-20T23:07:50+00:00,SAT-55403,226.85483900490226,46.448407446218845,1487.6434802765618,-6.373099933451811,223212.91785547193,10.5,10500223212.917856,47.655,-122.3035,60.0,7.833333333333333
2026-01-20T23:07:51+00:00,SAT-55403,226.66395516887252,46.51927227967976,1481.287375276266,-6.366929054682595,222996.78757818267,10.5,10500222996.787579,47.655,-122.3035,60.0,7.85
2026-01-20T23:07:52+00:00,SAT-55403,226.4711699515458,46.59020170087221,1474.9374246990621,-6.360670647831113,222777.59169720902,10.5,10500222777.591698,47.655,-122.3035,60.0,7.866666666666666
2026-01-20T23:07:53+00:00,SAT-55403,226.27645657187608,46.66119143169,1468.5937158396252,-6.354323295459218,222555.28056787135,10.5,10500222555.280567,47.655,-122.3035,60.0,7.883333333333334
2026-01-20T23:07:54+00:00,SAT-55403,226.07978783000073,46.732237017451176,1462.2563374062875,-6.347885559434816,222329.80382070038,10.5,10500222329.803822,47.655,-122.3035,60.0,7.9
2026-01-20T23:07:55+00:00,SAT-55403,225.88113610169933,46.80333382110275,1455.9253795416778,-6.341356001190776,222101.11107099015,10.5,10500222101.11107,47.655,-122.3035,60.0,7.916666666666667
2026-01-20T23:07:56+00:00,SAT-55403,225.68047333218772,46.87447701747065,1449.6009338231568,-6.334733176513646,221869.15173627643,10.5,10500221869.151737,47.655,-122.3035,60.0,7.933333333333334
2026-01-20T23:07:57+00:00,SAT-55403,225.47777103011518,46.945661587292186,1443.2830932684474,-6.32801548194058,221633.8696565078,10.5,10500221633.869656,47.655,-122.3035,60.0,7.95
2026-01-20T23:07:58+00:00,SAT-55403,225.27300026614617,47.01688230917784,1436.9719524944585,-6.3212014701160575,221395.2141391716,10.5,10500221395.21414,47.655,-122.3035,60.0,7.966666666666667
2026-01-20T23:07:59+00:00,SAT-55403,225.066131662253,47.088133755205625,1430.6676075615962,-6.314289533614644,221153.12888542967,10.5,10500221153.128885,47.655,-122.3035,60.0,7.983333333333333
2026-01-20T23:08:00+00:00,SAT-55403,224.8571353904357,47.15941028248855,1424.3701561334044,-6.307278051378416,220907.55711897655,10.5,10500220907.55712,47.655,-122.3035,60.0,8.0
