satellites_20260121_005943/SAT-64118.csv

timestamp,satellite,azimuth_deg,elevation_deg,distance_km,relative_velocity_kms,doppler_shift_hz,tx_freq_ghz,rx_freq_hz,ue_lat,ue_lon,ue_alt_m,time_minutes
2026-01-20T23:02:48+00:00,SAT-64118,211.9134198652932,30.00002799554769,1484.8295881239605,-5.948280293165419,208333.93706734577,10.5,10500208333.937067,47.655,-122.3035,60.0,2.8
2026-01-20T23:02:49+00:00,SAT-64118,211.94009464280677,30.164760427152398,1478.8971699115768,-5.939252009518256,208017.72838442016,10.5,10500208017.728384,47.655,-122.3035,60.0,2.816666666666667
2026-01-20T23:02:50+00:00,SAT-64118,211.96730658109496,30.330589183682928,1472.9737559074172,-5.930107553218084,207697.45084377634,10.5,10500207697.450844,47.655,-122.3035,60.0,2.8333333333333335
2026-01-20T23:02:51+00:00,SAT-64118,211.99506490600794,30.497525413757497,1467.0594619743413,-5.920845209826425,207373.04439852672,10.5,10500207373.0444,47.655,-122.3035,60.0,2.85
2026-01-20T23:02:52+00:00,SAT-64118,212.0233790546765,30.665580378055875,1461.1544056850744,-5.9114633197483215,207044.45092263588,10.5,10500207044.450922,47.655,-122.3035,60.0,2.8666666666666667
2026-01-20T23:02:53+00:00,SAT-64118,212.05225868198417,30.834765451962667,1455.258706267512,-5.901960145241135,206711.6095530059,10.5,10500206711.609552,47.655,-122.3035,60.0,2.8833333333333333
2026-01-20T23:02:54+00:00,SAT-64118,212.0817136665434,31.00509212447435,1449.3724846826583,-5.892333916950192,206374.4583193518,10.5,10500206374.458319,47.655,-122.3035,60.0,2.9
2026-01-20T23:02:55+00:00,SAT-64118,212.1117541171475,31.176571998340727,1443.4958636561532,-5.882582857260472,206032.93496207616,10.5,10500206032.934961,47.655,-122.3035,60.0,2.9166666666666665
2026-01-20T23:02:56+00:00,SAT-64118,212.1423903795507,31.34921679084973,1437.628967686512,-5.872705180975581,205686.97695605006,10.5,10500205686.976955,47.655,-122.3035,60.0,2.933333333333333
2026-01-20T23:02:57+00:00,SAT-64118,212.1736330435143,31.52303833461093,1431.771923052686,-5.862699008714574,205336.5184774029,10.5,10500205336.518476,47.655,-122.3035,60.0,2.95
2026-01-20T23:02:58+00:00,SAT-64118,212.20549294959827,31.698048575757984,1425.9248579079945,-5.852562502763407,204981.49516161534,10.5,10500204981.495161,47.655,-122.3035,60.0,2.966666666666667
2026-01-20T23:02:59+00:00,SAT-64118,212.2379811969802,31.874259576070852,1420.0879022385718,-5.842293760365309,204621.84036609667,10.5,10500204621.840366,47.655,-122.3035,60.0,2.9833333333333334
2026-01-20T23:03:00+00:00,SAT-64118,212.27110915092294,32.05168351193196,1414.261187928234,-5.831890835071857,204257.4859179896,10.5,10500204257.485918,47.655,-122.3035,60.0,3.0
2026-01-20T23:03:01+00:00,SAT-64118,212.30488845064593,32.230332673817074,1408.4448488020557,-5.821351784031549,203888.36377041636,10.5,10500203888.36377,47.655,-122.3035,60.0,3.0166666666666666
2026-01-20T23:03:02+00:00,SAT-64118,212.33933101775153,32.410219467170414,1402.6390206227816,-5.810674649456818,203514.40535337478,10.5,10500203514.405354,47.655,-122.3035,60.0,3.033333333333333
2026-01-20T23:03:03+00:00,SAT-64118,212.37444906487966,32.59135641268631,1396.8438411057232,-5.799857343056117,203135.53752606155,10.5,10500203135.537525,47.655,-122.3035,60.0,3.05
2026-01-20T23:03:04+00:00,SAT-64118,212.41025510388744,32.77375614293316,1391.0594500489153,-5.788897879067174,202751.69073868205,10.5,10500202751.690739,47.655,-122.3035,60.0,3.066666666666667
2026-01-20T23:03:05+00:00,SAT-64118,212.44676195588997,32.95743140611128,1385.285989230859,-5.7777941504382735,202362.7911933724,10.5,10500202362.791193,47.655,-122.3035,60.0,3.0833333333333335
2026-01-20T23:03:06+00:00,SAT-64118,212.48398276016746,33.14239506281647,1379.5236025314885,-5.7665440190964725,201968.76400577417,10.5,10500201968.764006,47.655,-122.3035,60.0,3.1
2026-01-20T23:03:07+00:00,SAT-64118,212.52193098399994,33.3286600854749,1373.7724359631095,-5.755145387060256,201569.53569570012,10.5,10500201569.535696,47.655,-122.3035,60.0,3.1166666666666667
2026-01-20T23:03:08+00:00,SAT-64118,212.56062043338738,33.51623956001593,1368.032637630415,-5.743596050149483,201165.02906343818,10.5,10500201165.029064,47.655,-122.3035,60.0,3.1333333333333333
2026-01-20T23:03:09+00:00,SAT-64118,212.6000652631361,33.705146682773325,1362.3043578363993,-5.731893785269604,200755.16624681346,10.5,10500200755.166246,47.655,-122.3035,60.0,3.15
2026-01-20T23:03:10+00:00,SAT-64118,212.6402799879214,33.89539476005969,1356.5877491012236,-5.720036355630308,200339.86890396767,10.5,10500200339.868904,47.655,-122.3035,60.0,3.1666666666666665
2026-01-20T23:03:11+00:00,SAT-64118,212.68127949384822,34.08699720783269,1350.882966175875,-5.708021479839152,199919.05713088717,10.5,10500199919.05713,47.655,-122.3035,60.0,3.183333333333333
2026-01-20T23:03:12+00:00,SAT-64118,212.72307905018783,34.279967550257204,1345.1901660866488,-5.695846852146753,199492.6501704753,10.5,10500199492.650171,47.655,-122.3035,60.0,3.2
2026-01-20T23:03:13+00:00,SAT-64118,212.76569432175467,34.47431941881672,1339.509508159441,-5.6835101023642585,199060.56500869247,10.5,10500199060.565008,47.655,-122.3035,60.0,3.216666666666667
2026-01-20T23:03:14+00:00,SAT-64118,212.80914138141011,34.670066549953596,1333.8411540840164,-5.671008859484581,198622.71860284125,10.5,10500198622.718603,47.655,-122.3035,60.0,3.2333333333333334
2026-01-20T23:03:15+00:00,SAT-64118,212.8534367235779,34.86722278472877,1328.1852679148237,-5.658340696331932,198179.02594295845,10.5,10500198179.025944,47.655,-122.3035,60.0,3.25
2026-01-20T23:03:16+00:00,SAT-64118,212.89859727783875,35.06580206648522,1322.5420161270154,-5.645503150759153,197729.40079423581,10.5,10500197729.400795,47.655,-122.3035,60.0,3.2666666666666666
2026-01-20T23:03:17+00:00,SAT-64118,212.9446404232249,35.265818439070166,1316.911567651325,-5.632493733227062,197273.75596248038,10.5,10500197273.755962,47.655,-122.3035,60.0,3.283333333333333
2026-01-20T23:03:18+00:00,SAT-64118,212.9915840031348,35.46728604518902,1311.2940939013865,-5.619309922482037,196812.00314272547,10.5,10500196812.003143,47.655,-122.3035,60.0,3.3
2026-01-20T23:03:19+00:00,SAT-64118,213.03944634083595,35.67021912446265,1305.6897688053643,-5.605949130864938,196344.05170420214,10.5,10500196344.051704,47.655,-122.3035,60.0,3.316666666666667
2026-01-20T23:03:20+00:00,SAT-64118,213.08824625523383,35.874632010071224,1300.0987688721818,-5.592408767594626,195869.81090679596,10.5,10500195869.810907,47.655,-122.3035,60.0,3.3333333333333335
2026-01-20T23:03:21+00:00,SAT-64118,213.13800307788236,36.08053912748356,1294.5212731946342,-5.578686169649576,195389.18748022857,10.5,10500195389.18748,47.655,-122.3035,60.0,3.35
2026-01-20T23:03:22+00:00,SAT-64118,213.1887366700107,36.28795499051918,1288.957463521437,-5.564778693826799,194902.0888483505,10.5,10500194902.088848,47.655,-122.3035,60.0,3.3666666666666667
2026-01-20T23:03:23+00:00,SAT-64118,213.24046744114955,36.49689420058665,1283.4075242374602,-5.550683581796283,194408.41840277708,10.5,10500194408.418404,47.655,-122.3035,60.0,3.3833333333333333
2026-01-20T23:03:24+00:00,SAT-64118,213.29321636718427,36.70737144074332,1277.871642478549,-5.536398098800773,193908.08036074115,10.5,10500193908.08036,47.655,-122.3035,60.0,3.4
2026-01-20T23:03:25+00:00,SAT-64118,213.34700501052188,36.919401474671474,1272.3500081080115,-5.521919423223936,193400.97589730335,10.5,10500193400.975897,47.655,-122.3035,60.0,3.4166666666666665
2026-01-20T23:03:26+00:00,SAT-64118,213.401855539987,37.13299914130737,1266.8428138032496,-5.507244737232117,192887.00632000968,10.5,10500192887.00632,47.655,-122.3035,60.0,3.433333333333333
2026-01-20T23:03:27+00:00,SAT-64118,213.45779075247324,37.34817935266015,1261.3502550519834,-5.4923711686449295,192366.0710329536,10.5,10500192366.071033,47.655,-122.3035,60.0,3.45
2026-01-20T23:03:28+00:00,SAT-64118,213.5148340948915,37.564957089193584,1255.872530206455,-5.477295787440983,191838.06741439214,10.5,10500191838.067415,47.655,-122.3035,60.0,3.466666666666667
2026-01-20T23:03:29+00:00,SAT-64118,213.5730096870137,37.7833473947677,1250.4098405411137,-5.462015637213135,191302.89191844154,10.5,10500191302.891918,47.655,-122.3035,60.0,3.4833333333333334
2026-01-20T23:03:30+00:00,SAT-64118,213.63234234559386,38.00336537253617,1244.962390278933,-5.446527717381052,190760.43945208605,10.5,10500190760.439451,47.655,-122.3035,60.0,3.5
2026-01-20T23:03:31+00:00,SAT-64118,213.69285760935438,38.225026179857316,1239.530386635465,-5.430829037147377,190210.60526495118,10.5,10500190210.605265,47.655,-122.3035,60.0,3.5166666666666666
2026-01-20T23:03:32+00:00,SAT-64118,213.7545817656591,38.44834502511814,1234.1140398090834,-5.414916441676147,189653.27886133658,10.5,10500189653.278862,47.655,-122.3035,60.0,3.533333333333333
2026-01-20T23:03:33+00:00,SAT-64118,213.81754187626947,38.67333715713609,1228.7135631445851,-5.398786867887686,189088.35295923523,10.5,10500189088.352959,47.655,-122.3035,60.0,3.55
2026-01-20T23:03:34+00:00,SAT-64118,213.88176580729734,38.900017864663184,1223.3291730416786,-5.382437153766412,188515.71681148608,10.5,10500188515.716812,47.655,-122.3035,60.0,3.566666666666667
2026-01-20T23:03:35+00:00,SAT-64118,213.9472822581543,39.128402467776155,1217.9610890536553,-5.365864090357823,187935.25802692852,10.5,10500187935.258026,47.655,-122.3035,60.0,3.5833333333333335
2026-01-20T23:03:36+00:00,SAT-64118,214.0141207923908,39.35850631098973,1212.609533934205,-5.349064420684454,187346.8625324349,10.5,10500187346.862532,47.655,-122.3035,60.0,3.6
2026-01-20T23:03:37+00:00,SAT-64118,214.08231186988732,39.59034475590607,1207.2747336853092,-5.332034895287194,186750.41651820185,10.5,10500186750.416517,47.655,-122.3035,60.0,3.6166666666666667
2026-01-20T23:03:38+00:00,SAT-64118,214.15188688121054,39.82393317588647,1201.956917549743,-5.314772184836127,186145.8033770127,10.5,10500186145.803377,47.655,-122.3035,60.0,3.6333333333333333
2026-01-20T23:03:39+00:00,SAT-64118,214.2228781823606,40.05928694654463,1196.6563180907328,-5.297272913399111,185532.90486944362,10.5,10500185532.90487,47.655,-122.3035,60.0,3.65
2026-01-20T23:03:40+00:00,SAT-64118,214.29531913148773,40.29642143718809,1191.373171238436,-5.279533688159165,184911.6021646923,10.5,10500184911.602165,47.655,-122.3035,60.0,3.6666666666666665
2026-01-20T23:03:41+00:00,SAT-64118,214.36924412772942,40.53535200310695,1186.107716306779,-5.261551070621274,184281.77483211862,10.5,10500184281.774832,47.655,-122.3035,60.0,3.683333333333333
2026-01-20T23:03:42+00:00,SAT-64118,214.4446886513885,40.77609397613149,1180.8601960390124,-5.2433215692635375,183643.3005838564,10.5,10500183643.300585,47.655,-122.3035,60.0,3.7
2026-01-20T23:03:43+00:00,SAT-64118,214.5216893058516,41.01866265430993,1175.6308566606003,-5.224841678754453,182996.05664836892,10.5,10500182996.056648,47.655,-122.3035,60.0,3.716666666666667
2026-01-20T23:03:44+00:00,SAT-64118,214.60028386203882,41.263073292849974,1170.4199478929893,-5.206107801134637,182339.9170098992,10.5,10500182339.91701,47.655,-122.3035,60.0,3.7333333333333334
2026-01-20T23:03:45+00:00,SAT-64118,214.68051130368954,41.50934109083536,1165.227723045991,-5.187116370185826,181674.75676439857,10.5,10500181674.756763,47.655,-122.3035,60.0,3.75
2026-01-20T23:03:46+00:00,SAT-64118,214.76241187672144,41.757481183140705,1160.0544389861257,-5.167863735881265,181000.4480724905,10.5,10500181000.448072,47.655,-122.3035,60.0,3.7666666666666666
2026-01-20T23:03:47+00:00,SAT-64118,214.84602713910573,42.00750862635204,1154.9003562202067,-5.148346196782947,180316.86129415885,10.5,10500180316.861294,47.655,-122.3035,60.0,3.783333333333333
2026-01-20T23:03:48+00:00,SAT-64118,214.93140001354956,42.259438385474006,1149.7657389466153,-5.128560074654616,179623.86760201107,10.5,10500179623.867601,47.655,-122.3035,60.0,3.8
2026-01-20T23:03:49+00:00,SAT-64118,215.01857484403956,42.5132853236072,1144.6508550321598,-5.108501583666461,178921.33440027316,10.5,10500178921.3344,47.655,-122.3035,60.0,3.816666666666667
2026-01-20T23:03:50+00:00,SAT-64118,215.10759745278415,42.76906418455143,1139.555976119383,-5.088166932359127,178209.12889600053,10.5,10500178209.128897,47.655,-122.3035,60.0,3.8333333333333335
2026-01-20T23:03:51+00:00,SAT-64118,215.19851520170712,43.02678957958841,1134.4813776321766,-5.0675523092561265,177487.11759516422,10.5,10500177487.117596,47.655,-122.3035,60.0,3.85
2026-01-20T23:03:52+00:00,SAT-64118,215.29137705671016,43.286475972846226,1129.4273387957453,-5.046653837717799,176755.16472144503,10.5,10500176755.16472,47.655,-122.3035,60.0,3.8666666666666667
2026-01-20T23:03:53+00:00,SAT-64118,215.38623365422507,43.54813766353988,1124.3941427015948,-5.025467631823757,176013.1341734736,10.5,10500176013.134174,47.655,-122.3035,60.0,3.8833333333333333
2026-01-20T23:03:54+00:00,SAT-64118,215.48313737209895,43.81178877017813,1119.3820763167892,-5.003989742268822,175260.88762987705,10.5,10500175260.88763,47.655,-122.3035,60.0,3.9
2026-01-20T23:03:55+00:00,SAT-64118,215.58214240295513,44.07744321106787,1114.3914305471665,-4.982216212070396,174498.28650038672,10.5,10500174498.2865,47.655,-122.3035,60.0,3.9166666666666665
2026-01-20T23:03:56+00:00,SAT-64118,215.68330483230153,44.34511468675196,1109.4225002449948,-4.9601430484904565,173725.1909424279,10.5,10500173725.190943,47.655,-122.3035,60.0,3.933333333333333
2026-01-20T23:03:57+00:00,SAT-64118,215.78668272004197,44.61481666000637,1104.4755842446339,-4.937766223569705,172941.45987982763,10.5,10500172941.459879,47.655,-122.3035,60.0,3.95
2026-01-20T23:03:58+00:00,SAT-64118,215.89233618607705,44.88656233479812,1099.5509853976603,-4.9150816630240985,172146.9506139245,10.5,10500172146.950613,47.655,-122.3035,60.0,3.966666666666667
2026-01-20T23:03:59+00:00,SAT-64118,216.00032750003962,45.16036463349973,1094.6490106190709,-4.892085302245719,171341.520784956,10.5,10500171341.520784,47.655,-122.3035,60.0,3.9833333333333334
2026-01-20T23:04:00+00:00,SAT-64118,216.1107211768678,45.43623617604018,1089.769970877631,-4.868773016452283,170525.02592559872,10.5,10500170525.025925,47.655,-122.3035,60.0,4.0
2026-01-20T23:04:01+00:00,SAT-64118,216.22358407573864,45.714189253994185,1084.9141812558894,-4.845140675938511,169697.3213961052,10.5,10500169697.321396,47.655,-122.3035,60.0,4.016666666666667
2026-01-20T23:04:02+00:00,SAT-64118,216.33898550542082,45.99423580645649,1080.0819609550867,-4.821184111225461,168858.26116368594,10.5,10500168858.261164,47.655,-122.3035,60.0,4.033333333333333
2026-01-20T23:04:03+00:00,SAT-64118,216.4569973343039,46.276387392614666,1075.2736333348246,-4.796899146677113,168007.69897990458,10.5,10500168007.69898,47.655,-122.3035,60.0,4.05
2026-01-20T23:04:04+00:00,SAT-64118,216.57769410704128,46.56065516484109,1070.4895259192053,-4.772281578914105,167145.48762463566,10.5,10500167145.487625,47.655,-122.3035,60.0,4.066666666666666
2026-01-20T23:04:05+00:00,SAT-64118,216.70115316686403,46.84704983907013,1065.7299704245015,-4.747327169230215,166271.47864045753,10.5,10500166271.47864,47.655,-122.3035,60.0,4.083333333333333
2026-01-20T23:04:06+00:00,SAT-64118,216.82745478415615,47.135581663130765,1060.995302794389,-4.722031699861304,165385.52430342892,10.5,10500165385.524303,47.655,-122.3035,60.0,4.1
2026-01-20T23:04:07+00:00,SAT-64118,216.95668229351026,47.42626038683331,1056.285863179061,-4.696390909937812,164487.4753798744,10.5,10500164487.47538,47.655,-122.3035,60.0,4.116666666666666
2026-01-20T23:04:08+00:00,SAT-64118,217.0889222364111,47.71909522650811,1051.6019959782163,-4.670400531433682,163577.18238546766,10.5,10500163577.182386,47.655,-122.3035,60.0,4.133333333333334
2026-01-20T23:04:09+00:00,SAT-64118,217.22426451268348,48.01409482987306,1046.9440498481997,-4.644056306135437,162654.4961795606,10.5,10500162654.49618,47.655,-122.3035,60.0,4.15
2026-01-20T23:04:10+00:00,SAT-64118,217.36280254076854,48.31126724011945,1042.3123776922139,-4.61735391811756,161719.26560018526,10.5,10500161719.2656,47.655,-122.3035,60.0,4.166666666666667
2026-01-20T23:04:11+00:00,SAT-64118,217.50463342475908,48.610619853688185,1037.7073367178782,-4.590289125540401,160771.342080174,10.5,10500160771.342081,47.655,-122.3035,60.0,4.183333333333334
2026-01-20T23:04:12+00:00,SAT-64118,217.64985813481698,48.91215938438274,1033.1292883633391,-4.562857614742433,159810.5745368536,10.5,10500159810.574537,47.655,-122.3035,60.0,4.2
2026-01-20T23:04:13+00:00,SAT-64118,217.79858169306945,49.21589181591039,1028.5785983689027,-4.535055120050149,158836.81356829387,10.5,10500158836.813568,47.655,-122.3035,60.0,4.216666666666667
2026-01-20T23:04:14+00:00,SAT-64118,217.95091337380407,49.52182235983661,1024.0556367291726,-4.506877330612482,157849.90819025558,10.5,10500157849.90819,47.655,-122.3035,60.0,4.233333333333333
2026-01-20T23:04:15+00:00,SAT-64118,218.1069669118761,49.82995540492504,1019.5607777381085,-4.478320004535778,156849.70983367992,10.5,10500156849.709833,47.655,-122.3035,60.0,4.25
2026-01-20T23:04:16+00:00,SAT-64118,218.2668607269385,50.140294471555926,1015.0943999202515,-4.449378873525263,155836.06900482887,10.5,10500155836.069004,47.655,-122.3035,60.0,4.266666666666667
2026-01-20T23:04:17+00:00,SAT-64118,218.43071815719213,50.45284215700915,1010.6568860570557,-4.420049679105088,154808.83655386497,10.5,10500154808.836554,47.655,-122.3035,60.0,4.283333333333333
2026-01-20T23:04:18+00:00,SAT-64118,218.5986677078268,50.76760008024249,1006.2486231770948,-4.390328201877317,153767.8646996244,10.5,10500153767.8647,47.655,-122.3035,60.0,4.3
2026-01-20T23:04:19+00:00,SAT-64118,218.7708433150312,51.08456882569717,1001.8700025170891,-4.360210239576227,152713.006260986,10.5,10500152713.006262,47.655,-122.3035,60.0,4.316666666666666
2026-01-20T23:04:20+00:00,SAT-64118,218.94738462458912,51.403747882391,997.5214195048185,-4.32969160609812,151644.11462289104,10.5,10500151644.114622,47.655,-122.3035,60.0,4.333333333333333
2026-01-20T23:04:21+00:00,SAT-64118,219.12843728674653,51.72513557948782,993.2032737430033,-4.2987681604100025,150561.04474884763,10.5,10500150561.044748,47.655,-122.3035,60.0,4.35
2026-01-20T23:04:22+00:00,SAT-64118,219.31415326968704,52.04872902038299,988.9159689643544,-4.2674357856023,149463.6524472679,10.5,10500149463.652447,47.655,-122.3035,60.0,4.366666666666666
2026-01-20T23:04:23+00:00,SAT-64118,219.50469119075086,52.37452401144801,984.6599130075138,-4.235690404247506,148351.79490939298,10.5,10500148351.794909,47.655,-122.3035,60.0,4.383333333333334
2026-01-20T23:04:24+00:00,SAT-64118,219.70021666803396,52.702514987847984,980.4355177776775,-4.203528001523161,147225.3315191578,10.5,10500147225.33152,47.655,-122.3035,60.0,4.4
2026-01-20T23:04:25+00:00,SAT-64118,219.90090269423953,53.03269493689246,976.2431991841585,-4.170944564585311,146084.1217297927,10.5,10500146084.121729,47.655,-122.3035,60.0,4.416666666666667
2026-01-20T23:04:26+00:00,SAT-64118,220.10693003004715,53.36505531209449,972.083377138412,-4.137936207013859,144928.02942242636,10.5,10500144928.029423,47.655,-122.3035,60.0,4.433333333333334
2026-01-20T23:04:27+00:00,SAT-64118,220.31848762754845,53.699585952187356,967.9564754279502,-4.104499040656188,143756.9184175073,10.5,10500143756.918417,47.655,-122.3035,60.0,4.45
2026-01-20T23:04:28+00:00,SAT-64118,220.5357730729503,54.03627498493184,963.8629217180692,-4.070629271005655,142570.65581536203,10.5,10500142570.655815,47.655,-122.3035,60.0,4.466666666666667
2026-01-20T23:04:29+00:00,SAT-64118,220.75899306124313,54.37510873301346,959.8031474584527,-4.036323149903221,141369.1103396064,10.5,10500141369.11034,47.655,-122.3035,60.0,4.483333333333333
2026-01-20T23:04:30+00:00,SAT-64118,220.98836389739608,54.71607161031453,955.7775878369492,-4.001577043359264,140152.1547125521,10.5,10500140152.154713,47.655,-122.3035,60.0,4.5
2026-01-20T23:04:31+00:00,SAT-64118,221.22411203233293,55.05914601766054,951.7866816657056,-3.9663873848847655,138919.66402066738,10.5,10500138919.66402,47.655,-122.3035,60.0,4.516666666666667
2026-01-20T23:04:32+00:00,SAT-64118,221.46647462933916,55.404312228178675,947.8308713138473,-3.930750657154364,137671.51507233988,10.5,10500137671.515072,47.655,-122.3035,60.0,4.533333333333333
2026-01-20T23:04:33+00:00,SAT-64118,221.71570016421566,55.75154826386629,943.9106026584452,-3.894663503985209,136407.59031984952,10.5,10500136407.59032,47.655,-122.3035,60.0,4.55
2026-01-20T23:04:34+00:00,SAT-64118,221.97204906981287,56.100829774458,940.026324923804,-3.858122617121735,135127.77389409248,10.5,10500135127.773893,47.655,-122.3035,60.0,4.566666666666666
2026-01-20T23:04:35+00:00,SAT-64118,222.23579441334513,56.45212989841402,936.1784906336612,-3.8211248227363175,133831.95463420008,10.5,10500133831.954634,47.655,-122.3035,60.0,4.583333333333333
2026-01-20T23:04:36+00:00,SAT-64118,222.50722262152962,56.80541912295684,932.3675554771189,-3.783667057962096,132520.02526561896,10.5,10500132520.025265,47.655,-122.3035,60.0,4.6
2026-01-20T23:04:37+00:00,SAT-64118,222.78663424936028,57.16066513293055,928.5939781979781,-3.7457463778427544,131191.88264352173,10.5,10500131191.882643,47.655,-122.3035,60.0,4.616666666666666
2026-01-20T23:04:38+00:00,SAT-64118,223.0743447971622,57.51783265047311,924.8582204771429,-3.707359954314175,129847.42771714035,10.5,10500129847.427717,47.655,-122.3035,60.0,4.633333333333334
2026-01-20T23:04:39+00:00,SAT-64118,223.3706855782296,57.87688326402952,921.1607468160403,-3.6685051257051726,128486.56726349104,10.5,10500128486.567263,47.655,-122.3035,60.0,4.65
2026-01-20T23:04:40+00:00,SAT-64118,223.67600464424376,58.23777525087737,917.5020243706704,-3.62917933374492,127109.21168110792,10.5,10500127109.211681,47.655,-122.3035,60.0,4.666666666666667
2026-01-20T23:04:41+00:00,SAT-64118,223.99066776262677,58.600463381478086,913.882522848482,-3.5893802138489583,125715.27815224111,10.5,10500125715.278152,47.655,-122.3035,60.0,4.683333333333334
2026-01-20T23:04:42+00:00,SAT-64118,224.31505946163486,58.96489871968728,910.3027143152034,-3.549105534813327,124304.68853068989,10.5,10500124304.68853,47.655,-122.3035,60.0,4.7
2026-01-20T23:04:43+00:00,SAT-64118,224.64958413408345,59.33102840314177,906.7630730618162,-3.508353219705319,122877.37007348545,10.5,10500122877.370073,47.655,-122.3035,60.0,4.716666666666667
2026-01-20T23:04:44+00:00,SAT-64118,224.9946672094633,59.69879541059356,903.2640754506967,-3.4671213874405593,121433.25689709604,10.5,10500121433.256897,47.655,-122.3035,60.0,4.733333333333333
2026-01-20T23:04:45+00:00,SAT-64118,225.35075640040208,60.06813831745127,899.8061997202893,-3.425408340442543,119972.28954521165,10.5,10500119972.289545,47.655,-122.3035,60.0,4.75
2026-01-20T23:04:46+00:00,SAT-64118,225.7183230218276,60.438991032819914,896.389925802088,-3.3832125628634775,118494.41492643059,10.5,10500118494.414927,47.655,-122.3035,60.0,4.766666666666667
2026-01-20T23:04:47+00:00,SAT-64118,226.0978633867302,60.811282517688916,893.0157351393921,-3.340532718919997,116999.58625596901,10.5,10500116999.586256,47.655,-122.3035,60.0,4.783333333333333
2026-01-20T23:04:48+00:00,SAT-64118,226.48990028114355,61.18493648272388,889.6841105077226,-3.2973677116091853,115487.7651121445,10.5,10500115487.765112,47.655,-122.3035,60.0,4.8
2026-01-20T23:04:49+00:00,SAT-64118,226.89498452838748,61.55987107095933,886.3955357766777,-3.2537166370107276,113958.91983584402,10.5,10500113958.919836,47.655,-122.3035,60.0,4.816666666666666
2026-01-20T23:04:50+00:00,SAT-64118,227.31369663281902,61.935998512220216,883.1504957173656,-3.2095788335727913,112413.02725672408,10.5,10500112413.027256,47.655,-122.3035,60.0,4.833333333333333
2026-01-20T23:04:51+00:00,SAT-64118,227.746648515962,62.313224758084715,879.9494757606824,-3.1649538423229924,110850.0712996303,10.5,10500110850.0713,47.655,-122.3035,60.0,4.85
2026-01-20T23:04:52+00:00,SAT-64118,228.19448533451308,62.691449085318915,876.7929617952723,-3.119841451765167,109270.0445570724,10.5,10500109270.044558,47.655,-122.3035,60.0,4.866666666666666
2026-01-20T23:04:53+00:00,SAT-64118,228.657887390876,63.070563675490725,873.6814399207118,-3.0742417109453175,107672.94874684885,10.5,10500107672.948748,47.655,-122.3035,60.0,4.883333333333334
2026-01-20T23:04:54+00:00,SAT-64118,229.13757213120414,63.45045316517604,870.6153961876623,-3.028154922639691,106058.79447346456,10.5,10500106058.794474,47.655,-122.3035,60.0,4.9
2026-01-20T23:04:55+00:00,SAT-64118,229.6342962246865,63.830994162058076,867.5953163448164,-2.9815816320702657,104427.60083289951,10.5,10500104427.600832,47.655,-122.3035,60.0,4.916666666666667
2026-01-20T23:04:56+00:00,SAT-64118,230.14885771709336,64.21205472374528,864.6216855970983,-2.934522680557643,102779.39729175993,10.5,10500102779.397291,47.655,-122.3035,60.0,4.933333333333334
2026-01-20T23:04:57+00:00,SAT-64118,230.68209826135723,64.59349380505904,861.6949883103555,-2.886979160412979,101114.22210740298,10.5,10500101114.222107,47.655,-122.3035,60.0,4.95
2026-01-20T23:04:58+00:00,SAT-64118,231.23490539716482,64.97516065873644,858.815707761037,-2.838952467532129,99432.12417000615,10.5,10500099432.12417,47.655,-122.3035,60.0,4.966666666666667
2026-01-20T23:04:59+00:00,SAT-64118,231.80821488073303,65.35689419936146,855.9843258334182,-2.7904443006089212,97733.16297501279,10.5,10500097733.162975,47.655,-122.3035,60.0,4.983333333333333
2026-01-20T23:05:00+00:00,SAT-64118,232.40301303570732,65.73852232121281,853.2013227176109,-2.7414566394085096,96017.40786217294,10.5,10500096017.407862,47.655,-122.3035,60.0,5.0
2026-01-20T23:05:01+00:00,SAT-64118,233.02033909313766,66.11986116433121,850.4671766292408,-2.6919917832119076,94284.93936203369,10.5,10500094284.939362,47.655,-122.3035,60.0,5.016666666666667
2026-01-20T23:05:02+00:00,SAT-64118,233.66128749893215,66.50071433441363,847.7823634907842,-2.642052327380582,92535.84837513194,10.5,10500092535.848375,47.655,-122.3035,60.0,5.033333333333333
2026-01-20T23:05:03+00:00,SAT-64118,234.32701013250067,66.88087206570577,845.1473566362766,-2.5916412134784825,90770.23792748002,10.5,10500090770.237928,47.655,-122.3035,60.0,5.05
2026-01-20T23:05:04+00:00,SAT-64118,235.01871840070646,67.26011033523373,842.562626466034,-2.54076169577591,88988.22199738945,10.5,10500088988.221998,47.655,-122.3035,60.0,5.066666666666666
2026-01-20T23:05:05+00:00,SAT-64118,235.7376851211869,67.63818991494756,840.0286401347802,-2.4894173702311337,87189.92653052967,10.5,10500087189.92653,47.655,-122.3035,60.0,5.083333333333333
2026-01-20T23:05:06+00:00,SAT-64118,236.48524612970795,68.01485536971323,837.5458612108696,-2.4376121516032185,85375.48863832255,10.5,10500085375.488638,47.655,-122.3035,60.0,5.1
2026-01-20T23:05:07+00:00,SAT-64118,237.2628014989993,68.38983399336954,835.1147493583373,-2.385350317515063,83545.05814121636,10.5,10500083545.058142,47.655,-122.3035,60.0,5.116666666666666
2026-01-20T23:05:08+00:00,SAT-64118,238.07181627096696,68.76283469403823,832.7357599750023,-2.3326364846093774,81698.79673356714,10.5,10500081698.796734,47.655,-122.3035,60.0,5.133333333333334
2026-01-20T23:05:09+00:00,SAT-64118,238.91382054094197,69.1335468209964,830.4093438543518,-2.279475631633552,79836.8787921686,10.5,10500079836.878792,47.655,-122.3035,60.0,5.15
2026-01-20T23:05:10+00:00,SAT-64118,239.79040874112775,69.50163894479378,828.1359468244028,-2.225873075232639,77959.49052841986,10.5,10500077959.490528,47.655,-122.3035,60.0,5.166666666666667
2026-01-20T23:05:11+00:00,SAT-64118,240.70323790882327,69.86675759001191,825.916009410704,-2.171834508677227,76066.83134473945,10.5,10500076066.831345,47.655,-122.3035,60.0,5.183333333333334
2026-01-20T23:05:12+00:00,SAT-64118,241.6540247328957,70.22852594074979,823.7499664607167,-2.117365971571506,74159.11277361357,10.5,10500074159.112774,47.655,-122.3035,60.0,5.2
2026-01-20T23:05:13+00:00,SAT-64118,242.64454108570925,70.58654252137782,821.6382467984026,-2.0624738823587516,72236.55961607579,10.5,10500072236.559616,47.655,-122.3035,60.0,5.216666666666667
2026-01-20T23:05:14+00:00,SAT-64118,243.67660776265865,70.94037988113129,819.5812728463969,-2.007165006625184,70299.40883157385,10.5,10500070299.40883,47.655,-122.3035,60.0,5.233333333333333
2026-01-20T23:05:15+00:00,SAT-64118,244.75208605737527,71.2895832955022,817.5794602797894,-1.9514464991062361,68347.91100920718,10.5,10500068347.911009,47.655,-122.3035,60.0,5.25
2026-01-20T23:05:16+00:00,SAT-64118,245.87286682800254,71.63366952723595,815.6332176380141,-1.8953258650821792,66382.32901563816,10.5,10500066382.329016,47.655,-122.3035,60.0,5.266666666666667
2026-01-20T23:05:17+00:00,SAT-64118,247.04085659845794,71.97212567077678,813.7429459752389,-1.8388109750852424,64402.93851019777,10.5,10500064402.93851,47.655,-122.3035,60.0,5.283333333333333
2026-01-20T23:05:18+00:00,SAT-64118,248.2579602782206,72.30440813571136,811.9090384960871,-1.781910072787055,62410.02822113717,10.5,10500062410.028221,47.655,-122.3035,60.0,5.3
2026-01-20T23:05:19+00:00,SAT-64118,249.52606004251555,72.62994182429556,810.1318801834942,-1.7246317623394023,60403.89950224739,10.5,10500060403.899502,47.655,-122.3035,60.0,5.316666666666666
2026-01-20T23:05:20+00:00,SAT-64118,250.84698990658023,72.9481195661382,808.4118474391877,-1.666985014086866,58384.86653294024,10.5,10500058384.866533,47.655,-122.3035,60.0,5.333333333333333
2026-01-20T23:05:21+00:00,SAT-64118,252.2225055826358,73.25830189134133,806.7493077184716,-1.6089791358840495,56353.2553136561,10.5,10500056353.255314,47.655,-122.3035,60.0,5.35
2026-01-20T23:05:22+00:00,SAT-64118,253.65424923449692,73.55981722523987,805.1446191936167,-1.5506238215092234,54309.40536151462,10.5,10500054309.405361,47.655,-122.3035,60.0,5.366666666666666
2026-01-20T23:05:23+00:00,SAT-64118,255.14370895030135,73.85196261960684,803.5981303689648,-1.4919290895167232,52253.6675686671,10.5,10500052253.667568,47.655,-122.3035,60.0,5.383333333333334
2026-01-20T23:05:24+00:00,SAT-64118,256.69217276669787,74.13400510981116,802.1101797570201,-1.4329053110582959,50186.40517671764,10.5,10500050186.405176,47.655,-122.3035,60.0,5.4
2026-01-20T23:05:25+00:00,SAT-64118,258.30067748201213,74.40518383132964,800.6810955267913,-1.3735631978041147,48107.99335366604,10.5,10500048107.993353,47.655,-122.3035,60.0,5.416666666666667
2026-01-20T23:05:26+00:00,SAT-64118,259.96995270315574,74.66471300737972,799.3111951641813,-1.3139137879528853,46018.81870392248,10.5,10500046018.818705,47.655,-122.3035,60.0,5.433333333333334
2026-01-20T23:05:27+00:00,SAT-64118,261.7003609902482,74.91178592280536,798.0007851463297,-1.2539684490567864,43919.27936724898,10.5,10500043919.279367,47.655,-122.3035,60.0,5.45
2026-01-20T23:05:28+00:00,SAT-64118,263.49183545708865,75.14557999101498,796.750160613137,-1.1937388564798117,41809.784264279326,10.5,10500041809.784264,47.655,-122.3035,60.0,5.466666666666667
2026-01-20T23:05:29+00:00,SAT-64118,265.34381666277494,75.36526299076343,795.5596050602745,-1.1332369967121256,39690.75321260189,10.5,10500039690.753212,47.655,-122.3035,60.0,5.483333333333333
2026-01-20T23:05:30+00:00,SAT-64118,267.2551912546247,75.57000052464068,794.4293900288869,-1.072475158776448,37562.61662577484,10.5,10500037562.616625,47.655,-122.3035,60.0,5.5
2026-01-20T23:05:31+00:00,SAT-64118,269.22423532528194,75.75896469647584,793.3597748038673,-1.0114659044816978,35425.814471482896,10.5,10500035425.814472,47.655,-122.3035,60.0,5.516666666666667
2026-01-20T23:05:32+00:00,SAT-64118,271.24856588897154,75.93134394258215,792.3510061417974,-0.9502220783363259,33280.79661874423,10.5,10500033280.79662,47.655,-122.3035,60.0,5.533333333333333
2026-01-20T23:05:33+00:00,SAT-64118,273.3251043134979,76.08635388987418,791.4033179890034,-0.8887567866653124,31128.02210649936,10.5,10500031128.022106,47.655,-122.3035,60.0,5.55
2026-01-20T23:05:34+00:00,SAT-64118,275.45005551362385,76.22324901950691,790.5169312204359,-0.8270833880106578,28967.958807395706,10.5,10500028967.958807,47.655,-122.3035,60.0,5.566666666666666
2026-01-20T23:05:35+00:00,SAT-64118,277.6189065589397,76.34133483774502,789.6920533881265,-0.7652154759472,26801.08282592486,10.5,10500026801.082827,47.655,-122.3035,60.0,5.583333333333333
2026-01-20T23:05:36+00:00,SAT-64118,279.82644771769515,76.43998017236487,788.9288784867819,-0.7031668619003413,24627.877896626684,10.5,10500024627.877897,47.655,-122.3035,60.0,5.6
2026-01-20T23:05:37+00:00,SAT-64118,282.0668179770021,76.51862914762425,788.2275867365133,-0.6409515746234706,22448.835365786425,10.5,10500022448.835365,47.655,-122.3035,60.0,5.616666666666666
2026-01-20T23:05:38+00:00,SAT-64118,284.3335757878001,76.57681234878285,787.5883443660888,-0.5785838343910721,20264.453287568216,10.5,10500020264.453287,47.655,-122.3035,60.0,5.633333333333334
2026-01-20T23:05:39+00:00,SAT-64118,286.6197940195259,76.6141566692907,787.0113034219228,-0.516078035672496,18075.235817177254,10.5,10500018075.235817,47.655,-122.3035,60.0,5.65
2026-01-20T23:05:40+00:00,SAT-64118,288.91817642906324,76.63039336482757,786.4966015943454,-0.4534487389087098,15881.692922846822,10.5,10500015881.692923,47.655,-122.3035,60.0,5.666666666666667
2026-01-20T23:05:41+00:00,SAT-64118,291.2211912644258,76.62536390252957,786.0443620520737,-0.39071064943261224,13684.339647538525,10.5,10500013684.339647,47.655,-122.3035,60.0,5.683333333333334
2026-01-20T23:05:42+00:00,SAT-64118,293.5212160986376,76.59902329492729,785.6546932977063,-0.3278786010691624,11483.695534549457,10.5,10500011483.695534,47.655,-122.3035,60.0,5.7
2026-01-20T23:05:43+00:00,SAT-64118,295.8106870591129,76.55144074207355,785.3276890395733,-0.26496753898181935,9280.284026721925,10.5,10500009280.284027,47.655,-122.3035,60.0,5.716666666666667
2026-01-20T23:05:44+00:00,SAT-64118,298.0822452129126,76.4827975541273,785.0634280806954,-0.2019925031992335,7074.631889478527,10.5,10500007074.63189,47.655,-122.3035,60.0,5.733333333333333
2026-01-20T23:05:45+00:00,SAT-64118,300.3288731251426,76.3933824784049,784.8619742241714,-0.1389686112333682,4867.268602035232,10.5,10500004867.268602,47.655,-122.3035,60.0,5.75
2026-01-20T23:05:46+00:00,SAT-64118,302.5440154852499,76.28358469316717,784.7233761959013,-0.07591103749863189,2658.725636572334,10.5,10500002658.725637,47.655,-122.3035,60.0,5.766666666666667
2026-01-20T23:05:47+00:00,SAT-64118,304.72167899306965,76.15388484667633,784.647667587836,-0.012834997226214452,449.5358948464666,10.5,10500000449.535894,47.655,-122.3035,60.0,5.783333333333333
2026-01-20T23:05:48+00:00,SAT-64118,306.8565084479058,76.00484459574672,784.6348668172691,0.05024427163031548,-1759.7669255519181,10.5,10499998240.233074,47.655,-122.3035,60.0,5.8
2026-01-20T23:05:49+00:00,SAT-64118,308.9438377429993,75.83709513516226,784.684977104175,0.11331152775945422,-3968.6490094232768,10.5,10499996031.35099,47.655,-122.3035,60.0,5.816666666666666
2026-01-20T23:05:50+00:00,SAT-64118,310.9797160613193,75.65132521564253,784.7979864678605,0.17635154479644147,-6176.577065066244,10.5,10499993823.422935,47.655,-122.3035,60.0,5.833333333333333
2026-01-20T23:05:51+00:00,SAT-64118,312.9609111053489,75.44826910786892,784.9738677418708,0.23934912758121069,-8383.01889369983,10.5,10499991616.981106,47.655,-122.3035,60.0,5.85
2026-01-20T23:05:52+00:00,SAT-64118,314.88489217631655,75.22869491753484,785.2125786051118,0.3022891338070267,-10587.444147690267,10.5,10499989412.555853,47.655,-122.3035,60.0,5.866666666666666
2026-01-20T23:05:53+00:00,SAT-64118,316.74979669992183,74.9933935712556,785.5140616345619,0.3651564879887786,-12789.324819779738,10.5,10499987210.67518,47.655,-122.3035,60.0,5.883333333333334
2026-01-20T23:05:54+00:00,SAT-64118,318.5543839572419,74.74316872472656,785.8782443719161,0.42793620667118887,-14988.136125984474,10.5,10499985011.863874,47.655,-122.3035,60.0,5.9
2026-01-20T23:05:55+00:00,SAT-64118,320.29797991063697,74.47882774529027,786.3050394153695,0.49061340081134774,-17183.35658904118,10.5,10499982816.643412,47.655,-122.3035,60.0,5.916666666666667
2026-01-20T23:05:56+00:00,SAT-64118,321.9804165466955,74.20117387046268,786.7943445137787,0.5531733146561273,-19374.469400058548,10.5,10499980625.5306,47.655,-122.3035,60.0,5.933333333333334
2026-01-20T23:05:57+00:00,SAT-64118,323.60196897460696,73.91099954254449,787.3460426995958,0.615601323123961,-21560.962326816076,10.5,10499978439.037674,47.655,-122.3035,60.0,5.95
2026-01-20T23:05:58+00:00,SAT-64118,325.16329266239376,73.60908091529313,787.9600024191914,0.6778829605192599,-23742.32871946441,10.5,10499976257.67128,47.655,-122.3035,60.0,5.966666666666667
2026-01-20T23:05:59+00:00,SAT-64118,326.66536291767295,73.29617344729064,788.6360776918159,0.7400039298493519,-25918.067836843966,10.5,10499974081.932163,47.655,-122.3035,60.0,5.983333333333333
2026-01-20T23:06:00+00:00,SAT-64118,328.1094179941312,72.97300850003941,789.3741082778524,0.8019501262009396,-28087.68566522733,10.5,10499971912.314335,47.655,-122.3035,60.0,6.0
2026-01-20T23:06:01+00:00,SAT-64118,329.4969068259295,72.64029082574964,790.1739198703834,0.863707641563487,-30250.695087254706,10.5,10499969749.304913,47.655,-122.3035,60.0,6.016666666666667
2026-01-20T23:06:02+00:00,SAT-64118,330.82944190648305,72.29869683859532,791.0353242915694,0.9252627871907612,-32406.616665129688,10.5,10499967593.383335,47.655,-122.3035,60.0,6.033333333333333
2026-01-20T23:06:03+00:00,SAT-64118,332.1087575717338,71.94887354747652,791.9581197113278,0.9866021077533571,-34554.97913630052,10.5,10499965445.020864,47.655,-122.3035,60.0,6.05
2026-01-20T23:06:04+00:00,SAT-64118,333.33667363930635,71.59143804507758,792.942090880127,1.0477123879604187,-36695.31964538079,10.5,10499963304.680355,47.655,-122.3035,60.0,6.066666666666666
2026-01-20T23:06:05+00:00,SAT-64118,334.51506418469745,71.22697745455088,793.9870093683862,1.1085806779152316,-38827.18463220957,10.5,10499961172.815369,47.655,-122.3035,60.0,6.083333333333333
2026-01-20T23:06:06+00:00,SAT-64118,335.64583113922896,70.85604923669061,795.0926338311604,1.1691942888959832,-40950.12968407571,10.5,10499959049.870316,47.655,-122.3035,60.0,6.1
2026-01-20T23:06:07+00:00,SAT-64118,336.7308822648099,70.47918178763614,796.2587102686192,1.2295408174419478,-43063.72037931806,10.5,10499956936.279621,47.655,-122.3035,60.0,6.116666666666666
2026-01-20T23:06:08+00:00,SAT-64118,337.7721130875739,70.09687524866908,797.4849723105481,1.289608151804449,-45167.53251326528,10.5,10499954832.467487,47.655,-122.3035,60.0,6.133333333333334
2026-01-20T23:06:09+00:00,SAT-64118,338.7713923128703,69.70960247555402,798.771141507281,1.3493844900465974,-47261.15273216538,10.5,10499952738.847267,47.655,-122.3035,60.0,6.15
2026-01-20T23:06:10+00:00,SAT-64118,339.7305502844875,69.31781011530019,800.1169276386875,1.4088583234101468,-49344.177950622565,10.5,10499950655.82205,47.655,-122.3035,60.0,6.166666666666667
2026-01-20T23:06:11+00:00,SAT-64118,340.6513700424659,68.92191976017588,801.5220290065685,1.4680184817344601,-51416.216942361614,10.5,10499948583.783058,47.655,-122.3035,60.0,6.183333333333334
2026-01-20T23:06:12+00:00,SAT-64118,341.53558063531614,68.52232912885688,802.9861327723518,1.5268541164006546,-53476.889742859625,10.5,10499946523.110256,47.655,-122.3035,60.0,6.2
2026-01-20T23:06:13+00:00,SAT-64118,342.38485229005835,68.1194132671602,804.5089152777753,1.585354713014987,-55525.828093571865,10.5,10499944474.171906,47.655,-122.3035,60.0,6.216666666666667
2026-01-20T23:06:14+00:00,SAT-64118,343.20079315071723,67.71352573960736,806.0900423782222,1.6435100969940624,-57562.675637549415,10.5,10499942437.324362,47.655,-122.3035,60.0,6.233333333333333
2026-01-20T23:06:15+00:00,SAT-64118,343.9849473063789,67.30499979850994,807.7291697816244,1.7013104528694358,-59587.08859556792,10.5,10499940412.911404,47.655,-122.3035,60.0,6.25
2026-01-20T23:06:16+00:00,SAT-64118,344.73879387686236,66.89414951610995,809.4259434066195,1.7587462973043173,-61598.73482105855,10.5,10499938401.265179,47.655,-122.3035,60.0,6.266666666666667
2026-01-20T23:06:17+00:00,SAT-64118,345.46374693119435,66.4812708827135,811.1799997137975,1.8158085236995145,-63597.29536239668,10.5,10499936402.704638,47.655,-122.3035,60.0,6.283333333333333
2026-01-20T23:06:18+00:00,SAT-64118,346.1611560977953,66.06664284802847,812.990966081434,1.87248837359616,-65582.46346130455,10.5,10499934417.53654,47.655,-122.3035,60.0,6.3
2026-01-20T23:06:19+00:00,SAT-64118,346.8323076870922,65.6505283197532,814.8584611527004,1.9287774526451178,-67553.94511216736,10.5,10499932446.054888,47.655,-122.3035,60.0,6.316666666666666
2026-01-20T23:06:20+00:00,SAT-64118,347.47842622390255,65.23317510688526,816.7820951988052,1.9846677354419364,-69511.45923137377,10.5,10499930488.54077,47.655,-122.3035,60.0,6.333333333333333
2026-01-20T23:06:21+00:00,SAT-64118,348.1006762820906,64.81481680987463,818.7614704869527,2.0401515582703547,-71454.73740316283,10.5,10499928545.262596,47.655,-122.3035,60.0,6.35
2026-01-20T23:06:22+00:00,SAT-64118,348.70016453347273,64.39567366063777,820.7961816410676,2.0952216211790193,-73383.5239523594,10.5,10499926616.476048,47.655,-122.3035,60.0,6.366666666666666
2026-01-20T23:06:23+00:00,SAT-64118,349.27794194613404,63.97595331119752,822.8858160045901,2.1498710040099707,-75297.57650575951,10.5,10499924702.423494,47.655,-122.3035,60.0,6.383333333333334
2026-01-20T23:06:24+00:00,SAT-64118,349.83500607917506,63.555851570109866,825.029954019256,2.204093133360551,-77196.66483499657,10.5,10499922803.335165,47.655,-122.3035,60.0,6.4
2026-01-20T23:06:25+00:00,SAT-64118,350.3723034162609,63.13555309807164,827.2281695709278,2.25788181787189,-79080.57209249356,10.5,10499920919.427908,47.655,-122.3035,60.0,6.416666666666667
2026-01-20T23:06:26+00:00,SAT-64118,350.89073172021705,62.71523205166757,829.4800303706186,2.3112312085566447,-80949.0934219725,10.5,10499919050.906578,47.655,-122.3035,60.0,6.433333333333334
2026-01-20T23:06:27+00:00,SAT-64118,351.391142361919,62.295052691774515,831.7850982959525,2.3641358491212587,-82802.03772095298,10.5,10499917197.962278,47.655,-122.3035,60.0,6.45
2026-01-20T23:06:28+00:00,SAT-64118,351.87434262237264,61.875169942506794,834.1429297828093,2.4165905953463067,-84639.2248171107,10.5,10499915360.775183,47.655,-122.3035,60.0,6.466666666666667
2026-01-20T23:06:29+00:00,SAT-64118,352.341097923342,61.45572992654161,836.553076136568,2.468590700219018,-86460.48844997858,10.5,10499913539.51155,47.655,-122.3035,60.0,6.483333333333333
2026-01-20T23:06:30+00:00,SAT-64118,352.79213400884277,61.03687044982648,839.0150839282531,2.520131741049483,-88265.673718248,10.5,10499911734.326283,47.655,-122.3035,60.0,6.5
2026-01-20T23:06:31+00:00,SAT-64118,353.22813903658044,60.61872146568595,841.5284953179932,2.571209646976645,-90054.63804314507,10.5,10499909945.361958,47.655,-122.3035,60.0,6.516666666666667
2026-01-20T23:06:32+00:00,SAT-64118,353.6497655936075,60.20140550300922,844.0928484059112,2.6218206825848265,-91827.25059461195,10.5,10499908172.749405,47.655,-122.3035,60.0,6.533333333333333
2026-01-20T23:06:33+00:00,SAT-64118,354.05763262408766,59.785038068118325,846.7076775666758,2.6719614614157643,-93583.39276455557,10.5,10499906416.607235,47.655,-122.3035,60.0,6.55
2026-01-20T23:06:34+00:00,SAT-64118,354.4523272721642,59.369728017547466,849.3725137975277,2.721628912485693,-95322.95699413418,10.5,10499904677.043005,47.655,-122.3035,60.0,6.566666666666666
2026-01-20T23:06:35+00:00,SAT-64118,354.8344066322664,58.955577910954766,852.0868850329135,2.7708202957101986,-97045.84731400109,10.5,10499902954.152685,47.655,-122.3035,60.0,6.583333333333333
2026-01-20T23:06:36+00:00,SAT-64118,355.20439941515184,58.54268433824603,854.8503164745018,2.819533177605339,-98751.97849325502,10.5,10499901248.021507,47.655,-122.3035,60.0,6.6
2026-01-20T23:06:37+00:00,SAT-64118,355.562807525455,58.131138228584916,857.6623308969669,2.867765450112743,-100441.27669877473,10.5,10499899558.7233,47.655,-122.3035,60.0,6.616666666666666
2026-01-20T23:06:38+00:00,SAT-64118,355.91010755857474,57.72102513651628,860.522448972546,2.9155152911728073,-102113.6781143256,10.5,10499897886.321886,47.655,-122.3035,60.0,6.633333333333334
2026-01-20T23:06:39+00:00,SAT-64118,356.24675221221304,57.31242551500579,863.4301895562758,2.962781208110657,-103769.1304601195,10.5,10499896230.86954,47.655,-122.3035,60.0,6.65
2026-01-20T23:06:40+00:00,SAT-64118,356.57317162548014,56.90541496501992,866.3850700144981,3.0095619414775334,-105407.58962493346,10.5,10499894592.410376,47.655,-122.3035,60.0,6.666666666666667
2026-01-20T23:06:41+00:00,SAT-64118,356.8897746329215,56.50006448211778,869.386606457465,3.0558565821718218,-107029.02376818341,10.5,10499892970.976233,47.655,-122.3035,60.0,6.683333333333334
2026-01-20T23:06:42+00:00,SAT-64118,357.1969499604373,56.096440672036124,872.434314088751,3.1016644258339565,-108633.40822021794,10.5,10499891366.59178,47.655,-122.3035,60.0,6.7
2026-01-20T23:06:43+00:00,SAT-64118,357.49506733809324,55.69460597181578,875.5277074094494,3.146985093748478,-110220.7297168197,10.5,10499889779.270283,47.655,-122.3035,60.0,6.716666666666667
2026-01-20T23:06:44+00:00,SAT-64118,357.7844785612385,55.29461884182853,878.666300542948,3.1918184229511586,-111790.98255029206,10.5,10499888209.01745,47.655,-122.3035,60.0,6.733333333333333
2026-01-20T23:06:45+00:00,SAT-64118,358.0655184798364,54.896533959963,881.8496074501046,3.2361645255246594,-113344.17064624396,10.5,10499886655.829353,47.655,-122.3035,60.0,6.75
2026-01-20T23:06:46+00:00,SAT-64118,358.338505935949,54.50040239683874,885.0771422035612,3.2800237436438215,-114880.30598908571,10.5,10499885119.694012,47.655,-122.3035,60.0,6.766666666666667
2026-01-20T23:06:47+00:00,SAT-64118,358.6037446427824,54.10627178603334,888.3484192172219,3.323396654376818,-116399.40879018573,10.5,10499883600.59121,47.655,-122.3035,60.0,6.783333333333333
2026-01-20T23:06:48+00:00,SAT-64118,358.8615240128958,53.71418648380549,891.6629534805204,3.366284068317536,-117901.50743997077,10.5,10499882098.49256,47.655,-122.3035,60.0,6.8
2026-01-20T23:06:49+00:00,SAT-64118,359.11211993798213,53.324187719716456,895.0202607913224,3.408687002612825,-119386.63756322603,10.5,10499880613.362436,47.655,-122.3035,60.0,6.816666666666666
2026-01-20T23:06:50+00:00,SAT-64118,359.3557955210602,52.93631374174392,898.4198579619282,3.4506066981351227,-120854.84262055314,10.5,10499879145.15738,47.655,-122.3035,60.0,6.833333333333333
2026-01-20T23:06:51+00:00,SAT-64118,359.59280176717806,52.550599951280255,901.8612630422016,3.4920445768908372,-122306.17241663161,10.5,10499877693.827583,47.655,-122.3035,60.0,6.85
2026-01-20T23:06:52+00:00,SAT-64118,359.82337823091694,52.167079035299736,905.3439955002208,3.533002268213105,-123740.68401759994,10.5,10499876259.315983,47.655,-122.3035,60.0,6.866666666666666
2026-01-20T23:06:53+00:00,SAT-64118,0.04775362799542839,51.785781088374414,908.8675764290521,3.573481596331756,-125158.44131570327,10.5,10499874841.558683,47.655,-122.3035,60.0,6.883333333333334
2026-01-20T23:06:54+00:00,SAT-64118,0.2661464104398365,51.40673372944831,912.4315287411268,3.613484535336017,-126559.51345189671,10.5,10499873440.486547,47.655,-122.3035,60.0,6.9
2026-01-20T23:06:55+00:00,SAT-64118,0.4787653057175837,51.02996221699131,916.035377317702,3.65301325299068,-127943.9763504729,10.5,10499872056.02365,47.655,-122.3035,60.0,6.916666666666667
2026-01-20T23:06:56+00:00,SAT-64118,0.6858098273978981,50.65548955350411,919.678649202018,3.6920700629997842,-129311.91104713426,10.5,10499870688.088953,47.655,-122.3035,60.0,6.933333333333334
2026-01-20T23:06:57+00:00,SAT-64118,0.8874707536435905,50.283336589367245,923.3608737448499,3.7306574491849127,-130663.4045358192,10.5,10499869336.595465,47.655,-122.3035,60.0,6.95
2026-01-20T23:06:58+00:00,SAT-64118,1.0839305795990701,49.91352211888927,927.0815827741702,3.768778012365179,-131998.54790821447,10.5,10499868001.452091,47.655,-122.3035,60.0,6.966666666666667
2026-01-20T23:06:59+00:00,SAT-64118,1.2753639411906408,49.54606297653744,930.8403107118357,3.806434540946785,-133317.4388261003,10.5,10499866682.561174,47.655,-122.3035,60.0,6.983333333333333
2026-01-20T23:07:00+00:00,SAT-64118,1.4619380183979622,49.18097412152432,934.6365947606733,3.8436299001971883,-134620.17764326304,10.5,10499865379.822357,47.655,-122.3035,60.0,7.0
2026-01-20T23:07:01+00:00,SAT-64118,1.6438129102106405,48.81826872856651,938.4699749811367,3.880367124849345,-135906.8706488878,10.5,10499864093.12935,47.655,-122.3035,60.0,7.016666666666667
2026-01-20T23:07:02+00:00,SAT-64118,1.8211419930152652,48.45795826542605,942.3399944603198,3.916649317675152,-137177.62651517102,10.5,10499862822.373486,47.655,-122.3035,60.0,7.033333333333333
2026-01-20T23:07:03+00:00,SAT-64118,1.9940722541582787,48.10005257588377,946.2461993798145,3.9524797552495308,-138432.56000162644,10.5,10499861567.439999,47.655,-122.3035,60.0,7.05
2026-01-20T23:07:04+00:00,SAT-64118,2.1627446116587823,47.744559949100214,950.1881391890499,3.9878617751159906,-139671.78800314548,10.5,10499860328.211996,47.655,-122.3035,60.0,7.066666666666666
2026-01-20T23:07:05+00:00,SAT-64118,2.3272942112232773,47.39148719562219,954.1653666660991,4.022798811475723,-140895.43079998062,10.5,10499859104.5692,47.655,-122.3035,60.0,7.083333333333333
2026-01-20T23:07:06+00:00,SAT-64118,2.487850708546153,47.040839716469115,958.1774380140774,4.057294406717838,-142103.61246158267,10.5,10499857896.387539,47.655,-122.3035,60.0,7.1
2026-01-20T23:07:07+00:00,SAT-64118,2.6445385365465257,46.692621567920646,962.223912969044,4.0913521882125234,-143296.46003379943,10.5,10499856703.539967,47.655,-122.3035,60.0,7.116666666666666
2026-01-20T23:07:08+00:00,SAT-64118,2.7974771570698236,46.34683552516781,966.3043548847546,4.124975837574425,-144474.102462349,10.5,10499855525.897537,47.655,-122.3035,60.0,7.133333333333334
2026-01-20T23:07:09+00:00,SAT-64118,2.9467812978919508,46.00348314543284,970.4183307867623,4.1581691477637985,-145636.67259274377,10.5,10499854363.327408,47.655,-122.3035,60.0,7.15
2026-01-20T23:07:10+00:00,SAT-64118,3.092561178980386,45.66256482340738,974.5654114834654,4.1909359406140165,-146784.3042817547,10.5,10499853215.695719,47.655,-122.3035,60.0,7.166666666666667
2026-01-20T23:07:11+00:00,SAT-64118,3.2349227237301745,45.324079850733916,978.7451715949044,4.2232801239168305,-147917.13439677897,10.5,10499852082.865602,47.655,-122.3035,60.0,7.183333333333334
2026-01-20T23:07:12+00:00,SAT-64118,3.373967760964312,44.98802646808573,982.9571896384908,4.255205658886023,-149035.30167627914,10.5,10499850964.698324,47.655,-122.3035,60.0,7.2
2026-01-20T23:07:13+00:00,SAT-64118,3.5097942151060684,44.65440191739101,987.2010480822863,4.28671655093055,-150138.94640661968,10.5,10499849861.053593,47.655,-122.3035,60.0,7.216666666666667
2026-01-20T23:07:14+00:00,SAT-64118,3.6424962860696293,44.3232024922918,991.4763333890812,4.317816850809724,-151228.21046252636,10.5,10499848771.789537,47.655,-122.3035,60.0,7.233333333333333
2026-01-20T23:07:15+00:00,SAT-64118,3.7721646198575893,43.99442358612066,995.782636061622,4.348510662721145,-152303.23759036,10.5,10499847696.76241,47.655,-122.3035,60.0,7.25
2026-01-20T23:07:16+00:00,SAT-64118,3.898886470449964,43.668059737068404,1000.1195506959093,4.378802116591932,-153364.17243763778,10.5,10499846635.827562,47.655,-122.3035,60.0,7.266666666666667
2026-01-20T23:07:17+00:00,SAT-64118,4.022745852586061,43.344104673277776,1004.486676006857,4.408695378014289,-154411.1609010192,10.5,10499845588.8391,47.655,-122.3035,60.0,7.283333333333333
2026-01-20T23:07:18+00:00,SAT-64118,4.143823686978358,43.022551355089284,1008.8836148638632,4.438194633684371,-155444.34961631324,10.5,10499844555.650383,47.655,-122.3035,60.0,7.3
2026-01-20T23:07:19+00:00,SAT-64118,4.262197937750004,42.703392016383404,1013.3099743118577,4.467304120600023,-156463.8869811069,10.5,10499843536.113018,47.655,-122.3035,60.0,7.316666666666666
2026-01-20T23:07:20+00:00,SAT-64118,4.377943743650958,42.386618201935214,1017.7653656214695,4.49602805835802,-157469.9207835282,10.5,10499842530.079216,47.655,-122.3035,60.0,7.333333333333333
2026-01-20T23:07:21+00:00,SAT-64118,4.491133540927587,42.072220807764666,1022.2494042716719,4.52437070846879,-158462.60027969847,10.5,10499841537.399721,47.655,-122.3035,60.0,7.35
2026-01-20T23:07:22+00:00,SAT-64118,4.601837181596768,41.76019011548523,1026.7617099915847,4.552336343026433,-159442.07509642406,10.5,10499840557.924904,47.655,-122.3035,60.0,7.366666666666666
2026-01-20T23:07:23+00:00,SAT-64118,4.710122044987552,41.45051582725509,1031.3019067710297,4.5799292339941875,-160408.49485592786,10.5,10499839591.505144,47.655,-122.3035,60.0,7.383333333333334
2026-01-20T23:07:24+00:00,SAT-64118,4.816053143590375,41.14318709975516,1035.8696228604,4.607153664802886,-161362.00958207663,10.5,10499838637.990417,47.655,-122.3035,60.0,7.4
2026-01-20T23:07:25+00:00,SAT-64118,4.919693223945521,40.838192575872554,1040.4644907820968,4.6340139159566505,-162302.76919623118,10.5,10499837697.230804,47.655,-122.3035,60.0,7.416666666666667
2026-01-20T23:07:26+00:00,SAT-64118,5.021102862323091,40.535520415790366,1045.086147327611,4.6605142814452165,-163230.92409207564,10.5,10499836769.075909,47.655,-122.3035,60.0,7.433333333333334
2026-01-20T23:07:27+00:00,SAT-64118,5.120340556086123,40.235158325644235,1049.7342335709723,4.686659038533314,-164146.62407751364,10.5,10499835853.375923,47.655,-122.3035,60.0,7.45
2026-01-20T23:07:28+00:00,SAT-64118,5.217462810048271,39.93709358669654,1054.4083948520695,4.712452456261027,-165050.01867238694,10.5,10499834949.981327,47.655,-122.3035,60.0,7.466666666666667
2026-01-20T23:07:29+00:00,SAT-64118,5.31252421884286,39.641313082659906,1059.108280768447,4.737898817855896,-165941.25789344212,10.5,10499834058.742107,47.655,-122.3035,60.0,7.483333333333333
2026-01-20T23:07:30+00:00,SAT-64118,5.405577545872756,39.3478033243268,1063.8335451894554,4.763002368813203,-166820.49043588227,10.5,10499833179.509563,47.655,-122.3035,60.0,7.5
2026-01-20T23:07:31+00:00,SAT-64118,5.496673797453647,39.05655047624832,1068.5838462186184,4.787767368833857,-167687.8654924518,10.5,10499832312.134508,47.655,-122.3035,60.0,7.516666666666667
2026-01-20T23:07:32+00:00,SAT-64118,5.585862294505804,38.76754037900413,1073.358846207802,4.812198014277303,-168543.53003740904,10.5,10499831456.469963,47.655,-122.3035,60.0,7.533333333333333
2026-01-20T23:07:33+00:00,SAT-64118,5.673190739454579,38.48075857503765,1078.1582116940413,4.83629855239853,-169387.63282758955,10.5,10499830612.367172,47.655,-122.3035,60.0,7.55
2026-01-20T23:07:34+00:00,SAT-64118,5.758705282111415,38.19619032657006,1082.9816134503,4.860073150449584,-170220.31981778753,10.5,10499829779.680182,47.655,-122.3035,60.0,7.566666666666666
2026-01-20T23:07:35+00:00,SAT-64118,5.842450580165431,37.91382064026807,1087.828726405682,4.883525995142633,-171041.7376443728,10.5,10499828958.262356,47.655,-122.3035,60.0,7.583333333333333
2026-01-20T23:07:36+00:00,SAT-64118,5.9244698586475995,37.63363428503241,1092.6992296648375,4.906661216891541,-171852.0309719105,10.5,10499828147.969028,47.655,-122.3035,60.0,7.6
2026-01-20T23:07:37+00:00,SAT-64118,6.004804965424861,37.355615813219714,1097.5928064518173,4.929482938074457,-172651.34418352114,10.5,10499827348.655817,47.655,-122.3035,60.0,7.616666666666666
2026-01-20T23:07:38+00:00,SAT-64118,6.083496424958465,37.07974957815563,1102.5091441020568,4.951995289518557,-173439.8219582457,10.5,10499826560.178041,47.655,-122.3035,60.0,7.633333333333334
2026-01-20T23:07:39+00:00,SAT-64118,6.160583489879244,36.806019749953855,1107.4479340708033,4.974202301249057,-174217.60544461428,10.5,10499825782.394556,47.655,-122.3035,60.0,7.65
2026-01-20T23:07:40+00:00,SAT-64118,6.236104188602673,36.53441033643362,1112.4088718325825,4.996108017564012,-174984.83629105214,10.5,10499825015.16371,47.655,-122.3035,60.0,7.666666666666667
2026-01-20T23:07:41+00:00,SAT-64118,6.310095372574344,36.26490519689349,1117.3916568954328,5.017716455909439,-175741.65520551256,10.5,10499824258.344795,47.655,-122.3035,60.0,7.683333333333334
2026-01-20T23:07:42+00:00,SAT-64118,6.382592760801374,35.99748805738131,1122.3959927741266,5.039031608211984,-176488.20200215257,10.5,10499823511.797998,47.655,-122.3035,60.0,7.7
2026-01-20T23:07:43+00:00,SAT-64118,6.453630982427372,35.73214252519998,1127.4215869647167,5.060057406526321,-177224.6143981593,10.5,10499822775.385601,47.655,-122.3035,60.0,7.716666666666667
2026-01-20T23:07:44+00:00,SAT-64118,6.523243616999185,35.468852104411006,1132.4681508848255,5.080797750718769,-177951.02898334782,10.5,10499822048.971016,47.655,-122.3035,60.0,7.733333333333333
2026-01-20T23:07:45+00:00,SAT-64118,6.591463233362862,35.20760020920354,1137.5353998415424,5.101256544437822,-178667.58248000065,10.5,10499821332.41752,47.655,-122.3035,60.0,7.75
2026-01-20T23:07:46+00:00,SAT-64118,6.658321427362425,34.948370174774944,1142.623053035195,5.121437613344759,-179374.40887895843,10.5,10499820625.591122,47.655,-122.3035,60.0,7.766666666666667
2026-01-20T23:07:47+00:00,SAT-64118,6.723848856832225,34.691145271758195,1147.730833481571,5.141344749536882,-180071.64099550917,10.5,10499819928.359005,47.655,-122.3035,60.0,7.783333333333333
2026-01-20T23:07:48+00:00,SAT-64118,6.788075275718722,34.435908717700435,1152.8584679784424,5.160981769748589,-180759.41250783627,10.5,10499819240.587492,47.655,-122.3035,60.0,7.8
2026-01-20T23:07:49+00:00,SAT-64118,6.8510295674085535,34.18264368521775,1158.0056871301383,5.180352369204143,-181437.85283832424,10.5,10499818562.147161,47.655,-122.3035,60.0,7.816666666666666
2026-01-20T23:07:50+00:00,SAT-64118,6.912739774916569,33.9313333166738,1163.1722252263578,5.199460252870123,-182107.09175057465,10.5,10499817892.908249,47.655,-122.3035,60.0,7.833333333333333
2026-01-20T23:07:51+00:00,SAT-64118,6.973233131375192,33.681960731933856,1168.357820251887,5.218309067953427,-182767.2569852007,10.5,10499817232.743015,47.655,-122.3035,60.0,7.85
2026-01-20T23:07:52+00:00,SAT-64118,7.032536088455998,33.434509038854166,1173.5622138289925,5.236902445750112,-183418.47572555067,10.5,10499816581.524275,47.655,-122.3035,60.0,7.866666666666666
2026-01-20T23:07:53+00:00,SAT-64118,7.090674344105146,33.18896134131543,1178.785151201554,5.255243969122641,-184060.8734586236,10.5,10499815939.126541,47.655,-122.3035,60.0,7.883333333333334
2026-01-20T23:07:54+00:00,SAT-64118,7.147672868739744,32.94530074832164,1184.0263811867592,5.27333716392011,-184694.57367456908,10.5,10499815305.426325,47.655,-122.3035,60.0,7.9
2026-01-20T23:07:55+00:00,SAT-64118,7.203555930316329,32.703510383010304,1189.285656118242,5.291185528854205,-185319.6989130699,10.5,10499814680.301086,47.655,-122.3035,60.0,7.916666666666667
2026-01-20T23:07:56+00:00,SAT-64118,7.258347118688704,32.46357338983845,1194.5627318190193,5.308792527694981,-185936.37049000512,10.5,10499814063.62951,47.655,-122.3035,60.0,7.933333333333334
2026-01-20T23:07:57+00:00,SAT-64118,7.312069368888846,32.22547294174834,1199.8573675666405,5.326161583689583,-186544.7083019701,10.5,10499813455.291698,47.655,-122.3035,60.0,7.95
2026-01-20T23:07:58+00:00,SAT-64118,7.364744983416675,31.989192247182913,1205.1693260527736,5.343296074980152,-187144.83066579213,10.5,10499812855.169334,47.655,-122.3035,60.0,7.966666666666667
2026-01-20T23:07:59+00:00,SAT-64118,7.4163956536022715,31.754714556919073,1210.4983733382205,5.360199325471607,-187736.85399868156,10.5,10499812263.146002,47.655,-122.3035,60.0,7.983333333333333
2026-01-20T23:08:00+00:00,SAT-64118,7.467042480011436,31.522023170915524,1215.844278798824,5.376874641434664,-188320.89410022442,10.5,10499811679.1059,47.655,-122.3035,60.0,8.0
2026-01-20T23:08:01+00:00,SAT-64118,7.516705992421156,31.29110144323818,1221.2068151078815,5.393325283441168,-188897.06516943887,10.5,10499811102.93483,47.655,-122.3035,60.0,8.016666666666667
2026-01-20T23:08:02+00:00,SAT-64118,7.565406168712911,31.061932787875463,1226.5857581905668,5.409554453191294,-189465.47934340828,10.5,10499810534.520657,47.655,-122.3035,60.0,8.033333333333333
2026-01-20T23:08:03+00:00,SAT-64118,7.613162452939729,30.83450068477326,1231.9808871652162,5.425565349059431,-190026.24864273277,10.5,10499809973.751358,47.655,-122.3035,60.0,8.05
