satellites_20260121_005943/SAT-64800.csv

timestamp,satellite,azimuth_deg,elevation_deg,distance_km,relative_velocity_kms,doppler_shift_hz,tx_freq_ghz,rx_freq_hz,ue_lat,ue_lon,ue_alt_m,time_minutes
2026-01-20T23:00:00+00:00,SAT-64800,291.8812043818576,40.608141025518414,2582.375238938574,-0.2814046772840189,9855.982139091033,10.5,10500009855.98214,47.655,-122.3035,60.0,0.0
2026-01-20T23:00:01+00:00,SAT-64800,292.0956366275868,40.60108249310608,2582.094584673763,-0.2634970022499095,9228.779610006233,10.5,10500009228.77961,47.655,-122.3035,60.0,0.016666666666666666
2026-01-20T23:00:02+00:00,SAT-64800,292.3100534116339,40.59344703184499,2581.831790330186,-0.24558342086302093,8601.370215463257,10.5,10500008601.370216,47.655,-122.3035,60.0,0.03333333333333333
2026-01-20T23:00:03+00:00,SAT-64800,292.5244474799596,40.585234724839054,2581.586861798445,-0.22766432300821432,7973.767610879158,10.5,10500007973.76761,47.655,-122.3035,60.0,0.05
2026-01-20T23:00:04+00:00,SAT-64800,292.738811582491,40.57644570172667,2581.3598045802983,-0.2097400989067922,7345.985463454582,10.5,10500007345.985464,47.655,-122.3035,60.0,0.06666666666666667
2026-01-20T23:00:05+00:00,SAT-64800,292.95313847436745,40.56708013867314,2581.150623788322,-0.19181114013242997,6718.037487755996,10.5,10500006718.037487,47.655,-122.3035,60.0,0.08333333333333333
2026-01-20T23:00:06+00:00,SAT-64800,293.167420917997,40.55713825831729,2580.959324144563,-0.173877838143437,6089.937394309261,10.5,10500006089.937395,47.655,-122.3035,60.0,0.1
2026-01-20T23:00:07+00:00,SAT-64800,293.38165168391794,40.54662032975267,2580.7859099806547,-0.15594058478640266,5461.698907239448,10.5,10500005461.698908,47.655,-122.3035,60.0,0.11666666666666667
2026-01-20T23:00:08+00:00,SAT-64800,293.59582355177656,40.53552666850012,2580.630385237428,-0.1379997733985249,4833.335802879042,10.5,10500004833.335802,47.655,-122.3035,60.0,0.13333333333333333
2026-01-20T23:00:09+00:00,SAT-64800,293.8099293137054,40.52385763633875,2580.4927534634253,-0.12005579600426998,4204.861811583114,10.5,10500004204.86181,47.655,-122.3035,60.0,0.15
2026-01-20T23:00:10+00:00,SAT-64800,294.02396177258277,40.51161364139266,2580.37301781621,-0.102109046278802,3576.2907215211567,10.5,10500003576.290722,47.655,-122.3035,60.0,0.16666666666666666
2026-01-20T23:00:11+00:00,SAT-64800,294.2379137459401,40.498795137908864,2580.2711810607216,-0.08415991772753963,2947.6363149174554,10.5,10500002947.636314,47.655,-122.3035,60.0,0.18333333333333332
2026-01-20T23:00:12+00:00,SAT-64800,294.45177806655937,40.485402626193896,2580.187245569441,-0.06620880379389874,2318.9123718247,10.5,10500002318.912373,47.655,-122.3035,60.0,0.2
2026-01-20T23:00:13+00:00,SAT-64800,294.66554758239033,40.471436652593944,2580.1212133224576,-0.04825609883761544,1690.132704388988,10.5,10500001690.132704,47.655,-122.3035,60.0,0.21666666666666667
2026-01-20T23:00:14+00:00,SAT-64800,294.8792151612849,40.456897809153006,2580.0730859065497,-0.030302196597889502,1061.311103022611,10.5,10500001061.311104,47.655,-122.3035,60.0,0.23333333333333334
2026-01-20T23:00:15+00:00,SAT-64800,295.09277368820085,40.44178673374517,2580.04286451581,-0.012347491578283243,432.4613849090695,10.5,10500000432.461386,47.655,-122.3035,60.0,0.25
2026-01-20T23:00:16+00:00,SAT-64800,295.30621606864497,40.426104109794906,2580.030549950876,0.005607622214679983,-196.40265017654252,10.5,10499999803.59735,47.655,-122.3035,60.0,0.26666666666666666
2026-01-20T23:00:17+00:00,SAT-64800,295.5195352316321,40.409850665988884,2580.036142619431,0.023562750057886925,-825.2671773611219,10.5,10499999174.732822,47.655,-122.3035,60.0,0.2833333333333333
2026-01-20T23:00:18+00:00,SAT-64800,295.73272412680285,40.393027176414286,2580.0596425354884,0.04151749794176489,-1454.1183967627742,10.5,10499998545.881603,47.655,-122.3035,60.0,0.3
2026-01-20T23:00:19+00:00,SAT-64800,295.94577572969825,40.37563446008018,2580.1010493201024,0.05947147136275158,-2082.9424911979995,10.5,10499997917.057508,47.655,-122.3035,60.0,0.31666666666666665
2026-01-20T23:00:20+00:00,SAT-64800,296.15868304066186,40.35767338090366,2580.160362200875,0.07742427630771677,-2711.7256606603028,10.5,10499997288.27434,47.655,-122.3035,60.0,0.3333333333333333
2026-01-20T23:00:21+00:00,SAT-64800,296.37143908721026,40.339144847417714,2580.2375800124464,0.09537551863139307,-3340.4541005151877,10.5,10499996659.5459,47.655,-122.3035,60.0,0.35
2026-01-20T23:00:22+00:00,SAT-64800,296.5840369248815,40.32004981258763,2580.3327011963615,0.11332480395727314,-3969.1139980291564,10.5,10499996030.886002,47.655,-122.3035,60.0,0.36666666666666664
2026-01-20T23:00:23+00:00,SAT-64800,296.7964696376178,40.30038927366285,2580.4457238008413,0.13127173913060994,-4597.691583259924,10.5,10499995402.308416,47.655,-122.3035,60.0,0.38333333333333336
2026-01-20T23:00:24+00:00,SAT-64800,297.00873034092086,40.28016427176588,2580.576645482001,0.14921593051384763,-5226.173069355201,10.5,10499994773.826931,47.655,-122.3035,60.0,0.4
2026-01-20T23:00:25+00:00,SAT-64800,297.2208121816503,40.25937589176919,2580.7254635033664,0.1671569856058098,-5854.5447092635095,10.5,10499994145.45529,47.655,-122.3035,60.0,0.4166666666666667
2026-01-20T23:00:26+00:00,SAT-64800,297.43270834026134,40.238025261933856,2580.8921747370105,0.18509450973827096,-6482.792680034149,10.5,10499993517.20732,47.655,-122.3035,60.0,0.43333333333333335
2026-01-20T23:00:27+00:00,SAT-64800,297.6444120293387,40.216113553907,2581.07677566139,0.20302811224981024,-7110.903299051664,10.5,10499992889.0967,47.655,-122.3035,60.0,0.45
2026-01-20T23:00:28+00:00,SAT-64800,297.85591649864887,40.19364198205083,2581.2792623653404,0.220957400231659,-7738.862804988975,10.5,10499992261.137196,47.655,-122.3035,60.0,0.4666666666666667
2026-01-20T23:00:29+00:00,SAT-64800,298.0672150334627,40.17061180343646,2581.4996305458376,0.2388819827220384,-8366.65750471082,10.5,10499991633.342495,47.655,-122.3035,60.0,0.48333333333333334
2026-01-20T23:00:30+00:00,SAT-64800,298.27830095708646,40.14702431739797,2581.737875509939,0.2568014672624626,-8994.273652660926,10.5,10499991005.726347,47.655,-122.3035,60.0,0.5
2026-01-20T23:00:31+00:00,SAT-64800,298.48916763039495,40.122880865395615,2581.993992173289,0.2747154650683663,-9621.697631959261,10.5,10499990378.302368,47.655,-122.3035,60.0,0.5166666666666667
2026-01-20T23:00:32+00:00,SAT-64800,298.69980845538987,40.09818283042173,2582.267975063784,0.29262358502296376,-10248.915744041566,10.5,10499989751.084255,47.655,-122.3035,60.0,0.5333333333333333
2026-01-20T23:00:33+00:00,SAT-64800,298.9102168739846,40.07293163692611,2582.559818319247,0.31052543767033136,-10875.914348513996,10.5,10499989124.085651,47.655,-122.3035,60.0,0.55
2026-01-20T23:00:34+00:00,SAT-64800,299.120386369958,40.04712875038089,2582.8695156890835,0.32842063411409556,-11502.679824580522,10.5,10499988497.320175,47.655,-122.3035,60.0,0.5666666666666667
2026-01-20T23:00:35+00:00,SAT-64800,299.3303104699667,40.020775676933724,2583.19706053484,0.3463087874130042,-12129.198619921732,10.5,10499987870.80138,47.655,-122.3035,60.0,0.5833333333333334
2026-01-20T23:00:36+00:00,SAT-64800,299.53998274514396,39.99387396297696,2583.542445832153,0.3641895091641649,-12755.457131025396,10.5,10499987244.54287,47.655,-122.3035,60.0,0.6
2026-01-20T23:00:37+00:00,SAT-64800,299.7493968109918,39.96642519492015,2583.905664169293,0.3820624135759189,-13381.441845835725,10.5,10499986618.558155,47.655,-122.3035,60.0,0.6166666666666667
2026-01-20T23:00:38+00:00,SAT-64800,299.95854632928035,39.93843099869857,2584.286707749766,0.39992711416288707,-14007.139227999905,10.5,10499985992.860771,47.655,-122.3035,60.0,0.6333333333333333
2026-01-20T23:00:39+00:00,SAT-64800,300.1674250082894,39.90989303948453,2584.685568391624,0.41778322603346757,-14632.535796985958,10.5,10499985367.464203,47.655,-122.3035,60.0,0.65
2026-01-20T23:00:40+00:00,SAT-64800,300.3760266041219,39.880813021248215,2585.1022375290554,0.4356303670358713,-15257.618168221725,10.5,10499984742.381832,47.655,-122.3035,60.0,0.6666666666666666
2026-01-20T23:00:41+00:00,SAT-64800,300.5843449224727,39.85119268623616,2585.536706215112,0.4534681516320409,-15882.372838533616,10.5,10499984117.627161,47.655,-122.3035,60.0,0.6833333333333333
2026-01-20T23:00:42+00:00,SAT-64800,300.79237381747356,39.821033814851305,2585.98896511834,0.47129619731900757,-16506.78641104967,10.5,10499983493.213589,47.655,-122.3035,60.0,0.7
2026-01-20T23:00:43+00:00,SAT-64800,301.00010719375047,39.7903382250785,2586.459004525799,0.489114126507271,-17130.845660988394,10.5,10499982869.154339,47.655,-122.3035,60.0,0.7166666666666667
2026-01-20T23:00:44+00:00,SAT-64800,301.2075390087203,39.75910777184665,2586.9468143479694,0.5069215574938002,-17754.537219495036,10.5,10499982245.46278,47.655,-122.3035,60.0,0.7333333333333333
2026-01-20T23:00:45+00:00,SAT-64800,301.4146632713032,39.72734434690356,2587.452384114643,0.5247181085938601,-18377.847718355646,10.5,10499981622.15228,47.655,-122.3035,60.0,0.75
2026-01-20T23:00:46+00:00,SAT-64800,301.62147404241705,39.69504987843841,2587.975702974947,0.5425034055117229,-19000.764048150573,10.5,10499980999.235952,47.655,-122.3035,60.0,0.7666666666666667
2026-01-20T23:00:47+00:00,SAT-64800,301.82796543819313,39.66222633026706,2588.5167597047107,0.560277070208114,-19623.272968345307,10.5,10499980376.727032,47.655,-122.3035,60.0,0.7833333333333333
2026-01-20T23:00:48+00:00,SAT-64800,302.03413162884647,39.62887570166991,2589.075542702732,0.5780387261552039,-20245.36129134256,10.5,10499979754.638708,47.655,-122.3035,60.0,0.8
2026-01-20T23:00:49+00:00,SAT-64800,302.23996683958956,39.595000026911855,2589.6520399922842,0.5957880010657496,-20867.015978068303,10.5,10499979132.984022,47.655,-122.3035,60.0,0.8166666666666667
2026-01-20T23:00:50+00:00,SAT-64800,302.4454653524152,39.560601374610556,2590.246239225347,0.6135245197571795,-21488.223888041855,10.5,10499978511.776112,47.655,-122.3035,60.0,0.8333333333333334
2026-01-20T23:00:51+00:00,SAT-64800,302.65062150539296,39.52568184749297,2590.858127679718,0.6312479138758715,-22108.97211996124,10.5,10499977891.02788,47.655,-122.3035,60.0,0.85
2026-01-20T23:00:52+00:00,SAT-64800,302.85542969511135,39.49024358162755,2591.4876922658236,0.648957807917551,-22729.247522078374,10.5,10499977270.752478,47.655,-122.3035,60.0,0.8666666666666667
2026-01-20T23:00:53+00:00,SAT-64800,303.05988437471615,39.454288746387036,2592.134919519587,0.6666538374301988,-23349.03732974192,10.5,10499976650.96267,47.655,-122.3035,60.0,0.8833333333333333
2026-01-20T23:00:54+00:00,SAT-64800,303.2639800575114,39.417819543456076,2592.7997956134504,0.6843356318158941,-23968.328563045063,10.5,10499976031.671436,47.655,-122.3035,60.0,0.9
2026-01-20T23:00:55+00:00,SAT-64800,303.46771131530915,39.38083820672977,2593.4823063502486,0.7020028292750167,-24587.10855023469,10.5,10499975412.891449,47.655,-122.3035,60.0,0.9166666666666666
2026-01-20T23:00:56+00:00,SAT-64800,303.67107278109614,39.343347001446304,2594.1824371719786,0.719655058135269,-25205.364273774772,10.5,10499974794.635727,47.655,-122.3035,60.0,0.9333333333333333
2026-01-20T23:00:57+00:00,SAT-64800,303.874059146503,39.30534822424969,2594.900173149959,0.7372919603400695,-25823.083193009246,10.5,10499974176.916807,47.655,-122.3035,60.0,0.95
2026-01-20T23:00:58+00:00,SAT-64800,304.0766651656333,39.26684420208569,2595.6354989984043,0.7549131734219973,-26440.25261279579,10.5,10499973559.747387,47.655,-122.3035,60.0,0.9666666666666667
2026-01-20T23:00:59+00:00,SAT-64800,304.27888565399826,39.22783729197844,2596.3883990700306,0.7725183362228055,-27056.859883844903,10.5,10499972943.140116,47.655,-122.3035,60.0,0.9833333333333333
2026-01-20T23:01:00+00:00,SAT-64800,304.48071548890033,39.18832988054185,2597.158857357357,0.7901070913196625,-27672.892487697125,10.5,10499972327.107512,47.655,-122.3035,60.0,1.0
2026-01-20T23:01:01+00:00,SAT-64800,304.6821496105338,39.148324383342036,2597.946857496433,0.8076790800949121,-28288.337864045185,10.5,10499971711.662136,47.655,-122.3035,60.0,1.0166666666666666
2026-01-20T23:01:02+00:00,SAT-64800,304.88318302164794,39.107823244530316,2598.752382765648,0.8252339514134175,-28903.1837146513,10.5,10499971096.816286,47.655,-122.3035,60.0,1.0333333333333334
2026-01-20T23:01:03+00:00,SAT-64800,305.0838107894509,39.06682893602516,2599.5754160931906,0.8427713446805478,-29517.417409966172,10.5,10499970482.58259,47.655,-122.3035,60.0,1.05
2026-01-20T23:01:04+00:00,SAT-64800,305.28402804334354,39.025343957521734,2600.4159400476187,0.8602909161532228,-30131.0269106531,10.5,10499969868.97309,47.655,-122.3035,60.0,1.0666666666666667
2026-01-20T23:01:05+00:00,SAT-64800,305.4838299788337,38.98337083524624,2601.273936854662,0.8777923107570947,-30743.999780506467,10.5,10499969256.00022,47.655,-122.3035,60.0,1.0833333333333333
2026-01-20T23:01:06+00:00,SAT-64800,305.6832118548756,38.94091212203833,2602.149388385924,0.8952751840243618,-31356.323954806758,10.5,10499968643.676044,47.655,-122.3035,60.0,1.1
2026-01-20T23:01:07+00:00,SAT-64800,305.88216899620414,38.89797039640086,2603.0422761694576,0.9127391828012386,-31967.98706461457,10.5,10499968032.012936,47.655,-122.3035,60.0,1.1166666666666667
2026-01-20T23:01:08+00:00,SAT-64800,306.08069679134735,38.85454826245377,2603.9525813811047,0.9301839702178095,-32578.977311320486,10.5,10499967421.022688,47.655,-122.3035,60.0,1.1333333333333333
2026-01-20T23:01:09+00:00,SAT-64800,306.2787906960524,38.81064834872243,2604.880284860735,0.9476091998633487,-33189.28256215558,10.5,10499966810.717438,47.655,-122.3035,60.0,1.15
2026-01-20T23:01:10+00:00,SAT-64800,306.47644623108863,38.76627330812577,2605.8253671027323,0.9650145334535641,-33798.89096897302,10.5,10499966201.109032,47.655,-122.3035,60.0,1.1666666666666667
2026-01-20T23:01:11+00:00,SAT-64800,306.6736589838003,38.72142581714705,2606.787808264097,0.9823996281266298,-34407.79052330134,10.5,10499965592.209476,47.655,-122.3035,60.0,1.1833333333333333
2026-01-20T23:01:12+00:00,SAT-64800,306.8704246070346,38.67610857558272,2607.7675881598816,0.9997641494510675,-35015.96951193552,10.5,10499964984.030489,47.655,-122.3035,60.0,1.2
2026-01-20T23:01:13+00:00,SAT-64800,307.06673882065354,38.630324305703226,2608.764686271601,1.017107766429441,-35623.41634194524,10.5,10499964376.583658,47.655,-122.3035,60.0,1.2166666666666666
2026-01-20T23:01:14+00:00,SAT-64800,307.2625974118976,38.58407575165629,2609.7790817506534,1.0344301399775209,-36230.119137166446,10.5,10499963769.880863,47.655,-122.3035,60.0,1.2333333333333334
2026-01-20T23:01:15+00:00,SAT-64800,307.4579962337144,38.53736567934767,2610.8107534102573,1.0517309421670098,-36836.06641216305,10.5,10499963163.933588,47.655,-122.3035,60.0,1.25
2026-01-20T23:01:16+00:00,SAT-64800,307.6529312065776,38.490196875505426,2611.859679736579,1.0690098432567905,-37441.24661800631,10.5,10499962558.753382,47.655,-122.3035,60.0,1.2666666666666666
2026-01-20T23:01:17+00:00,SAT-64800,307.84739831791626,38.44257214729114,2612.92583888692,1.0862665206858746,-38045.64845724599,10.5,10499961954.351543,47.655,-122.3035,60.0,1.2833333333333334
2026-01-20T23:01:18+00:00,SAT-64800,308.0413936230703,38.39449432154458,2614.009208696884,1.1035006442913224,-38649.26036617935,10.5,10499961350.739634,47.655,-122.3035,60.0,1.3
2026-01-20T23:01:19+00:00,SAT-64800,308.2349132436997,38.345966244640195,2615.1097666727906,1.1207118976692283,-39252.071263003214,10.5,10499960747.928738,47.655,-122.3035,60.0,1.3166666666666667
2026-01-20T23:01:20+00:00,SAT-64800,308.42795336983266,38.29699078145339,2616.2274900053994,1.13789995491096,-39854.06973301871,10.5,10499960145.930267,47.655,-122.3035,60.0,1.3333333333333333
2026-01-20T23:01:21+00:00,SAT-64800,308.62051025793176,38.24757081529982,2617.362355560431,1.1550645031117057,-40455.24481697572,10.5,10499959544.755182,47.655,-122.3035,60.0,1.35
2026-01-20T23:01:22+00:00,SAT-64800,308.8125802327117,38.197709246938665,2618.5143398915343,1.172205223597341,-41055.585353558425,10.5,10499958944.414646,47.655,-122.3035,60.0,1.3666666666666667
2026-01-20T23:01:23+00:00,SAT-64800,309.0041596858321,38.14740899435633,2619.683419234535,1.1893218051305219,-41655.080441918515,10.5,10499958344.919558,47.655,-122.3035,60.0,1.3833333333333333
2026-01-20T23:01:24+00:00,SAT-64800,309.1952450767035,38.096672992009516,2620.869569514852,1.206413933404766,-42253.71907371347,10.5,10499957746.280926,47.655,-122.3035,60.0,1.4
2026-01-20T23:01:25+00:00,SAT-64800,309.3858329316212,38.04550419049598,2622.0727663444345,1.223481303868361,-42851.490582254046,10.5,10499957148.509418,47.655,-122.3035,60.0,1.4166666666666667
2026-01-20T23:01:26+00:00,SAT-64800,309.57591984486015,37.993905555711166,2623.2929850314927,1.240523606896036,-43448.38412315355,10.5,10499956551.615877,47.655,-122.3035,60.0,1.4333333333333333
2026-01-20T23:01:27+00:00,SAT-64800,309.76550247745257,37.941880068604775,2624.530200575437,1.2575405404217812,-44044.38911678259,10.5,10499955955.610884,47.655,-122.3035,60.0,1.45
2026-01-20T23:01:28+00:00,SAT-64800,309.9545775579134,37.88943072442922,2625.7843876744173,1.2745318016030271,-44639.49495631336,10.5,10499955360.505043,47.655,-122.3035,60.0,1.4666666666666666
2026-01-20T23:01:29+00:00,SAT-64800,310.14314188163246,37.836560532328924,2627.0555207245493,1.2914970899843126,-45233.69111852468,10.5,10499954766.308882,47.655,-122.3035,60.0,1.4833333333333334
2026-01-20T23:01:30+00:00,SAT-64800,310.3311923107713,37.78327251480452,2628.343573822294,1.3084361095098347,-45826.967234290016,10.5,10499954173.032766,47.655,-122.3035,60.0,1.5
2026-01-20T23:01:31+00:00,SAT-64800,310.5187257744094,37.72956970709545,2629.648520768845,1.325348564517153,-46419.31294826004,10.5,10499953580.687052,47.655,-122.3035,60.0,1.5166666666666666
2026-01-20T23:01:32+00:00,SAT-64800,310.7057392680898,37.675455156732866,2630.9703350705236,1.3422341686147714,-47010.71822979316,10.5,10499952989.28177,47.655,-122.3035,60.0,1.5333333333333334
2026-01-20T23:01:33+00:00,SAT-64800,310.89222985455973,37.62093192274154,2632.308989948022,1.3590926216745225,-47601.172567131376,10.5,10499952398.827433,47.655,-122.3035,60.0,1.55
2026-01-20T23:01:34+00:00,SAT-64800,311.0781946614001,37.56600307574721,2633.6644583227053,1.3759236468690983,-48190.66626461141,10.5,10499951809.333735,47.655,-122.3035,60.0,1.5666666666666667
2026-01-20T23:01:35+00:00,SAT-64800,311.2636308836139,37.51067169663703,2635.0367128398493,1.3927269513073808,-48779.189063947364,10.5,10499951220.810936,47.655,-122.3035,60.0,1.5833333333333333
2026-01-20T23:01:36+00:00,SAT-64800,311.44853578092204,37.4549408767671,2636.42572585262,1.4095022586128532,-49366.73128526455,10.5,10499950633.268715,47.655,-122.3035,60.0,1.6
2026-01-20T23:01:37+00:00,SAT-64800,311.63290667936906,37.398813716896,2637.831469438543,1.4262492854717983,-49953.28300571818,10.5,10499950046.716993,47.655,-122.3035,60.0,1.6166666666666667
2026-01-20T23:01:38+00:00,SAT-64800,311.8167409698418,37.34229332703948,2639.253915392587,1.4429677583379752,-50538.83464456181,10.5,10499949461.165356,47.655,-122.3035,60.0,1.6333333333333333
2026-01-20T23:01:39+00:00,SAT-64800,312.000036108714,37.28538282567994,2640.6930352369027,1.4596573952419087,-51123.37632603166,10.5,10499948876.623674,47.655,-122.3035,60.0,1.65
2026-01-20T23:01:40+00:00,SAT-64800,312.1827896161853,37.228085339681684,2642.1488002124242,1.4763179326594515,-51706.898820397415,10.5,10499948293.10118,47.655,-122.3035,60.0,1.6666666666666667
2026-01-20T23:01:41+00:00,SAT-64800,312.36499907797156,37.1704040031769,2643.6211812972633,1.4929490975317457,-52289.39256398281,10.5,10499947710.607435,47.655,-122.3035,60.0,1.6833333333333333
2026-01-20T23:01:42+00:00,SAT-64800,312.5466621434692,37.112341957533225,2645.1101491972013,1.5095506201734952,-52870.848111268024,10.5,10499947129.151888,47.655,-122.3035,60.0,1.7
2026-01-20T23:01:43+00:00,SAT-64800,312.72777652556357,37.053902350818376,2646.615674349054,1.5261222402735186,-53451.25634505437,10.5,10499946548.743654,47.655,-122.3035,60.0,1.7166666666666666
2026-01-20T23:01:44+00:00,SAT-64800,312.90834000108237,36.995088337062384,2648.1377269300206,1.5426637001308512,-54030.608239563975,10.5,10499945969.39176,47.655,-122.3035,60.0,1.7333333333333334
2026-01-20T23:01:45+00:00,SAT-64800,313.08835041041056,36.93590307576737,2649.6762768602844,1.5591747262363513,-54608.89421534976,10.5,10499945391.105785,47.655,-122.3035,60.0,1.75
2026-01-20T23:01:46+00:00,SAT-64800,313.2678056550397,36.87634973211045,2651.2312937872507,1.5756550751908667,-55186.10574754386,10.5,10499944813.894253,47.655,-122.3035,60.0,1.7666666666666666
2026-01-20T23:01:47+00:00,SAT-64800,313.4467037003399,36.81643147543866,2652.802747115574,1.5921044936193993,-55762.23396188203,10.5,10499944237.766039,47.655,-122.3035,60.0,1.7833333333333334
2026-01-20T23:01:48+00:00,SAT-64800,313.62504257368687,36.756151479274145,2654.390605997211,1.6085227207055963,-56337.26972347237,10.5,10499943662.730276,47.655,-122.3035,60.0,1.8
2026-01-20T23:01:49+00:00,SAT-64800,313.8028203629931,36.69551292120249,2655.9948393239947,1.624909514952572,-56911.2045740724,10.5,10499943088.795425,47.655,-122.3035,60.0,1.8166666666666667
2026-01-20T23:01:50+00:00,SAT-64800,313.9800352181238,36.634518981803126,2657.6154157469073,1.641264629040767,-57484.02985150498,10.5,10499942515.970148,47.655,-122.3035,60.0,1.8333333333333333
2026-01-20T23:01:51+00:00,SAT-64800,314.15668534955154,36.57317284449269,2659.252303670271,1.6575878246740627,-58055.73720963207,10.5,10499941944.26279,47.655,-122.3035,60.0,1.85
2026-01-20T23:01:52+00:00,SAT-64800,314.3327690285596,36.5114776948536,2660.9054712607453,1.6738788496865158,-58626.31781653565,10.5,10499941373.682184,47.655,-122.3035,60.0,1.8666666666666667
2026-01-20T23:01:53+00:00,SAT-64800,314.50828458513377,36.44943672075943,2662.5748864334996,1.6901374781276834,-59195.763758475456,10.5,10499940804.236242,47.655,-122.3035,60.0,1.8833333333333333
2026-01-20T23:01:54+00:00,SAT-64800,314.68323040992163,36.387053111098446,2664.260516878352,1.7063634662126732,-59764.066497073356,10.5,10499940235.933502,47.655,-122.3035,60.0,1.9
2026-01-20T23:01:55+00:00,SAT-64800,314.85760495167654,36.32433005605718,2665.9623300419885,1.7225565967024383,-60331.21842369898,10.5,10499939668.781576,47.655,-122.3035,60.0,1.9166666666666667
2026-01-20T23:01:56+00:00,SAT-64800,315.0314067191717,36.26127074584643,2667.680293154433,1.7387166162250287,-60897.2106641949,10.5,10499939102.789335,47.655,-122.3035,60.0,1.9333333333333333
2026-01-20T23:01:57+00:00,SAT-64800,315.2046342768963,36.19787837163527,2669.414373193015,1.754843320647368,-61462.03606895729,10.5,10499938537.96393,47.655,-122.3035,60.0,1.95
2026-01-20T23:01:58+00:00,SAT-64800,315.377286249127,36.13415612349199,2671.164536931474,1.7709364753884245,-62025.68642196615,10.5,10499937974.313578,47.655,-122.3035,60.0,1.9666666666666666
2026-01-20T23:01:59+00:00,SAT-64800,315.54936131621076,36.07010719112439,2672.9307509095943,1.7869958592302977,-62588.15397523485,10.5,10499937411.846025,47.655,-122.3035,60.0,1.9833333333333334
2026-01-20T23:02:00+00:00,SAT-64800,315.7208582151043,36.005734763093756,2674.7129814465334,1.803021255197705,-63149.43112937118,10.5,10499936850.56887,47.655,-122.3035,60.0,2.0
2026-01-20T23:02:01+00:00,SAT-64800,315.89177573900184,35.94104202635072,2676.5111946450506,1.8190124476956901,-63709.51033332782,10.5,10499936290.489666,47.655,-122.3035,60.0,2.0166666666666666
2026-01-20T23:02:02+00:00,SAT-64800,316.06211273670226,35.87603216588089,2678.3253563928856,1.8349692252291034,-64268.38417965,10.5,10499935731.61582,47.655,-122.3035,60.0,2.033333333333333
2026-01-20T23:02:03+00:00,SAT-64800,316.2318681122085,35.81070836425494,2680.1554323668474,1.850891376183366,-64826.04525670003,10.5,10499935173.954742,47.655,-122.3035,60.0,2.05
2026-01-20T23:02:04+00:00,SAT-64800,316.401040823946,35.745073801337604,2682.001388032694,1.8667786898978258,-65382.4861862508,10.5,10499934617.513813,47.655,-122.3035,60.0,2.066666666666667
2026-01-20T23:02:05+00:00,SAT-64800,316.5696298840744,35.6791316539571,2683.863188646086,1.8826309681698221,-65937.70002640672,10.5,10499934062.299974,47.655,-122.3035,60.0,2.0833333333333335
2026-01-20T23:02:06+00:00,SAT-64800,316.7376343588235,35.612885095192865,2685.740799265007,1.898448005868136,-66491.67959260478,10.5,10499933508.320408,47.655,-122.3035,60.0,2.1
2026-01-20T23:02:07+00:00,SAT-64800,316.90505336708713,35.54633729432677,2687.6341847428594,1.9142295990843217,-67044.41774310873,10.5,10499932955.582256,47.655,-122.3035,60.0,2.1166666666666667
2026-01-20T23:02:08+00:00,SAT-64800,317.0718860797615,35.47949141652542,2689.54330972968,1.9299755628975357,-67595.90800120837,10.5,10499932404.092,47.655,-122.3035,60.0,2.1333333333333333
2026-01-20T23:02:09+00:00,SAT-64800,317.2381317205808,35.41235062192294,2691.468138691076,1.9456856940396916,-68146.14324759551,10.5,10499931853.856752,47.655,-122.3035,60.0,2.15
2026-01-20T23:02:10+00:00,SAT-64800,317.40378956376486,35.34491806597689,2693.408635889932,1.9613598065867166,-68695.11697042266,10.5,10499931304.88303,47.655,-122.3035,60.0,2.1666666666666665
2026-01-20T23:02:11+00:00,SAT-64800,317.5688589347002,35.27719689861734,2695.364765403701,1.9769977093661562,-69242.82247402181,10.5,10499930757.177526,47.655,-122.3035,60.0,2.183333333333333
2026-01-20T23:02:12+00:00,SAT-64800,317.7333392087099,35.209190264172406,2697.3364911191757,1.992599220415004,-69789.25338527877,10.5,10499930210.746614,47.655,-122.3035,60.0,2.2
2026-01-20T23:02:13+00:00,SAT-64800,317.89722981101926,35.140901300804614,2699.3237767416695,2.0081641505799612,-70334.40307924489,10.5,10499929665.59692,47.655,-122.3035,60.0,2.216666666666667
2026-01-20T23:02:14+00:00,SAT-64800,318.0605302153888,35.07233314050773,2701.3265857878478,2.0236923338922055,-70878.26574298997,10.5,10499929121.734257,47.655,-122.3035,60.0,2.2333333333333334
2026-01-20T23:02:15+00:00,SAT-64800,318.22323994517546,35.003488908097,2703.34488160885,2.0391835780200327,-71420.83464024417,10.5,10499928579.16536,47.655,-122.3035,60.0,2.25
2026-01-20T23:02:16+00:00,SAT-64800,318.38535857043973,34.93437172184624,2705.3786273639953,2.054637719199277,-71962.10403529367,10.5,10499928037.895966,47.655,-122.3035,60.0,2.2666666666666666
2026-01-20T23:02:17+00:00,SAT-64800,318.5468857094212,34.8649846923162,2707.4277860492766,2.0700545828655974,-72502.06781415685,10.5,10499927497.932186,47.655,-122.3035,60.0,2.283333333333333
2026-01-20T23:02:18+00:00,SAT-64800,318.707821026883,34.79533092248991,2709.4923204865877,2.0854339928456262,-73040.71980649717,10.5,10499926959.280193,47.655,-122.3035,60.0,2.3
2026-01-20T23:02:19+00:00,SAT-64800,318.8681642332404,34.72541350759311,2711.572193322119,2.100775803443429,-73578.05490942673,10.5,10499926421.945091,47.655,-122.3035,60.0,2.316666666666667
2026-01-20T23:02:20+00:00,SAT-64800,319.0279150860428,34.65523553390742,2713.6673670567534,2.1160798298713153,-74114.0666508989,10.5,10499925885.93335,47.655,-122.3035,60.0,2.3333333333333335
2026-01-20T23:02:21+00:00,SAT-64800,319.1870733862584,34.58480007981705,2715.7778040070784,2.131345922675572,-74648.74979641252,10.5,10499925351.250204,47.655,-122.3035,60.0,2.35
2026-01-20T23:02:22+00:00,SAT-64800,319.3456389801457,34.51411021446723,2717.9034663406264,2.1465739242704633,-75182.0988266485,10.5,10499924817.901173,47.655,-122.3035,60.0,2.3666666666666667
2026-01-20T23:02:23+00:00,SAT-64800,319.5036117578429,34.44316899782914,2720.044316067766,2.1617636764517494,-75714.10820062514,10.5,10499924285.8918,47.655,-122.3035,60.0,2.3833333333333333
2026-01-20T23:02:24+00:00,SAT-64800,319.66099165253553,34.3719794805318,2722.2003150410806,2.1769150267961894,-76244.77257983584,10.5,10499923755.22742,47.655,-122.3035,60.0,2.4
2026-01-20T23:02:25+00:00,SAT-64800,319.8177786401273,34.30054470348022,2724.3714249611385,2.192027835627204,-76774.08707221595,10.5,10499923225.912928,47.655,-122.3035,60.0,2.4166666666666665
2026-01-20T23:02:26+00:00,SAT-64800,319.9739727393321,34.228867697279185,2726.557607389204,2.207101939226369,-77302.04594365369,10.5,10499922697.954056,47.655,-122.3035,60.0,2.433333333333333
2026-01-20T23:02:27+00:00,SAT-64800,320.1295740092242,34.15695148281014,2728.758823723259,2.222137208988671,-77828.64468985755,10.5,10499922171.35531,47.655,-122.3035,60.0,2.45
2026-01-20T23:02:28+00:00,SAT-64800,320.2845825509202,34.084799069955885,2730.9750352330234,2.237133499780267,-78353.8782276264,10.5,10499921646.121773,47.655,-122.3035,60.0,2.466666666666667
2026-01-20T23:02:29+00:00,SAT-64800,320.43899850564947,34.01241345795041,2733.2062030434713,2.2520906678715242,-78877.74152294053,10.5,10499921122.258476,47.655,-122.3035,60.0,2.4833333333333334
2026-01-20T23:02:30+00:00,SAT-64800,320.5928220540831,33.9397976351834,2735.4522881362286,2.267008576887257,-79400.22979936408,10.5,10499920599.7702,47.655,-122.3035,60.0,2.5
2026-01-20T23:02:31+00:00,SAT-64800,320.7460534161087,33.866954578796,2737.713251356911,2.281887103768658,-79921.33874685703,10.5,10499920078.661253,47.655,-122.3035,60.0,2.5166666666666666
2026-01-20T23:02:32+00:00,SAT-64800,320.898692850924,33.79388725413052,2739.9890534284027,2.2967261162098564,-80441.0637315082,10.5,10499919558.936268,47.655,-122.3035,60.0,2.533333333333333
2026-01-20T23:02:33+00:00,SAT-64800,321.05074065565947,33.720598614867086,2742.279654941636,2.311525472854098,-80959.39980240607,10.5,10499919040.600197,47.655,-122.3035,60.0,2.55
2026-01-20T23:02:34+00:00,SAT-64800,321.20219716405217,33.647091603163624,2744.5850163465625,2.3262850621359625,-81476.34305205772,10.5,10499918523.656948,47.655,-122.3035,60.0,2.566666666666667
2026-01-20T23:02:35+00:00,SAT-64800,321.35306274764963,33.573369148592825,2746.9050979818658,2.341004758293928,-81991.88907576268,10.5,10499918008.110924,47.655,-122.3035,60.0,2.5833333333333335
2026-01-20T23:02:36+00:00,SAT-64800,321.503337814104,33.499434168463615,2749.2398600608044,2.3556844470425813,-82506.03387076236,10.5,10499917493.96613,47.655,-122.3035,60.0,2.6
2026-01-20T23:02:37+00:00,SAT-64800,321.6530228071995,33.42528956732464,2751.589262682655,2.3703239998043544,-83018.77293372645,10.5,10499916981.227066,47.655,-122.3035,60.0,2.6166666666666667
2026-01-20T23:02:38+00:00,SAT-64800,321.80211820518736,33.350938237297534,2753.95326581846,2.3849233034764628,-83530.10230331698,10.5,10499916469.897697,47.655,-122.3035,60.0,2.6333333333333333
2026-01-20T23:02:39+00:00,SAT-64800,321.950624521067,33.27638305746805,2756.3318293264606,2.3994822591019105,-84040.01851364141,10.5,10499915959.981487,47.655,-122.3035,60.0,2.65
2026-01-20T23:02:40+00:00,SAT-64800,322.0985423026765,33.20162689336743,2758.724912966205,2.4140007424966887,-84548.51721525041,10.5,10499915451.482784,47.655,-122.3035,60.0,2.6666666666666665
2026-01-20T23:02:41+00:00,SAT-64800,322.24587213047323,33.12667259760719,2761.132476373388,2.4284786600934725,-85055.59513102048,10.5,10499914944.40487,47.655,-122.3035,60.0,2.683333333333333
2026-01-20T23:02:42+00:00,SAT-64800,322.3926146186179,33.05152300887508,2763.5544790903878,2.4429158950042567,-85561.24816703924,10.5,10499914438.751833,47.655,-122.3035,60.0,2.7
2026-01-20T23:02:43+00:00,SAT-64800,322.5387704129135,32.976180952519506,2765.9908805430055,2.457312351795023,-86065.47298080375,10.5,10499913934.52702,47.655,-122.3035,60.0,2.716666666666667
2026-01-20T23:02:44+00:00,SAT-64800,322.68434019136345,32.90064923981584,2768.4416400618625,2.471667944771281,-86568.26657093038,10.5,10499913431.733429,47.655,-122.3035,60.0,2.7333333333333334
2026-01-20T23:02:45+00:00,SAT-64800,322.8293246639996,32.82493066760245,2770.906716892114,2.4859825476226303,-87069.62451349465,10.5,10499912930.375486,47.655,-122.3035,60.0,2.75
2026-01-20T23:02:46+00:00,SAT-64800,322.97372456986113,32.749028019386,2773.3860701529434,2.5002560921541086,-87569.54442002054,10.5,10499912430.45558,47.655,-122.3035,60.0,2.7666666666666666
2026-01-20T23:02:47+00:00,SAT-64800,323.1175406796533,32.67294406354714,2775.8796588955183,2.5144884762938413,-88068.0227155192,10.5,10499911931.977285,47.655,-122.3035,60.0,2.783333333333333
2026-01-20T23:02:48+00:00,SAT-64800,323.2607737931084,32.59668155426309,2778.3874420692086,2.5286796137821956,-88565.05637881342,10.5,10499911434.94362,47.655,-122.3035,60.0,2.8
2026-01-20T23:02:49+00:00,SAT-64800,323.4034247391934,32.52024323097655,2780.909378537354,2.542829420101208,-89060.6424497266,10.5,10499910939.35755,47.655,-122.3035,60.0,2.816666666666667
2026-01-20T23:02:50+00:00,SAT-64800,323.5454943755575,32.44363181826647,2783.445427079002,2.5569378074228784,-89554.77785215071,10.5,10499910445.222147,47.655,-122.3035,60.0,2.8333333333333335
2026-01-20T23:02:51+00:00,SAT-64800,323.6869835876578,32.366850025892,2785.995546385605,2.5710046986736463,-90047.45988664361,10.5,10499909952.540113,47.655,-122.3035,60.0,2.85
2026-01-20T23:02:52+00:00,SAT-64800,323.8278932886905,32.289900548413385,2788.5596950717486,2.585030013018109,-90538.68572200753,10.5,10499909461.314278,47.655,-122.3035,60.0,2.8666666666666667
2026-01-20T23:02:53+00:00,SAT-64800,323.968224418729,32.212786065252274,2791.1378316713985,2.5990136694119834,-91028.45251972892,10.5,10499908971.54748,47.655,-122.3035,60.0,2.8833333333333333
2026-01-20T23:02:54+00:00,SAT-64800,324.1079779440647,32.135509240639635,2793.729914637692,2.612955600774327,-91516.75793034938,10.5,10499908483.24207,47.655,-122.3035,60.0,2.9
2026-01-20T23:02:55+00:00,SAT-64800,324.2471548573045,32.05807272317269,2796.3359023568646,2.6268557354446274,-92003.59944401466,10.5,10499907996.400557,47.655,-122.3035,60.0,2.9166666666666665
2026-01-20T23:02:56+00:00,SAT-64800,324.38575617648263,31.980479145899093,2798.9557531436812,2.640714002270592,-92488.9745686705,10.5,10499907511.02543,47.655,-122.3035,60.0,2.933333333333333
2026-01-20T23:02:57+00:00,SAT-64800,324.52378294444594,31.902731126268993,2801.5894252419457,2.6545303274770062,-92972.8807203968,10.5,10499907027.11928,47.655,-122.3035,60.0,2.95
2026-01-20T23:02:58+00:00,SAT-64800,324.66123622811466,31.824831266166022,2804.236876821883,2.668304662869899,-93455.31621123683,10.5,10499906544.683788,47.655,-122.3035,60.0,2.966666666666667
2026-01-20T23:02:59+00:00,SAT-64800,324.798117119152,31.746782151156562,2806.898066005652,2.682036934849391,-93936.27846341152,10.5,10499906063.721537,47.655,-122.3035,60.0,2.9833333333333334
2026-01-20T23:03:00+00:00,SAT-64800,324.93442673205607,31.66858635117614,2809.5729508420086,2.6957270841016596,-94415.7653994999,10.5,10499905584.2346,47.655,-122.3035,60.0,3.0
2026-01-20T23:03:01+00:00,SAT-64800,325.07016620427703,31.590246420108755,2812.2614893205523,2.7093750552581963,-94893.77508026257,10.5,10499905106.22492,47.655,-122.3035,60.0,3.0166666666666666
2026-01-20T23:03:02+00:00,SAT-64800,325.205336695817,31.51176489564389,2814.963639375663,2.7229807982659597,-95370.3057526303,10.5,10499904629.694248,47.655,-122.3035,60.0,3.033333333333333
2026-01-20T23:03:03+00:00,SAT-64800,325.33993938888403,31.43314429912153,2817.6793588918003,2.7365442462666065,-95845.35507494111,10.5,10499904154.644924,47.655,-122.3035,60.0,3.05
2026-01-20T23:03:04+00:00,SAT-64800,325.47397548648325,31.354387135980815,2820.4086056867436,2.7500653606024,-96318.92169323754,10.5,10499903681.078306,47.655,-122.3035,60.0,3.066666666666667
2026-01-20T23:03:05+00:00,SAT-64800,325.60744621321453,31.27549589496597,2823.151337539718,2.7635441000521443,-96791.0041637789,10.5,10499903208.995836,47.655,-122.3035,60.0,3.0833333333333335
2026-01-20T23:03:06+00:00,SAT-64800,325.7403528145502,31.19647304818946,2825.9075121888363,2.7769804050504465,-97261.60040033326,10.5,10499902738.3996,47.655,-122.3035,60.0,3.1
2026-01-20T23:03:07+00:00,SAT-64800,325.87269655537625,31.117321051646556,2828.677087312807,2.7903742291678757,-97730.70877674547,10.5,10499902269.291224,47.655,-122.3035,60.0,3.1166666666666667
2026-01-20T23:03:08+00:00,SAT-64800,326.00447872009033,31.038042344836715,2831.46002054403,2.8037255454459142,-98198.32834881422,10.5,10499901801.671652,47.655,-122.3035,60.0,3.1333333333333333
2026-01-20T23:03:09+00:00,SAT-64800,326.1357006129332,30.95863935023984,2834.2562694880216,2.8170343098005626,-98664.45757253142,10.5,10499901335.542427,47.655,-122.3035,60.0,3.15
2026-01-20T23:03:10+00:00,SAT-64800,326.26636355662856,30.87911447378943,2837.065791706329,2.8303004733024535,-99129.09473418361,10.5,10499900870.905266,47.655,-122.3035,60.0,3.1666666666666665
2026-01-20T23:03:11+00:00,SAT-64800,326.3964688916372,30.799470105016773,2839.888544711703,2.843524020262844,-99592.23928428466,10.5,10499900407.760715,47.655,-122.3035,60.0,3.183333333333333
2026-01-20T23:03:12+00:00,SAT-64800,326.52601797711947,30.719708616151888,2842.724486001245,2.8567049035799252,-100053.88957312999,10.5,10499899946.110426,47.655,-122.3035,60.0,3.2
2026-01-20T23:03:13+00:00,SAT-64800,326.6550121889856,30.639832362998117,2845.573573025082,2.869843094993629,-100514.04461093248,10.5,10499899485.955389,47.655,-122.3035,60.0,3.216666666666667
2026-01-20T23:03:14+00:00,SAT-64800,326.7834529202193,30.559843684434693,2848.4357632051556,2.882938578626153,-100972.70384158431,10.5,10499899027.296158,47.655,-122.3035,60.0,3.2333333333333334
2026-01-20T23:03:15+00:00,SAT-64800,326.9113415808867,30.479744902109978,2851.3110139475725,2.895991305560328,-101429.86555179933,10.5,10499898570.134449,47.655,-122.3035,60.0,3.25
2026-01-20T23:03:16+00:00,SAT-64800,327.0386795962,30.399538321344025,2854.199282609651,2.9090012740219597,-101885.52967943769,10.5,10499898114.47032,47.655,-122.3035,60.0,3.2666666666666666
2026-01-20T23:03:17+00:00,SAT-64800,327.16546840805,30.319226229898344,2857.1005265469425,2.921968449406872,-102339.69501251481,10.5,10499897660.304987,47.655,-122.3035,60.0,3.283333333333333
2026-01-20T23:03:18+00:00,SAT-64800,327.2917094730739,30.238810898881084,2860.014703080484,2.9348928041039923,-102792.36058397412,10.5,10499897207.639416,47.655,-122.3035,60.0,3.3
2026-01-20T23:03:19+00:00,SAT-64800,327.4174042624904,30.158294582591576,2862.9417695037773,2.947774344905679,-103243.52663171275,10.5,10499896756.473368,47.655,-122.3035,60.0,3.316666666666667
2026-01-20T23:03:20+00:00,SAT-64800,327.54255426305133,30.077679517637126,2865.881683117096,2.9606130309434375,-103693.19172434315,10.5,10499896306.808275,47.655,-122.3035,60.0,3.3333333333333335
