satellites_20260121_005943/SAT-56320.csv

timestamp,satellite,azimuth_deg,elevation_deg,distance_km,relative_velocity_kms,doppler_shift_hz,tx_freq_ghz,rx_freq_hz,ue_lat,ue_lon,ue_alt_m,time_minutes
2026-01-20T23:08:11+00:00,SAT-56320,347.27659851651777,30.021475019367113,2222.0379153811514,0.3395555231355098,-11892.670738644309,10.5,10499988107.329262,47.655,-122.3035,60.0,8.183333333333334
2026-01-20T23:08:12+00:00,SAT-56320,347.08758710077507,30.136678694424578,2222.3765654228923,0.3633367602278408,-12725.590256150901,10.5,10499987274.409744,47.655,-122.3035,60.0,8.2
2026-01-20T23:08:13+00:00,SAT-56320,346.89805989745093,30.25141871672021,2222.7389332850926,0.38710633342390277,-13558.101254671921,10.5,10499986441.898745,47.655,-122.3035,60.0,8.216666666666667
2026-01-20T23:08:14+00:00,SAT-56320,346.7080197675518,30.365690570331342,2223.1250073349606,0.4108634632375605,-14390.176433305687,10.5,10499985609.823566,47.655,-122.3035,60.0,8.233333333333333
2026-01-20T23:08:15+00:00,SAT-56320,346.5174696350787,30.479489768837787,2223.5347751622962,0.4346073667374564,-15221.788370484264,10.5,10499984778.21163,47.655,-122.3035,60.0,8.25
2026-01-20T23:08:16+00:00,SAT-56320,346.32641248826917,30.59281185548705,2223.968223576056,0.4583372647733885,-16052.909777071774,10.5,10499983947.090223,47.655,-122.3035,60.0,8.266666666666667
2026-01-20T23:08:17+00:00,SAT-56320,346.13485137976124,30.705652403952016,2224.4253386081227,0.4820523838585015,-16883.5135622867,10.5,10499983116.486437,47.655,-122.3035,60.0,8.283333333333333
2026-01-20T23:08:18+00:00,SAT-56320,345.9427894253105,30.818007019952592,2224.906105518958,0.5057519490105036,-17713.57258297101,10.5,10499982286.427418,47.655,-122.3035,60.0,8.3
2026-01-20T23:08:19+00:00,SAT-56320,345.7502298053282,30.929871341186704,2225.4105087961043,0.5294351887919357,-18543.05982012171,10.5,10499981456.94018,47.655,-122.3035,60.0,8.316666666666666
2026-01-20T23:08:20+00:00,SAT-56320,345.557175764495,31.041241038380075,2225.938532157726,0.5531013324298363,-19371.948278009317,10.5,10499980628.051722,47.655,-122.3035,60.0,8.333333333333334
2026-01-20T23:08:21+00:00,SAT-56320,345.3636306123402,31.15211181577762,2226.49015855327,0.5767496164589355,-20200.211216850636,10.5,10499979799.788784,47.655,-122.3035,60.0,8.35
2026-01-20T23:08:22+00:00,SAT-56320,345.16959772219315,31.262479412526275,2227.065370170751,0.6003792805585738,-21027.822007000002,10.5,10499978972.177994,47.655,-122.3035,60.0,8.366666666666667
2026-01-20T23:08:23+00:00,SAT-56320,344.9750805313938,31.372339603316576,2227.6641484398947,0.6239895576696054,-21854.75378280149,10.5,10499978145.246218,47.655,-122.3035,60.0,8.383333333333333
2026-01-20T23:08:24+00:00,SAT-56320,344.78008254322043,31.481688198084527,2228.286474025411,0.6475796959393283,-22680.980211193128,10.5,10499977319.019789,47.655,-122.3035,60.0,8.4
2026-01-20T23:08:25+00:00,SAT-56320,344.58460732438294,31.590521044150634,2228.932326842161,0.671148939841628,-23506.47483045452,10.5,10499976493.52517,47.655,-122.3035,60.0,8.416666666666666
2026-01-20T23:08:26+00:00,SAT-56320,344.3886585064291,31.69883402616032,2229.6016860514965,0.6946965399083697,-24331.21139104134,10.5,10499975668.788609,47.655,-122.3035,60.0,8.433333333333334
2026-01-20T23:08:27+00:00,SAT-56320,344.1922397852678,31.806623067062045,2230.294530067298,0.7182217452593298,-25155.163593951933,10.5,10499974844.836407,47.655,-122.3035,60.0,8.45
2026-01-20T23:08:28+00:00,SAT-56320,343.9953549219046,31.91388412840461,2231.0108365545702,0.7417238183588656,-25978.305607568316,10.5,10499974021.694393,47.655,-122.3035,60.0,8.466666666666667
2026-01-20T23:08:29+00:00,SAT-56320,343.7980077406504,32.02061321197734,2231.750582442747,0.7652020124913604,-26800.611278750996,10.5,10499973199.388721,47.655,-122.3035,60.0,8.483333333333333
2026-01-20T23:08:30+00:00,SAT-56320,343.60020213142127,32.12680635923033,2232.5137439165383,0.7886555987230449,-27622.055077155983,10.5,10499972377.944923,47.655,-122.3035,60.0,8.5
2026-01-20T23:08:31+00:00,SAT-56320,343.4019420469343,32.232459653422985,2233.3002964336647,0.8120838350736403,-28442.61101549534,10.5,10499971557.388985,47.655,-122.3035,60.0,8.516666666666667
2026-01-20T23:08:32+00:00,SAT-56320,343.20323150579424,32.3375692186037,2234.110214711845,0.8354860030413505,-29262.253928796905,10.5,10499970737.74607,47.655,-122.3035,60.0,8.533333333333333
2026-01-20T23:08:33+00:00,SAT-56320,343.00407458882194,32.44213122214199,2234.943472752211,0.8588613713187656,-30080.958203581755,10.5,10499969919.041796,47.655,-122.3035,60.0,8.55
2026-01-20T23:08:34+00:00,SAT-56320,342.8044754417955,32.54614187389128,2235.80004382654,0.882209221024958,-30898.698661598948,10.5,10499969101.301338,47.655,-122.3035,60.0,8.566666666666666
2026-01-20T23:08:35+00:00,SAT-56320,342.60443827399666,32.64959742750284,2236.6799004896425,0.9055288375071334,-31715.450272684648,10.5,10499968284.549726,47.655,-122.3035,60.0,8.583333333333334
2026-01-20T23:08:36+00:00,SAT-56320,342.4039673578314,32.75249418117088,2237.5830145835826,0.9288195092471979,-32531.188116465484,10.5,10499967468.811884,47.655,-122.3035,60.0,8.6
2026-01-20T23:08:37+00:00,SAT-56320,342.2030670289605,32.85482847809492,2238.509357240805,0.9520805258182051,-33345.887310784696,10.5,10499966654.11269,47.655,-122.3035,60.0,8.616666666666667
2026-01-20T23:08:38+00:00,SAT-56320,342.0017416865296,32.95659670686981,2239.458898885221,0.9753111875804275,-34159.52335129955,10.5,10499965840.476648,47.655,-122.3035,60.0,8.633333333333333
2026-01-20T23:08:39+00:00,SAT-56320,341.79999579195623,33.05779530259019,2240.431609242968,0.9985107961834907,-34972.07177882591,10.5,10499965027.92822,47.655,-122.3035,60.0,8.65
2026-01-20T23:08:40+00:00,SAT-56320,341.5978338691218,33.15842074721961,2241.427457343695,1.0216786544898873,-35783.50817665939,10.5,10499964216.491823,47.655,-122.3035,60.0,8.666666666666666
2026-01-20T23:08:41+00:00,SAT-56320,341.3952605047411,33.25846956985785,2242.446411521773,1.044814080295131,-36593.80865111315,10.5,10499963406.191349,47.655,-122.3035,60.0,8.683333333333334
2026-01-20T23:08:42+00:00,SAT-56320,341.1922803462259,33.35793834823307,2243.488439431187,1.0679163858490412,-37402.94911426669,10.5,10499962597.050886,47.655,-122.3035,60.0,8.7
2026-01-20T23:08:43+00:00,SAT-56320,340.98889810333105,33.45682370828173,2244.5535080400073,1.0909848882262227,-38210.905647183885,10.5,10499961789.094353,47.655,-122.3035,60.0,8.716666666666667
2026-01-20T23:08:44+00:00,SAT-56320,340.7851185474449,33.555122324914365,2245.6415836351985,1.1140189239559315,-39017.655012312825,10.5,10499960982.344988,47.655,-122.3035,60.0,8.733333333333333
2026-01-20T23:08:45+00:00,SAT-56320,340.5809465092457,33.652830923495046,2246.7526318420237,1.1370178166766851,-39823.17352061336,10.5,10499960176.826479,47.655,-122.3035,60.0,8.75
2026-01-20T23:08:46+00:00,SAT-56320,340.3763868809164,33.74994627913081,2247.886617611189,1.159980903250115,-40627.437946174774,10.5,10499959372.562054,47.655,-122.3035,60.0,8.766666666666667
2026-01-20T23:08:47+00:00,SAT-56320,340.17144461458616,33.84646521775109,2249.0435052320304,1.1829075322960267,-41430.425474907315,10.5,10499958569.574526,47.655,-122.3035,60.0,8.783333333333333
2026-01-20T23:08:48+00:00,SAT-56320,339.96612472085934,33.942384617096195,2250.2232583442405,1.2057970448714075,-42232.11302783935,10.5,10499957767.886972,47.655,-122.3035,60.0,8.8
2026-01-20T23:08:49+00:00,SAT-56320,339.7604322703627,34.03770140628272,2251.4258399303258,1.228648795724938,-43032.478005540244,10.5,10499956967.521994,47.655,-122.3035,60.0,8.816666666666666
2026-01-20T23:08:50+00:00,SAT-56320,339.55437239190604,34.1324125669335,2252.651212329262,1.251462143678427,-43831.4979512376,10.5,10499956168.502048,47.655,-122.3035,60.0,8.833333333333334
2026-01-20T23:08:51+00:00,SAT-56320,339.347950272313,34.226515133490324,2253.899337240557,1.2742364501229886,-44629.15049814689,10.5,10499955370.849503,47.655,-122.3035,60.0,8.85
2026-01-20T23:08:52+00:00,SAT-56320,339.14117115621417,34.32000619354384,2255.1701757268133,1.2969710937109125,-45425.41388404302,10.5,10499954574.586117,47.655,-122.3035,60.0,8.866666666666667
2026-01-20T23:08:53+00:00,SAT-56320,338.93404034399197,34.41288288895578,2256.463688230941,1.3196654371483316,-46220.26578819899,10.5,10499953779.734211,47.655,-122.3035,60.0,8.883333333333333
2026-01-20T23:08:54+00:00,SAT-56320,338.7265631940356,34.50514241504208,2257.779834560257,1.3423188713295333,-47013.68487715625,10.5,10499952986.315123,47.655,-122.3035,60.0,8.9
2026-01-20T23:08:55+00:00,SAT-56320,338.5187451193172,34.59678202225169,2259.1185739145963,1.3649307816859508,-47805.649626123966,10.5,10499952194.350374,47.655,-122.3035,60.0,8.916666666666666
2026-01-20T23:08:56+00:00,SAT-56320,338.310591588083,34.687799016008775,2260.4798648808646,1.3875005578748658,-48596.138658318385,10.5,10499951403.861341,47.655,-122.3035,60.0,8.933333333333334
2026-01-20T23:08:57+00:00,SAT-56320,338.1021081235756,34.778190756957336,2261.8636654372517,1.4100276055579068,-49385.1311574957,10.5,10499950614.868843,47.655,-122.3035,60.0,8.95
2026-01-20T23:08:58+00:00,SAT-56320,337.8933003020031,34.867954661940345,2263.269932969195,1.4325113209443245,-50172.60597634984,10.5,10499949827.394024,47.655,-122.3035,60.0,8.966666666666667
2026-01-20T23:08:59+00:00,SAT-56320,337.68417375389384,34.95708820350168,2264.6986242599496,1.4549511231800898,-50958.54277091568,10.5,10499949041.45723,47.655,-122.3035,60.0,8.983333333333333
2026-01-20T23:09:00+00:00,SAT-56320,337.4747341611829,35.04558891119461,2266.149695513468,1.477346429386679,-51742.92112632176,10.5,10499948257.078875,47.655,-122.3035,60.0,9.0
2026-01-20T23:09:01+00:00,SAT-56320,337.26498725768624,35.13345437140305,2267.6231023523765,1.4996966570959573,-52525.72064207016,10.5,10499947474.279358,47.655,-122.3035,60.0,9.016666666666667
2026-01-20T23:09:02+00:00,SAT-56320,337.05493882883826,35.22068222749682,2269.118799818387,1.5220012468128472,-53306.9217222766,10.5,10499946693.078278,47.655,-122.3035,60.0,9.033333333333333
2026-01-20T23:09:03+00:00,SAT-56320,336.84459470908376,35.30727018089792,2270.6367423952083,1.5442596279646053,-54086.50438307009,10.5,10499945913.495617,47.655,-122.3035,60.0,9.05
2026-01-20T23:09:04+00:00,SAT-56320,336.63396078310495,35.3932159905553,2272.176883997498,1.5664712406785473,-54864.44901534096,10.5,10499945135.550985,47.655,-122.3035,60.0,9.066666666666666
2026-01-20T23:09:05+00:00,SAT-56320,336.42304298452984,35.47851747344657,2273.739177981535,1.5886355412362614,-55640.73657577051,10.5,10499944359.263424,47.655,-122.3035,60.0,9.083333333333334
2026-01-20T23:09:06+00:00,SAT-56320,336.2118472938832,35.56317250534065,2275.323577161328,1.610751984961852,-56415.34798750489,10.5,10499943584.652012,47.655,-122.3035,60.0,9.1
2026-01-20T23:09:07+00:00,SAT-56320,336.00037973879137,35.64717902062219,2276.930033807663,1.63282003050699,-57188.264290235726,10.5,10499942811.73571,47.655,-122.3035,60.0,9.116666666666667
2026-01-20T23:09:08+00:00,SAT-56320,335.7886463932571,35.73053501250351,2278.558499651422,1.6548391472470385,-57959.46689924369,10.5,10499942040.5331,47.655,-122.3035,60.0,9.133333333333333
2026-01-20T23:09:09+00:00,SAT-56320,335.57665337645784,35.813238533368995,2280.2089258942765,1.676808815212951,-58728.9376030133,10.5,10499941271.062397,47.655,-122.3035,60.0,9.15
2026-01-20T23:09:10+00:00,SAT-56320,335.36440685130117,35.89528769520012,2281.8812632193158,1.6987285107053471,-59496.65805937701,10.5,10499940503.34194,47.655,-122.3035,60.0,9.166666666666666
2026-01-20T23:09:11+00:00,SAT-56320,335.15191302472664,35.976680669306084,2283.575461787326,1.7205977319298809,-60262.61069337425,10.5,10499939737.389307,47.655,-122.3035,60.0,9.183333333333334
2026-01-20T23:09:12+00:00,SAT-56320,334.93917814502043,36.057415687171,2285.291471258637,1.7424159571715163,-61026.77723233758,10.5,10499938973.222767,47.655,-122.3035,60.0,9.2
2026-01-20T23:09:13+00:00,SAT-56320,334.7262085038032,36.13749103952021,2287.029240773256,1.7641827080493382,-61789.14092134383,10.5,10499938210.85908,47.655,-122.3035,60.0,9.216666666666667
2026-01-20T23:09:14+00:00,SAT-56320,334.5130104310714,36.2169050779579,2288.788718994084,1.785897485747677,-62549.68428975825,10.5,10499937450.31571,47.655,-122.3035,60.0,9.233333333333333
2026-01-20T23:09:15+00:00,SAT-56320,334.29959029714627,36.295656214014535,2290.5698540865365,1.8075598061440044,-63308.39038156206,10.5,10499936691.60962,47.655,-122.3035,60.0,9.25
2026-01-20T23:09:16+00:00,SAT-56320,334.0859545107852,36.37374291959664,2292.3725937331974,1.8291691888034352,-64065.24236989334,10.5,10499935934.75763,47.655,-122.3035,60.0,9.266666666666667
2026-01-20T23:09:17+00:00,SAT-56320,333.87210951850324,36.451163726968694,2294.1968851374972,1.8507251668000733,-64820.22390103213,10.5,10499935179.776098,47.655,-122.3035,60.0,9.283333333333333
2026-01-20T23:09:18+00:00,SAT-56320,333.6580618028475,36.52791722909764,2296.0426750371857,1.8722272780417015,-65573.31879055432,10.5,10499934426.68121,47.655,-122.3035,60.0,9.3
2026-01-20T23:09:19+00:00,SAT-56320,333.4438178814818,36.60400207967464,2297.9099097091525,1.8936750666297768,-66324.5110709645,10.5,10499933675.48893,47.655,-122.3035,60.0,9.316666666666666
2026-01-20T23:09:20+00:00,SAT-56320,333.22938430631524,36.679416993099174,2299.798534975605,1.915068078869905,-67073.78485196583,10.5,10499932926.215149,47.655,-122.3035,60.0,9.333333333333334
2026-01-20T23:09:21+00:00,SAT-56320,333.0147676627205,36.75416074443154,2301.7084962062645,1.9364058740994623,-67821.12469968926,10.5,10499932178.8753,47.655,-122.3035,60.0,9.35
2026-01-20T23:09:22+00:00,SAT-56320,332.7999745679383,36.82823216959074,2303.6397383313665,1.9576880162979073,-68566.51534285104,10.5,10499931433.484657,47.655,-122.3035,60.0,9.366666666666667
2026-01-20T23:09:23+00:00,SAT-56320,332.58501167010746,36.9016301653219,2305.5922058462875,1.9789140768555553,-69309.94176972701,10.5,10499930690.05823,47.655,-122.3035,60.0,9.383333333333333
2026-01-20T23:09:24+00:00,SAT-56320,332.36988564714056,36.974353689192284,2307.565842818938,2.000083630133269,-70051.38907263413,10.5,10499929948.610928,47.655,-122.3035,60.0,9.4
2026-01-20T23:09:25+00:00,SAT-56320,332.1546032059184,37.046401759470044,2309.5605928927243,2.0211962738451175,-70790.8431618174,10.5,10499929209.156837,47.655,-122.3035,60.0,9.416666666666666
2026-01-20T23:09:26+00:00,SAT-56320,331.9391710795659,37.11777345561194,2311.576399309839,2.04225158386544,-71528.28918260218,10.5,10499928471.710817,47.655,-122.3035,60.0,9.433333333333334
2026-01-20T23:09:27+00:00,SAT-56320,331.72359602905374,37.1884679173015,2313.613204889481,2.063249168557034,-72263.71341819699,10.5,10499927736.286581,47.655,-122.3035,60.0,9.45
2026-01-20T23:09:28+00:00,SAT-56320,331.50788483959593,37.25848434519053,2315.6709520602553,2.084188627790344,-72997.10185437225,10.5,10499927002.898146,47.655,-122.3035,60.0,9.466666666666667
2026-01-20T23:09:29+00:00,SAT-56320,331.292044320813,37.327822000389574,2317.749582851705,2.1050695866155644,-73728.44135879971,10.5,10499926271.558641,47.655,-122.3035,60.0,9.483333333333333
2026-01-20T23:09:30+00:00,SAT-56320,331.0760813039922,37.396480204853184,2319.8490389194226,2.125891656942865,-74457.71833893195,10.5,10499925542.281662,47.655,-122.3035,60.0,9.5
2026-01-20T23:09:31+00:00,SAT-56320,330.86000264257905,37.464458340750404,2321.9692615319473,2.1466544546633033,-75184.91934164896,10.5,10499924815.080658,47.655,-122.3035,60.0,9.516666666666667
2026-01-20T23:09:32+00:00,SAT-56320,330.6438152113223,37.531755850230454,2324.1101915747313,2.1673576366644998,-75910.03234970389,10.5,10499924089.96765,47.655,-122.3035,60.0,9.533333333333333
2026-01-20T23:09:33+00:00,SAT-56320,330.4275259018815,37.59837223626736,2326.271769591031,2.188000830594159,-76633.04432174431,10.5,10499923366.955679,47.655,-122.3035,60.0,9.55
2026-01-20T23:09:34+00:00,SAT-56320,330.2111416249073,37.664307061487726,2328.4539357527437,2.2085836782234125,-77353.9427110799,10.5,10499922646.05729,47.655,-122.3035,60.0,9.566666666666666
2026-01-20T23:09:35+00:00,SAT-56320,329.99466930807137,37.729559948239974,2330.656629874492,2.2291058524518537,-78072.71606127082,10.5,10499921927.28394,47.655,-122.3035,60.0,9.583333333333334
2026-01-20T23:09:36+00:00,SAT-56320,329.77811589273244,37.79413057903148,2332.879791444671,2.2495670010755586,-78789.35203664584,10.5,10499921210.647963,47.655,-122.3035,60.0,9.6
2026-01-20T23:09:37+00:00,SAT-56320,329.5614883354342,37.85801869551898,2335.12335960041,2.2699667991484644,-79503.8392562193,10.5,10499920496.160744,47.655,-122.3035,60.0,9.616666666666667
2026-01-20T23:09:38+00:00,SAT-56320,329.34479360491173,37.921224098812345,2337.387273154761,2.290304916344493,-80216.16615057466,10.5,10499919783.833849,47.655,-122.3035,60.0,9.633333333333333
2026-01-20T23:09:39+00:00,SAT-56320,329.12803868183397,37.98374664895794,2339.6714705913287,2.3105810372207816,-80926.32167156856,10.5,10499919073.678328,47.655,-122.3035,60.0,9.65
2026-01-20T23:09:40+00:00,SAT-56320,328.9112305568341,38.04558626491425,2341.9758900791167,2.330794861651196,-81634.29530751424,10.5,10499918365.704693,47.655,-122.3035,60.0,9.666666666666666
2026-01-20T23:09:41+00:00,SAT-56320,328.6943762285056,38.10674292449492,2344.3004694878036,2.3509460781452987,-82340.07614869895,10.5,10499917659.923851,47.655,-122.3035,60.0,9.683333333333334
2026-01-20T23:09:42+00:00,SAT-56320,328.4774827036909,38.16721666366476,2346.645146376407,2.3710343749595593,-83043.65327654564,10.5,10499916956.346724,47.655,-122.3035,60.0,9.7
2026-01-20T23:09:43+00:00,SAT-56320,328.2605569966973,38.227007576147585,2349.009857993033,2.3910594984709674,-83745.01780810361,10.5,10499916254.982191,47.655,-122.3035,60.0,9.716666666666667
2026-01-20T23:09:44+00:00,SAT-56320,328.0436061238106,38.28611581426289,2351.394541332842,2.41102112940316,-84444.15856096413,10.5,10499915555.841438,47.655,-122.3035,60.0,9.733333333333333
2026-01-20T23:09:45+00:00,SAT-56320,327.82663710791604,38.34454158703514,2353.7991330725663,2.430919013244759,-85141.06662106213,10.5,10499914858.933378,47.655,-122.3035,60.0,9.75
2026-01-20T23:09:46+00:00,SAT-56320,327.6096569724982,38.40228516113871,2356.223569635109,2.4507528695478986,-85835.73216592707,10.5,10499914164.267834,47.655,-122.3035,60.0,9.766666666666667
2026-01-20T23:09:47+00:00,SAT-56320,327.39267274292683,38.45934685988983,2358.6677871636716,2.4705224379307547,-86528.14607588602,10.5,10499913471.853924,47.655,-122.3035,60.0,9.783333333333333
2026-01-20T23:09:48+00:00,SAT-56320,327.17569144412437,38.515727063180584,2361.131721541768,2.4902274732885896,-87218.29976633431,10.5,10499912781.700233,47.655,-122.3035,60.0,9.8
2026-01-20T23:09:49+00:00,SAT-56320,326.9587200985403,38.571426207308726,2363.6153084084613,2.5098677160191873,-87906.18414490424,10.5,10499912093.815855,47.655,-122.3035,60.0,9.816666666666666
2026-01-20T23:09:50+00:00,SAT-56320,326.74176572661196,38.626444784160306,2366.118483143904,2.529442918388282,-88591.79053489384,10.5,10499911408.209465,47.655,-122.3035,60.0,9.833333333333334
2026-01-20T23:09:51+00:00,SAT-56320,326.5248353449094,38.68078334100026,2368.6411808811768,2.5489528586621275,-89275.11117024945,10.5,10499910724.88883,47.655,-122.3035,60.0,9.85
2026-01-20T23:09:52+00:00,SAT-56320,326.3079359634658,38.734442480402436,2371.1833365322154,2.5683973026825337,-89956.13784976074,10.5,10499910043.86215,47.655,-122.3035,60.0,9.866666666666667
2026-01-20T23:09:53+00:00,SAT-56320,326.09107458583793,38.78742285953121,2373.7448847754245,2.587776009733239,-90634.86214252598,10.5,10499909365.137857,47.655,-122.3035,60.0,9.883333333333333
2026-01-20T23:09:54+00:00,SAT-56320,325.8742582088898,38.83972518947891,2376.3257600491315,2.6070888024424947,-91311.27783623627,10.5,10499908688.722164,47.655,-122.3035,60.0,9.9
2026-01-20T23:09:55+00:00,SAT-56320,325.6574938171035,38.891350235883856,2378.9258966147677,2.626335427764122,-91985.37606814405,10.5,10499908014.623932,47.655,-122.3035,60.0,9.916666666666666
2026-01-20T23:09:56+00:00,SAT-56320,325.4407883876025,38.94229881702091,2381.545228481391,2.6455157217072887,-92657.15109459669,10.5,10499907342.848906,47.655,-122.3035,60.0,9.933333333333334
2026-01-20T23:09:57+00:00,SAT-56320,325.2241488825555,38.99257180482739,2384.1836894945072,2.6646294528861425,-93326.59481148286,10.5,10499906673.405188,47.655,-122.3035,60.0,9.95
2026-01-20T23:09:58+00:00,SAT-56320,325.00758225350734,39.042170123165796,2386.8412132688522,2.683676454180236,-93993.7013655376,10.5,10499906006.298634,47.655,-122.3035,60.0,9.966666666666667
2026-01-20T23:09:59+00:00,SAT-56320,324.7910954357213,39.09109474836238,2389.517733252488,2.7026565396873505,-94658.46424567887,10.5,10499905341.535755,47.655,-122.3035,60.0,9.983333333333333
2026-01-20T23:10:00+00:00,SAT-56320,324.57469534885286,39.139346708288905,2392.21318270807,2.7215695221615372,-95320.87689376144,10.5,10499904679.123106,47.655,-122.3035,60.0,10.0
2026-01-20T23:10:01+00:00,SAT-56320,324.3583888961896,39.1869270817824,2394.9274947115055,2.740415230403376,-95980.93331365744,10.5,10499904019.066687,47.655,-122.3035,60.0,10.016666666666667
2026-01-20T23:10:02+00:00,SAT-56320,324.14218296272816,39.233836998304504,2397.6606021679613,2.7591935136555716,-96638.62822520874,10.5,10499903361.371775,47.655,-122.3035,60.0,10.033333333333333
2026-01-20T23:10:03+00:00,SAT-56320,323.9260844128597,39.2800776376652,2400.412437832247,2.777904191625636,-97293.95531380973,10.5,10499902706.044685,47.655,-122.3035,60.0,10.05
2026-01-20T23:10:04+00:00,SAT-56320,323.7101000917769,39.32565022895854,2403.1829342793612,2.7965471381597014,-97946.91016101834,10.5,10499902053.08984,47.655,-122.3035,60.0,10.066666666666666
2026-01-20T23:10:05+00:00,SAT-56320,323.494236820739,39.3705560507773,2405.9720239584863,2.8151221825132042,-98597.48678663772,10.5,10499901402.513214,47.655,-122.3035,60.0,10.083333333333334
2026-01-20T23:10:06+00:00,SAT-56320,323.2785013995364,39.4147964299293,2408.7796391485126,2.8336291938063414,-99245.68060670354,10.5,10499900754.319393,47.655,-122.3035,60.0,10.1
2026-01-20T23:10:07+00:00,SAT-56320,323.0629006028312,39.45837274141002,2411.605711997802,2.852068047891187,-99891.48727303027,10.5,10499900108.512728,47.655,-122.3035,60.0,10.116666666666667
2026-01-20T23:10:08+00:00,SAT-56320,322.84744117898396,39.5012864078412,2414.450174530899,2.8704385934818974,-100534.90148694775,10.5,10499899465.098513,47.655,-122.3035,60.0,10.133333333333333
2026-01-20T23:10:09+00:00,SAT-56320,322.6321298511073,39.5435388984999,2417.3129586214645,2.8887407233883162,-101175.9194942033,10.5,10499898824.080505,47.655,-122.3035,60.0,10.15
2026-01-20T23:10:10+00:00,SAT-56320,322.41697331332057,39.585131729251124,2420.1939960362574,2.9069743235415344,-101814.53729962115,10.5,10499898185.4627,47.655,-122.3035,60.0,10.166666666666666
2026-01-20T23:10:11+00:00,SAT-56320,322.20197823043713,39.62606646181906,2423.0932184282697,2.925139278154856,-102450.75084786152,10.5,10499897549.249151,47.655,-122.3035,60.0,10.183333333333334
2026-01-20T23:10:12+00:00,SAT-56320,321.98715123736076,39.666344703118845,2426.010557335016,2.9432354768398996,-103084.55627265628,10.5,10499896915.443727,47.655,-122.3035,60.0,10.2
2026-01-20T23:10:13+00:00,SAT-56320,321.77249893792776,39.705968104688836,2428.9459441839176,2.961262828534355,-103715.95038461818,10.5,10499896284.049616,47.655,-122.3035,60.0,10.216666666666667
2026-01-20T23:10:14+00:00,SAT-56320,321.55802790296514,39.74493836224632,2431.899310311576,2.979221236642924,-104344.92980057125,10.5,10499895655.0702,47.655,-122.3035,60.0,10.233333333333333
2026-01-20T23:10:15+00:00,SAT-56320,321.343744669838,39.783257214991245,2434.8705869582545,2.9971106163559242,-104971.49155012167,10.5,10499895028.50845,47.655,-122.3035,60.0,10.25
2026-01-20T23:10:16+00:00,SAT-56320,321.1296557410582,39.820926445051285,2437.8597052796335,3.014930877317979,-105595.63246864195,10.5,10499894404.36753,47.655,-122.3035,60.0,10.266666666666667
2026-01-20T23:10:17+00:00,SAT-56320,320.91576758387146,39.85794787677681,2440.866596341278,3.032681950704444,-106217.35014560193,10.5,10499893782.649855,47.655,-122.3035,60.0,10.283333333333333
2026-01-20T23:10:18+00:00,SAT-56320,320.70208662818925,39.89432337630099,2443.891191140114,3.0503637625998348,-106836.64199216868,10.5,10499893163.358007,47.655,-122.3035,60.0,10.3
2026-01-20T23:10:19+00:00,SAT-56320,320.48861926621873,39.930054850814976,2446.9334205993473,3.067976247279139,-107453.50570637424,10.5,10499892546.494293,47.655,-122.3035,60.0,10.316666666666666
2026-01-20T23:10:20+00:00,SAT-56320,320.27537185129063,39.96514424797483,2449.9932155766337,3.0855193414029265,-108067.93906980383,10.5,10499891932.06093,47.655,-122.3035,60.0,10.333333333333334
2026-01-20T23:10:21+00:00,SAT-56320,320.06235069699653,39.9995935552602,2453.0705068664597,3.1029930037347526,-108679.94063818277,10.5,10499891320.059362,47.655,-122.3035,60.0,10.35
2026-01-20T23:10:22+00:00,SAT-56320,319.84956207521,40.033404799492615,2456.1652252221843,3.120397159960183,-109289.50780870518,10.5,10499890710.492191,47.655,-122.3035,60.0,10.366666666666667
2026-01-20T23:10:23+00:00,SAT-56320,319.6370122174716,40.066580045851516,2459.2773013230517,3.1377317844710397,-109896.63968446438,10.5,10499890103.360315,47.655,-122.3035,60.0,10.383333333333333
2026-01-20T23:10:24+00:00,SAT-56320,319.424707311331,40.0991213976511,2462.406665822764,3.154996832349843,-110501.33469226018,10.5,10499889498.665308,47.655,-122.3035,60.0,10.4
2026-01-20T23:10:25+00:00,SAT-56320,319.2126535009271,40.13103099547127,2465.553249330227,3.1721922666901814,-111103.59153947397,10.5,10499888896.40846,47.655,-122.3035,60.0,10.416666666666666
2026-01-20T23:10:26+00:00,SAT-56320,319.00085688591685,40.162311016539626,2468.71698241754,3.1893180719547605,-111703.40968192396,10.5,10499888296.590319,47.655,-122.3035,60.0,10.433333333333334
2026-01-20T23:10:27+00:00,SAT-56320,318.78932351954563,40.19296367423516,2471.8977956413028,3.206374199179147,-112300.78740466859,10.5,10499887699.212595,47.655,-122.3035,60.0,10.45
2026-01-20T23:10:28+00:00,SAT-56320,318.5780594101619,40.222991217105644,2475.095619509284,3.223360645471568,-112895.72460642578,10.5,10499887104.275394,47.655,-122.3035,60.0,10.466666666666667
2026-01-20T23:10:29+00:00,SAT-56320,318.367070517787,40.25239592857869,2478.3103845263677,3.240277402335609,-113488.22098961507,10.5,10499886511.77901,47.655,-122.3035,60.0,10.483333333333333
2026-01-20T23:10:30+00:00,SAT-56320,318.1563627539871,40.28118012620221,2481.5420211889636,3.257124443236606,-114078.27562488033,10.5,10499885921.724375,47.655,-122.3035,60.0,10.5
2026-01-20T23:10:31+00:00,SAT-56320,317.9459419823742,40.30934616082405,2484.7904599670183,3.2739017748063177,-114665.88874449383,10.5,10499885334.111256,47.655,-122.3035,60.0,10.516666666666667
2026-01-20T23:10:32+00:00,SAT-56320,317.73581401614575,40.336896416150296,2488.0556313370917,3.2906093969181986,-115251.06034402337,10.5,10499884748.939655,47.655,-122.3035,60.0,10.533333333333333
2026-01-20T23:10:33+00:00,SAT-56320,317.52598461795776,40.36383330800525,2491.3374657756185,3.3072473058612286,-115833.79029349331,10.5,10499884166.209707,47.655,-122.3035,60.0,10.55
2026-01-20T23:10:34+00:00,SAT-56320,317.31645949968635,40.39015928360723,2494.635893755331,3.3238155219718206,-116414.0793051709,10.5,10499883585.920694,47.655,-122.3035,60.0,10.566666666666666
2026-01-20T23:10:35+00:00,SAT-56320,317.10724432049454,40.41587682106125,2497.9508457692436,3.3403140452169406,-116991.92737789913,10.5,10499883008.072622,47.655,-122.3035,60.0,10.583333333333334
2026-01-20T23:10:36+00:00,SAT-56320,316.8983446876574,40.440988428506,2501.2822523103405,3.3567429107720033,-117567.33574366981,10.5,10499882432.664257,47.655,-122.3035,60.0,10.6
2026-01-20T23:10:37+00:00,SAT-56320,316.68976615397906,40.4654966436824,2504.6300439066836,3.3731021359673026,-118140.30500946318,10.5,10499881859.69499,47.655,-122.3035,60.0,10.616666666666667
2026-01-20T23:10:38+00:00,SAT-56320,316.48151421849855,40.48940403310549,2507.9941511036213,3.3893917331683348,-118710.83560837116,10.5,10499881289.164392,47.655,-122.3035,60.0,10.633333333333333
2026-01-20T23:10:39+00:00,SAT-56320,316.2735943263004,40.5127131913645,2511.3745044588345,3.4056117515041957,-119278.92926110254,10.5,10499880721.07074,47.655,-122.3035,60.0,10.65
2026-01-20T23:10:40+00:00,SAT-56320,316.0660118660753,40.5354267406522,2514.7710345790015,3.421762223724059,-119844.5871146719,10.5,10499880155.412886,47.655,-122.3035,60.0,10.666666666666666
2026-01-20T23:10:41+00:00,SAT-56320,315.8587721706493,40.5575473299832,2518.1836721034624,3.4378431810758174,-120407.81026351266,10.5,10499879592.189737,47.655,-122.3035,60.0,10.683333333333334
2026-01-20T23:10:42+00:00,SAT-56320,315.65188051675057,40.579077634500095,2521.612347702722,3.4538546794021503,-120968.60066347159,10.5,10499879031.399336,47.655,-122.3035,60.0,10.7
2026-01-20T23:10:43+00:00,SAT-56320,315.4453421232576,40.600020354935076,2525.0569921029787,3.4697967551937463,-121526.95959260702,10.5,10499878473.040407,47.655,-122.3035,60.0,10.716666666666667
2026-01-20T23:10:44+00:00,SAT-56320,315.2391621519916,40.620378216819105,2528.5175360668254,3.4856694664948926,-122082.8890838754,10.5,10499877917.110916,47.655,-122.3035,60.0,10.733333333333333
2026-01-20T23:10:45+00:00,SAT-56320,315.0333457061849,40.640153969927766,2531.9939104147434,3.501472878819184,-122636.39143183992,10.5,10499877363.608568,47.655,-122.3035,60.0,10.75
2026-01-20T23:10:46+00:00,SAT-56320,314.82789782983286,40.659350387629964,2535.486046032552,3.5172070341374404,-123187.46810649628,10.5,10499876812.531893,47.655,-122.3035,60.0,10.766666666666667
2026-01-20T23:10:47+00:00,SAT-56320,314.62282350866644,40.677970266114414,2538.993873847932,3.532872011748718,-123736.12188523282,10.5,10499876263.878115,47.655,-122.3035,60.0,10.783333333333333
2026-01-20T23:10:48+00:00,SAT-56320,314.41812766791014,40.6960164238901,2542.517324867649,3.548467867352886,-124282.35471889458,10.5,10499875717.64528,47.655,-122.3035,60.0,10.8
2026-01-20T23:10:49+00:00,SAT-56320,314.21381517329536,40.71349170101718,2546.056330154023,3.5639946817843327,-124826.16943864376,10.5,10499875173.83056,47.655,-122.3035,60.0,10.816666666666666
2026-01-20T23:10:50+00:00,SAT-56320,314.0098908295145,40.73039895855342,2549.6108208499886,3.579452533459335,-125367.56879095008,10.5,10499874632.43121,47.655,-122.3035,60.0,10.833333333333334
2026-01-20T23:10:51+00:00,SAT-56320,313.8063593801401,40.746741077882064,2553.180728176692,3.594841482948541,-125906.55489725388,10.5,10499874093.445103,47.655,-122.3035,60.0,10.85
2026-01-20T23:10:52+00:00,SAT-56320,313.603225508395,40.76252095999101,2556.765983415686,3.610161628169637,-126443.1311870467,10.5,10499873556.868813,47.655,-122.3035,60.0,10.866666666666667
2026-01-20T23:10:53+00:00,SAT-56320,313.4004938350025,40.77774152496577,2560.366517946181,3.625413064771617,-126977.3010103609,10.5,10499873022.69899,47.655,-122.3035,60.0,10.883333333333333
2026-01-20T23:10:54+00:00,SAT-56320,313.1981689181959,40.79240571132211,2563.98226324278,3.6405958543161567,-127509.06652334679,10.5,10499872490.933477,47.655,-122.3035,60.0,10.9
2026-01-20T23:10:55+00:00,SAT-56320,312.99625525532986,40.80651647525346,2567.613150841484,3.6557101116802375,-128038.43174948214,10.5,10499871961.56825,47.655,-122.3035,60.0,10.916666666666666
2026-01-20T23:10:56+00:00,SAT-56320,312.7947572800194,40.82007679017069,2571.2591123928664,3.6707559332883952,-128565.40006596212,10.5,10499871434.599934,47.655,-122.3035,60.0,10.933333333333334
2026-01-20T23:10:57+00:00,SAT-56320,312.5936793629849,40.83308964600319,2574.920079643666,3.6857333937467835,-129089.97408580981,10.5,10499870910.025913,47.655,-122.3035,60.0,10.95
2026-01-20T23:10:58+00:00,SAT-56320,312.3930258131099,40.84555804850765,2578.5959844150298,3.7006426369903567,-129612.15885023613,10.5,10499870387.84115,47.655,-122.3035,60.0,10.966666666666667
2026-01-20T23:10:59+00:00,SAT-56320,312.1928008738143,40.85748501884068,2582.2867586716548,3.7154837377487646,-130131.95697658956,10.5,10499869868.043024,47.655,-122.3035,60.0,10.983333333333333
2026-01-20T23:11:00+00:00,SAT-56320,311.99300872656437,40.86887359274225,2585.9923344527697,3.7302568115596753,-130649.37251148789,10.5,10499869350.62749,47.655,-122.3035,60.0,11.0
2026-01-20T23:11:01+00:00,SAT-56320,311.7936534887397,40.87972682003725,2589.712643912832,3.7449619774781406,-131164.40962474272,10.5,10499868835.590376,47.655,-122.3035,60.0,11.016666666666667
2026-01-20T23:11:02+00:00,SAT-56320,311.59473921348365,40.890047764023116,2593.4476193250366,3.759599350658631,-131677.07234955064,10.5,10499868322.92765,47.655,-122.3035,60.0,11.033333333333333
2026-01-20T23:11:03+00:00,SAT-56320,311.3962698898529,40.89983950086581,2597.197193077427,3.7741690402657344,-132187.36450931735,10.5,10499867812.63549,47.655,-122.3035,60.0,11.05
2026-01-20T23:11:04+00:00,SAT-56320,311.19824944319885,40.90910511897408,2600.9612976669187,3.7886711804638793,-132695.2908030486,10.5,10499867304.709196,47.655,-122.3035,60.0,11.066666666666666
2026-01-20T23:11:05+00:00,SAT-56320,311.00068173391503,40.91784771846501,2604.7398657242343,3.803105885993337,-133200.85524943407,10.5,10499866799.14475,47.655,-122.3035,60.0,11.083333333333334
2026-01-20T23:11:06+00:00,SAT-56320,310.80357055848907,40.92607041053065,2608.5328299945318,3.817473280470941,-133704.0621780581,10.5,10499866295.937822,47.655,-122.3035,60.0,11.1
2026-01-20T23:11:07+00:00,SAT-56320,310.6069196490811,40.93377631688052,2612.3401233462546,3.831773520395852,-134204.9170701834,10.5,10499865795.08293,47.655,-122.3035,60.0,11.116666666666667
2026-01-20T23:11:08+00:00,SAT-56320,310.4107326721015,40.94096856919721,2616.1616788039296,3.846006692081578,-134703.4229488741,10.5,10499865296.577051,47.655,-122.3035,60.0,11.133333333333333
2026-01-20T23:11:09+00:00,SAT-56320,310.2150132315874,40.94765030848364,2619.9974294781655,3.8601729771282542,-135199.586174535,10.5,10499864800.413826,47.655,-122.3035,60.0,11.15
2026-01-20T23:11:10+00:00,SAT-56320,310.01976486483414,40.953824684608996,2623.847308660688,3.874272487015919,-135693.41065166873,10.5,10499864306.589348,47.655,-122.3035,60.0,11.166666666666666
2026-01-20T23:11:11+00:00,SAT-56320,309.82499104582564,40.95949485566666,2627.711249754406,3.8883053655865227,-136184.90141822878,10.5,10499863815.098581,47.655,-122.3035,60.0,11.183333333333334
2026-01-20T23:11:12+00:00,SAT-56320,309.6306951838607,40.96466398745801,2631.5891863056836,3.902271765922467,-136674.0638358084,10.5,10499863325.936165,47.655,-122.3035,60.0,11.2
2026-01-20T23:11:13+00:00,SAT-56320,309.43688062327436,40.96933525294798,2635.481052013564,3.9161718201603826,-137160.9025323913,10.5,10499862839.097467,47.655,-122.3035,60.0,11.216666666666667
2026-01-20T23:11:14+00:00,SAT-56320,309.24355064459303,40.973511831710226,2639.3867807088704,3.9300056861690833,-137645.4230372112,10.5,10499862354.576963,47.655,-122.3035,60.0,11.233333333333333
2026-01-20T23:11:15+00:00,SAT-56320,309.0507084635066,40.97719690940951,2643.306306379877,3.943773517819221,-138127.63073946917,10.5,10499861872.36926,47.655,-122.3035,60.0,11.25
2026-01-20T23:11:16+00:00,SAT-56320,308.8583572312996,40.98039367726322,2647.239563168315,3.9574754473861695,-138607.53027200833,10.5,10499861392.469728,47.655,-122.3035,60.0,11.266666666666667
2026-01-20T23:11:17+00:00,SAT-56320,308.66650003600176,40.98310533151815,2651.1864853478414,3.9711116501041066,-139085.12777227076,10.5,10499860914.872229,47.655,-122.3035,60.0,11.283333333333333
2026-01-20T23:11:18+00:00,SAT-56320,308.47513990070087,40.98533507294383,2655.1470073668784,3.98468227965259,-139560.42862276474,10.5,10499860439.571377,47.655,-122.3035,60.0,11.3
2026-01-20T23:11:19+00:00,SAT-56320,308.28427978473405,40.98708610631794,2659.121063827118,3.998187488746071,-140033.43817219624,10.5,10499859966.561829,47.655,-122.3035,60.0,11.316666666666666
2026-01-20T23:11:20+00:00,SAT-56320,308.09392258401516,40.98836163992013,2663.108589482561,4.011627438586776,-140504.1620665492,10.5,10499859495.837933,47.655,-122.3035,60.0,11.333333333333334
2026-01-20T23:11:21+00:00,SAT-56320,307.90407113088173,40.98916488504392,2667.1095192479784,4.0250023031332525,-140972.60639858776,10.5,10499859027.3936,47.655,-122.3035,60.0,11.35
2026-01-20T23:11:22+00:00,SAT-56320,307.7147281938478,40.98949905549677,2671.1237882116366,4.038312237551092,-141438.77660286726,10.5,10499858561.223396,47.655,-122.3035,60.0,11.366666666666667
2026-01-20T23:11:23+00:00,SAT-56320,307.525896478693,40.98936736712565,2675.151331616554,4.051557413008714,-141902.67867442983,10.5,10499858097.321325,47.655,-122.3035,60.0,11.383333333333333
2026-01-20T23:11:24+00:00,SAT-56320,307.3375786281005,40.98877303733223,2679.192084876462,4.064737995185253,-142364.31841605957,10.5,10499857635.681583,47.655,-122.3035,60.0,11.4
2026-01-20T23:11:25+00:00,SAT-56320,307.149777222148,40.987719284614954,2683.2459835703266,4.077854162848539,-142823.70208896205,10.5,10499857176.29791,47.655,-122.3035,60.0,11.416666666666666
2026-01-20T23:11:26+00:00,SAT-56320,306.9624947781569,40.98620932808414,2687.3129634554075,4.090906092479918,-143280.83587426055,10.5,10499856719.164125,47.655,-122.3035,60.0,11.433333333333334
2026-01-20T23:11:27+00:00,SAT-56320,306.7757337510551,40.984246387018345,2691.392960464974,4.1038939347746854,-143735.7250499417,10.5,10499856264.27495,47.655,-122.3035,60.0,11.45
2026-01-20T23:11:28+00:00,SAT-56320,306.5894965348542,40.98183368043475,2695.4859106825893,4.1168179015547715,-144188.37703490557,10.5,10499855811.622965,47.655,-122.3035,60.0,11.466666666666667
2026-01-20T23:11:29+00:00,SAT-56320,306.40378546041796,40.978974426590504,2699.591750403073,4.129678143282707,-144638.79709898646,10.5,10499855361.202902,47.655,-122.3035,60.0,11.483333333333333
2026-01-20T23:11:30+00:00,SAT-56320,306.2186027984076,40.97567184260904,2703.7104160713075,4.142474861370557,-145086.99229648683,10.5,10499854913.007704,47.655,-122.3035,60.0,11.5
2026-01-20T23:11:31+00:00,SAT-56320,306.03395075754406,40.971929143995894,2707.8418443330474,4.1552082164167885,-145532.9682522443,10.5,10499854467.031748,47.655,-122.3035,60.0,11.516666666666667
2026-01-20T23:11:32+00:00,SAT-56320,305.84983148667067,40.96774954426904,2711.9859719942206,4.167878399039896,-145976.73164252486,10.5,10499854023.268358,47.655,-122.3035,60.0,11.533333333333333
2026-01-20T23:11:33+00:00,SAT-56320,305.6662470739359,40.96313625450527,2716.142736050863,4.180485615394655,-146418.28968774082,10.5,10499853581.710312,47.655,-122.3035,60.0,11.55
2026-01-20T23:11:34+00:00,SAT-56320,305.48319954652993,40.95809248291155,2720.3120737046165,4.193030020240592,-146857.64780822542,10.5,10499853142.352192,47.655,-122.3035,60.0,11.566666666666666
2026-01-20T23:11:35+00:00,SAT-56320,305.3006908732517,40.95262143449589,2724.4939223114698,4.205511811852026,-147294.81294838403,10.5,10499852705.187052,47.655,-122.3035,60.0,11.583333333333334
2026-01-20T23:11:36+00:00,SAT-56320,305.1187229630938,40.94672631061979,2728.688219425157,4.2179312050885205,-147729.79263350734,10.5,10499852270.207367,47.655,-122.3035,60.0,11.6
2026-01-20T23:11:37+00:00,SAT-56320,304.9372976650866,40.940410308566115,2732.8949028136985,4.2302883438428465,-148162.59190332895,10.5,10499851837.408096,47.655,-122.3035,60.0,11.616666666666667
2026-01-20T23:11:38+00:00,SAT-56320,304.756416771524,40.933676621299774,2737.1139103886244,4.242583460021276,-148593.2188801874,10.5,10499851406.78112,47.655,-122.3035,60.0,11.633333333333333
2026-01-20T23:11:39+00:00,SAT-56320,304.5760820149454,40.92652843692488,2741.3451802927525,4.25481672887882,-149021.6797022546,10.5,10499850978.320297,47.655,-122.3035,60.0,11.65
2026-01-20T23:11:40+00:00,SAT-56320,304.3962950707997,40.918968938433956,2745.5886508436874,4.266988345238987,-149447.98119307376,10.5,10499850552.018806,47.655,-122.3035,60.0,11.666666666666666
2026-01-20T23:11:41+00:00,SAT-56320,304.2170575571752,40.91100130330712,2749.844260553339,4.279098519458511,-149872.1307202277,10.5,10499850127.86928,47.655,-122.3035,60.0,11.683333333333334
2026-01-20T23:11:42+00:00,SAT-56320,304.0383710346293,40.90262870312948,2754.1119481434125,4.291147427027716,-150294.13443012972,10.5,10499849705.86557,47.655,-122.3035,60.0,11.7
2026-01-20T23:11:43+00:00,SAT-56320,303.86023700805754,40.89385430332123,2758.3916525106347,4.303135273284155,-150713.99951456956,10.5,10499849286.000486,47.655,-122.3035,60.0,11.716666666666667
2026-01-20T23:11:44+00:00,SAT-56320,303.6826569259774,40.88468126273919,2762.6833127565233,4.315062276202779,-151131.73360795213,10.5,10499848868.266392,47.655,-122.3035,60.0,11.733333333333333
2026-01-20T23:11:45+00:00,SAT-56320,303.50563218058625,40.87511273330559,2766.9868681999897,4.326928621455583,-151547.34321329597,10.5,10499848452.656786,47.655,-122.3035,60.0,11.75
2026-01-20T23:11:46+00:00,SAT-56320,303.32916410944307,40.86515185977,2771.3022583451216,4.338734488603216,-151960.8346195746,10.5,10499848039.16538,47.655,-122.3035,60.0,11.766666666666667
2026-01-20T23:11:47+00:00,SAT-56320,303.1532539962433,40.85480177940811,2775.6294228750885,4.350480124260848,-152372.21646429447,10.5,10499847627.783535,47.655,-122.3035,60.0,11.783333333333333
2026-01-20T23:11:48+00:00,SAT-56320,302.9779030687382,40.84406562153771,2779.9683017190177,4.362165698921979,-152781.4947188591,10.5,10499847218.505281,47.655,-122.3035,60.0,11.8
2026-01-20T23:11:49+00:00,SAT-56320,302.8031125021751,40.832946507413126,2784.3188349760762,4.373791435404389,-153188.6771872896,10.5,10499846811.322813,47.655,-122.3035,60.0,11.816666666666666
2026-01-20T23:11:50+00:00,SAT-56320,302.62888341779603,40.82144754979091,2788.6809629676527,4.385357528069608,-153593.7706769491,10.5,10499846406.229322,47.655,-122.3035,60.0,11.833333333333334
2026-01-20T23:11:51+00:00,SAT-56320,302.4552168844636,40.80957185271595,2793.054626208981,4.396864186817488,-153996.78253941805,10.5,10499846003.21746,47.655,-122.3035,60.0,11.85
2026-01-20T23:11:52+00:00,SAT-56320,302.28211391858054,40.79732251119584,2797.4397654246336,4.408311622481978,-154397.72015899338,10.5,10499845602.27984,47.655,-122.3035,60.0,11.866666666666667
2026-01-20T23:11:53+00:00,SAT-56320,302.10957548459953,40.784702610918856,2801.8363215494555,4.419700027944174,-154796.5902911868,10.5,10499845203.409708,47.655,-122.3035,60.0,11.883333333333333
2026-01-20T23:11:54+00:00,SAT-56320,301.9376024962016,40.77171522804227,2806.244235710659,4.431029630607008,-155193.40090061098,10.5,10499844806.5991,47.655,-122.3035,60.0,11.9
2026-01-20T23:11:55+00:00,SAT-56320,301.766195815588,40.75836342881742,2810.6634492622507,4.442300636096708,-155588.15918916624,10.5,10499844411.84081,47.655,-122.3035,60.0,11.916666666666666
2026-01-20T23:11:56+00:00,SAT-56320,301.59535625479316,40.7446502694018,2815.0939037633175,4.453513254628725,-155980.87251948682,10.5,10499844019.127481,47.655,-122.3035,60.0,11.933333333333334
2026-01-20T23:11:57+00:00,SAT-56320,301.4250845760937,40.73057879559146,2819.5355409826007,4.464667670450512,-156371.547344698,10.5,10499843628.452656,47.655,-122.3035,60.0,11.95
2026-01-20T23:11:58+00:00,SAT-56320,301.2553814934404,40.716152042669,2823.9883028725967,4.475764136584873,-156760.1925267285,10.5,10499843239.807474,47.655,-122.3035,60.0,11.966666666666667
2026-01-20T23:11:59+00:00,SAT-56320,301.0862476705827,40.70137303492778,2828.4521316381506,4.486802846149218,-157146.81482936704,10.5,10499842853.185171,47.655,-122.3035,60.0,11.983333333333333
2026-01-20T23:12:00+00:00,SAT-56320,300.9176837237362,40.68624478564501,2832.92696967671,4.4977840118609675,-157531.4217028774,10.5,10499842468.578297,47.655,-122.3035,60.0,12.0
2026-01-20T23:12:01+00:00,SAT-56320,300.74969022145365,40.670770296787666,2837.412759597873,4.5087078391786335,-157914.02034328578,10.5,10499842085.979656,47.655,-122.3035,60.0,12.016666666666667
2026-01-20T23:12:02+00:00,SAT-56320,300.5822676854117,40.65495255882207,2841.909444216147,4.519574549465976,-158294.61850368747,10.5,10499841705.381496,47.655,-122.3035,60.0,12.033333333333333
2026-01-20T23:12:03+00:00,SAT-56320,300.4154165904292,40.63879455044033,2846.4169665668146,4.530384372228943,-158673.2242223515,10.5,10499841326.775778,47.655,-122.3035,60.0,12.05
2026-01-20T23:12:04+00:00,SAT-56320,300.24913736472905,40.622299238319904,2850.9352699140504,4.541137487790517,-159049.84381495157,10.5,10499840950.156185,47.655,-122.3035,60.0,12.066666666666666
2026-01-20T23:12:05+00:00,SAT-56320,300.0834303922227,40.605469577108686,2855.464297701874,4.551834134008221,-159424.4856122642,10.5,10499840575.514387,47.655,-122.3035,60.0,12.083333333333334
2026-01-20T23:12:06+00:00,SAT-56320,299.9182960110321,40.5883085090138,2860.003993611525,4.5624745344291275,-159797.15744385353,10.5,10499840202.842556,47.655,-122.3035,60.0,12.1
2026-01-20T23:12:07+00:00,SAT-56320,299.75373451461877,40.570818963657636,2864.5543015471953,4.573058881655822,-160167.86605547674,10.5,10499839832.133945,47.655,-122.3035,60.0,12.116666666666667
2026-01-20T23:12:08+00:00,SAT-56320,299.5897461533261,40.55300385802299,2869.115165605167,4.583587403595397,-160536.61942940427,10.5,10499839463.380571,47.655,-122.3035,60.0,12.133333333333333
2026-01-20T23:12:09+00:00,SAT-56320,299.4263311337878,40.53486609613095,2873.686530109019,4.594060324607055,-160903.4254236445,10.5,10499839096.574575,47.655,-122.3035,60.0,12.15
2026-01-20T23:12:10+00:00,SAT-56320,299.26348961958877,40.516408568881765,2878.2683396060943,4.60447784621061,-161268.29109627372,10.5,10499838731.708904,47.655,-122.3035,60.0,12.166666666666666
2026-01-20T23:12:11+00:00,SAT-56320,299.10122173260754,40.497634153980535,2882.860538844715,4.614840204919345,-161631.22473098745,10.5,10499838368.775269,47.655,-122.3035,60.0,12.183333333333334
2026-01-20T23:12:12+00:00,SAT-56320,298.9395275523903,40.47854571563088,2887.4630728090874,4.625147594971805,-161992.2331308413,10.5,10499838007.766869,47.655,-122.3035,60.0,12.2
2026-01-20T23:12:13+00:00,SAT-56320,298.7784071181343,40.459146104556595,2892.0758866771394,4.635400249558024,-162351.32446313658,10.5,10499837648.675537,47.655,-122.3035,60.0,12.216666666666667
2026-01-20T23:12:14+00:00,SAT-56320,298.61786042793284,40.43943815768523,2896.6989258593653,4.645598382739152,-162708.50622520028,10.5,10499837291.493774,47.655,-122.3035,60.0,12.233333333333333
2026-01-20T23:12:15+00:00,SAT-56320,298.4578874399942,40.41942469808313,2901.3321359797505,4.65574221264413,-163063.78605683055,10.5,10499836936.213943,47.655,-122.3035,60.0,12.25
2026-01-20T23:12:16+00:00,SAT-56320,298.2984880730436,40.399108534797435,2905.975462879828,4.66583195362176,-163417.17146542922,10.5,10499836582.828535,47.655,-122.3035,60.0,12.266666666666667
2026-01-20T23:12:17+00:00,SAT-56320,298.1396622070197,40.378492462738464,2910.628852614906,4.675867835829022,-163768.67051206715,10.5,10499836231.329489,47.655,-122.3035,60.0,12.283333333333333
2026-01-20T23:12:18+00:00,SAT-56320,297.9814096831017,40.35757926247755,2915.29225146984,4.685850062077112,-164118.29030005043,10.5,10499835881.7097,47.655,-122.3035,60.0,12.3
2026-01-20T23:12:19+00:00,SAT-56320,297.82373030515436,40.33637170024631,2919.9656059317513,4.6957788706621475,-164466.03917551707,10.5,10499835533.960825,47.655,-122.3035,60.0,12.316666666666666
2026-01-20T23:12:20+00:00,SAT-56320,297.666623839139,40.314872527652696,2924.6488627254253,4.705654456733405,-164811.92397342014,10.5,10499835188.076027,47.655,-122.3035,60.0,12.333333333333334
2026-01-20T23:12:21+00:00,SAT-56320,297.5100900150558,40.2930844817655,2929.341968770274,4.7154770546239035,-165155.9529010933,10.5,10499834844.047098,47.655,-122.3035,60.0,12.35
2026-01-20T23:12:22+00:00,SAT-56320,297.35412852620715,40.27101028482358,2934.044871219419,4.725246883405334,-165498.13363135376,10.5,10499834501.86637,47.655,-122.3035,60.0,12.366666666666667
2026-01-20T23:12:23+00:00,SAT-56320,297.19873903029014,40.248652644196085,2938.7575174444687,4.73496414971477,-165838.47340150594,10.5,10499834161.526598,47.655,-122.3035,60.0,12.383333333333333
2026-01-20T23:12:24+00:00,SAT-56320,297.0439211502619,40.226014252346864,2943.479855023117,4.7446290803991555,-166176.9801566894,10.5,10499833823.019844,47.655,-122.3035,60.0,12.4
2026-01-20T23:12:25+00:00,SAT-56320,296.88967447430394,40.203097786637294,2948.2118317593017,4.754241906166379,-166513.6619772702,10.5,10499833486.338022,47.655,-122.3035,60.0,12.416666666666666
2026-01-20T23:12:26+00:00,SAT-56320,296.7359985562153,40.179905909214455,2952.953395687052,4.763802821771845,-166848.52568440657,10.5,10499833151.474316,47.655,-122.3035,60.0,12.433333333333334
2026-01-20T23:12:27+00:00,SAT-56320,296.5828929170737,40.156441267101705,2957.704495034632,4.773312061784389,-167181.5794936912,10.5,10499832818.420506,47.655,-122.3035,60.0,12.45
2026-01-20T23:12:28+00:00,SAT-56320,296.4303570445294,40.13270649191936,2962.465078264252,4.782769840917715,-167512.83092530633,10.5,10499832487.169075,47.655,-122.3035,60.0,12.466666666666667
2026-01-20T23:12:29+00:00,SAT-56320,296.27839039397395,40.10870419990093,2967.2350940522606,4.7921763733798475,-167842.28748172306,10.5,10499832157.712519,47.655,-122.3035,60.0,12.483333333333333
2026-01-20T23:12:30+00:00,SAT-56320,296.12699238904213,40.084436991826635,2972.014491288645,4.801531893758425,-168169.95737919284,10.5,10499831830.042622,47.655,-122.3035,60.0,12.5
2026-01-20T23:12:31+00:00,SAT-56320,295.9761624215699,40.05990745284339,2976.803219097353,4.810836595970799,-168495.84740952152,10.5,10499831504.15259,47.655,-122.3035,60.0,12.516666666666667
2026-01-20T23:12:32+00:00,SAT-56320,295.82589985329395,40.035118152611616,2981.601226795735,4.820090718294284,-168819.96591818857,10.5,10499831180.034082,47.655,-122.3035,60.0,12.533333333333333
2026-01-20T23:12:33+00:00,SAT-56320,295.6762040150878,40.01007164501051,2986.40846393878,4.829294466376451,-169142.32010784186,10.5,10499830857.679892,47.655,-122.3035,60.0,12.55
2026-01-20T23:12:34+00:00,SAT-56320,295.5270742084073,39.98477046825208,2991.2248802865793,4.838448053793099,-169462.91745880927,10.5,10499830537.08254,47.655,-122.3035,60.0,12.566666666666666
2026-01-20T23:12:35+00:00,SAT-56320,295.3785097055958,39.959217144784574,2996.0504258122296,4.8475517224334626,-169781.76644307497,10.5,10499830218.233557,47.655,-122.3035,60.0,12.583333333333334
2026-01-20T23:12:36+00:00,SAT-56320,295.23050974956084,39.933414181089894,3000.8850507300695,4.85660565691701,-170098.87352679367,10.5,10499829901.126472,47.655,-122.3035,60.0,12.6
2026-01-20T23:12:37+00:00,SAT-56320,295.0830735559376,39.90736406794467,3005.7287054385683,4.865610102340855,-170414.24729430312,10.5,10499829585.752707,47.655,-122.3035,60.0,12.616666666666667
2026-01-20T23:12:38+00:00,SAT-56320,294.9362003118461,39.881069280050674,3010.581340580636,4.874565260468249,-170727.89481220578,10.5,10499829272.105188,47.655,-122.3035,60.0,12.633333333333333
2026-01-20T23:12:39+00:00,SAT-56320,294.7898891776486,39.85453227622926,3015.44290700041,4.88347135446103,-171039.82389657322,10.5,10499828960.176104,47.655,-122.3035,60.0,12.65
2026-01-20T23:12:40+00:00,SAT-56320,294.644139286809,39.82775549926964,3020.313355764592,4.892328584555757,-171350.0415605367,10.5,10499828649.958439,47.655,-122.3035,60.0,12.666666666666666
2026-01-20T23:12:41+00:00,SAT-56320,294.4989497470507,39.80074137602342,3025.1926381395892,4.901137199557006,-171658.55651828492,10.5,10499828341.443481,47.655,-122.3035,60.0,12.683333333333334
2026-01-20T23:12:42+00:00,SAT-56320,294.35431963947,39.77349231710308,3030.080705639947,4.909897369688922,-171965.37473178757,10.5,10499828034.625269,47.655,-122.3035,60.0,12.7
2026-01-20T23:12:43+00:00,SAT-56320,294.2102480212239,39.74601071729802,3034.977509949984,4.918609351361594,-172270.50518161047,10.5,10499827729.494818,47.655,-122.3035,60.0,12.716666666666667
2026-01-20T23:12:44+00:00,SAT-56320,294.06673392359255,39.718298955066835,3039.8830030097415,4.927273338846601,-172573.95467196614,10.5,10499827426.045328,47.655,-122.3035,60.0,12.733333333333333
2026-01-20T23:12:45+00:00,SAT-56320,293.9237763542043,39.69035939286721,3044.7971369530183,4.935889550753154,-172875.7308594738,10.5,10499827124.26914,47.655,-122.3035,60.0,12.75
2026-01-20T23:12:46+00:00,SAT-56320,293.78137429680714,39.66219437700405,3049.719864131636,4.94445820127606,-173175.8412461418,10.5,10499826824.158754,47.655,-122.3035,60.0,12.766666666666667
2026-01-20T23:12:47+00:00,SAT-56320,293.639526711875,39.633806237639845,3054.6511371110423,4.952979512412833,-173474.29360726196,10.5,10499826525.706392,47.655,-122.3035,60.0,12.783333333333333
2026-01-20T23:12:48+00:00,SAT-56320,293.49823253684525,39.60519728873991,3059.5909086780885,4.961453668516635,-173771.09439966187,10.5,10499826228.9056,47.655,-122.3035,60.0,12.8
2026-01-20T23:12:49+00:00,SAT-56320,293.3574906876119,39.576369828284086,3064.539131803489,4.969880924030742,-174066.2525350214,10.5,10499825933.747465,47.655,-122.3035,60.0,12.816666666666666
2026-01-20T23:12:50+00:00,SAT-56320,293.21730005705814,39.54732613785412,3069.4957597117223,4.978261454110558,-174359.77414802363,10.5,10499825640.225851,47.655,-122.3035,60.0,12.833333333333334
2026-01-20T23:12:51+00:00,SAT-56320,293.07765951767647,39.518068483095135,3074.460745801955,4.98659549993482,-174651.6676857682,10.5,10499825348.332314,47.655,-122.3035,60.0,12.85
2026-01-20T23:12:52+00:00,SAT-56320,292.938567920203,39.48859911333031,3079.43404371389,4.994883264986595,-174941.94027509275,10.5,10499825058.059725,47.655,-122.3035,60.0,12.866666666666667
2026-01-20T23:12:53+00:00,SAT-56320,292.8000240951104,39.45892026178413,3084.41560729017,5.0031249393715855,-175230.59857430318,10.5,10499824769.401426,47.655,-122.3035,60.0,12.883333333333333
2026-01-20T23:12:54+00:00,SAT-56320,292.66202685334525,39.42903414567396,3089.4053905630367,5.011320759091295,-175517.65084917046,10.5,10499824482.349152,47.655,-122.3035,60.0,12.9
2026-01-20T23:12:55+00:00,SAT-56320,292.52457498559,39.39894296594068,3094.403347800104,5.019470925933876,-175803.1041671692,10.5,10499824196.895832,47.655,-122.3035,60.0,12.916666666666666
2026-01-20T23:12:56+00:00,SAT-56320,292.3876672635616,39.36864890746815,3099.4094334702354,5.027575649731073,-176086.96587749472,10.5,10499823913.034122,47.655,-122.3035,60.0,12.933333333333334
2026-01-20T23:12:57+00:00,SAT-56320,292.25130244024365,39.33815413904698,3104.423602251567,5.035635143961109,-176369.24345705734,10.5,10499823630.756542,47.655,-122.3035,60.0,12.95
2026-01-20T23:12:58+00:00,SAT-56320,292.11547925018704,39.307460813370106,3109.445809035144,5.043649608989625,-176649.94392350948,10.5,10499823350.056076,47.655,-122.3035,60.0,12.966666666666667
2026-01-20T23:12:59+00:00,SAT-56320,291.98019641028424,39.27657106713108,3114.476008911843,5.051619248742856,-176929.07441921034,10.5,10499823070.925581,47.655,-122.3035,60.0,12.983333333333333
2026-01-20T23:13:00+00:00,SAT-56320,291.84545262004997,39.245487021025426,3119.5141571759227,5.059544300747981,-177206.64326336654,10.5,10499822793.356737,47.655,-122.3035,60.0,13.0
2026-01-20T23:13:01+00:00,SAT-56320,291.7112465612266,39.21421077956269,3124.5602093585353,5.0674249254474395,-177482.65607535103,10.5,10499822517.343925,47.655,-122.3035,60.0,13.016666666666667
2026-01-20T23:13:02+00:00,SAT-56320,291.5775769000652,39.182744431573724,3129.6141211508484,5.07526138047613,-177757.12187862766,10.5,10499822242.87812,47.655,-122.3035,60.0,13.033333333333333
2026-01-20T23:13:03+00:00,SAT-56320,291.44444228532984,39.151090049630994,3134.6758485009764,5.083053829427452,-178030.04640292932,10.5,10499821969.953598,47.655,-122.3035,60.0,13.05
2026-01-20T23:13:04+00:00,SAT-56320,291.3118413510068,39.11924969066637,3139.7453475201924,5.090802490586373,-178301.43729351895,10.5,10499821698.562706,47.655,-122.3035,60.0,13.066666666666666
2026-01-20T23:13:05+00:00,SAT-56320,291.17977271533766,39.08722539566089,3144.8225745374702,5.098507585997665,-178571.3023273437,10.5,10499821428.697672,47.655,-122.3035,60.0,13.083333333333334
2026-01-20T23:13:06+00:00,SAT-56320,291.04823498110926,39.055019189653386,3149.9074861032386,5.106169307268822,-178839.64821530844,10.5,10499821160.351784,47.655,-122.3035,60.0,13.1
2026-01-20T23:13:07+00:00,SAT-56320,290.91722673678396,39.02263308196781,3155.0000389590214,5.113787849630435,-179106.48179521435,10.5,10499820893.518206,47.655,-122.3035,60.0,13.116666666666667
2026-01-20T23:13:08+00:00,SAT-56320,290.7867465567573,38.99006906622934,3160.1001900410524,5.121363429198892,-179371.81063637155,10.5,10499820628.189363,47.655,-122.3035,60.0,13.133333333333333
2026-01-20T23:13:09+00:00,SAT-56320,290.6567930012485,38.95732912026959,3165.207896501107,5.128896244193629,-179635.64168126308,10.5,10499820364.358318,47.655,-122.3035,60.0,13.15
2026-01-20T23:13:10+00:00,SAT-56320,290.52736461705456,38.92441520628195,3170.3231156886495,5.136386501065202,-179897.98216066067,10.5,10499820102.01784,47.655,-122.3035,60.0,13.166666666666666
2026-01-20T23:13:11+00:00,SAT-56320,290.39845993775634,38.8913292708107,3175.4458051590454,5.143834392496497,-180158.83882313414,10.5,10499819841.161177,47.655,-122.3035,60.0,13.183333333333334
2026-01-20T23:13:12+00:00,SAT-56320,290.2700774843553,38.85807324488523,3180.5759226598284,5.151240119287177,-180418.21870153706,10.5,10499819581.781298,47.655,-122.3035,60.0,13.2
2026-01-20T23:13:13+00:00,SAT-56320,290.142215765448,38.82464904401284,3185.713426138798,5.1586038945403985,-180676.12925964332,10.5,10499819323.87074,47.655,-122.3035,60.0,13.216666666666667
2026-01-20T23:13:14+00:00,SAT-56320,290.01487327727824,38.79105856814552,3190.8582737562856,5.165925896191527,-180932.5767295021,10.5,10499819067.423271,47.655,-122.3035,60.0,13.233333333333333
2026-01-20T23:13:15+00:00,SAT-56320,289.8880485049017,38.75730370195882,3196.0104238500876,5.1732063576450615,-181187.5692859263,10.5,10499818812.430714,47.655,-122.3035,60.0,13.25
2026-01-20T23:13:16+00:00,SAT-56320,289.7617399212093,38.72338631453846,3201.169834990779,5.180445433921249,-181441.11235838063,10.5,10499818558.887642,47.655,-122.3035,60.0,13.266666666666667
2026-01-20T23:13:17+00:00,SAT-56320,289.63594598909754,38.689308259947,3206.336465903543,5.187643348482794,-181693.21377347436,10.5,10499818306.786226,47.655,-122.3035,60.0,13.283333333333333
2026-01-20T23:13:18+00:00,SAT-56320,289.5106651601802,38.655071376827,3211.5102755364296,5.194800307052994,-181943.8807365075,10.5,10499818056.119263,47.655,-122.3035,60.0,13.3
2026-01-20T23:13:19+00:00,SAT-56320,289.38589587556214,38.62067748857023,3216.691223042664,5.201916488479468,-182193.1195114802,10.5,10499817806.88049,47.655,-122.3035,60.0,13.316666666666666
2026-01-20T23:13:20+00:00,SAT-56320,289.26163656672156,38.58612840355276,3221.879267753841,5.208992070870375,-182440.9363364936,10.5,10499817559.063663,47.655,-122.3035,60.0,13.333333333333334
2026-01-20T23:13:21+00:00,SAT-56320,289.1378856558556,38.551425915198124,3227.0743691791886,5.216027305831599,-182687.34002385006,10.5,10499817312.659977,47.655,-122.3035,60.0,13.35
2026-01-20T23:13:22+00:00,SAT-56320,289.0146415545297,38.51657180154291,3232.2764870788715,5.223022330911297,-182932.33539106784,10.5,10499817067.664608,47.655,-122.3035,60.0,13.366666666666667
2026-01-20T23:13:23+00:00,SAT-56320,288.8919026665404,38.48156782605897,3237.485581350234,5.229977365812367,-183175.93013307176,10.5,10499816824.069866,47.655,-122.3035,60.0,13.383333333333333
2026-01-20T23:13:24+00:00,SAT-56320,288.76966738635934,38.44641573716454,3242.7016121097377,5.2368925902860415,-183418.1305455104,10.5,10499816581.869455,47.655,-122.3035,60.0,13.4
2026-01-20T23:13:25+00:00,SAT-56320,288.6479341003318,38.411117268553,3247.924539653116,5.243768218398045,-183658.94412587082,10.5,10499816341.055874,47.655,-122.3035,60.0,13.416666666666666
