satellites_20260121_005943/SAT-65528.csv

timestamp,satellite,azimuth_deg,elevation_deg,distance_km,relative_velocity_kms,doppler_shift_hz,tx_freq_ghz,rx_freq_hz,ue_lat,ue_lon,ue_alt_m,time_minutes
2026-01-20T23:05:02+00:00,SAT-65528,299.28176287443557,30.025765159818008,4297.225091157419,-3.259151091987463,114149.25743685107,10.5,10500114149.257437,47.655,-122.3035,60.0,5.033333333333333
2026-01-20T23:05:03+00:00,SAT-65528,299.1787007266505,30.060638309966635,4293.974631135011,-3.2507348819032664,113854.48615916914,10.5,10500113854.486158,47.655,-122.3035,60.0,5.05
2026-01-20T23:05:04+00:00,SAT-65528,299.07539191034806,30.09538510235831,4290.7325648794595,-3.242295497437243,113558.9032166081,10.5,10500113558.903217,47.655,-122.3035,60.0,5.066666666666666
2026-01-20T23:05:05+00:00,SAT-65528,298.971836443396,30.130004706940355,4287.498915503348,-3.233832927212893,113262.50821071482,10.5,10500113262.508211,47.655,-122.3035,60.0,5.083333333333333
2026-01-20T23:05:06+00:00,SAT-65528,298.86803435138296,30.16449629149732,4284.273706130608,-3.225347184212691,112965.30159619043,10.5,10500112965.301596,47.655,-122.3035,60.0,5.1
2026-01-20T23:05:07+00:00,SAT-65528,298.7639856669215,30.19885902193424,4281.0569598722195,-3.216838242124066,112667.28245145745,10.5,10500112667.282452,47.655,-122.3035,60.0,5.116666666666666
2026-01-20T23:05:08+00:00,SAT-65528,298.6596904309693,30.233092061878615,4277.848699865408,-3.208306101700709,112368.45080291328,10.5,10500112368.450804,47.655,-122.3035,60.0,5.133333333333334
2026-01-20T23:05:09+00:00,SAT-65528,298.55514869205734,30.267194572993812,4274.648949246646,-3.199750766483386,112068.80677457055,10.5,10500112068.806774,47.655,-122.3035,60.0,5.15
2026-01-20T23:05:10+00:00,SAT-65528,298.450360506279,30.301165715032315,4271.457731148873,-3.191172222331391,111768.34987116189,10.5,10500111768.34987,47.655,-122.3035,60.0,5.166666666666667
2026-01-20T23:05:11+00:00,SAT-65528,298.3453259379322,30.335004645671116,4268.275068719135,-3.182570476289157,111467.08033941318,10.5,10500111467.08034,47.655,-122.3035,60.0,5.183333333333334
2026-01-20T23:05:12+00:00,SAT-65528,298.24004505892844,30.3687105207624,4265.100985097449,-3.173945515213614,111164.99771899848,10.5,10500111164.997719,47.655,-122.3035,60.0,5.2
2026-01-20T23:05:13+00:00,SAT-65528,298.1345179495088,30.402282494143545,4261.935503436943,-3.1652973469023777,110862.1022830233,10.5,10500110862.102283,47.655,-122.3035,60.0,5.216666666666667
2026-01-20T23:05:14+00:00,SAT-65528,298.02874469766385,30.435719717885835,4258.778646882965,-3.1566259644319694,110558.39378899812,10.5,10500110558.39379,47.655,-122.3035,60.0,5.233333333333333
2026-01-20T23:05:15+00:00,SAT-65528,297.92272539967587,30.469021342163078,4255.630438587772,-3.1479313611264144,110253.87200310205,10.5,10500110253.872004,47.655,-122.3035,60.0,5.25
2026-01-20T23:05:16+00:00,SAT-65528,297.8164601602081,30.50218651528195,4252.490901710275,-3.1392135412059696,109948.53707314639,10.5,10500109948.537073,47.655,-122.3035,60.0,5.266666666666667
2026-01-20T23:05:17+00:00,SAT-65528,297.7099490920187,30.53521438382359,4249.360059405179,-3.1304725117735157,109642.38924790401,10.5,10500109642.389248,47.655,-122.3035,60.0,5.283333333333333
2026-01-20T23:05:18+00:00,SAT-65528,297.60319231594565,30.56810409270176,4246.237934820104,-3.121708262645851,109335.42817071616,10.5,10500109335.428171,47.655,-122.3035,60.0,5.3
2026-01-20T23:05:19+00:00,SAT-65528,297.4961899615597,30.60085478500749,4243.1245511128245,-3.1129207890477453,109027.65367433401,10.5,10500109027.653675,47.655,-122.3035,60.0,5.316666666666666
2026-01-20T23:05:20+00:00,SAT-65528,297.38894216707257,30.63346560209546,4240.0199314458805,-3.1041101048891715,108719.06624594372,10.5,10500108719.066246,47.655,-122.3035,60.0,5.333333333333333
2026-01-20T23:05:21+00:00,SAT-65528,297.28144907878635,30.665935683808872,4236.924098967937,-3.095276208826905,108409.66583849984,10.5,10500108409.665838,47.655,-122.3035,60.0,5.35
2026-01-20T23:05:22+00:00,SAT-65528,297.17371085169094,30.69826416834836,4233.8370768290015,-3.0864191004010078,108099.45243589344,10.5,10500108099.452436,47.655,-122.3035,60.0,5.366666666666666
2026-01-20T23:05:23+00:00,SAT-65528,297.0657276495046,30.730450192310606,4230.7588881795355,-3.077538774387488,107788.42585515819,10.5,10500107788.425856,47.655,-122.3035,60.0,5.383333333333334
2026-01-20T23:05:24+00:00,SAT-65528,296.9574996449342,30.762492890669343,4227.689556175213,-3.068635251383477,107476.58681769276,10.5,10500107476.586817,47.655,-122.3035,60.0,5.4
2026-01-20T23:05:25+00:00,SAT-65528,296.8490270188578,30.794391397075625,4224.629103951165,-3.0597085147193663,107163.93473965694,10.5,10500107163.93474,47.655,-122.3035,60.0,5.416666666666667
2026-01-20T23:05:26+00:00,SAT-65528,296.7403099616966,30.826144843499716,4221.577554659152,-3.0507585908246164,106850.47054672227,10.5,10500106850.470547,47.655,-122.3035,60.0,5.433333333333334
2026-01-20T23:05:27+00:00,SAT-65528,296.63134867200074,30.85775236071207,4218.5349314245705,-3.0417854591641,106536.19351966168,10.5,10500106536.19352,47.655,-122.3035,60.0,5.45
2026-01-20T23:05:28+00:00,SAT-65528,296.522143358158,30.889213077826586,4215.501257393297,-3.032789142214852,106221.10444571608,10.5,10500106221.104446,47.655,-122.3035,60.0,5.466666666666667
2026-01-20T23:05:29+00:00,SAT-65528,296.41269423698435,30.92052612278025,4212.476555688795,-3.023769647794818,105905.20359870291,10.5,10500105905.203598,47.655,-122.3035,60.0,5.483333333333333
2026-01-20T23:05:30+00:00,SAT-65528,296.3030015343105,30.9516906222134,4209.460849426727,-3.0147269646377812,105588.49058403165,10.5,10500105588.490583,47.655,-122.3035,60.0,5.5
2026-01-20T23:05:31+00:00,SAT-65528,296.19306548572627,30.98270570130584,4206.4541617339955,-3.005661106714195,105270.96589100668,10.5,10500105270.96589,47.655,-122.3035,60.0,5.516666666666667
2026-01-20T23:05:32+00:00,SAT-65528,296.0828863357936,31.013570484072407,4203.456515723566,-2.996572090839528,104952.63010857679,10.5,10500104952.630108,47.655,-122.3035,60.0,5.533333333333333
2026-01-20T23:05:33+00:00,SAT-65528,295.9724643379967,31.04428409342619,4200.467934491635,-2.987459919626536,104633.48332825181,10.5,10500104633.483328,47.655,-122.3035,60.0,5.55
2026-01-20T23:05:34+00:00,SAT-65528,295.86179975534657,31.074845651066337,4197.4884411317935,-2.9783245890841714,104313.5254102483,10.5,10500104313.52541,47.655,-122.3035,60.0,5.566666666666666
2026-01-20T23:05:35+00:00,SAT-65528,295.7508928606909,31.105254277446495,4194.518058741614,-2.9691661223511705,103992.75716498274,10.5,10500103992.757166,47.655,-122.3035,60.0,5.583333333333333
2026-01-20T23:05:36+00:00,SAT-65528,295.63974393581947,31.13550909208929,4191.556810395589,-2.9599845214299196,103671.17866258716,10.5,10500103671.178663,47.655,-122.3035,60.0,5.6
2026-01-20T23:05:37+00:00,SAT-65528,295.52835327230656,31.165609213405357,4188.6047191662165,-2.95077980807375,103348.79066495519,10.5,10500103348.790665,47.655,-122.3035,60.0,5.616666666666666
2026-01-20T23:05:38+00:00,SAT-65528,295.4167211708734,31.195553758931762,4185.661808104298,-2.9415519731987403,103025.59285392954,10.5,10500103025.592854,47.655,-122.3035,60.0,5.633333333333334
2026-01-20T23:05:39+00:00,SAT-65528,295.3048479425836,31.225341845055546,4182.728100269694,-2.9323010420532496,102701.58611381451,10.5,10500102701.586113,47.655,-122.3035,60.0,5.65
2026-01-20T23:05:40+00:00,SAT-65528,295.1927339076817,31.254972587401003,4179.803618697087,-2.923027016532429,102376.77051098632,10.5,10500102376.770512,47.655,-122.3035,60.0,5.666666666666667
2026-01-20T23:05:41+00:00,SAT-65528,295.0803793965148,31.28444510063004,4176.888386419265,-2.9137299155827123,102051.14670902921,10.5,10500102051.14671,47.655,-122.3035,60.0,5.683333333333334
2026-01-20T23:05:42+00:00,SAT-65528,294.9677847489938,31.31375849865456,4173.982426450124,-2.9044097518308183,101724.7151501843,10.5,10500101724.71515,47.655,-122.3035,60.0,5.7
2026-01-20T23:05:43+00:00,SAT-65528,294.8549503148897,31.342911894610474,4171.085761790964,-2.895066531022681,101397.47603569849,10.5,10500101397.476036,47.655,-122.3035,60.0,5.716666666666667
2026-01-20T23:05:44+00:00,SAT-65528,294.7418764541854,31.371904400829344,4168.198415437358,-2.8857002787873136,101069.43026320827,10.5,10500101069.430264,47.655,-122.3035,60.0,5.733333333333333
2026-01-20T23:05:45+00:00,SAT-65528,294.62856353639296,31.400735129077315,4165.320410359313,-2.8763109949148227,100740.57782536223,10.5,10500100740.577826,47.655,-122.3035,60.0,5.75
2026-01-20T23:05:46+00:00,SAT-65528,294.5150119416162,31.42940319033761,4162.451769527052,-2.866898701395877,100410.91949236664,10.5,10500100410.919493,47.655,-122.3035,60.0,5.766666666666667
2026-01-20T23:05:47+00:00,SAT-65528,294.4012220597769,31.457907695073416,4159.592515888859,-2.857463418214187,100080.45596413556,10.5,10500100080.455965,47.655,-122.3035,60.0,5.783333333333333
2026-01-20T23:05:48+00:00,SAT-65528,294.2871942907783,31.486247753249074,4156.742672373094,-2.8480051588563784,99749.1877130277,10.5,10500099749.187714,47.655,-122.3035,60.0,5.8
2026-01-20T23:05:49+00:00,SAT-65528,294.1729290448095,31.514422474307274,4153.902261894661,-2.838523925809172,99417.11482613851,10.5,10500099417.114826,47.655,-122.3035,60.0,5.816666666666666
2026-01-20T23:05:50+00:00,SAT-65528,294.0584267428759,31.542430967103343,4151.071307365987,-2.829019759505009,99084.23871958311,10.5,10500099084.23872,47.655,-122.3035,60.0,5.833333333333333
2026-01-20T23:05:51+00:00,SAT-65528,293.94368781537514,31.570272340323623,4148.249831659175,-2.819492661167173,98750.55943620608,10.5,10500098750.559437,47.655,-122.3035,60.0,5.85
2026-01-20T23:05:52+00:00,SAT-65528,293.82871270371703,31.597945702141214,4145.437857645104,-2.809942651515784,98416.07770171367,10.5,10500098416.077702,47.655,-122.3035,60.0,5.866666666666666
2026-01-20T23:05:53+00:00,SAT-65528,293.71350185963024,31.62545016045233,4142.635408173992,-2.8003697562098426,98080.7944147926,10.5,10500098080.794415,47.655,-122.3035,60.0,5.883333333333334
2026-01-20T23:05:54+00:00,SAT-65528,293.59805574503827,31.65278482296966,4139.842506070466,-2.7907739900924144,97744.71009530984,10.5,10500097744.710094,47.655,-122.3035,60.0,5.9
2026-01-20T23:05:55+00:00,SAT-65528,293.48237483256236,31.679948797160243,4137.059174144347,-2.7811553686057566,97407.82528411855,10.5,10500097407.825285,47.655,-122.3035,60.0,5.916666666666667
2026-01-20T23:05:56+00:00,SAT-65528,293.36645960558,31.706941190297716,4134.285435190058,-2.771513921531041,97070.1410242813,10.5,10500097070.141024,47.655,-122.3035,60.0,5.933333333333334
2026-01-20T23:05:57+00:00,SAT-65528,293.25031055770694,31.73376110964761,4131.521311972317,-2.761849660911042,96731.65773758705,10.5,10500096731.657738,47.655,-122.3035,60.0,5.95
2026-01-20T23:05:58+00:00,SAT-65528,293.1339281936034,31.760407662341017,4128.766827243835,-2.752162613300243,96392.3763540861,10.5,10500096392.376354,47.655,-122.3035,60.0,5.966666666666667
2026-01-20T23:05:59+00:00,SAT-65528,293.0173130284426,31.786879955562288,4126.022003730837,-2.74245281001108,96052.29797047243,10.5,10500096052.29797,47.655,-122.3035,60.0,5.983333333333333
2026-01-20T23:06:00+00:00,SAT-65528,292.90046558779574,31.8131770966417,4123.286864128319,-2.732720256127784,95711.4227648173,10.5,10500095711.422766,47.655,-122.3035,60.0,6.0
2026-01-20T23:06:01+00:00,SAT-65528,292.7833864087682,31.839298192850574,4120.561431126208,-2.7229649865752177,95369.75196033712,10.5,10500095369.75196,47.655,-122.3035,60.0,6.016666666666667
2026-01-20T23:06:02+00:00,SAT-65528,292.6660760388594,31.865242351736658,4117.845727379597,-2.7131870212196905,95027.28625283412,10.5,10500095027.286253,47.655,-122.3035,60.0,6.033333333333333
2026-01-20T23:06:03+00:00,SAT-65528,292.54853503663924,31.891008681028293,4115.139775523767,-2.7033863937785365,94684.02682323194,10.5,10500094684.026823,47.655,-122.3035,60.0,6.05
2026-01-20T23:06:04+00:00,SAT-65528,292.43076397124867,31.91659628881483,4112.443598160372,-2.6935631187863316,94339.9741805929,10.5,10500094339.97418,47.655,-122.3035,60.0,6.066666666666666
2026-01-20T23:06:05+00:00,SAT-65528,292.3127634232609,31.942004283414235,4109.757217876569,-2.6837172223528665,93995.12923939234,10.5,10500093995.12924,47.655,-122.3035,60.0,6.083333333333333
2026-01-20T23:06:06+00:00,SAT-65528,292.1945339842843,31.96723177353359,4107.080657233476,-2.673848744614798,93649.49340538573,10.5,10500093649.493406,47.655,-122.3035,60.0,6.1
2026-01-20T23:06:07+00:00,SAT-65528,292.0760762564103,31.992277868450383,4104.41393875218,-2.6639576974776817,93303.06709555602,10.5,10500093303.067095,47.655,-122.3035,60.0,6.116666666666666
2026-01-20T23:06:08+00:00,SAT-65528,291.9573908535023,32.01714167779839,4101.757084941895,-2.654044120072408,92955.85168043249,10.5,10500092955.85168,47.655,-122.3035,60.0,6.133333333333334
2026-01-20T23:06:09+00:00,SAT-65528,291.83847840007934,32.041822311874455,4099.11011827281,-2.6441080344984043,92607.84793403056,10.5,10500092607.847935,47.655,-122.3035,60.0,6.15
2026-01-20T23:06:10+00:00,SAT-65528,291.7193395321312,32.06631888153046,4096.47306119307,-2.634149472304429,92259.05696132124,10.5,10500092259.056961,47.655,-122.3035,60.0,6.166666666666667
2026-01-20T23:06:11+00:00,SAT-65528,291.5999748967626,32.09063049831395,4093.8459361193586,-2.624168465614038,91909.47988740732,10.5,10500091909.479887,47.655,-122.3035,60.0,6.183333333333334
2026-01-20T23:06:12+00:00,SAT-65528,291.4803851522363,32.114756274525796,4091.2287654363195,-2.6141650364966744,91559.11748525403,10.5,10500091559.117485,47.655,-122.3035,60.0,6.2
2026-01-20T23:06:13+00:00,SAT-65528,291.360570968479,32.13869532318029,4088.621571506587,-2.604139231254209,91207.97137654874,10.5,10500091207.971376,47.655,-122.3035,60.0,6.216666666666667
2026-01-20T23:06:14+00:00,SAT-65528,291.24053302607786,32.1624467582816,4086.024376646616,-2.594091071083979,90856.04230371192,10.5,10500090856.042303,47.655,-122.3035,60.0,6.233333333333333
2026-01-20T23:06:15+00:00,SAT-65528,291.1202720174392,32.1860096946466,4083.4372031517214,-2.5840205864766297,90503.3313346549,10.5,10500090503.331335,47.655,-122.3035,60.0,6.25
2026-01-20T23:06:16+00:00,SAT-65528,290.999788646462,32.20938324804547,4080.8600732868085,-2.5739278170641557,90149.83985745776,10.5,10500090149.839857,47.655,-122.3035,60.0,6.266666666666667
2026-01-20T23:06:17+00:00,SAT-65528,290.8790836281668,32.2325665353389,4078.2930092772567,-2.5638127946326534,89795.56898540411,10.5,10500089795.568985,47.655,-122.3035,60.0,6.283333333333333
2026-01-20T23:06:18+00:00,SAT-65528,290.75815768912616,32.255558674461504,4075.736033316743,-2.5536755516802367,89440.5198567153,10.5,10500089440.519857,47.655,-122.3035,60.0,6.3
2026-01-20T23:06:19+00:00,SAT-65528,290.637011567474,32.278358784484105,4073.1891675665343,-2.543516129682212,89084.69392403202,10.5,10500089084.693924,47.655,-122.3035,60.0,6.316666666666666
2026-01-20T23:06:20+00:00,SAT-65528,290.51564601257076,32.30096598575022,4070.652434146531,-2.5333345583003184,88728.09222623387,10.5,10500088728.092226,47.655,-122.3035,60.0,6.333333333333333
2026-01-20T23:06:21+00:00,SAT-65528,290.3940617855873,32.32337939982596,4068.1258551470532,-2.523130878227204,88370.71618854949,10.5,10500088370.716188,47.655,-122.3035,60.0,6.35
2026-01-20T23:06:22+00:00,SAT-65528,290.27225965906734,32.34559814965553,4065.6094526178344,-2.5129051246352345,88012.56704286391,10.5,10500088012.567043,47.655,-122.3035,60.0,6.366666666666666
2026-01-20T23:06:23+00:00,SAT-65528,290.15024041722154,32.36762135956887,4063.1032485735313,-2.5026573250861848,87653.64575450707,10.5,10500087653.645754,47.655,-122.3035,60.0,6.383333333333334
2026-01-20T23:06:24+00:00,SAT-65528,290.02800485636544,32.38944815527334,4060.607265001312,-2.4923875450702697,87293.95461722334,10.5,10500087293.954617,47.655,-122.3035,60.0,6.4
2026-01-20T23:06:25+00:00,SAT-65528,289.90555378316344,32.41107766424215,4058.121523823029,-2.4820957949129916,86933.49399265545,10.5,10500086933.493992,47.655,-122.3035,60.0,6.416666666666667
2026-01-20T23:06:26+00:00,SAT-65528,289.7828880173048,32.432509015291565,4055.6460469502354,-2.4717821331394134,86572.26593059869,10.5,10500086572.26593,47.655,-122.3035,60.0,6.433333333333334
2026-01-20T23:06:27+00:00,SAT-65528,289.6600083892567,32.453741339058574,4053.180856236118,-2.4614465941199297,86210.27163484968,10.5,10500086210.271635,47.655,-122.3035,60.0,6.45
2026-01-20T23:06:28+00:00,SAT-65528,289.53691574147786,32.4747737678502,4050.7259734995823,-2.4510892131946194,85847.51234316743,10.5,10500085847.512342,47.655,-122.3035,60.0,6.466666666666667
2026-01-20T23:06:29+00:00,SAT-65528,289.41361092841726,32.495605435711994,4048.2814205242894,-2.4407100484448696,85483.99008980783,10.5,10500085483.99009,47.655,-122.3035,60.0,6.483333333333333
2026-01-20T23:06:30+00:00,SAT-65528,289.290094815466,32.51623547868084,4045.847219035974,-2.4303091224386875,85119.70566519795,10.5,10500085119.705666,47.655,-122.3035,60.0,6.5
2026-01-20T23:06:31+00:00,SAT-65528,289.16636828072814,32.536663034543366,4043.4233907378616,-2.419886494636262,84754.66115188513,10.5,10500084754.661152,47.655,-122.3035,60.0,6.516666666666667
2026-01-20T23:06:32+00:00,SAT-65528,289.04243221327783,32.55688724320827,4041.0099572738777,-2.409442201079014,84388.85781219235,10.5,10500084388.857813,47.655,-122.3035,60.0,6.533333333333333
2026-01-20T23:06:33+00:00,SAT-65528,288.9182875143345,32.57690724656983,4038.6069402520016,-2.3989762885063906,84022.2972831328,10.5,10500084022.297283,47.655,-122.3035,60.0,6.55
2026-01-20T23:06:34+00:00,SAT-65528,288.7939350968051,32.59672218865764,4036.2143612335976,-2.3884888024127013,83654.9811581096,10.5,10500083654.981157,47.655,-122.3035,60.0,6.566666666666666
2026-01-20T23:06:35+00:00,SAT-65528,288.6693758853669,32.616331215687836,4033.8322417346585,-2.3779797889016105,83286.91105186813,10.5,10500083286.911053,47.655,-122.3035,60.0,6.583333333333333
2026-01-20T23:06:36+00:00,SAT-65528,288.54461081650095,32.6357334761296,4031.4606032251936,-2.367449296816596,82918.08867511355,10.5,10500082918.088675,47.655,-122.3035,60.0,6.6
2026-01-20T23:06:37+00:00,SAT-65528,288.41964083837973,32.654928120788924,4029.0994671265016,-2.356897369765453,82548.51555517536,10.5,10500082548.515554,47.655,-122.3035,60.0,6.616666666666666
2026-01-20T23:06:38+00:00,SAT-65528,288.29446691118216,32.67391430282831,4026.748854816389,-2.3463240579958717,82178.1934519402,10.5,10500082178.193453,47.655,-122.3035,60.0,6.633333333333334
2026-01-20T23:06:39+00:00,SAT-65528,288.1690900067945,32.692691177882786,4024.4087876225476,-2.335729406594061,81807.12394451778,10.5,10500081807.123945,47.655,-122.3035,60.0,6.65
2026-01-20T23:06:40+00:00,SAT-65528,288.04351110912137,32.71125790408177,4022.079286827705,-2.325113476813208,81435.30917825385,10.5,10500081435.309177,47.655,-122.3035,60.0,6.666666666666667
2026-01-20T23:06:41+00:00,SAT-65528,287.9177312132724,32.729613642239705,4019.760373653496,-2.3144763093556167,81062.75057871528,10.5,10500081062.750578,47.655,-122.3035,60.0,6.683333333333334
2026-01-20T23:06:42+00:00,SAT-65528,287.7917513266791,32.74775755575593,4017.4520692809656,-2.3038179534057805,80689.44986855105,10.5,10500080689.44987,47.655,-122.3035,60.0,6.7
2026-01-20T23:06:43+00:00,SAT-65528,287.66557246867933,32.76568881074646,4015.154394842102,-2.2931384665338186,80315.40906411027,10.5,10500080315.409063,47.655,-122.3035,60.0,6.716666666666667
2026-01-20T23:06:44+00:00,SAT-65528,287.53919567012986,32.78340657617256,4012.867371411479,-2.282437899326401,79940.6299371521,10.5,10500079940.629936,47.655,-122.3035,60.0,6.733333333333333
2026-01-20T23:06:45+00:00,SAT-65528,287.4126219737819,32.80091002385024,4010.591020013218,-2.271716304986516,79565.11435107024,10.5,10500079565.114351,47.655,-122.3035,60.0,6.75
2026-01-20T23:06:46+00:00,SAT-65528,287.28585243419974,32.8181983285342,4008.325361618378,-2.260973739345153,79188.86426130208,10.5,10500079188.864262,47.655,-122.3035,60.0,6.766666666666667
2026-01-20T23:06:47+00:00,SAT-65528,287.15888811763136,32.83527066800259,4006.0704171423376,-2.250210253281718,78811.88144985969,10.5,10500078811.88145,47.655,-122.3035,60.0,6.783333333333333
2026-01-20T23:06:48+00:00,SAT-65528,287.03173010231626,32.85212622308377,4003.8262074497316,-2.2394259022089367,78434.16785753108,10.5,10500078434.167858,47.655,-122.3035,60.0,6.8
2026-01-20T23:06:49+00:00,SAT-65528,286.9043794782674,32.86876417775586,4001.592753349928,-2.228620745944785,78055.7255793948,10.5,10500078055.72558,47.655,-122.3035,60.0,6.816666666666666
2026-01-20T23:06:50+00:00,SAT-65528,286.7768373470642,32.88518371924412,3999.3700755926393,-2.2177948430875105,77676.55666780936,10.5,10500077676.556667,47.655,-122.3035,60.0,6.833333333333333
2026-01-20T23:06:51+00:00,SAT-65528,286.64910482192477,32.90138403807644,3997.1581948691337,-2.206948241987615,77296.66281621387,10.5,10500077296.662817,47.655,-122.3035,60.0,6.85
2026-01-20T23:06:52+00:00,SAT-65528,286.5211830283233,32.91736432807366,3994.9571318224575,-2.1960810100751913,76916.04638629539,10.5,10500076916.046387,47.655,-122.3035,60.0,6.866666666666666
2026-01-20T23:06:53+00:00,SAT-65528,286.39307310293464,32.933123786555115,3992.7669070284096,-2.185193200852059,76534.70925191393,10.5,10500076534.709251,47.655,-122.3035,60.0,6.883333333333334
2026-01-20T23:06:54+00:00,SAT-65528,286.2647761944503,32.94866161430226,3990.5875410094263,-2.17428487584127,76152.65356786705,10.5,10500076152.653568,47.655,-122.3035,60.0,6.9
2026-01-20T23:06:55+00:00,SAT-65528,286.13629346313894,32.96397701568299,3988.4190542265874,-2.1633560936949423,75769.88138840003,10.5,10500075769.881388,47.655,-122.3035,60.0,6.916666666666667
2026-01-20T23:06:56+00:00,SAT-65528,286.0076260810357,32.979069198696926,3986.2614670824755,-2.152406920941077,75386.39504360485,10.5,10500075386.395044,47.655,-122.3035,60.0,6.933333333333334
2026-01-20T23:06:57+00:00,SAT-65528,285.87877523150655,32.99393737509645,3984.1147999133236,-2.141437414085074,75002.19651253961,10.5,10500075002.196512,47.655,-122.3035,60.0,6.95
2026-01-20T23:06:58+00:00,SAT-65528,285.74974210984715,33.00858076038295,3981.9790729990095,-2.1304476357680673,74617.28798916185,10.5,10500074617.287989,47.655,-122.3035,60.0,6.966666666666667
2026-01-20T23:06:59+00:00,SAT-65528,285.62052792293434,33.02299857391642,3979.854306556937,-2.119437656393234,74231.67193928862,10.5,10500074231.67194,47.655,-122.3035,60.0,6.983333333333333
2026-01-20T23:07:00+00:00,SAT-65528,285.49113388880727,33.03719003903399,3977.740520734294,-2.1084075294471467,73845.35023624591,10.5,10500073845.350237,47.655,-122.3035,60.0,7.0
2026-01-20T23:07:01+00:00,SAT-65528,285.3615612376499,33.051154383001915,3975.6377356249254,-2.09735732853375,73458.32545795524,10.5,10500073458.325459,47.655,-122.3035,60.0,7.016666666666667
2026-01-20T23:07:02+00:00,SAT-65528,285.2318112106435,33.06489083721794,3973.5459712492675,-2.0862871121918296,73070.59965469249,10.5,10500073070.599655,47.655,-122.3035,60.0,7.033333333333333
2026-01-20T23:07:03+00:00,SAT-65528,285.10188506084506,33.07839863717746,3971.465247569375,-2.0751969553644893,72682.17545128216,10.5,10500072682.175451,47.655,-122.3035,60.0,7.05
2026-01-20T23:07:04+00:00,SAT-65528,284.97178405224207,33.09167702264753,3969.395584472558,-2.0640869129684325,72293.0547711395,10.5,10500072293.054771,47.655,-122.3035,60.0,7.066666666666666
2026-01-20T23:07:05+00:00,SAT-65528,284.84150946094735,33.104725237604576,3967.3370017913576,-2.052957063083495,71903.24034895067,10.5,10500071903.240349,47.655,-122.3035,60.0,7.083333333333333
2026-01-20T23:07:06+00:00,SAT-65528,284.7110625738152,33.11754253044981,3965.2895192804426,-2.041807472428768,71512.73452150042,10.5,10500071512.734522,47.655,-122.3035,60.0,7.1
2026-01-20T23:07:07+00:00,SAT-65528,284.5804446891403,33.13012815400272,3963.25315662794,-2.0306382084607693,71121.53965140137,10.5,10500071121.539652,47.655,-122.3035,60.0,7.116666666666666
2026-01-20T23:07:08+00:00,SAT-65528,284.4496571165988,33.142481365573296,3961.2279334547015,-2.0194493377822083,70729.65807136211,10.5,10500070729.658072,47.655,-122.3035,60.0,7.133333333333334
2026-01-20T23:07:09+00:00,SAT-65528,284.31870117733126,33.154601427024424,3959.2138693151537,-2.008240936113764,70337.09243344115,10.5,10500070337.092434,47.655,-122.3035,60.0,7.15
2026-01-20T23:07:10+00:00,SAT-65528,284.187578203362,33.16648760489441,3957.210983688203,-1.9970130748369364,69943.84523772052,10.5,10500069943.845238,47.655,-122.3035,60.0,7.166666666666667
2026-01-20T23:07:11+00:00,SAT-65528,284.05628953787505,33.17813917043655,3955.2192959815657,-1.9857658227433372,69549.9188935735,10.5,10500069549.918894,47.655,-122.3035,60.0,7.183333333333334
2026-01-20T23:07:12+00:00,SAT-65528,283.92483653537147,33.189555399671384,3953.2388255343494,-1.9744992543898219,69155.3160122965,10.5,10500069155.316011,47.655,-122.3035,60.0,7.2
2026-01-20T23:07:13+00:00,SAT-65528,283.79322056131565,33.20073557348759,3951.269591611305,-1.963213443385926,68760.03917200686,10.5,10500068760.039171,47.655,-122.3035,60.0,7.216666666666667
2026-01-20T23:07:14+00:00,SAT-65528,283.6614429921764,33.211678977703485,3949.3116134037678,-1.9519084640501503,68364.09097565283,10.5,10500068364.090975,47.655,-122.3035,60.0,7.233333333333333
2026-01-20T23:07:15+00:00,SAT-65528,283.52950521538935,33.222384903137275,3947.364910028955,-1.940584391481114,67967.4740535057,10.5,10500067967.474054,47.655,-122.3035,60.0,7.25
2026-01-20T23:07:16+00:00,SAT-65528,283.3974086292881,33.232852645678236,3945.4295005291847,-1.9292413030908524,67570.19111686242,10.5,10500067570.191116,47.655,-122.3035,60.0,7.266666666666667
2026-01-20T23:07:17+00:00,SAT-65528,283.26515464296256,33.243081506366174,3943.505403869569,-1.9178792705891745,67172.24467730382,10.5,10500067172.244677,47.655,-122.3035,60.0,7.283333333333333
2026-01-20T23:07:18+00:00,SAT-65528,283.1327446766003,33.25307079142755,3941.592638943701,-1.9064983792746695,66773.63772234734,10.5,10500066773.637722,47.655,-122.3035,60.0,7.3
2026-01-20T23:07:19+00:00,SAT-65528,283.00018016060824,33.262819812413575,3939.6912245601043,-1.8950986975628663,66374.37264819417,10.5,10500066374.372648,47.655,-122.3035,60.0,7.316666666666666
2026-01-20T23:07:20+00:00,SAT-65528,282.86746253669463,33.27232788617879,3937.8011794590684,-1.8836803090584588,65974.45238303432,10.5,10500065974.452383,47.655,-122.3035,60.0,7.333333333333333
2026-01-20T23:07:21+00:00,SAT-65528,282.7345932568676,33.2815943350263,3935.9225222975006,-1.8722432947416918,65573.87976313855,10.5,10500065573.879763,47.655,-122.3035,60.0,7.35
2026-01-20T23:07:22+00:00,SAT-65528,282.6015737835736,33.290618486759556,3934.055271651545,-1.8607877364018979,65172.65765311524,10.5,10500065172.657654,47.655,-122.3035,60.0,7.366666666666666
2026-01-20T23:07:23+00:00,SAT-65528,282.4684055896455,33.29939967475115,3932.199446015774,-1.8493137071317527,64770.78861297906,10.5,10500064770.788612,47.655,-122.3035,60.0,7.383333333333334
2026-01-20T23:07:24+00:00,SAT-65528,282.33509015884994,33.30793723796837,3930.355063811861,-1.8378212933809628,64368.275670564435,10.5,10500064368.275671,47.655,-122.3035,60.0,7.4
2026-01-20T23:07:25+00:00,SAT-65528,282.20162898499825,33.31623052110318,3928.522143375262,-1.826310580551287,63965.12181700219,10.5,10500063965.121817,47.655,-122.3035,60.0,7.416666666666667
2026-01-20T23:07:26+00:00,SAT-65528,282.06802357195085,33.324278874630345,3926.700702956259,-1.8147816502328342,63561.32990992308,10.5,10500063561.32991,47.655,-122.3035,60.0,7.433333333333334
2026-01-20T23:07:27+00:00,SAT-65528,281.93427543389316,33.332081654856026,3924.89076072376,-1.803234578679916,63156.90262007564,10.5,10500063156.90262,47.655,-122.3035,60.0,7.45
2026-01-20T23:07:28+00:00,SAT-65528,281.8003860956651,33.33963822396059,3923.0923347706234,-1.7916694611618844,62751.84328419558,10.5,10500062751.843285,47.655,-122.3035,60.0,7.466666666666667
2026-01-20T23:07:29+00:00,SAT-65528,281.66635709142224,33.34694795014599,3921.3054430946913,-1.7800863783718424,62346.15472849669,10.5,10500062346.154728,47.655,-122.3035,60.0,7.483333333333333
2026-01-20T23:07:30+00:00,SAT-65528,281.53218996561253,33.354010207636804,3919.5301036133287,-1.768485413447428,61939.83986481072,10.5,10500061939.839865,47.655,-122.3035,60.0,7.5
2026-01-20T23:07:31+00:00,SAT-65528,281.3978862728064,33.36082437675697,3917.7663341609837,-1.7568666561275472,61532.90183617376,10.5,10500061532.901836,47.655,-122.3035,60.0,7.516666666666667
2026-01-20T23:07:32+00:00,SAT-65528,281.26344757716834,33.367389844020394,3916.0141524826054,-1.745230196891074,61125.3438115387,10.5,10500061125.343811,47.655,-122.3035,60.0,7.533333333333333
2026-01-20T23:07:33+00:00,SAT-65528,281.1288754523997,33.37370600219672,3914.2735762329066,-1.733576122378806,60717.168825432775,10.5,10500060717.168825,47.655,-122.3035,60.0,7.55
2026-01-20T23:07:34+00:00,SAT-65528,280.9941714819472,33.379772250359245,3912.5446229801873,-1.7219045143155314,60308.37974020373,10.5,10500060308.37974,47.655,-122.3035,60.0,7.566666666666666
2026-01-20T23:07:35+00:00,SAT-65528,280.85933725937554,33.38558799393346,3910.827310211243,-1.7102154725430558,59898.98005273397,10.5,10500059898.980053,47.655,-122.3035,60.0,7.583333333333333
2026-01-20T23:07:36+00:00,SAT-65528,280.72437438696755,33.39115264482344,3909.1216553132936,-1.6985090801786908,59488.972674143304,10.5,10500059488.972673,47.655,-122.3035,60.0,7.6
2026-01-20T23:07:37+00:00,SAT-65528,280.58928447694404,33.39646562141688,3907.427675590662,-1.6867854354953673,59078.36104636547,10.5,10500059078.361046,47.655,-122.3035,60.0,7.616666666666666
2026-01-20T23:07:38+00:00,SAT-65528,280.4540691502841,33.40152634869711,3905.745388249661,-1.6750446218060604,58667.14808737328,10.5,10500058667.148087,47.655,-122.3035,60.0,7.633333333333334
2026-01-20T23:07:39+00:00,SAT-65528,280.3187300378278,33.406334258258795,3904.074810413513,-1.6632867372739266,58255.33723525569,10.5,10500058255.337234,47.655,-122.3035,60.0,7.65
2026-01-20T23:07:40+00:00,SAT-65528,280.18326877909516,33.41088878841574,3902.415959107539,-1.6515118737769685,57842.931707969015,10.5,10500057842.931707,47.655,-122.3035,60.0,7.666666666666667
2026-01-20T23:07:41+00:00,SAT-65528,280.0476870227441,33.415189384242886,3900.7688512654254,-1.6397201265753913,57429.934841928574,10.5,10500057429.934841,47.655,-122.3035,60.0,7.683333333333334
2026-01-20T23:07:42+00:00,SAT-65528,279.91198642623647,33.419235497646575,3899.133503725854,-1.6279115862985016,57016.34981135605,10.5,10500057016.349812,47.655,-122.3035,60.0,7.7
2026-01-20T23:07:43+00:00,SAT-65528,279.7761686561997,33.42302658741455,3897.509933237119,-1.6160863523667917,56602.180098377634,10.5,10500056602.180098,47.655,-122.3035,60.0,7.716666666666667
2026-01-20T23:07:44+00:00,SAT-65528,279.64023538764906,33.426562119298055,3895.898156448359,-1.6042445236107103,56187.42916445369,10.5,10500056187.429165,47.655,-122.3035,60.0,7.733333333333333
2026-01-20T23:07:45+00:00,SAT-65528,279.5041883040204,33.429841566068795,3894.298189910144,-1.5923861859371864,55772.10001840826,10.5,10500055772.100018,47.655,-122.3035,60.0,7.75
2026-01-20T23:07:46+00:00,SAT-65528,279.3680290981331,33.432864407551314,3892.7100500873694,-1.5805114437152479,55356.19631568618,10.5,10500055356.196316,47.655,-122.3035,60.0,7.766666666666667
2026-01-20T23:07:47+00:00,SAT-65528,279.23175947068574,33.43563013072365,3891.1337533408378,-1.5686204016579872,54939.72172378288,10.5,10500054939.721724,47.655,-122.3035,60.0,7.783333333333333
2026-01-20T23:07:48+00:00,SAT-65528,279.09538113014025,33.43813822977142,3889.569315926917,-1.5567131480889187,54522.67933616143,10.5,10500054522.679337,47.655,-122.3035,60.0,7.8
2026-01-20T23:07:49+00:00,SAT-65528,278.9588957940437,33.44038820611801,3888.01675401389,-1.5447897838896656,54105.072686123036,10.5,10500054105.072685,47.655,-122.3035,60.0,7.816666666666666
2026-01-20T23:07:50+00:00,SAT-65528,278.8223051879165,33.442379568506155,3886.476083669424,-1.5328504172744475,53686.90556378739,10.5,10500053686.905563,47.655,-122.3035,60.0,7.833333333333333
2026-01-20T23:07:51+00:00,SAT-65528,278.6856110446262,33.44411183306494,3884.947320853262,-1.520895140018606,53268.18118351517,10.5,10500053268.181183,47.655,-122.3035,60.0,7.85
2026-01-20T23:07:52+00:00,SAT-65528,278.54881510566463,33.44558452334262,3883.430481433617,-1.5089240615642188,52848.903378430885,10.5,10500052848.903378,47.655,-122.3035,60.0,7.866666666666666
2026-01-20T23:07:53+00:00,SAT-65528,278.41191911964125,33.44679717038671,3881.9255811695502,-1.4969372765291018,52429.07546245065,10.5,10500052429.075462,47.655,-122.3035,60.0,7.883333333333334
2026-01-20T23:07:54+00:00,SAT-65528,278.27492484345476,33.44774931278261,3880.4326357257587,-1.484934894372104,52008.7012692864,10.5,10500052008.70127,47.655,-122.3035,60.0,7.9
2026-01-20T23:07:55+00:00,SAT-65528,278.13783404099934,33.44844049672497,3878.9516606577713,-1.4729170124569517,51587.784209027675,10.5,10500051587.784208,47.655,-122.3035,60.0,7.916666666666667
2026-01-20T23:07:56+00:00,SAT-65528,278.0006484841215,33.44887027606168,3877.4826714240144,-1.4608837452154246,51166.32828955944,10.5,10500051166.328289,47.655,-122.3035,60.0,7.933333333333334
2026-01-20T23:07:57+00:00,SAT-65528,277.8633699510894,33.449038212358744,3876.0256833687863,-1.448835184029503,50744.33671146518,10.5,10500050744.336712,47.655,-122.3035,60.0,7.95
2026-01-20T23:07:58+00:00,SAT-65528,277.72600022854743,33.44894387494365,3874.5807117452478,-1.4367714470191175,50321.813611804515,10.5,10500050321.813612,47.655,-122.3035,60.0,7.966666666666667
2026-01-20T23:07:59+00:00,SAT-65528,277.5885411091025,33.448586840968304,3873.147771688754,-1.424692638036944,49898.762627937474,10.5,10500049898.762629,47.655,-122.3035,60.0,7.983333333333333
2026-01-20T23:08:00+00:00,SAT-65528,277.45099439250026,33.44796669545498,3871.726878231085,-1.4125988545193855,49475.187172499005,10.5,10500049475.187172,47.655,-122.3035,60.0,8.0
2026-01-20T23:08:01+00:00,SAT-65528,277.3133618861816,33.44708303135435,3870.3180463068443,-1.4004902162944985,49051.09144237456,10.5,10500049051.091442,47.655,-122.3035,60.0,8.016666666666667
2026-01-20T23:08:02+00:00,SAT-65528,277.1756454031589,33.445935449591026,3868.9212907311266,-1.3883668245518888,48626.47898165214,10.5,10500048626.478981,47.655,-122.3035,60.0,8.033333333333333
2026-01-20T23:08:03+00:00,SAT-65528,277.0378467636664,33.4445235591195,3867.536626218107,-1.3762287943398055,48201.35381980809,10.5,10500048201.353819,47.655,-122.3035,60.0,8.05
2026-01-20T23:08:04+00:00,SAT-65528,276.89996779381147,33.44284697696814,3866.1640673672186,-1.3640762294214797,47775.71959106969,10.5,10500047775.719591,47.655,-122.3035,60.0,8.066666666666666
2026-01-20T23:08:05+00:00,SAT-65528,276.7620103265481,33.440905328296,3864.803628674409,-1.3519092413318377,47349.580201861834,10.5,10500047349.580202,47.655,-122.3035,60.0,8.083333333333334
2026-01-20T23:08:06+00:00,SAT-65528,276.62397620088393,33.43869824643691,3863.4553245243874,-1.3397279435543208,46922.93962685468,10.5,10500046922.939627,47.655,-122.3035,60.0,8.1
2026-01-20T23:08:07+00:00,SAT-65528,276.4858672616515,33.436225372946105,3862.1191691886825,-1.3275324475928547,46495.80177138736,10.5,10500046495.801771,47.655,-122.3035,60.0,8.116666666666667
2026-01-20T23:08:08+00:00,SAT-65528,276.3476853595737,33.43348635764656,3860.7951768276166,-1.3153228624265285,46068.170452368584,10.5,10500046068.170452,47.655,-122.3035,60.0,8.133333333333333
2026-01-20T23:08:09+00:00,SAT-65528,276.2094323514843,33.43048085868389,3859.4833614928234,-1.3030993054744382,45640.04978231173,10.5,10500045640.049782,47.655,-122.3035,60.0,8.15
2026-01-20T23:08:10+00:00,SAT-65528,276.0711100993999,33.42720854255658,3858.18373711883,-1.2908618870639803,45211.44362534895,10.5,10500045211.443624,47.655,-122.3035,60.0,8.166666666666666
2026-01-20T23:08:11+00:00,SAT-65528,275.9327204711807,33.42366908417655,3856.8963175301315,-1.2786107234626232,44782.35605365877,10.5,10500044782.356054,47.655,-122.3035,60.0,8.183333333333334
2026-01-20T23:08:12+00:00,SAT-65528,275.79426533981183,33.419862166899,3855.621116435265,-1.266345925315402,44352.79094249836,10.5,10500044352.790943,47.655,-122.3035,60.0,8.2
2026-01-20T23:08:13+00:00,SAT-65528,275.6557465839588,33.41578748258525,3854.358147432417,-1.2540676166309885,43922.752635175966,10.5,10500043922.752636,47.655,-122.3035,60.0,8.216666666666667
2026-01-20T23:08:14+00:00,SAT-65528,275.517166086478,33.41144473160559,3853.107423996097,-1.2417759039042948,43492.24486159387,10.5,10500043492.244862,47.655,-122.3035,60.0,8.233333333333333
2026-01-20T23:08:15+00:00,SAT-65528,275.3785257361717,33.40683362293588,3851.8689594946027,-1.2294709101422927,43061.27192997655,10.5,10500043061.27193,47.655,-122.3035,60.0,8.25
2026-01-20T23:08:16+00:00,SAT-65528,275.23982742597696,33.40195387414764,3850.642767173554,-1.2171527465053502,42629.8377336303,10.5,10500042629.837734,47.655,-122.3035,60.0,8.266666666666667
2026-01-20T23:08:17+00:00,SAT-65528,275.1010730541677,33.39680521149285,3849.4288601677063,-1.204821539217979,42197.94669347146,10.5,10500042197.946693,47.655,-122.3035,60.0,8.283333333333333
2026-01-20T23:08:18+00:00,SAT-65528,274.96226452263926,33.39138736988631,3848.2272514859264,-1.19247740468131,41765.602886359986,10.5,10500041765.602886,47.655,-122.3035,60.0,8.3
2026-01-20T23:08:19+00:00,SAT-65528,274.8234037378969,33.38570009298181,3847.037954020991,-1.1801204548241402,41332.810232515825,10.5,10500041332.810232,47.655,-122.3035,60.0,8.316666666666666
2026-01-20T23:08:20+00:00,SAT-65528,274.68449261144167,33.37974313323345,3845.860980554046,-1.16775081557418,40899.573142460074,10.5,10500040899.573143,47.655,-122.3035,60.0,8.333333333333334
2026-01-20T23:08:21+00:00,SAT-65528,274.5455330582058,33.37351625187572,3844.6963437406466,-1.1553686092024993,40465.8958986428,10.5,10500040465.895899,47.655,-122.3035,60.0,8.35
2026-01-20T23:08:22+00:00,SAT-65528,274.4065269968345,33.367019218972686,3843.5440561144023,-1.142973952684009,40031.782598020174,10.5,10500040031.782598,47.655,-122.3035,60.0,8.366666666666667
2026-01-20T23:08:23+00:00,SAT-65528,274.2674763502149,33.36025181348332,3842.4041300922586,-1.1305669644710155,39597.23738929303,10.5,10500039597.237389,47.655,-122.3035,60.0,8.383333333333333
2026-01-20T23:08:24+00:00,SAT-65528,274.12838304520824,33.353213823290865,3841.276577973026,-1.118147775579525,39162.26486119612,10.5,10500039162.264862,47.655,-122.3035,60.0,8.4
2026-01-20T23:08:25+00:00,SAT-65528,273.98924901118244,33.34590504517176,3840.1614119248484,-1.105716500750824,38726.86903245462,10.5,10500038726.869032,47.655,-122.3035,60.0,8.416666666666666
2026-01-20T23:08:26+00:00,SAT-65528,273.8500761817321,33.33832528491734,3839.0586440014326,-1.0932732700225953,38291.05445753826,10.5,10500038291.054457,47.655,-122.3035,60.0,8.433333333333334
2026-01-20T23:08:27+00:00,SAT-65528,273.71086649288617,33.330474357281396,3837.968286126797,-1.0808181984624021,37854.825166599825,10.5,10500037854.825167,47.655,-122.3035,60.0,8.45
2026-01-20T23:08:28+00:00,SAT-65528,273.5716218847087,33.322352086102946,3836.890350110197,-1.0683514163198553,37418.18572153167,10.5,10500037418.185722,47.655,-122.3035,60.0,8.466666666666667
2026-01-20T23:08:29+00:00,SAT-65528,273.4323442995103,33.313958304247414,3835.8248476309873,-1.0558730511286407,36981.140589102906,10.5,10500036981.140589,47.655,-122.3035,60.0,8.483333333333333
2026-01-20T23:08:30+00:00,SAT-65528,273.2930356820026,33.30529285364653,3834.7717902413287,-1.043383220034939,36543.69387226833,10.5,10500036543.693872,47.655,-122.3035,60.0,8.5
2026-01-20T23:08:31+00:00,SAT-65528,273.15369798050193,33.2963555854069,3833.731189376547,-1.0308820563351393,36105.85023963132,10.5,10500036105.850239,47.655,-122.3035,60.0,8.516666666666667
2026-01-20T23:08:32+00:00,SAT-65528,273.0143331448715,33.28714635972097,3832.7030563390285,-1.0183696830595919,35667.614000235175,10.5,10500035667.614,47.655,-122.3035,60.0,8.533333333333333
2026-01-20T23:08:33+00:00,SAT-65528,272.87494312771366,33.27766504597552,3831.6874023084574,-1.005846228000665,35228.98962990918,10.5,10500035228.98963,47.655,-122.3035,60.0,8.55
2026-01-20T23:08:34+00:00,SAT-65528,272.7355298836501,33.26791152273718,3830.6842383370645,-0.9933118189431048,34789.98160421568,10.5,10500034789.981604,47.655,-122.3035,60.0,8.566666666666666
2026-01-20T23:08:35+00:00,SAT-65528,272.5960953692941,33.25788567778579,3829.6935753496386,-0.9807665847729692,34350.5944372896,10.5,10500034350.594437,47.655,-122.3035,60.0,8.583333333333334
2026-01-20T23:08:36+00:00,SAT-65528,272.45664154296486,33.24758740812503,3828.7154241424255,-0.9682106516060098,33910.83254623805,10.5,10500033910.832546,47.655,-122.3035,60.0,8.6
2026-01-20T23:08:37+00:00,SAT-65528,272.31717036500027,33.23701662003741,3827.74979538589,-0.9556441519803521,33470.700573106806,10.5,10500033470.700573,47.655,-122.3035,60.0,8.616666666666667
2026-01-20T23:08:38+00:00,SAT-65528,272.1776837968005,33.226173229045344,3826.796699618315,-0.9430672114308527,33030.20291465756,10.5,10500033030.202915,47.655,-122.3035,60.0,8.633333333333333
2026-01-20T23:08:39+00:00,SAT-65528,272.03818380169645,33.21505716000656,3825.8561472527813,-0.9304799650936565,32589.34430392973,10.5,10500032589.344303,47.655,-122.3035,60.0,8.65
2026-01-20T23:08:40+00:00,SAT-65528,271.89867234355233,33.20366834703572,3824.9281485675947,-0.9178825412109062,32148.129232505627,10.5,10500032148.129232,47.655,-122.3035,60.0,8.666666666666666
2026-01-20T23:08:41+00:00,SAT-65528,271.75915138762247,33.192006733600245,3824.0127137131603,-0.905275070745755,31706.56228726884,10.5,10500031706.562286,47.655,-122.3035,60.0,8.683333333333334
2026-01-20T23:08:42+00:00,SAT-65528,271.6196229000515,33.18007227250682,3823.10985270927,-0.8926576840845247,31264.648034899896,10.5,10500031264.648035,47.655,-122.3035,60.0,8.7
2026-01-20T23:08:43+00:00,SAT-65528,271.48008884795894,33.16786492594081,3822.219575445676,-0.8800305155537663,30822.391180082814,10.5,10500030822.39118,47.655,-122.3035,60.0,8.716666666666667
2026-01-20T23:08:44+00:00,SAT-65528,271.34055119870055,33.155384665427,3821.341891678164,-0.8673936978664323,30379.796370986554,10.5,10500030379.796371,47.655,-122.3035,60.0,8.733333333333333
2026-01-20T23:08:45+00:00,SAT-65528,271.20101192007223,33.142631471872356,3820.4768110301584,-0.8547473617229254,29936.868185292096,10.5,10500029936.868185,47.655,-122.3035,60.0,8.75
2026-01-20T23:08:46+00:00,SAT-65528,271.0614729804639,33.12960533560682,3819.6243429947335,-0.8420916430888049,29493.61138508845,10.5,10500029493.611385,47.655,-122.3035,60.0,8.766666666666667
2026-01-20T23:08:47+00:00,SAT-65528,270.9219363480578,33.11630625633462,3818.7844969293596,-0.829426675846437,29050.03065950241,10.5,10500029050.030659,47.655,-122.3035,60.0,8.783333333333333
2026-01-20T23:08:48+00:00,SAT-65528,270.7824039909824,33.102734243171305,3817.957282057982,-0.8167525938522691,28606.13069675297,10.5,10500028606.130697,47.655,-122.3035,60.0,8.8
2026-01-20T23:08:49+00:00,SAT-65528,270.6428778772906,33.08888931466482,3817.1427074710464,-0.8040695304489383,28161.916167063322,10.5,10500028161.916166,47.655,-122.3035,60.0,8.816666666666666
2026-01-20T23:08:50+00:00,SAT-65528,270.50335997489594,33.07477149881288,3816.340782126012,-0.7913776226128529,27717.391867926697,10.5,10500027717.391869,47.655,-122.3035,60.0,8.833333333333334
2026-01-20T23:08:51+00:00,SAT-65528,270.36385225098155,33.06038083302709,3815.5515148437266,-0.7786770088725247,27272.562651197546,10.5,10500027272.56265,47.655,-122.3035,60.0,8.85
2026-01-20T23:08:52+00:00,SAT-65528,270.2243566716146,33.04571736411089,3814.7749143068777,-0.7659678191589112,26827.433067607617,10.5,10500026827.433067,47.655,-122.3035,60.0,8.866666666666667
2026-01-20T23:08:53+00:00,SAT-65528,270.0848752030475,33.03078114841574,3814.0109890685694,-0.753250195633279,26382.008096245798,10.5,10500026382.008097,47.655,-122.3035,60.0,8.883333333333333
2026-01-20T23:08:54+00:00,SAT-65528,269.9454098096505,33.01557225164466,3813.259747540125,-0.7405242714929143,25936.292402244486,10.5,10500025936.292402,47.655,-122.3035,60.0,8.9
2026-01-20T23:08:55+00:00,SAT-65528,269.80596245534167,33.00009074902326,3812.5211980000227,-0.7277901880727181,25490.290935749763,10.5,10500025490.290936,47.655,-122.3035,60.0,8.916666666666666
2026-01-20T23:08:56+00:00,SAT-65528,269.6665351020657,32.9843367251503,3811.7953485857847,-0.7150480826255707,25044.008503938054,10.5,10500025044.008505,47.655,-122.3035,60.0,8.933333333333334
2026-01-20T23:08:57+00:00,SAT-65528,269.52712971044343,32.968310274084494,3811.082207298046,-0.7022980881881606,24597.449766316957,10.5,10500024597.449766,47.655,-122.3035,60.0,8.95
2026-01-20T23:08:58+00:00,SAT-65528,269.3877482403784,32.95201149943345,3810.3817820047598,-0.6895403500503552,24150.619811552195,10.5,10500024150.619812,47.655,-122.3035,60.0,8.966666666666667
2026-01-20T23:08:59+00:00,SAT-65528,269.24839264890795,32.93544051412273,3809.694080428976,-0.6767750045278773,23703.523413996998,10.5,10500023703.523415,47.655,-122.3035,60.0,8.983333333333333
2026-01-20T23:09:00+00:00,SAT-65528,269.1090648916004,32.91859744056795,3809.019110157794,-0.664002189505324,23256.165402953204,10.5,10500023256.165403,47.655,-122.3035,60.0,9.0
2026-01-20T23:09:01+00:00,SAT-65528,268.96976692230277,32.90148241066495,3808.3568786407936,-0.6512220488495472,22808.550817246527,10.5,10500022808.550817,47.655,-122.3035,60.0,9.016666666666667
2026-01-20T23:09:02+00:00,SAT-65528,268.8305006918525,32.88409556564257,3807.7073931840746,-0.6384347185494843,22360.684419784786,10.5,10500022360.68442,47.655,-122.3035,60.0,9.033333333333333
2026-01-20T23:09:03+00:00,SAT-65528,268.6912681495194,32.8664370562525,3807.070660958108,-0.6256403423337518,21912.571244552102,10.5,10500021912.571245,47.655,-122.3035,60.0,9.05
2026-01-20T23:09:04+00:00,SAT-65528,268.55207124144624,32.84850704258802,3806.44668899002,-0.6128390586505623,21464.216140590514,10.5,10500021464.21614,47.655,-122.3035,60.0,9.066666666666666
2026-01-20T23:09:05+00:00,SAT-65528,268.41291191159,32.83030569421173,3805.8354841688597,-0.6000310109693401,21015.624132806137,10.5,10500021015.624132,47.655,-122.3035,60.0,9.083333333333334
2026-01-20T23:09:06+00:00,SAT-65528,268.2737921006119,32.81183319002291,3805.237053240586,-0.5872163394789507,20566.80013120604,10.5,10500020566.80013,47.655,-122.3035,60.0,9.1
2026-01-20T23:09:07+00:00,SAT-65528,268.1347137465421,32.7930897183539,3804.6514028113456,-0.5743951869246051,20117.749135331327,10.5,10500020117.749136,47.655,-122.3035,60.0,9.116666666666667
2026-01-20T23:09:08+00:00,SAT-65528,267.99567878404775,32.77407547687866,3804.0785393449196,-0.5615676946534018,19668.476095755283,10.5,10500019668.476095,47.655,-122.3035,60.0,9.133333333333333
2026-01-20T23:09:09+00:00,SAT-65528,267.8566891447487,32.754790672664434,3803.5184691641184,-0.548734004164905,19218.98596839118,10.5,10500019218.985968,47.655,-122.3035,60.0,9.15
2026-01-20T23:09:10+00:00,SAT-65528,267.7177467570476,32.735235522156835,3802.9711984506316,-0.5358942636397364,18769.283943151204,10.5,10500018769.283943,47.655,-122.3035,60.0,9.166666666666666
2026-01-20T23:09:11+00:00,SAT-65528,267.57885354467265,32.7154102509776,3802.4367332383613,-0.5230486104512235,18319.374831430374,10.5,10500018319.374832,47.655,-122.3035,60.0,9.183333333333334
2026-01-20T23:09:12+00:00,SAT-65528,267.4400114288359,32.695315094234935,3801.9150794242046,-0.5101971893276516,17869.263702225428,10.5,10500017869.263702,47.655,-122.3035,60.0,9.2
2026-01-20T23:09:13+00:00,SAT-65528,267.3012223266673,32.67495029630693,3801.406242760715,-0.49734014651789793,17418.955677790695,10.5,10500017418.955677,47.655,-122.3035,60.0,9.216666666666667
2026-01-20T23:09:14+00:00,SAT-65528,267.16248815071395,32.65431611077058,3800.9102288545882,-0.4844776245872643,16968.455751366084,10.5,10500016968.455751,47.655,-122.3035,60.0,9.233333333333333
2026-01-20T23:09:15+00:00,SAT-65528,267.0238108097007,32.633412800511074,3800.427043170333,-0.47160976647865904,16517.768929416896,10.5,10500016517.768929,47.655,-122.3035,60.0,9.25
2026-01-20T23:09:16+00:00,SAT-65528,266.88519220837117,32.61224063770462,3799.956691029898,-0.45873671968355756,16066.90037771849,10.5,10500016066.900377,47.655,-122.3035,60.0,9.266666666666667
2026-01-20T23:09:17+00:00,SAT-65528,266.7466342463495,32.59079990364585,3799.499177608134,-0.44585862729835063,15615.855108111764,10.5,10500015615.855108,47.655,-122.3035,60.0,9.283333333333333
2026-01-20T23:09:18+00:00,SAT-65528,266.60813881911713,32.569090888893655,3799.054507937175,-0.4329756356501822,15164.638245592267,10.5,10500015164.638247,47.655,-122.3035,60.0,9.3
2026-01-20T23:09:19+00:00,SAT-65528,266.4697078170729,32.54711389312617,3798.6226869032203,-0.4200878882664136,14713.254817095309,10.5,10500014713.254818,47.655,-122.3035,60.0,9.316666666666666
2026-01-20T23:09:20+00:00,SAT-65528,266.33134312630455,32.52486922526016,3798.203719249322,-0.4071955318787316,14261.709961785235,10.5,10500014261.70996,47.655,-122.3035,60.0,9.333333333333334
2026-01-20T23:09:21+00:00,SAT-65528,266.1930466275342,32.502357203281505,3797.797609572195,-0.3942987129423514,13810.00880914319,10.5,10500013810.00881,47.655,-122.3035,60.0,9.35
2026-01-20T23:09:22+00:00,SAT-65528,266.05482019622673,32.479578154255336,3797.4043623224875,-0.3813975778250747,13358.156485588723,10.5,10500013358.156487,47.655,-122.3035,60.0,9.366666666666667
2026-01-20T23:09:23+00:00,SAT-65528,265.91666570243336,32.45653241429552,3797.0239818048694,-0.36849227102496246,12906.158052055152,10.5,10500012906.158052,47.655,-122.3035,60.0,9.383333333333333
2026-01-20T23:09:24+00:00,SAT-65528,265.7785850113257,32.43322032864956,3796.656472179901,-0.35558294100469795,12454.018708333646,10.5,10500012454.01871,47.655,-122.3035,60.0,9.4
2026-01-20T23:09:25+00:00,SAT-65528,265.64057998195113,32.40964225148308,3796.3018374600724,-0.3426697326038659,12001.74352731913,10.5,10500012001.743526,47.655,-122.3035,60.0,9.416666666666666
2026-01-20T23:09:26+00:00,SAT-65528,265.50265246820754,32.3857985460361,3795.960081513422,-0.32975279576965966,11549.337760796592,10.5,10500011549.33776,47.655,-122.3035,60.0,9.433333333333334
2026-01-20T23:09:27+00:00,SAT-65528,265.3648043172627,32.361689584345676,3795.631208058441,-0.31683227455849716,11096.806454231148,10.5,10500011096.806454,47.655,-122.3035,60.0,9.45
2026-01-20T23:09:28+00:00,SAT-65528,265.2270373713159,32.33731574753911,3795.315220669948,-0.30390831782388283,10644.15482110217,10.5,10500010644.154821,47.655,-122.3035,60.0,9.466666666666667
2026-01-20T23:09:29+00:00,SAT-65528,265.0893534658965,32.31267742552866,3795.0121227743048,-0.2909810733845857,10191.388038648221,10.5,10500010191.388039,47.655,-122.3035,60.0,9.483333333333333
2026-01-20T23:09:30+00:00,SAT-65528,264.95175443031235,32.28777501707813,3794.7219176504495,-0.2780506870580051,9738.51121401144,10.5,10500009738.511213,47.655,-122.3035,60.0,9.5
2026-01-20T23:09:31+00:00,SAT-65528,264.8142420880464,32.26260892986245,3794.44460843189,-0.26511731007357303,9285.529643886226,10.5,10500009285.529644,47.655,-122.3035,60.0,9.516666666666667
2026-01-20T23:09:32+00:00,SAT-65528,264.67681825499466,32.23717958013552,3794.18019810131,-0.2521810875305743,8832.448410263309,10.5,10500008832.44841,47.655,-122.3035,60.0,9.533333333333333
2026-01-20T23:09:33+00:00,SAT-65528,264.5394847414191,32.211487393071785,3793.92868949668,-0.23924216832520379,8379.272728117261,10.5,10500008379.272728,47.655,-122.3035,60.0,9.55
2026-01-20T23:09:34+00:00,SAT-65528,264.40224335062084,32.18553280250971,3793.69008530747,-0.22630070153153325,7926.00781865266,10.5,10500007926.007818,47.655,-122.3035,60.0,9.566666666666666
2026-01-20T23:09:35+00:00,SAT-65528,264.265095878692,32.15931625088808,3793.4643880744757,-0.2133568345663299,7472.6588450282625,10.5,10500007472.658846,47.655,-122.3035,60.0,9.583333333333334
2026-01-20T23:09:36+00:00,SAT-65528,264.12804411518033,32.13283818935406,3793.2516001914682,-0.2004107169300618,7019.231043382849,10.5,10500007019.231043,47.655,-122.3035,60.0,9.6
2026-01-20T23:09:37+00:00,SAT-65528,263.9910898420678,32.106099077552194,3793.051723903117,-0.18746249688974778,6565.729606654586,10.5,10500006565.729607,47.655,-122.3035,60.0,9.616666666666667
2026-01-20T23:09:38+00:00,SAT-65528,263.85423483433044,32.07909938371141,3792.864761306219,-0.17451232260415578,6112.159723990239,10.5,10500006112.159723,47.655,-122.3035,60.0,9.633333333333333
2026-01-20T23:09:39+00:00,SAT-65528,263.7174808599062,32.05183958462605,3792.6907143498083,-0.16156034430101646,5658.5266570004,10.5,10500005658.526657,47.655,-122.3035,60.0,9.65
2026-01-20T23:09:40+00:00,SAT-65528,263.58082967861134,32.02432016541483,3792.529584833092,-0.14860671020974034,5204.835597306032,10.5,10500005204.835598,47.655,-122.3035,60.0,9.666666666666666
2026-01-20T23:09:41+00:00,SAT-65528,263.44428304299413,31.996541619671902,3792.3813744074428,-0.13565156914723994,4751.091757104908,10.5,10500004751.091757,47.655,-122.3035,60.0,9.683333333333334
2026-01-20T23:09:42+00:00,SAT-65528,263.30784269811795,31.968504449404563,3792.2460845758133,-0.1226950709585565,4297.300384604216,10.5,10500004297.300385,47.655,-122.3035,60.0,9.7
2026-01-20T23:09:43+00:00,SAT-65528,263.171510380787,31.940209164849215,3792.1237166917103,-0.10973736441791208,3843.466690506527,10.5,10500003843.46669,47.655,-122.3035,60.0,9.716666666666667
2026-01-20T23:09:44+00:00,SAT-65528,263.03528782020754,31.911656284585106,3792.0142719602645,-0.09677859904254608,3389.5959115380215,10.5,10500003389.595911,47.655,-122.3035,60.0,9.733333333333333
2026-01-20T23:09:45+00:00,SAT-65528,262.8991767373149,31.88284633537028,3791.917751437486,-0.08381892391313717,2935.693269134677,10.5,10500002935.69327,47.655,-122.3035,60.0,9.75
2026-01-20T23:09:46+00:00,SAT-65528,262.7631788452304,31.853779852212174,3791.8341560307035,-0.07085848861960016,2481.7640025680757,10.5,10500002481.764002,47.655,-122.3035,60.0,9.766666666666667
2026-01-20T23:09:47+00:00,SAT-65528,262.6272958485847,31.824457378199455,3791.7634864980537,-0.05789744284078835,2027.8133542248008,10.5,10500002027.813354,47.655,-122.3035,60.0,9.783333333333333
2026-01-20T23:09:48+00:00,SAT-65528,262.49152944354375,31.794879464476413,3791.7057434483936,-0.044935936100548,1573.8465610624335,10.5,10500001573.846561,47.655,-122.3035,60.0,9.8
2026-01-20T23:09:49+00:00,SAT-65528,262.3558813175783,31.76504667016483,3791.660927341456,-0.03197411714667381,1119.8688328579465,10.5,10500001119.868834,47.655,-122.3035,60.0,9.816666666666666
2026-01-20T23:09:50+00:00,SAT-65528,262.22035315056365,31.734959562582024,3791.629038488622,-0.01901213650369675,665.8854416171332,10.5,10500000665.88544,47.655,-122.3035,60.0,9.833333333333334
2026-01-20T23:09:51+00:00,SAT-65528,262.08494661239195,31.704618716676507,3791.610077051149,-0.0060501429682006036,211.90159882576611,10.5,10500000211.901598,47.655,-122.3035,60.0,9.85
2026-01-20T23:09:52+00:00,SAT-65528,261.9496633653781,31.67402471553906,3791.6040430418952,0.006911713437404763,-242.07744109676707,10.5,10499999757.92256,47.655,-122.3035,60.0,9.866666666666667
2026-01-20T23:09:53+00:00,SAT-65528,261.81450506208273,31.643178149879333,3791.6109363240967,0.019873283368166447,-696.0464474584871,10.5,10499999303.953552,47.655,-122.3035,60.0,9.883333333333333
2026-01-20T23:09:54+00:00,SAT-65528,261.6794733465364,31.61207961826961,3791.630756612042,0.03283441731700943,-1150.0001838892126,10.5,10499998849.999817,47.655,-122.3035,60.0,9.9
2026-01-20T23:09:55+00:00,SAT-65528,261.54456985358075,31.58072972696436,3791.6635034709134,0.04579496568283805,-1603.9334107257612,10.5,10499998396.06659,47.655,-122.3035,60.0,9.916666666666666
2026-01-20T23:09:56+00:00,SAT-65528,261.4097962090126,31.54912908989668,3791.7091763166877,0.05875477889098404,-2057.84088923055,10.5,10499997942.159111,47.655,-122.3035,60.0,9.933333333333334
2026-01-20T23:09:57+00:00,SAT-65528,261.2751540288225,31.517278328465796,3791.7677744161683,0.07171370773422209,-2511.7173935354035,10.5,10499997488.282606,47.655,-122.3035,60.0,9.95
2026-01-20T23:09:58+00:00,SAT-65528,261.14064492063255,31.485178071840345,3791.8392968873486,0.08467160263788391,-2965.557684902737,10.5,10499997034.442314,47.655,-122.3035,60.0,9.966666666666667
2026-01-20T23:09:59+00:00,SAT-65528,261.0062704818664,31.452828956489128,3791.923742699046,0.09762831417468501,-3419.3565297569717,10.5,10499996580.64347,47.655,-122.3035,60.0,9.983333333333333
2026-01-20T23:10:00+00:00,SAT-65528,260.8720323004317,31.420231626301714,3792.0211106710494,0.11058369323396182,-3873.108705611931,10.5,10499996126.891294,47.655,-122.3035,60.0,10.0
2026-01-20T23:10:01+00:00,SAT-65528,260.73793195504527,31.387386732633846,3792.131399474435,0.12353759035742835,-4326.808977806232,10.5,10499995673.191023,47.655,-122.3035,60.0,10.016666666666667
2026-01-20T23:10:02+00:00,SAT-65528,260.60397101473865,31.35429493414626,3792.2546076312183,0.13648985656960755,-4780.452128588503,10.5,10499995219.54787,47.655,-122.3035,60.0,10.033333333333333
2026-01-20T23:10:03+00:00,SAT-65528,260.47015103832473,31.32095689663398,3792.390733514837,0.14944034262871508,-5234.032930880164,10.5,10499994765.96707,47.655,-122.3035,60.0,10.05
2026-01-20T23:10:04+00:00,SAT-65528,260.33647357477105,31.2873732930737,3792.539775349885,0.16238889965481917,-5687.546170276242,10.5,10499994312.453829,47.655,-122.3035,60.0,10.066666666666666
2026-01-20T23:10:05+00:00,SAT-65528,260.20294016352165,31.253544803666845,3792.7017312124744,0.17533537850320538,-6140.986623097959,10.5,10499993859.013376,47.655,-122.3035,60.0,10.083333333333334
2026-01-20T23:10:06+00:00,SAT-65528,260.06955233401277,31.219472115675046,3792.876599029968,0.18827963089262487,-6594.349095908748,10.5,10499993405.650904,47.655,-122.3035,60.0,10.1
2026-01-20T23:10:07+00:00,SAT-65528,259.93631160483613,31.185155923160202,3793.064376581845,0.20122150746287815,-7047.628357482631,10.5,10499992952.371643,47.655,-122.3035,60.0,10.116666666666667
2026-01-20T23:10:08+00:00,SAT-65528,259.80321948537767,31.150596927364326,3793.2650614986214,0.2141608601044945,-7500.819220399441,10.5,10499992499.18078,47.655,-122.3035,60.0,10.133333333333333
2026-01-20T23:10:09+00:00,SAT-65528,259.670277474353,31.115795836284075,3793.478651263099,0.22709754029583715,-7953.9164828032135,10.5,10499992046.083517,47.655,-122.3035,60.0,10.15
2026-01-20T23:10:10+00:00,SAT-65528,259.5374870599609,31.080753364664584,3793.705143209954,0.24003139954220476,-8406.914943781374,10.5,10499991593.085056,47.655,-122.3035,60.0,10.166666666666666
2026-01-20T23:10:11+00:00,SAT-65528,259.40484972032914,31.045470234071864,3793.944534525764,0.2529622898647392,-8859.80942048836,10.5,10499991140.19058,47.655,-122.3035,60.0,10.183333333333334
2026-01-20T23:10:12+00:00,SAT-65528,259.27236692293445,31.009947172687095,3794.1968222495225,0.2658900629750764,-9312.594719238406,10.5,10499990687.405281,47.655,-122.3035,60.0,10.2
2026-01-20T23:10:13+00:00,SAT-65528,259.14004012515005,30.974184915410657,3794.4620032723296,0.27881457146966304,-9765.26567733556,10.5,10499990234.734324,47.655,-122.3035,60.0,10.216666666666667
2026-01-20T23:10:14+00:00,SAT-65528,259.007870773042,30.938184203484056,3794.7400743382755,0.29173566733457373,-10217.817110706048,10.5,10499989782.18289,47.655,-122.3035,60.0,10.233333333333333
2026-01-20T23:10:15+00:00,SAT-65528,258.8758603026561,30.901945784790676,3795.0310320438307,0.3046532027520561,-10670.24384214692,10.5,10499989329.756157,47.655,-122.3035,60.0,10.25
2026-01-20T23:10:16+00:00,SAT-65528,258.7440101392397,30.865470413594352,3795.3348728380415,0.31756703118405477,-11122.54073927562,10.5,10499988877.45926,47.655,-122.3035,60.0,10.266666666666667
