satellites_20260121_005943/SAT-59771.csv

timestamp,satellite,azimuth_deg,elevation_deg,distance_km,relative_velocity_kms,doppler_shift_hz,tx_freq_ghz,rx_freq_hz,ue_lat,ue_lon,ue_alt_m,time_minutes
2026-01-20T23:10:33+00:00,SAT-59771,210.0523479394931,30.11449446935764,1503.794955970363,-5.970470727615292,209111.139947225,10.5,10500209111.139948,47.655,-122.3035,60.0,10.55
2026-01-20T23:10:34+00:00,SAT-59771,210.07517951360853,30.276091900032334,1497.8404064980214,-5.961835021100025,208808.68097605798,10.5,10500208808.680977,47.655,-122.3035,60.0,10.566666666666666
2026-01-20T23:10:35+00:00,SAT-59771,210.09849785881573,30.438753929704397,1491.8944697036443,-5.953088817654395,208502.35193498814,10.5,10500208502.351934,47.655,-122.3035,60.0,10.583333333333334
2026-01-20T23:10:36+00:00,SAT-59771,210.12231125014412,30.60249140826685,1485.9572557895037,-5.94423051320976,208192.09664274636,10.5,10500208192.096643,47.655,-122.3035,60.0,10.6
2026-01-20T23:10:37+00:00,SAT-59771,210.14662815047433,30.767315298429825,1480.0288765576624,-5.935258535659925,207877.86003752373,10.5,10500207877.860037,47.655,-122.3035,60.0,10.616666666666667
2026-01-20T23:10:38+00:00,SAT-59771,210.17145721613358,30.9332366778373,1474.1094453780977,-5.926171215569782,207559.58364864104,10.5,10500207559.583649,47.655,-122.3035,60.0,10.633333333333333
2026-01-20T23:10:39+00:00,SAT-59771,210.1968073020621,31.100266737615623,1468.1990772857694,-5.916966908839486,207237.20989276722,10.5,10500207237.209892,47.655,-122.3035,60.0,10.65
2026-01-20T23:10:40+00:00,SAT-59771,210.2226874677569,31.268416784265867,1462.2978889553535,-5.907643939307896,206910.6800636489,10.5,10500206910.680063,47.655,-122.3035,60.0,10.666666666666666
2026-01-20T23:10:41+00:00,SAT-59771,210.2491069831264,31.437698239962874,1456.405998733217,-5.898200594493432,206579.93418293746,10.5,10500206579.934183,47.655,-122.3035,60.0,10.683333333333334
2026-01-20T23:10:42+00:00,SAT-59771,210.27607533455483,31.608122642690358,1450.5235266736422,-5.88863508908866,206244.9097216146,10.5,10500206244.909721,47.655,-122.3035,60.0,10.7
2026-01-20T23:10:43+00:00,SAT-59771,210.30360223096395,31.779701645270414,1444.6505946114578,-5.878945716445352,205905.54690564025,10.5,10500205905.546906,47.655,-122.3035,60.0,10.716666666666667
2026-01-20T23:10:44+00:00,SAT-59771,210.33169761087635,31.952447018724705,1438.7873260835897,-5.869130655838485,205561.78196552262,10.5,10500205561.781965,47.655,-122.3035,60.0,10.733333333333333
2026-01-20T23:10:45+00:00,SAT-59771,210.36037164874097,32.12637065006271,1432.9338464428336,-5.859188074100045,205213.55069596338,10.5,10500205213.550695,47.655,-122.3035,60.0,10.75
2026-01-20T23:10:46+00:00,SAT-59771,210.38963476200237,32.30148454292395,1427.0902828702642,-5.849116138675944,204860.78891316676,10.5,10500204860.788914,47.655,-122.3035,60.0,10.766666666666667
2026-01-20T23:10:47+00:00,SAT-59771,210.4194976184918,32.47780081859611,1421.256764374625,-5.838912953489199,204503.4302084964,10.5,10500204503.430208,47.655,-122.3035,60.0,10.783333333333333
2026-01-20T23:10:48+00:00,SAT-59771,210.4499711437571,32.65533171508208,1415.4334218556783,-5.828576607644151,204141.40765430324,10.5,10500204141.407654,47.655,-122.3035,60.0,10.8
2026-01-20T23:10:49+00:00,SAT-59771,210.48106652889138,32.834089587553116,1409.6203881189879,-5.818105175414277,203774.65380349866,10.5,10500203774.653803,47.655,-122.3035,60.0,10.816666666666666
2026-01-20T23:10:50+00:00,SAT-59771,210.51279523869133,33.01408690876922,1403.817797890708,-5.807496675573672,203403.09926517084,10.5,10500203403.099266,47.655,-122.3035,60.0,10.833333333333334
2026-01-20T23:10:51+00:00,SAT-59771,210.5451690198426,33.195336268201366,1398.0257878729358,-5.796749091638688,203026.6734135327,10.5,10500203026.673414,47.655,-122.3035,60.0,10.85
2026-01-20T23:10:52+00:00,SAT-59771,210.5781999095374,33.377850371682634,1392.244496778875,-5.785860420315247,202645.3060847518,10.5,10500202645.306086,47.655,-122.3035,60.0,10.866666666666667
2026-01-20T23:10:53+00:00,SAT-59771,210.61190024470946,33.56164204252246,1386.4740653196807,-5.774828577537144,202258.92428601393,10.5,10500202258.924286,47.655,-122.3035,60.0,10.883333333333333
2026-01-20T23:10:54+00:00,SAT-59771,210.64628267103487,33.74672421962014,1380.7146362850167,-5.763651471836714,201867.45476527466,10.5,10500201867.454765,47.655,-122.3035,60.0,10.9
2026-01-20T23:10:55+00:00,SAT-59771,210.68136015270989,33.93310995778548,1374.9663545504382,-5.752326969678402,201470.82279709392,10.5,10500201470.822798,47.655,-122.3035,60.0,10.916666666666666
2026-01-20T23:10:56+00:00,SAT-59771,210.71714598240845,34.12081242689521,1369.2293671193459,-5.740852933956407,201068.95353098665,10.5,10500201068.953531,47.655,-122.3035,60.0,10.933333333333334
2026-01-20T23:10:57+00:00,SAT-59771,210.75365379183881,34.30984491221162,1363.5038231265466,-5.729227126283844,200661.76856917582,10.5,10500200661.76857,47.655,-122.3035,60.0,10.95
2026-01-20T23:10:58+00:00,SAT-59771,210.79089756206793,34.500220811420114,1357.7898739392663,-5.717447347743192,200249.19089626835,10.5,10500200249.190897,47.655,-122.3035,60.0,10.966666666666667
2026-01-20T23:10:59+00:00,SAT-59771,210.82889163517765,34.69195363616607,1352.0876731177837,-5.705511346237323,199831.1416342965,10.5,10500199831.141634,47.655,-122.3035,60.0,10.983333333333333
2026-01-20T23:11:00+00:00,SAT-59771,210.86765072576864,34.88505701048627,1346.3973764684697,-5.693416805759199,199407.53966689712,10.5,10500199407.539667,47.655,-122.3035,60.0,11.0
2026-01-20T23:11:01+00:00,SAT-59771,210.9071899327874,35.07954466873975,1340.7191421075256,-5.681161381304799,198978.30286211,10.5,10500198978.302862,47.655,-122.3035,60.0,11.016666666666667
2026-01-20T23:11:02+00:00,SAT-59771,210.94752475208043,35.275430454562546,1335.0531304899043,-5.668742744648467,198543.34967562428,10.5,10500198543.349676,47.655,-122.3035,60.0,11.033333333333333
2026-01-20T23:11:03+00:00,SAT-59771,210.98867108980158,35.47272832132036,1329.399504392575,-5.656158480466606,198102.59551259078,10.5,10500198102.595512,47.655,-122.3035,60.0,11.05
2026-01-20T23:11:04+00:00,SAT-59771,211.03064527554602,35.67145232886914,1323.7584290013895,-5.643406126851938,197655.95414660283,10.5,10500197655.954147,47.655,-122.3035,60.0,11.066666666666666
2026-01-20T23:11:05+00:00,SAT-59771,211.0734640762977,35.87161664153544,1318.1300719575427,-5.630483249091271,197203.34030370554,10.5,10500197203.340303,47.655,-122.3035,60.0,11.083333333333334
2026-01-20T23:11:06+00:00,SAT-59771,211.11714471155992,36.07323552856318,1312.514603330449,-5.617387293359683,196744.66453814748,10.5,10500196744.664537,47.655,-122.3035,60.0,11.1
2026-01-20T23:11:07+00:00,SAT-59771,211.16170486786402,36.27632335926015,1306.9121957365383,-5.604115766235443,196279.83951975254,10.5,10500196279.83952,47.655,-122.3035,60.0,11.116666666666667
2026-01-20T23:11:08+00:00,SAT-59771,211.20716271539283,36.48089460435994,1301.3230242790128,-5.59066603459331,195808.77302533662,10.5,10500195808.773026,47.655,-122.3035,60.0,11.133333333333333
2026-01-20T23:11:09+00:00,SAT-59771,211.25353692355603,36.686963830061906,1295.7472666871784,-5.577035496488085,195331.37392377257,10.5,10500195331.373924,47.655,-122.3035,60.0,11.15
2026-01-20T23:11:10+00:00,SAT-59771,211.30084667867922,36.89454569802461,1290.1851032853476,-5.563221501367663,194847.549381514,10.5,10500194847.549381,47.655,-122.3035,60.0,11.166666666666666
2026-01-20T23:11:11+00:00,SAT-59771,211.34911170173723,37.10365496233417,1284.6367170413168,-5.54922134189884,194357.2045763,10.5,10500194357.204576,47.655,-122.3035,60.0,11.183333333333334
2026-01-20T23:11:12+00:00,SAT-59771,211.3983522667362,37.31430646594227,1279.1022936229965,-5.535032267794689,193860.24318144866,10.5,10500193860.243181,47.655,-122.3035,60.0,11.2
2026-01-20T23:11:13+00:00,SAT-59771,211.44858921996232,37.5265151373902,1273.5820214412493,-5.52065153209026,193356.56898662783,10.5,10500193356.568987,47.655,-122.3035,60.0,11.216666666666667
2026-01-20T23:11:14+00:00,SAT-59771,211.49984400052455,37.740295989100794,1268.0760916465779,-5.5060763016194185,192846.0827623752,10.5,10500192846.082762,47.655,-122.3035,60.0,11.233333333333333
2026-01-20T23:11:15+00:00,SAT-59771,211.55213866085202,37.9556641120408,1262.584698215096,-5.491303732619647,192328.6849080983,10.5,10500192328.684908,47.655,-122.3035,60.0,11.25
2026-01-20T23:11:16+00:00,SAT-59771,211.6054958888403,38.172634673020674,1257.1080379590967,-5.47633091783145,191804.2735992719,10.5,10500191804.2736,47.655,-122.3035,60.0,11.266666666666667
2026-01-20T23:11:17+00:00,SAT-59771,211.6599390303715,38.39122290970396,1251.6463105903795,-5.461154938918426,191272.74662341064,10.5,10500191272.746624,47.655,-122.3035,60.0,11.283333333333333
2026-01-20T23:11:18+00:00,SAT-59771,211.71549211338078,38.611444127409825,1246.1997187312982,-5.445772813635541,190733.99952967855,10.5,10500190733.999529,47.655,-122.3035,60.0,11.3
2026-01-20T23:11:19+00:00,SAT-59771,211.77217987237708,38.833313693557166,1240.7684679784988,-5.4301815529431146,190187.9276292624,10.5,10500190187.92763,47.655,-122.3035,60.0,11.316666666666666
2026-01-20T23:11:20+00:00,SAT-59771,211.83002777466444,39.056847034109786,1235.352766909697,-5.4143780617365085,189634.42251850557,10.5,10500189634.422518,47.655,-122.3035,60.0,11.333333333333334
2026-01-20T23:11:21+00:00,SAT-59771,211.8890620465982,39.28205962567429,1229.9528271894585,-5.398359284111857,189073.3771667281,10.5,10500189073.377167,47.655,-122.3035,60.0,11.35
2026-01-20T23:11:22+00:00,SAT-59771,211.94930970264383,39.50896699321341,1224.5688635301042,-5.382122062970094,188504.68099896624,10.5,10500188504.681,47.655,-122.3035,60.0,11.366666666666667
2026-01-20T23:11:23+00:00,SAT-59771,212.0107985740971,39.73758470166562,1219.2010937926354,-5.365663251915776,187928.22381514226,10.5,10500187928.223816,47.655,-122.3035,60.0,11.383333333333333
2026-01-20T23:11:24+00:00,SAT-59771,212.07355734043,39.967928351858006,1213.849738976058,-5.348979584932494,187343.89122554642,10.5,10500187343.891226,47.655,-122.3035,60.0,11.4
2026-01-20T23:11:25+00:00,SAT-59771,212.13761556041993,40.200013570529315,1208.5150233366855,-5.332067862506185,186751.57116966211,10.5,10500186751.571169,47.655,-122.3035,60.0,11.416666666666666
2026-01-20T23:11:26+00:00,SAT-59771,212.2030037070281,40.43385600790951,1203.1971743218126,-5.314924773925054,186151.14769235812,10.5,10500186151.147692,47.655,-122.3035,60.0,11.433333333333334
2026-01-20T23:11:27+00:00,SAT-59771,212.26975320162222,40.669471327315975,1197.8964226806181,-5.2975469465380245,185542.50266912737,10.5,10500185542.502668,47.655,-122.3035,60.0,11.45
2026-01-20T23:11:28+00:00,SAT-59771,212.33789645034506,40.90687519631962,1192.6130025259374,-5.279931044322437,184925.519258345,10.5,10500184925.519258,47.655,-122.3035,60.0,11.466666666666667
2026-01-20T23:11:29+00:00,SAT-59771,212.40746688351848,41.146083281876365,1187.3471512977333,-5.262073644965504,184300.07759614085,10.5,10500184300.077597,47.655,-122.3035,60.0,11.483333333333333
2026-01-20T23:11:30+00:00,SAT-59771,212.478498995194,41.387111239571865,1182.0991098491543,-5.243971268830043,183666.05581090183,10.5,10500183666.05581,47.655,-122.3035,60.0,11.5
2026-01-20T23:11:31+00:00,SAT-59771,212.55102838494616,41.629974703576735,1176.8691225037078,-5.225620431662967,183023.33186934658,10.5,10500183023.33187,47.655,-122.3035,60.0,11.516666666666667
2026-01-20T23:11:32+00:00,SAT-59771,212.6250918023543,41.87468927850514,1171.6574370598626,-5.207017610107488,182371.78236861655,10.5,10500182371.782368,47.655,-122.3035,60.0,11.533333333333333
2026-01-20T23:11:33+00:00,SAT-59771,212.70072719314513,42.12127052919422,1166.4643048300486,-5.188159200556884,181711.2810951611,10.5,10500181711.281096,47.655,-122.3035,60.0,11.55
2026-01-20T23:11:34+00:00,SAT-59771,212.77797374686276,42.36973396794612,1161.2899807206932,-5.169041610164462,181041.7022122913,10.5,10500181041.702211,47.655,-122.3035,60.0,11.566666666666666
2026-01-20T23:11:35+00:00,SAT-59771,212.8568719482333,42.62009504544822,1156.1347232214891,-5.149661162040498,180362.91693977584,10.5,10500180362.91694,47.655,-122.3035,60.0,11.583333333333334
2026-01-20T23:11:36+00:00,SAT-59771,212.93746362952822,42.87236913657728,1150.998794489214,-5.130014195605818,179674.7970686477,10.5,10500179674.79707,47.655,-122.3035,60.0,11.6
2026-01-20T23:11:37+00:00,SAT-59771,213.01979202708375,43.126571530369105,1145.8824603314633,-5.110096949360871,178977.21085528156,10.5,10500178977.210855,47.655,-122.3035,60.0,11.616666666666667
2026-01-20T23:11:38+00:00,SAT-59771,213.1039018386476,43.38271741359493,1140.7859903073008,-5.089905679117344,178270.0271623648,10.5,10500178270.027163,47.655,-122.3035,60.0,11.633333333333333
2026-01-20T23:11:39+00:00,SAT-59771,213.1898392855501,43.640821859397064,1135.7096577099944,-5.069436567724731,177553.11229714015,10.5,10500177553.112297,47.655,-122.3035,60.0,11.65
2026-01-20T23:11:40+00:00,SAT-59771,213.27765217639228,43.90089981071343,1130.6537396397835,-5.048685776579428,176826.33181547216,10.5,10500176826.331816,47.655,-122.3035,60.0,11.666666666666666
2026-01-20T23:11:41+00:00,SAT-59771,213.36738997483212,44.162966065447286,1125.6185170252752,-5.027649448613067,176089.5506265111,10.5,10500176089.550627,47.655,-122.3035,60.0,11.683333333333334
2026-01-20T23:11:42+00:00,SAT-59771,213.45910387083916,44.42703526100714,1120.6042746418584,-5.0063236460113165,175342.63081134224,10.5,10500175342.630812,47.655,-122.3035,60.0,11.7
2026-01-20T23:11:43+00:00,SAT-59771,213.55284685438158,44.693121854705545,1115.6113011922364,-4.98470445287149,174585.4352184892,10.5,10500174585.435219,47.655,-122.3035,60.0,11.716666666666667
2026-01-20T23:11:44+00:00,SAT-59771,213.64867379483817,44.96124010859721,1110.6398892845725,-4.962787887966873,173817.8244085519,10.5,10500173817.82441,47.655,-122.3035,60.0,11.733333333333333
2026-01-20T23:11:45+00:00,SAT-59771,213.74664152280084,45.231404068786944,1105.6903354976403,-4.940569954478187,173039.65839601264,10.5,10500173039.658396,47.655,-122.3035,60.0,11.75
2026-01-20T23:11:46+00:00,SAT-59771,213.8468089170812,45.503627546348504,1100.762940396374,-4.918046593249822,172250.79501207176,10.5,10500172250.795012,47.655,-122.3035,60.0,11.766666666666667
2026-01-20T23:11:47+00:00,SAT-59771,213.94923699528587,45.777924094606874,1095.8580085940396,-4.8952137706196135,171451.0929808179,10.5,10500171451.092981,47.655,-122.3035,60.0,11.783333333333333
2026-01-20T23:11:48+00:00,SAT-59771,214.0539890109967,46.05430699015123,1090.9758487268082,-4.8720673797275245,170640.40846264054,10.5,10500170640.408463,47.655,-122.3035,60.0,11.8
2026-01-20T23:11:49+00:00,SAT-59771,214.16113055398333,46.33278920722287,1086.11677352676,-4.848603312573959,169818.59757801704,10.5,10500169818.597578,47.655,-122.3035,60.0,11.816666666666666
2026-01-20T23:11:50+00:00,SAT-59771,214.27072965729468,46.61338339486122,1081.2810998230195,-4.82481741660306,168985.51488687596,10.5,10500168985.514887,47.655,-122.3035,60.0,11.833333333333334
2026-01-20T23:11:51+00:00,SAT-59771,214.38285690913386,46.89610185029639,1076.469148586194,-4.800705541095421,168141.01501346615,10.5,10500168141.015013,47.655,-122.3035,60.0,11.85
2026-01-20T23:11:52+00:00,SAT-59771,214.49758557183887,47.18095649365217,1071.6812449265415,-4.77626349810581,167284.95127823064,10.5,10500167284.951279,47.655,-122.3035,60.0,11.866666666666667
2026-01-20T23:11:53+00:00,SAT-59771,214.61499170641477,47.46795883895931,1066.9177181310972,-4.751487092580014,166417.17675262582,10.5,10500166417.176752,47.655,-122.3035,60.0,11.883333333333333
2026-01-20T23:11:54+00:00,SAT-59771,214.73515430461995,47.75711996542697,1062.1789016707642,-4.726372076514441,165537.54265359679,10.5,10500165537.542654,47.655,-122.3035,60.0,11.9
2026-01-20T23:11:55+00:00,SAT-59771,214.85815542713217,48.04845048433904,1057.4651332531205,-4.700914247128411,164645.90178198653,10.5,10500164645.901781,47.655,-122.3035,60.0,11.916666666666666
2026-01-20T23:11:56+00:00,SAT-59771,214.98408035199492,48.341960510267945,1052.7767547773178,-4.67510935673241,163742.1053657404,10.5,10500163742.105366,47.655,-122.3035,60.0,11.933333333333334
2026-01-20T23:11:57+00:00,SAT-59771,215.11301772899853,48.63765962508615,1048.11411237887,-4.648953119176247,162826.00328574842,10.5,10500162826.003286,47.655,-122.3035,60.0,11.95
2026-01-20T23:11:58+00:00,SAT-59771,215.245059742802,48.93555684038893,1043.4775564680115,-4.622441280873405,161897.44656341805,10.5,10500161897.446564,47.655,-122.3035,60.0,11.966666666666667
2026-01-20T23:11:59+00:00,SAT-59771,215.3803022874121,49.23566056245315,1038.8674416972203,-4.595569589927453,160956.2862793508,10.5,10500160956.28628,47.655,-122.3035,60.0,11.983333333333333
2026-01-20T23:12:00+00:00,SAT-59771,215.51884514976925,49.53797855330765,1034.2841269595328,-4.568333749136577,160002.37192736202,10.5,10500160002.371927,47.655,-122.3035,60.0,12.0
2026-01-20T23:12:01+00:00,SAT-59771,215.6607922024278,49.84251788652032,1029.7279754337274,-4.540729492627544,159035.55409852642,10.5,10500159035.554098,47.655,-122.3035,60.0,12.016666666666667
2026-01-20T23:12:02+00:00,SAT-59771,215.80625160977803,50.14928490568512,1025.19935455308,-4.512752550435306,158055.6832406061,10.5,10500158055.68324,47.655,-122.3035,60.0,12.033333333333333
2026-01-20T23:12:03+00:00,SAT-59771,215.95533604521765,50.458285178217345,1020.6986360094459,-4.4843986549928605,157062.60988535287,10.5,10500157062.609886,47.655,-122.3035,60.0,12.05
2026-01-20T23:12:04+00:00,SAT-59771,216.1081629212663,50.769523447021,1016.2261957508663,-4.455663564197294,156056.18545637856,10.5,10500156056.185457,47.655,-122.3035,60.0,12.066666666666666
2026-01-20T23:12:05+00:00,SAT-59771,216.26485463415437,51.083003581073115,1011.7824139561736,-4.426543029288017,155036.26114411518,10.5,10500155036.261145,47.655,-122.3035,60.0,12.083333333333334
2026-01-20T23:12:06+00:00,SAT-59771,216.42553882180948,51.39872852095247,1007.3676750416304,-4.397032812479195,154002.68852337688,10.5,10500154002.688524,47.655,-122.3035,60.0,12.1
2026-01-20T23:12:07+00:00,SAT-59771,216.5903486379555,51.71670022252798,1002.9823676499844,-4.367128747827696,152955.32168521336,10.5,10500152955.321686,47.655,-122.3035,60.0,12.116666666666667
2026-01-20T23:12:08+00:00,SAT-59771,216.75942304514652,52.03691960191967,998.6268845788177,-4.3368266201231895,151894.01299512843,10.5,10500151894.012995,47.655,-122.3035,60.0,12.133333333333333
2026-01-20T23:12:09+00:00,SAT-59771,216.93290712090175,52.35938646834199,994.3016228296814,-4.306122302229444,150818.61790335353,10.5,10500150818.617903,47.655,-122.3035,60.0,12.15
2026-01-20T23:12:10+00:00,SAT-59771,217.1109523880464,52.684099463342925,990.0069835202579,-4.2750116599533445,149728.99161295817,10.5,10500149728.991613,47.655,-122.3035,60.0,12.166666666666666
2026-01-20T23:12:11+00:00,SAT-59771,217.293717161545,53.011055989305554,985.7433718913977,-4.243490636208626,148624.99202761988,10.5,10500148624.992027,47.655,-122.3035,60.0,12.183333333333334
2026-01-20T23:12:12+00:00,SAT-59771,217.48136692046967,53.340252140249596,981.5111972302191,-4.211555187365283,147506.47752231135,10.5,10500147506.477522,47.655,-122.3035,60.0,12.2
2026-01-20T23:12:13+00:00,SAT-59771,217.67407470042141,53.67168262358289,977.3108728566867,-4.179201302452531,146373.3076158693,10.5,10500146373.307615,47.655,-122.3035,60.0,12.216666666666667
2026-01-20T23:12:14+00:00,SAT-59771,217.87202151134014,54.00534067866967,973.1428160910407,-4.146425072804479,145225.34541028057,10.5,10500145225.34541,47.655,-122.3035,60.0,12.233333333333333
2026-01-20T23:12:15+00:00,SAT-59771,218.07539678518958,54.34121799615445,969.0074481517638,-4.113222621304502,144062.45511252075,10.5,10500144062.455112,47.655,-122.3035,60.0,12.25
2026-01-20T23:12:16+00:00,SAT-59771,218.28439884869965,54.679304626646974,964.9051941241161,-4.079590091717452,142884.5016609232,10.5,10500142884.501661,47.655,-122.3035,60.0,12.266666666666667
2026-01-20T23:12:17+00:00,SAT-59771,218.49923542559614,55.01958888285697,960.8364829393099,-4.045523772462399,141691.3550602237,10.5,10500141691.35506,47.655,-122.3035,60.0,12.283333333333333
2026-01-20T23:12:18+00:00,SAT-59771,218.72012417774226,55.362057246140274,956.8017472302407,-4.011019966635286,140482.88582920423,10.5,10500140482.88583,47.655,-122.3035,60.0,12.3
2026-01-20T23:12:19+00:00,SAT-59771,218.94729327427117,55.70669425612967,952.8014233168498,-3.9760750876142237,139258.96834919494,10.5,10500139258.96835,47.655,-122.3035,60.0,12.316666666666666
2026-01-20T23:12:20+00:00,SAT-59771,219.18098200296586,56.05348240166728,948.8359510961359,-3.9406856246245483,138019.47965801647,10.5,10500138019.479658,47.655,-122.3035,60.0,12.333333333333334
2026-01-20T23:12:21+00:00,SAT-59771,219.4214414196206,56.40240200177799,944.9057739665103,-3.9048481475619554,136764.2996189068,10.5,10500136764.29962,47.655,-122.3035,60.0,12.35
2026-01-20T23:12:22+00:00,SAT-59771,219.66893504012438,56.7534310793813,941.0113387473419,-3.868559352402316,135493.3125109649,10.5,10500135493.312511,47.655,-122.3035,60.0,12.366666666666667
2026-01-20T23:12:23+00:00,SAT-59771,219.92373958105532,57.10654523092646,937.1530955532126,-3.8318159988808507,134206.40484641187,10.5,10500134206.404846,47.655,-122.3035,60.0,12.383333333333333
2026-01-20T23:12:24+00:00,SAT-59771,220.18614574494504,57.461717481671634,933.3314977303287,-3.7946150113426182,132903.46890280172,10.5,10500132903.468903,47.655,-122.3035,60.0,12.4
2026-01-20T23:12:25+00:00,SAT-59771,220.45645906448792,57.81891814079134,929.5470016923497,-3.756953366882842,131584.39880522227,10.5,10500131584.398806,47.655,-122.3035,60.0,12.416666666666666
2026-01-20T23:12:26+00:00,SAT-59771,220.73500079470338,58.178114636055,925.8000668677786,-3.7188282391318093,130249.0955622506,10.5,10500130249.095562,47.655,-122.3035,60.0,12.433333333333334
2026-01-20T23:12:27+00:00,SAT-59771,221.02210887500146,58.53927135114489,922.0911555039511,-3.6802368726907924,128897.462668168,10.5,10500128897.462667,47.655,-122.3035,60.0,12.45
2026-01-20T23:12:28+00:00,SAT-59771,221.31813894561688,58.90234943943535,918.4207325962542,-3.641176690867905,127529.40987632517,10.5,10500127529.409876,47.655,-122.3035,60.0,12.466666666666667
2026-01-20T23:12:29+00:00,SAT-59771,221.62346544003825,59.267306635501754,914.7892657098952,-3.6016452471056324,126144.85149792908,10.5,10500126144.851498,47.655,-122.3035,60.0,12.483333333333333
2026-01-20T23:12:30+00:00,SAT-59771,221.93848274606333,59.634097048420784,911.1972248501153,-3.5616402534626155,124743.7073995953,10.5,10500124743.7074,47.655,-122.3035,60.0,12.5
2026-01-20T23:12:31+00:00,SAT-59771,222.26360644614644,60.0026709432418,907.6450823039952,-3.5211595839396868,123325.90311984003,10.5,10500123325.90312,47.655,-122.3035,60.0,12.516666666666667
2026-01-20T23:12:32+00:00,SAT-59771,222.59927463990036,60.37297450701881,904.133312478946,-3.4802012828070596,121891.37016073341,10.5,10500121891.370161,47.655,-122.3035,60.0,12.533333333333333
2026-01-20T23:12:33+00:00,SAT-59771,222.94594935427378,60.74494959865157,900.6623917328931,-3.4387635777689933,120440.04644898181,10.5,10500120440.04645,47.655,-122.3035,60.0,12.55
2026-01-20T23:12:34+00:00,SAT-59771,223.30411804701916,61.11853348168481,897.2327981913314,-3.396844859393602,118971.87561547269,10.5,10500118971.875616,47.655,-122.3035,60.0,12.566666666666666
2026-01-20T23:12:35+00:00,SAT-59771,223.67429520514136,61.493658534887246,893.8450115848963,-3.3544437498289916,117486.80940200442,10.5,10500117486.809402,47.655,-122.3035,60.0,12.583333333333334
2026-01-20T23:12:36+00:00,SAT-59771,224.05702405303555,61.87025194872842,890.4995130184002,-3.3115590384710254,115984.80540809924,10.5,10500115984.805408,47.655,-122.3035,60.0,12.6
2026-01-20T23:12:37+00:00,SAT-59771,224.4528783612355,62.24823539143668,887.1967848040317,-3.2681897530467507,114465.8295806457,10.5,10500114465.82958,47.655,-122.3035,60.0,12.616666666666667
2026-01-20T23:12:38+00:00,SAT-59771,224.86246437552145,62.62752465763093,883.9373102236598,-3.2243351062104146,112929.85434346502,10.5,10500112929.854343,47.655,-122.3035,60.0,12.633333333333333
2026-01-20T23:12:39+00:00,SAT-59771,225.28642285652694,63.00802928343876,880.7215733443992,-3.179994578156362,111376.8614907644,10.5,10500111376.86149,47.655,-122.3035,60.0,12.65
2026-01-20T23:12:40+00:00,SAT-59771,225.72543125061682,63.38965214148149,877.5500587517846,-3.135167834566194,109806.83931329932,10.5,10500109806.839314,47.655,-122.3035,60.0,12.666666666666666
2026-01-20T23:12:41+00:00,SAT-59771,226.18020597396585,63.77228899401837,874.4232513647772,-3.089854848079392,108219.78685278873,10.5,10500108219.786852,47.655,-122.3035,60.0,12.683333333333334
2026-01-20T23:12:42+00:00,SAT-59771,226.65150483962353,64.15582802585004,871.3416361296261,-3.0440557673671362,106615.70931632619,10.5,10500106615.709316,47.655,-122.3035,60.0,12.7
2026-01-20T23:12:43+00:00,SAT-59771,227.1401295921675,64.54014932358494,868.3056978443053,-2.997771062795461,104994.62317811992,10.5,10500104994.623178,47.655,-122.3035,60.0,12.716666666666667
2026-01-20T23:12:44+00:00,SAT-59771,227.6469285892333,64.92512433208435,865.3159208376773,-2.9510014247519547,103356.55261846357,10.5,10500103356.552618,47.655,-122.3035,60.0,12.733333333333333
2026-01-20T23:12:45+00:00,SAT-59771,228.17279958846538,65.31061525425868,862.3727887500579,-2.9037478557194216,101701.53274854543,10.5,10500101701.53275,47.655,-122.3035,60.0,12.75
2026-01-20T23:12:46+00:00,SAT-59771,228.7186926635261,65.69647441513705,859.4767842219538,-2.8560116172497607,100029.60775324937,10.5,10500100029.607754,47.655,-122.3035,60.0,12.766666666666667
2026-01-20T23:12:47+00:00,SAT-59771,229.2856132136905,66.08254356810902,856.6283886356833,-2.8077942507932225,98340.83162068352,10.5,10500098340.831621,47.655,-122.3035,60.0,12.783333333333333
2026-01-20T23:12:48+00:00,SAT-59771,229.8746250621556,66.46865314888777,853.8280818362256,-2.7590976308531157,96635.27000388286,10.5,10500096635.270004,47.655,-122.3035,60.0,12.8
2026-01-20T23:12:49+00:00,SAT-59771,230.486853628366,66.85462147814258,851.0763417990547,-2.7099239033025406,94912.99806040042,10.5,10500094912.99806,47.655,-122.3035,60.0,12.816666666666666
2026-01-20T23:12:50+00:00,SAT-59771,231.12348911918366,67.24025389310493,848.3736443594943,-2.660275530569697,93174.10203488781,10.5,10500093174.102036,47.655,-122.3035,60.0,12.833333333333334
2026-01-20T23:12:51+00:00,SAT-59771,231.78578971954815,67.62534181882671,845.7204628970062,-2.610155302563468,91418.67964175541,10.5,10500091418.679642,47.655,-122.3035,60.0,12.85
2026-01-20T23:12:52+00:00,SAT-59771,232.4750847234145,68.0096617708539,843.1172680085829,-2.559566330365396,89646.8398442387,10.5,10500089646.839844,47.655,-122.3035,60.0,12.866666666666667
2026-01-20T23:12:53+00:00,SAT-59771,233.19277753303604,68.39297428341435,840.5645271884318,-2.508512028005556,87858.70221611226,10.5,10500087858.702215,47.655,-122.3035,60.0,12.883333333333333
2026-01-20T23:12:54+00:00,SAT-59771,233.94034843578666,68.77502275806357,838.0627045258343,-2.456996190032522,86054.39965851803,10.5,10500086054.399658,47.655,-122.3035,60.0,12.9
2026-01-20T23:12:55+00:00,SAT-59771,234.71935708025217,69.15553224521068,835.6122603256418,-2.4050229219384596,84234.0759631579,10.5,10500084234.075964,47.655,-122.3035,60.0,12.916666666666666
2026-01-20T23:12:56+00:00,SAT-59771,235.53144447741454,69.53420813517472,833.2136507981619,-2.352596672749482,82397.88695374572,10.5,10500082397.886953,47.655,-122.3035,60.0,12.933333333333334
2026-01-20T23:12:57+00:00,SAT-59771,236.37833439288187,69.91073477430989,830.8673277165398,-2.2997222429198283,80546.00076249482,10.5,10500080546.000763,47.655,-122.3035,60.0,12.95
2026-01-20T23:12:58+00:00,SAT-59771,237.2618339271159,70.28477400487351,828.5737380662677,-2.2464048016001534,78678.59843492664,10.5,10500078678.598434,47.655,-122.3035,60.0,12.966666666666667
2026-01-20T23:12:59+00:00,SAT-59771,238.1838330511178,70.65596363514943,826.3333236774718,-2.1926498544017856,76795.8728008386,10.5,10500076795.8728,47.655,-122.3035,60.0,12.983333333333333
2026-01-20T23:13:00+00:00,SAT-59771,239.14630279412717,71.02391583983031,824.1465208893484,-2.1384632764716662,74898.02963272844,10.5,10500074898.029633,47.655,-122.3035,60.0,13.0
2026-01-20T23:13:01+00:00,SAT-59771,240.1512917731635,71.38821551375081,822.013760181614,-2.083851303953624,72985.2873467319,10.5,10500072985.287346,47.655,-122.3035,60.0,13.016666666666667
2026-01-20T23:13:02+00:00,SAT-59771,241.20092065628307,71.74841858999697,819.935465814471,-2.0288205279668605,71057.87679172381,10.5,10500071057.876791,47.655,-122.3035,60.0,13.033333333333333
2026-01-20T23:13:03+00:00,SAT-59771,242.29737410530703,72.10405034708616,817.9120554745787,-1.9733779216708114,69116.04219724407,10.5,10500069116.042198,47.655,-122.3035,60.0,13.05
2026-01-20T23:13:04+00:00,SAT-59771,243.44288969860133,72.45460374348326,815.9439398940323,-1.9175308076657716,67160.04003172956,10.5,10500067160.040031,47.655,-122.3035,60.0,13.066666666666666
2026-01-20T23:13:05+00:00,SAT-59771,244.63974322284224,72.79953781117311,814.0315225018536,-1.861286874351981,65190.139575478584,10.5,10500065190.139576,47.655,-122.3035,60.0,13.083333333333334
2026-01-20T23:13:06+00:00,SAT-59771,245.89022972134956,73.13827617032503,812.1751990591666,-1.8046541889006638,63206.62337495151,10.5,10500063206.623375,47.655,-122.3035,60.0,13.1
2026-01-20T23:13:07+00:00,SAT-59771,247.19663962025678,73.47020573152162,810.3753572814363,-1.747641167000849,61209.786183176475,10.5,10500061209.786182,47.655,-122.3035,60.0,13.116666666666667
2026-01-20T23:13:08+00:00,SAT-59771,248.56122919827826,73.79467565930524,808.6323764908807,-1.6902565889654892,59199.93552385376,10.5,10500059199.935524,47.655,-122.3035,60.0,13.133333333333333
2026-01-20T23:13:09+00:00,SAT-59771,249.98618473592109,74.11099670366595,806.9466272528192,-1.6325095933596574,57177.39146818831,10.5,10500057177.391468,47.655,-122.3035,60.0,13.15
2026-01-20T23:13:10+00:00,SAT-59771,251.47357969476786,74.41844101095901,805.3184710183751,-1.5744096817992836,55142.486802961794,10.5,10500055142.486803,47.655,-122.3035,60.0,13.166666666666666
2026-01-20T23:13:11+00:00,SAT-59771,253.0253244273192,74.71624254949683,803.748259762394,-1.5159666960749123,53095.566229309814,10.5,10500053095.566229,47.655,-122.3035,60.0,13.183333333333334
2026-01-20T23:13:12+00:00,SAT-59771,254.6431080912255,75.00359829387277,802.2363356441753,-1.457190821770228,51036.986489457966,10.5,10500051036.98649,47.655,-122.3035,60.0,13.2
2026-01-20T23:13:13+00:00,SAT-59771,256.3283328073244,75.27967033584706,800.7830306645965,-1.398092593213513,48967.11654014287,10.5,10500048967.11654,47.655,-122.3035,60.0,13.216666666666667
2026-01-20T23:13:14+00:00,SAT-59771,258.08204052565657,75.54358909274914,799.3886663182982,-1.338682876191823,46886.33694718945,10.5,10500046886.336946,47.655,-122.3035,60.0,13.233333333333333
2026-01-20T23:13:15+00:00,SAT-59771,259.90483361053134,75.79445777941679,798.0535532631095,-1.2789728556791302,44795.03945569861,10.5,10500044795.039455,47.655,-122.3035,60.0,13.25
2026-01-20T23:13:16+00:00,SAT-59771,261.7967908921139,76.03135830274806,796.7779910017123,-1.218974043850315,42693.62727073109,10.5,10500042693.627272,47.655,-122.3035,60.0,13.266666666666667
2026-01-20T23:13:17+00:00,SAT-59771,263.75738179296866,76.25335871341395,795.5622675553121,-1.1586982535917345,40582.514129535615,10.5,10500040582.51413,47.655,-122.3035,60.0,13.283333333333333
2026-01-20T23:13:18+00:00,SAT-59771,265.78538196353566,76.45952229259284,794.40665916373,-1.09815760508826,38462.12453225468,10.5,10500038462.124533,47.655,-122.3035,60.0,13.3
2026-01-20T23:13:19+00:00,SAT-59771,267.8787948679581,76.64891829714098,793.311429978922,-1.037364506551074,36332.89306693058,10.5,10500036332.893066,47.655,-122.3035,60.0,13.316666666666666
2026-01-20T23:13:20+00:00,SAT-59771,270.03478447382275,76.8206342862285,792.2768317777218,-0.9763316359907489,34195.2637711215,10.5,10500034195.263771,47.655,-122.3035,60.0,13.333333333333334
2026-01-20T23:13:21+00:00,SAT-59771,272.24962479554125,76.97378984880143,791.3031036927604,-0.915071954936769,32049.690612417187,10.5,10500032049.690613,47.655,-122.3035,60.0,13.35
2026-01-20T23:13:22+00:00,SAT-59771,274.51867229175275,77.10755143205108,790.3904719297034,-0.8535986678733317,29896.636067709158,10.5,10500029896.636068,47.655,-122.3035,60.0,13.366666666666667
2026-01-20T23:13:23+00:00,SAT-59771,276.83636656127663,77.22114782764676,789.5391495249444,-0.7919252243086936,27736.571195667915,10.5,10500027736.571196,47.655,-122.3035,60.0,13.383333333333333
2026-01-20T23:13:24+00:00,SAT-59771,279.1962639767039,77.31388576711188,788.7493361012339,-0.7300653026656185,25569.97507251832,10.5,10500025569.975073,47.655,-122.3035,60.0,13.4
2026-01-20T23:13:25+00:00,SAT-59771,281.5911070723042,77.38516496894228,788.0212176393752,-0.6680327987216661,23397.334387169587,10.5,10500023397.334387,47.655,-122.3035,60.0,13.416666666666666
2026-01-20T23:13:26+00:00,SAT-59771,284.0129302402837,77.43449192482741,787.3549662614502,-0.6058418060527672,21219.14275626659,10.5,10500021219.142756,47.655,-122.3035,60.0,13.433333333333334
2026-01-20T23:13:27+00:00,SAT-59771,286.45319950111275,77.46149170592544,786.7507400335469,-0.5435065964770546,19035.900039250064,10.5,10500019035.90004,47.655,-122.3035,60.0,13.45
2026-01-20T23:13:28+00:00,SAT-59771,288.9029812382838,77.46591712987724,786.2086827879938,-0.4810416228986069,16848.11243795657,10.5,10500016848.112438,47.655,-122.3035,60.0,13.466666666666667
2026-01-20T23:13:29+00:00,SAT-59771,291.3531322448242,77.44765475070636,785.7289239427563,-0.4184614818957389,14656.291186302153,10.5,10500014656.291185,47.655,-122.3035,60.0,13.483333333333333
2026-01-20T23:13:30+00:00,SAT-59771,293.79450109130744,77.40672731020342,785.3115783581455,-0.3557809084970116,12460.952367316131,10.5,10500012460.952368,47.655,-122.3035,60.0,13.5
2026-01-20T23:13:31+00:00,SAT-59771,296.2181299910277,77.34329250977417,784.9567461987378,-0.2930147573352993,10262.616253076796,10.5,10500010262.616253,47.655,-122.3035,60.0,13.516666666666667
2026-01-20T23:13:32+00:00,SAT-59771,298.61544610307544,77.25763819215777,784.6645128140889,-0.23017798511674828,8061.806690700194,10.5,10500008061.80669,47.655,-122.3035,60.0,13.533333333333333
2026-01-20T23:13:33+00:00,SAT-59771,300.97843233473,77.15017424525628,784.4349486369324,-0.1672856321834534,5859.050456587072,10.5,10500005859.050457,47.655,-122.3035,60.0,13.55
2026-01-20T23:13:34+00:00,SAT-59771,303.29976967743846,77.0214217280006,784.2681090997681,-0.1043528051970131,3654.876649927723,10.5,10500003654.87665,47.655,-122.3035,60.0,13.566666666666666
2026-01-20T23:13:35+00:00,SAT-59771,305.5729457629679,76.87199985093966,784.1640345687183,-0.04139465965576903,1449.8160803817648,10.5,10500001449.81608,47.655,-122.3035,60.0,13.583333333333334
2026-01-20T23:13:36+00:00,SAT-59771,307.79232718971724,76.70261151569146,784.1227502948216,0.021573618580506985,-755.5993790054696,10.5,10499999244.400621,47.655,-122.3035,60.0,13.6
2026-01-20T23:13:37+00:00,SAT-59771,309.95319598526845,76.51402812121978,784.1442663837526,0.08453683168270526,-2960.8374359718055,10.5,10499997039.162563,47.655,-122.3035,60.0,13.616666666666667
2026-01-20T23:13:38+00:00,SAT-59771,312.0517527952657,76.307074307497,784.2285777838841,0.147479788005226,-5165.366014827741,10.5,10499994834.633986,47.655,-122.3035,60.0,13.633333333333333
2026-01-20T23:13:39+00:00,SAT-59771,314.0850913658771,76.08261319916792,784.3756642924546,0.210387320194612,-7368.653890697365,10.5,10499992631.34611,47.655,-122.3035,60.0,13.65
2026-01-20T23:13:40+00:00,SAT-59771,316.0511497174103,75.84153261411188,784.5854905797954,0.2732443031380923,-9570.171318152268,10.5,10499990429.828682,47.655,-122.3035,60.0,13.666666666666666
2026-01-20T23:13:41+00:00,SAT-59771,317.9486439787221,75.58473256303131,784.8580062314585,0.33603567412224583,-11769.39073725324,10.5,10499988230.609262,47.655,-122.3035,60.0,13.683333333333334
2026-01-20T23:13:42+00:00,SAT-59771,319.7769906657989,75.31311424611143,785.1931458104498,0.39874644467350606,-13965.787188254793,10.5,10499986034.212812,47.655,-122.3035,60.0,13.7
2026-01-20T23:13:43+00:00,SAT-59771,321.5362226119737,75.02757064896852,785.5908289312707,0.4613617267632426,-16158.839229417996,10.5,10499983841.16077,47.655,-122.3035,60.0,13.716666666666667
2026-01-20T23:13:44+00:00,SAT-59771,323.22690308786,74.72897873091875,786.0509603600959,0.5238667444421824,-18348.029344497103,10.5,10499981651.970655,47.655,-122.3035,60.0,13.733333333333333
2026-01-20T23:13:45+00:00,SAT-59771,324.85004158806225,74.41819315064284,786.5734301265529,0.5862468539825566,-20532.844648202736,10.5,10499979467.155352,47.655,-122.3035,60.0,13.75
2026-01-20T23:13:46+00:00,SAT-59771,326.4070139803678,74.09604140645256,787.1581136555916,0.6484875512686323,-22712.777145049593,10.5,10499977287.222855,47.655,-122.3035,60.0,13.766666666666667
2026-01-20T23:13:47+00:00,SAT-59771,327.89948879106504,73.76332025117631,787.8048719067235,0.7105745061174293,-24887.324931413077,10.5,10499975112.675068,47.655,-122.3035,60.0,13.783333333333333
2026-01-20T23:13:48+00:00,SAT-59771,329.32936077967406,73.42079320555136,788.5135515474913,0.7724935651070896,-27055.992294590815,10.5,10499972944.007706,47.655,-122.3035,60.0,13.8
2026-01-20T23:13:49+00:00,SAT-59771,330.69869221952337,73.06918902174718,789.283985129758,0.834230761961205,-29218.290076505706,10.5,10499970781.709923,47.655,-122.3035,60.0,13.816666666666666
2026-01-20T23:13:50+00:00,SAT-59771,332.0096619669111,72.7092009321359,790.1159912763541,0.8957723506407853,-31373.736832726612,10.5,10499968626.263166,47.655,-122.3035,60.0,13.833333333333334
2026-01-20T23:13:51+00:00,SAT-59771,333.26452207287605,72.34148652619163,791.0093749007265,0.9571048034503771,-33521.85876613667,10.5,10499966478.141233,47.655,-122.3035,60.0,13.85
2026-01-20T23:13:52+00:00,SAT-59771,334.46556138013625,71.96666813848186,791.963927424701,1.0182148342351196,-35662.19053939227,10.5,10499964337.80946,47.655,-122.3035,60.0,13.866666666666667
2026-01-20T23:13:53+00:00,SAT-59771,335.615075521566,71.58533362047442,792.9794270193781,1.079089397104605,-37794.275230227286,10.5,10499962205.72477,47.655,-122.3035,60.0,13.883333333333333
2026-01-20T23:13:54+00:00,SAT-59771,336.7153425966037,71.19803740663004,794.0556388447571,1.139715726448452,-39917.66573296767,10.5,10499960082.334267,47.655,-122.3035,60.0,13.9
2026-01-20T23:13:55+00:00,SAT-59771,337.76860386631756,70.80530177643443,795.1923153292684,1.200081316280983,-42031.92403509471,10.5,10499957968.075964,47.655,-122.3035,60.0,13.916666666666666
2026-01-20T23:13:56+00:00,SAT-59771,338.7770487184537,70.4076182658378,796.389196428706,1.260173962938418,-44136.62271268142,10.5,10499955863.377287,47.655,-122.3035,60.0,13.933333333333334
2026-01-20T23:13:57+00:00,SAT-59771,339.7428033257622,70.00544915045371,797.6460099277432,1.319981735983295,-46231.34391134215,10.5,10499953768.656088,47.655,-122.3035,60.0,13.95
2026-01-20T23:13:58+00:00,SAT-59771,340.6679223500349,69.59922898051025,798.9624717124304,1.3794930373435872,-48315.681417534746,10.5,10499951684.318583,47.655,-122.3035,60.0,13.966666666666667
2026-01-20T23:13:59+00:00,SAT-59771,341.5543832398288,69.18936610520275,800.3382861016745,1.4386965654932506,-50389.23940401173,10.5,10499949610.760595,47.655,-122.3035,60.0,13.983333333333333
2026-01-20T23:14:00+00:00,SAT-59771,342.4040825912889,68.77624419027079,801.7731461429931,1.4975813553243489,-52451.633826310805,10.5,10499947548.366173,47.655,-122.3035,60.0,14.0
2026-01-20T23:14:01+00:00,SAT-59771,343.21883423013054,68.3602236861897,803.2667339480365,1.5561367617994017,-54502.49185019097,10.5,10499945497.50815,47.655,-122.3035,60.0,14.016666666666667
2026-01-20T23:14:02+00:00,SAT-59771,344.0003686381287,67.94164324988316,804.8187210118045,1.6143524777127802,-56541.452473711644,10.5,10499943458.547525,47.655,-122.3035,60.0,14.033333333333333
2026-01-20T23:14:03+00:00,SAT-59771,344.750333458833,67.52082110046695,806.4287685495767,1.672218555613779,-58568.16729507144,10.5,10499941431.832705,47.655,-122.3035,60.0,14.05
2026-01-20T23:14:04+00:00,SAT-59771,345.4702948399315,67.09805630287698,808.0965278557089,1.7297253797781704,-60582.29953093346,10.5,10499939417.70047,47.655,-122.3035,60.0,14.066666666666666
2026-01-20T23:14:05+00:00,SAT-59771,346.1617393909804,66.67362998857558,809.8216406344743,1.7868636925052745,-62583.52493745984,10.5,10499937416.475063,47.655,-122.3035,60.0,14.083333333333334
2026-01-20T23:14:06+00:00,SAT-59771,346.82607661736404,66.24780649824496,811.6037393571329,1.8436245922099743,-64571.53174348612,10.5,10499935428.468256,47.655,-122.3035,60.0,14.1
2026-01-20T23:14:07+00:00,SAT-59771,347.4646416831292,65.82083445401321,813.4424476170971,1.8999995510992351,-66546.0212696277,10.5,10499933453.978731,47.655,-122.3035,60.0,14.116666666666667
2026-01-20T23:14:08+00:00,SAT-59771,348.0786984007106,65.39294775840587,815.3373805027267,1.9559803760352437,-68506.70655754142,10.5,10499931493.293442,47.655,-122.3035,60.0,14.133333333333333
2026-01-20T23:14:09+00:00,SAT-59771,348.66944234254754,64.96436653490919,817.2881449310925,2.011559267529685,-70453.31443615467,10.5,10499929546.685564,47.655,-122.3035,60.0,14.15
2026-01-20T23:14:10+00:00,SAT-59771,349.23800403747686,64.53529799112994,819.2943400405753,2.066728767428618,-72385.58368936849,10.5,10499927614.416311,47.655,-122.3035,60.0,14.166666666666666
2026-01-20T23:14:11+00:00,SAT-59771,349.7854521623028,64.10593723246568,821.355557531291,2.1214818096085377,-74303.26683164807,10.5,10499925696.733168,47.655,-122.3035,60.0,14.183333333333334
2026-01-20T23:14:12+00:00,SAT-59771,350.3127967176444,63.676468007496474,823.4713820560737,2.175811652407543,-76206.12774147642,10.5,10499923793.87226,47.655,-122.3035,60.0,14.2
2026-01-20T23:14:13+00:00,SAT-59771,350.8209921245463,63.24706341303968,825.6413915440748,2.2297119627656934,-78093.9446083056,10.5,10499921906.055391,47.655,-122.3035,60.0,14.216666666666667
2026-01-20T23:14:14+00:00,SAT-59771,351.31094025653744,62.81788653182332,827.8651576082732,2.2831767375580503,-79966.50717730707,10.5,10499920033.492823,47.655,-122.3035,60.0,14.233333333333333
2026-01-20T23:14:15+00:00,SAT-59771,351.7834933504159,62.38909103859008,830.1422458745311,2.3362003555568465,-81823.61856930667,10.5,10499918176.381432,47.655,-122.3035,60.0,14.25
2026-01-20T23:14:16+00:00,SAT-59771,352.23945681495985,61.96082175235662,832.4722163624732,2.3887775288281428,-83665.09357848989,10.5,10499916334.906422,47.655,-122.3035,60.0,14.266666666666667
2026-01-20T23:14:17+00:00,SAT-59771,352.67959190818203,61.533215157065285,834.8546238178911,2.4409033518020973,-85490.76039105034,10.5,10499914509.239609,47.655,-122.3035,60.0,14.283333333333333
2026-01-20T23:14:18+00:00,SAT-59771,353.1046182986475,61.106399875695814,837.2890180940884,2.4925732465924586,-87300.45867004704,10.5,10499912699.54133,47.655,-122.3035,60.0,14.3
2026-01-20T23:14:19+00:00,SAT-59771,353.5152164893919,60.68049711939424,839.7749444786899,2.5437829947000736,-89094.04066579544,10.5,10499910905.959333,47.655,-122.3035,60.0,14.316666666666666
2026-01-20T23:14:20+00:00,SAT-59771,353.9120301211281,60.255621098853275,842.3119440520709,2.5945287098428294,-90871.37026425697,10.5,10499909128.629736,47.655,-122.3035,60.0,14.333333333333334
2026-01-20T23:14:21+00:00,SAT-59771,354.2956681463737,59.831879410611165,844.8995540186874,2.6448068466825436,-92632.32329269173,10.5,10499907367.676708,47.655,-122.3035,60.0,14.35
2026-01-20T23:14:22+00:00,SAT-59771,354.66670688362325,59.40937339449492,847.5373080471121,2.6946141980840106,-94376.78742365865,10.5,10499905623.212576,47.655,-122.3035,60.0,14.366666666666667
2026-01-20T23:14:23+00:00,SAT-59771,355.02569195342926,58.98819846634264,850.2247366073345,2.743947863151791,-96104.66105552863,10.5,10499903895.338945,47.655,-122.3035,60.0,14.383333333333333
2026-01-20T23:14:24+00:00,SAT-59771,355.3731400973918,58.56844443233238,852.9613672761847,2.7928052907329293,-97815.85483613386,10.5,10499902184.145164,47.655,-122.3035,60.0,14.4
2026-01-20T23:14:25+00:00,SAT-59771,355.7095408947283,58.15019577515463,855.7467250861423,2.8411841946927865,-99510.2886953689,10.5,10499900489.711304,47.655,-122.3035,60.0,14.416666666666666
2026-01-20T23:14:26+00:00,SAT-59771,356.03535836553607,57.73353193304715,858.5803327896492,2.889082659732236,-101187.89555135666,10.5,10499898812.104448,47.655,-122.3035,60.0,14.433333333333334
2026-01-20T23:14:27+00:00,SAT-59771,356.35103248899065,57.318527544826864,861.4617112289556,2.936499001244666,-102848.61640204769,10.5,10499897151.383598,47.655,-122.3035,60.0,14.45
2026-01-20T23:14:28+00:00,SAT-59771,356.6569806130295,56.90525269841135,864.3903795661968,2.983431870258661,-104492.40400075688,10.5,10499895507.595999,47.655,-122.3035,60.0,14.466666666666667
2026-01-20T23:14:29+00:00,SAT-59771,356.9535987887477,56.49377314840086,867.3658556181348,3.0298801923407095,-106119.22071627782,10.5,10499893880.779284,47.655,-122.3035,60.0,14.483333333333333
2026-01-20T23:14:30+00:00,SAT-59771,357.24126301574034,56.08415052798451,870.3876561299627,3.0758431727402953,-107729.03871308564,10.5,10499892270.961287,47.655,-122.3035,60.0,14.5
2026-01-20T23:14:31+00:00,SAT-59771,357.52033041076044,55.67644254661433,873.4552970542422,3.121320256342307,-109321.838548701,10.5,10499890678.161451,47.655,-122.3035,60.0,14.516666666666667
2026-01-20T23:14:32+00:00,SAT-59771,357.79114030034367,55.27070318037347,876.568293789901,3.166311196563595,-110897.61158673893,10.5,10499889102.388412,47.655,-122.3035,60.0,14.533333333333333
2026-01-20T23:14:33+00:00,SAT-59771,358.0540152514116,54.866982841773144,879.7261614899404,3.2108159742252145,-112456.35715547172,10.5,10499887543.642845,47.655,-122.3035,60.0,14.55
2026-01-20T23:14:34+00:00,SAT-59771,358.3092620307645,54.4653285494499,882.9284152882344,3.2548348033039525,-113998.0827492715,10.5,10499886001.917252,47.655,-122.3035,60.0,14.566666666666666
2026-01-20T23:14:35+00:00,SAT-59771,358.5571725057523,54.06578408678131,886.1745705320628,3.298368160525071,-115522.80506507352,10.5,10499884477.194935,47.655,-122.3035,60.0,14.583333333333334
2026-01-20T23:14:36+00:00,SAT-59771,358.79802449125134,53.66839014760243,889.4641430441599,3.3414167365268352,-117030.54829195127,10.5,10499882969.451708,47.655,-122.3035,60.0,14.6
2026-01-20T23:14:37+00:00,SAT-59771,359.0320825405983,53.27318447916254,892.796649336056,3.383981449907965,-118521.34460311751,10.5,10499881478.655397,47.655,-122.3035,60.0,14.616666666666667
2026-01-20T23:14:38+00:00,SAT-59771,359.25959868869387,52.88020201526232,896.1716068354308,3.426063415980501,-119995.2330615177,10.5,10499880004.76694,47.655,-122.3035,60.0,14.633333333333333
2026-01-20T23:14:39+00:00,SAT-59771,359.48081314742103,52.48947500529104,899.588534082302,3.4676639818482777,-121452.26084842639,10.5,10499878547.739151,47.655,-122.3035,60.0,14.65
2026-01-20T23:14:40+00:00,SAT-59771,359.69595496061515,52.10103313219232,903.0469509601987,3.5087846793855424,-122892.48161655953,10.5,10499877107.518383,47.655,-122.3035,60.0,14.666666666666666
2026-01-20T23:14:41+00:00,SAT-59771,359.9052426160798,51.71490362909634,906.5463788804392,3.5494272019227537,-124315.95467351255,10.5,10499875684.045326,47.655,-122.3035,60.0,14.683333333333334
2026-01-20T23:14:42+00:00,SAT-59771,0.10888461920040358,51.33111139203962,910.0863409431569,3.5895934678375787,-125722.74720898608,10.5,10499874277.25279,47.655,-122.3035,60.0,14.7
2026-01-20T23:14:43+00:00,SAT-59771,0.30708003550696195,50.94967907985392,913.6663621617469,3.6292855448028334,-127112.93164162838,10.5,10499872887.068357,47.655,-122.3035,60.0,14.716666666666667
2026-01-20T23:14:44+00:00,SAT-59771,0.5000189962595554,50.57062721675987,917.2859696117636,3.668505661510093,-128486.5860296458,10.5,10499871513.41397,47.655,-122.3035,60.0,14.733333333333333
2026-01-20T23:14:45+00:00,SAT-59771,0.6878831745435179,50.19397428826702,920.9446925915097,3.707256213518797,-129843.7942756631,10.5,10499870156.205725,47.655,-122.3035,60.0,14.75
2026-01-20T23:14:46+00:00,SAT-59771,0.8708462333203085,49.81973683153032,924.642062788459,3.745539738945807,-131184.645275269,10.5,10499868815.354725,47.655,-122.3035,60.0,14.766666666666667
2026-01-20T23:14:47+00:00,SAT-59771,1.0490742457521294,49.44792952346291,928.3776144214344,3.783358928647846,-132509.23327364822,10.5,10499867490.766726,47.655,-122.3035,60.0,14.783333333333333
2026-01-20T23:14:48+00:00,SAT-59771,1.2227260912513946,49.07856526341053,932.1508843929391,3.8207166007328803,-133817.65697286234,10.5,10499866182.343027,47.655,-122.3035,60.0,14.8
2026-01-20T23:14:49+00:00,SAT-59771,1.3919538272517227,48.711655254073484,935.96141241607,3.8576156984450325,-135110.01945777048,10.5,10499864889.980543,47.655,-122.3035,60.0,14.816666666666666
2026-01-20T23:14:50+00:00,SAT-59771,1.5569030392551366,48.347209078609886,939.8087411393193,3.89405927787418,-136386.42776556738,10.5,10499863613.572235,47.655,-122.3035,60.0,14.833333333333334
2026-01-20T23:14:51+00:00,SAT-59771,1.7177131702103412,47.98523477500407,943.692416259119,3.9300505394071297,-137646.9939873366,10.5,10499862353.006012,47.655,-122.3035,60.0,14.85
2026-01-20T23:14:52+00:00,SAT-59771,1.8745178322200517,47.625738903985614,947.6119866637545,3.9655927530655686,-138891.83265306984,10.5,10499861108.167347,47.655,-122.3035,60.0,14.866666666666667
2026-01-20T23:14:53+00:00,SAT-59771,2.027445097492453,47.26872662032496,951.5670045028119,4.00068932317486,-140121.0629966416,10.5,10499859878.937004,47.655,-122.3035,60.0,14.883333333333333
2026-01-20T23:14:54+00:00,SAT-59771,2.176617775363378,46.91420173495385,955.5570253211249,4.035343706501024,-141334.80608862,10.5,10499858665.19391,47.655,-122.3035,60.0,14.9
2026-01-20T23:14:55+00:00,SAT-59771,2.322153670653791,46.562166781215694,959.5816081110753,4.069559499557562,-142533.1878941211,10.5,10499857466.812105,47.655,-122.3035,60.0,14.916666666666666
2026-01-20T23:14:56+00:00,SAT-59771,2.4641658307509338,46.21262307047853,963.6403154519674,4.103340327316881,-143716.3353750122,10.5,10499856283.664625,47.655,-122.3035,60.0,14.933333333333334
2026-01-20T23:14:57+00:00,SAT-59771,2.6027627750814397,45.8655707544899,967.7327135384113,4.136689933604299,-144884.3796558923,10.5,10499855115.620344,47.655,-122.3035,60.0,14.95
2026-01-20T23:14:58+00:00,SAT-59771,2.7380487149761774,45.521008877281695,971.8583722988594,4.169612095160114,-146037.45301418225,10.5,10499853962.546986,47.655,-122.3035,60.0,14.966666666666667
2026-01-20T23:14:59+00:00,SAT-59771,2.870123758733367,45.17893543162267,976.0168654284323,4.202110697307938,-147175.69153034978,10.5,10499852824.30847,47.655,-122.3035,60.0,14.983333333333333
