satellites_20260121_005943/SAT-53192.csv

timestamp,satellite,azimuth_deg,elevation_deg,distance_km,relative_velocity_kms,doppler_shift_hz,tx_freq_ghz,rx_freq_hz,ue_lat,ue_lon,ue_alt_m,time_minutes
2026-01-20T23:09:53+00:00,SAT-53192,300.72360169466475,30.00992608365797,4241.502624106957,-2.409390381648208,84387.04287652955,10.5,10500084387.042877,47.655,-122.3035,60.0,9.883333333333333
2026-01-20T23:09:54+00:00,SAT-53192,300.612856591771,30.04351615854612,4239.099658766327,-2.3996273214291324,84045.09920995374,10.5,10500084045.09921,47.655,-122.3035,60.0,9.9
2026-01-20T23:09:55+00:00,SAT-53192,300.50188916805104,30.07695197256,4236.706430451089,-2.389844633198479,83702.46808738608,10.5,10500083702.468088,47.655,-122.3035,60.0,9.916666666666666
2026-01-20T23:09:56+00:00,SAT-53192,300.39069983270946,30.110232697783168,4234.3229587369115,-2.380042361409723,83359.1510657753,10.5,10500083359.151066,47.655,-122.3035,60.0,9.933333333333334
2026-01-20T23:09:57+00:00,SAT-53192,300.27928900383824,30.143357506276196,4231.949263155133,-2.37022054593423,83015.14954158524,10.5,10500083015.149542,47.655,-122.3035,60.0,9.95
2026-01-20T23:09:58+00:00,SAT-53192,300.1676571087047,30.17632557004927,4229.5853631973205,-2.3603792300016813,82670.46502890227,10.5,10500082670.465029,47.655,-122.3035,60.0,9.966666666666667
2026-01-20T23:09:59+00:00,SAT-53192,300.055804583651,30.209136061146104,4227.231278311932,-2.350518438031528,82325.09838299884,10.5,10500082325.098383,47.655,-122.3035,60.0,9.983333333333333
2026-01-20T23:10:00+00:00,SAT-53192,299.94373187505147,30.241788151417843,4224.887027923069,-2.340638221867778,81979.05141967138,10.5,10500081979.05142,47.655,-122.3035,60.0,10.0
2026-01-20T23:10:01+00:00,SAT-53192,299.83143943809097,30.27428101294634,4222.552631403126,-2.3307386278910753,81632.32576336624,10.5,10500081632.325764,47.655,-122.3035,60.0,10.016666666666667
2026-01-20T23:10:02+00:00,SAT-53192,299.7189277370891,30.306613818006714,4220.228108078242,-2.3208196807119617,81284.92227604872,10.5,10500081284.922276,47.655,-122.3035,60.0,10.033333333333333
2026-01-20T23:10:03+00:00,SAT-53192,299.60619724659375,30.338785738798865,4217.913477250013,-2.3108814353741964,80936.84288558408,10.5,10500080936.842886,47.655,-122.3035,60.0,10.05
2026-01-20T23:10:04+00:00,SAT-53192,299.49324845001047,30.370795947915962,4215.608758165132,-2.3009239308282496,80588.08895618255,10.5,10500080588.088957,47.655,-122.3035,60.0,10.066666666666666
2026-01-20T23:10:05+00:00,SAT-53192,299.3800818404242,30.402643618156212,4213.313970031453,-2.290947210149813,80238.66199653708,10.5,10500080238.661997,47.655,-122.3035,60.0,10.083333333333334
2026-01-20T23:10:06+00:00,SAT-53192,299.26669792047767,30.43432792262207,4211.029132013864,-2.2809513189734645,79888.5636049636,10.5,10500079888.563604,47.655,-122.3035,60.0,10.1
2026-01-20T23:10:07+00:00,SAT-53192,299.1530972023047,30.46584803479538,4208.754263231741,-2.270936294169024,79537.79507279917,10.5,10500079537.795073,47.655,-122.3035,60.0,10.116666666666667
2026-01-20T23:10:08+00:00,SAT-53192,299.0392802080256,30.497203128456263,4206.48938276769,-2.260902191795672,79186.35836347342,10.5,10500079186.358364,47.655,-122.3035,60.0,10.133333333333333
2026-01-20T23:10:09+00:00,SAT-53192,298.92524746887403,30.528392377991118,4204.234509648406,-2.2508490534476397,78834.25493379228,10.5,10500078834.254934,47.655,-122.3035,60.0,10.15
2026-01-20T23:10:10+00:00,SAT-53192,298.81099952596315,30.55941495823338,4201.9896628591,-2.2407769161507693,78481.48608055737,10.5,10500078481.48608,47.655,-122.3035,60.0,10.166666666666666
2026-01-20T23:10:11+00:00,SAT-53192,298.69653693058115,30.59027004444035,4199.754861348059,-2.230685837435032,78128.05381871159,10.5,10500078128.05382,47.655,-122.3035,60.0,10.183333333333334
2026-01-20T23:10:12+00:00,SAT-53192,298.5818602432423,30.620956812621834,4197.530124006191,-2.22057585741777,77773.959553334,10.5,10500077773.959553,47.655,-122.3035,60.0,10.2
2026-01-20T23:10:13+00:00,SAT-53192,298.46697003460906,30.651474439338337,4195.315469684393,-2.210447036186315,77419.20538893713,10.5,10500077419.205389,47.655,-122.3035,60.0,10.216666666666667
2026-01-20T23:10:14+00:00,SAT-53192,298.35186688454246,30.681822102024316,4193.110917173636,-2.2002994080246645,77063.79252629157,10.5,10500077063.792526,47.655,-122.3035,60.0,10.233333333333333
2026-01-20T23:10:15+00:00,SAT-53192,298.2365513834805,30.71199897866897,4190.916485230699,-2.1901330270734714,76707.722861632,10.5,10500076707.722862,47.655,-122.3035,60.0,10.25
2026-01-20T23:10:16+00:00,SAT-53192,298.1210241314875,30.74200424813859,4188.732192558365,-2.1799479429807245,76350.998133841,10.5,10500076350.998135,47.655,-122.3035,60.0,10.266666666666667
2026-01-20T23:10:17+00:00,SAT-53192,298.00528573853813,30.77183709015609,4186.558057809899,-2.1697442040903194,75993.6200361263,10.5,10500075993.620037,47.655,-122.3035,60.0,10.283333333333333
2026-01-20T23:10:18+00:00,SAT-53192,297.8893368246541,30.801496685327205,4184.394099590353,-2.15952186293287,75635.5904083322,10.5,10500075635.590408,47.655,-122.3035,60.0,10.3
2026-01-20T23:10:19+00:00,SAT-53192,297.7731780197311,30.830982215242905,4182.240336452388,-2.1492809759644755,75276.9112277901,10.5,10500075276.911228,47.655,-122.3035,60.0,10.316666666666666
2026-01-20T23:10:20+00:00,SAT-53192,297.6568099634009,30.860292862577857,4180.096786892359,-2.139021584741252,74917.58394997097,10.5,10500074917.58395,47.655,-122.3035,60.0,10.333333333333334
2026-01-20T23:10:21+00:00,SAT-53192,297.5402333058679,30.88942781092915,4177.963469365177,-2.1287437502653246,74557.61071142727,10.5,10500074557.610712,47.655,-122.3035,60.0,10.35
2026-01-20T23:10:22+00:00,SAT-53192,297.42344870694046,30.918386245131458,4175.840402264913,-2.118447518812646,74196.99313293859,10.5,10500074196.993134,47.655,-122.3035,60.0,10.366666666666667
2026-01-20T23:10:23+00:00,SAT-53192,297.30645683686674,30.947167351097757,4173.727603939484,-2.108132949177635,73835.73327373422,10.5,10500073835.733274,47.655,-122.3035,60.0,10.383333333333333
2026-01-20T23:10:24+00:00,SAT-53192,297.1892583757287,30.9757703160383,4171.62509267817,-2.097800095627999,73473.83303449879,10.5,10500073473.833035,47.655,-122.3035,60.0,10.4
2026-01-20T23:10:25+00:00,SAT-53192,297.07185401372817,31.004194328443948,4169.532886716131,-2.087449009555938,73111.29421520454,10.5,10500073111.294216,47.655,-122.3035,60.0,10.416666666666666
2026-01-20T23:10:26+00:00,SAT-53192,296.95424445140424,31.032438578093306,4167.451004237268,-2.077079744824107,72748.1187023495,10.5,10500072748.118702,47.655,-122.3035,60.0,10.433333333333334
2026-01-20T23:10:27+00:00,SAT-53192,296.83643039955734,31.060502256133418,4165.3794633717625,-2.0666923657868512,72384.30874989503,10.5,10500072384.30875,47.655,-122.3035,60.0,10.45
2026-01-20T23:10:28+00:00,SAT-53192,296.7184125787148,31.08838455527033,4163.318282185618,-2.056286925738128,72019.86622442097,10.5,10500072019.866224,47.655,-122.3035,60.0,10.466666666666667
2026-01-20T23:10:29+00:00,SAT-53192,296.6001917197884,31.116084669663934,4161.267478691681,-2.0458634718813897,71654.7927791919,10.5,10500071654.79278,47.655,-122.3035,60.0,10.483333333333333
2026-01-20T23:10:30+00:00,SAT-53192,296.48176856449453,31.143601794894224,4159.227070855725,-2.035422078698784,71289.09102288769,10.5,10500071289.091022,47.655,-122.3035,60.0,10.5
2026-01-20T23:10:31+00:00,SAT-53192,296.3631438638388,31.170935128378886,4157.197076569237,-2.0249627912871926,70922.76253499187,10.5,10500070922.762535,47.655,-122.3035,60.0,10.516666666666667
2026-01-20T23:10:32+00:00,SAT-53192,296.24431837985196,31.19808386902287,4155.1775136787255,-2.0144856769491426,70555.80967272366,10.5,10500070555.809673,47.655,-122.3035,60.0,10.533333333333333
2026-01-20T23:10:33+00:00,SAT-53192,296.1252928843614,31.225047217566974,4153.168399963582,-2.003990788666545,70188.23429173366,10.5,10500070188.234291,47.655,-122.3035,60.0,10.55
2026-01-20T23:10:34+00:00,SAT-53192,296.006068159865,31.251824376443615,4151.169753150351,-1.993478191666866,69820.03867656368,10.5,10500069820.038677,47.655,-122.3035,60.0,10.566666666666666
2026-01-20T23:10:35+00:00,SAT-53192,295.8866449988758,31.278414549989552,4149.181590900529,-1.9829479465095738,69451.22494826245,10.5,10500069451.224949,47.655,-122.3035,60.0,10.583333333333334
2026-01-20T23:10:36+00:00,SAT-53192,295.7670242042291,31.30481694443357,4147.203930815211,-1.972400111530673,69081.79515000363,10.5,10500069081.79515,47.655,-122.3035,60.0,10.6
2026-01-20T23:10:37+00:00,SAT-53192,295.64720658926433,31.33103076791391,4145.23679043731,-1.9618347486465793,68711.75145036198,10.5,10500068711.75145,47.655,-122.3035,60.0,10.616666666666667
2026-01-20T23:10:38+00:00,SAT-53192,295.5271929776694,31.357055230577636,4143.280187247994,-1.9512519221176157,68341.09610000585,10.5,10500068341.0961,47.655,-122.3035,60.0,10.633333333333333
2026-01-20T23:10:39+00:00,SAT-53192,295.4069842033702,31.382889544660333,4141.334138664335,-1.9406517013167977,67969.83152867167,10.5,10500067969.83153,47.655,-122.3035,60.0,10.65
2026-01-20T23:10:40+00:00,SAT-53192,295.28658111027227,31.408532924605137,4139.398662034222,-1.9300341359134598,67597.95947598964,10.5,10500067597.959476,47.655,-122.3035,60.0,10.666666666666666
2026-01-20T23:10:41+00:00,SAT-53192,295.16598455349197,31.433984586848883,4137.473774656004,-1.9193993027809237,67225.48263438868,10.5,10500067225.482634,47.655,-122.3035,60.0,10.683333333333334
2026-01-20T23:10:42+00:00,SAT-53192,295.045195397753,31.459243750236208,4135.559493751364,-1.9087472606775264,66852.4030618343,10.5,10500066852.40306,47.655,-122.3035,60.0,10.7
2026-01-20T23:10:43+00:00,SAT-53192,294.924214518526,31.48430963582777,4133.655836483382,-1.8980780766557512,66478.72310678805,10.5,10500066478.723106,47.655,-122.3035,60.0,10.716666666666667
2026-01-20T23:10:44+00:00,SAT-53192,294.8030428015609,31.509181467062177,4131.762819948263,-1.887391815415532,66104.44503531535,10.5,10500066104.445036,47.655,-122.3035,60.0,10.733333333333333
2026-01-20T23:10:45+00:00,SAT-53192,294.6816811430762,31.5338584697749,4129.880461177689,-1.8766885466973267,65729.57129002201,10.5,10500065729.571291,47.655,-122.3035,60.0,10.75
2026-01-20T23:10:46+00:00,SAT-53192,294.56013044948,31.558339872316317,4128.008777133783,-1.8659683378844696,65354.10423095744,10.5,10500065354.10423,47.655,-122.3035,60.0,10.766666666666667
2026-01-20T23:10:47+00:00,SAT-53192,294.43839163754484,31.582624905571226,4126.147784711467,-1.855231253821229,64978.046129242204,10.5,10500064978.04613,47.655,-122.3035,60.0,10.783333333333333
2026-01-20T23:10:48+00:00,SAT-53192,294.3164656346226,31.606712802977707,4124.297500740989,-1.8444773645870458,64601.39943935474,10.5,10500064601.399439,47.655,-122.3035,60.0,10.8
2026-01-20T23:10:49+00:00,SAT-53192,294.1943533783304,31.630602800646614,4122.457941982707,-1.833706737805134,64224.16652974608,10.5,10500064224.16653,47.655,-122.3035,60.0,10.816666666666666
2026-01-20T23:10:50+00:00,SAT-53192,294.0720558167596,31.65429413738199,4120.629125129536,-1.8229194462063156,63846.34994775723,10.5,10500063846.349947,47.655,-122.3035,60.0,10.833333333333334
2026-01-20T23:10:51+00:00,SAT-53192,293.94957390816523,31.677786054798634,4118.811066801853,-1.8121155600519745,63467.95215423909,10.5,10500063467.952154,47.655,-122.3035,60.0,10.85
2026-01-20T23:10:52+00:00,SAT-53192,293.8269086211603,31.70107779734233,4117.003783549962,-1.801295147310914,63088.97552974664,10.5,10500063088.97553,47.655,-122.3035,60.0,10.866666666666667
2026-01-20T23:10:53+00:00,SAT-53192,293.70406093490146,31.724168612312116,4115.207291856376,-1.7904582780310643,62709.4225276547,10.5,10500062709.422527,47.655,-122.3035,60.0,10.883333333333333
2026-01-20T23:10:54+00:00,SAT-53192,293.58103183899163,31.74705774994007,4113.421608133754,-1.7796050330305506,62329.29597855588,10.5,10500062329.295979,47.655,-122.3035,60.0,10.9
2026-01-20T23:10:55+00:00,SAT-53192,293.45782233276753,31.76974446358183,4111.646748714144,-1.768735477673549,61948.59817178011,10.5,10500061948.598171,47.655,-122.3035,60.0,10.916666666666666
2026-01-20T23:10:56+00:00,SAT-53192,293.3344334263865,31.792228009570117,4109.882729864411,-1.7578496824491259,61567.33157615266,10.5,10500061567.331575,47.655,-122.3035,60.0,10.933333333333334
2026-01-20T23:10:57+00:00,SAT-53192,293.2108661405013,31.81450764733399,4108.129567781115,-1.7469477269261997,61185.49897851366,10.5,10500061185.498978,47.655,-122.3035,60.0,10.95
2026-01-20T23:10:58+00:00,SAT-53192,293.0871215056776,31.83658263956762,4106.387278581461,-1.7360296897858318,60803.10313460666,10.5,10500060803.103134,47.655,-122.3035,60.0,10.966666666666667
2026-01-20T23:10:59+00:00,SAT-53192,292.96320056245236,31.858452252270443,4104.655878304181,-1.7250956347003352,60420.14627450541,10.5,10500060420.146275,47.655,-122.3035,60.0,10.983333333333333
2026-01-20T23:11:00+00:00,SAT-53192,292.83910436242576,31.880115754610223,4102.9353829245065,-1.7141456430021522,60036.63124681608,10.5,10500060036.631247,47.655,-122.3035,60.0,11.0
2026-01-20T23:11:01+00:00,SAT-53192,292.71483396704485,31.901572419200004,4101.225808336552,-1.7031797949681529,59652.560863174236,10.5,10500059652.560863,47.655,-122.3035,60.0,11.016666666666667
2026-01-20T23:11:02+00:00,SAT-53192,292.590390447689,31.9228215221376,4099.527170354371,-1.692198159193776,59267.937526082285,10.5,10500059267.937527,47.655,-122.3035,60.0,11.033333333333333
2026-01-20T23:11:03+00:00,SAT-53192,292.4657748865358,31.94386234291043,4097.839484723601,-1.681200817113616,58882.7640877242,10.5,10500058882.764088,47.655,-122.3035,60.0,11.05
2026-01-20T23:11:04+00:00,SAT-53192,292.34098837566,31.964694164611924,4096.162767108667,-1.670187849453809,58497.043375470756,10.5,10500058497.043375,47.655,-122.3035,60.0,11.066666666666666
2026-01-20T23:11:05+00:00,SAT-53192,292.21603201709064,31.985316273983976,4094.4970330934784,-1.6591593292633233,58110.77794780579,10.5,10500058110.777948,47.655,-122.3035,60.0,11.083333333333334
2026-01-20T23:11:06+00:00,SAT-53192,292.09090692340527,32.00572796137522,4092.842298189093,-1.6481153397951644,57723.97072060174,10.5,10500057723.97072,47.655,-122.3035,60.0,11.1
2026-01-20T23:11:07+00:00,SAT-53192,291.96561421698567,32.025928520920765,4091.1985778235376,-1.637055961921835,57336.62452635572,10.5,10500057336.624527,47.655,-122.3035,60.0,11.116666666666667
2026-01-20T23:11:08+00:00,SAT-53192,291.84015503021266,32.045917250565985,4089.5658873441807,-1.6259812680682102,56948.741901693225,10.5,10500056948.741901,47.655,-122.3035,60.0,11.133333333333333
2026-01-20T23:11:09+00:00,SAT-53192,291.7145305061182,32.06569345201559,4087.9442420261603,-1.6148913482964233,56560.32600097113,10.5,10500056560.326,47.655,-122.3035,60.0,11.15
2026-01-20T23:11:10+00:00,SAT-53192,291.58874179706834,32.08525643100401,4086.333657054793,-1.603786280077971,56171.37953756894,10.5,10500056171.379538,47.655,-122.3035,60.0,11.166666666666666
2026-01-20T23:11:11+00:00,SAT-53192,291.4627900657261,32.10460549719344,4084.7341475381286,-1.5926661402160411,55781.90520145918,10.5,10500055781.905201,47.655,-122.3035,60.0,11.183333333333334
2026-01-20T23:11:12+00:00,SAT-53192,291.33667648512983,32.12373996422051,4083.14572850762,-1.5815310216696201,55391.906248458756,10.5,10500055391.906248,47.655,-122.3035,60.0,11.2
2026-01-20T23:11:13+00:00,SAT-53192,291.2104022374409,32.14265914994471,4081.568414902008,-1.570381003641709,55001.385452591814,10.5,10500055001.385452,47.655,-122.3035,60.0,11.216666666666667
2026-01-20T23:11:14+00:00,SAT-53192,291.08396851502954,32.16136237633434,4080.0022215810427,-1.559216164751873,54610.345567448094,10.5,10500054610.345568,47.655,-122.3035,60.0,11.233333333333333
2026-01-20T23:11:15+00:00,SAT-53192,290.9573765205225,32.17984896951394,4078.447163326063,-1.5480365943741166,54218.78972328324,10.5,10500054218.789722,47.655,-122.3035,60.0,11.25
2026-01-20T23:11:16+00:00,SAT-53192,290.83062746598085,32.198118259946376,4076.9032548292744,-1.5368423761161814,53826.72084839407,10.5,10500053826.720848,47.655,-122.3035,60.0,11.266666666666667
2026-01-20T23:11:17+00:00,SAT-53192,290.70372257334157,32.21616958241626,4075.3705106994944,-1.5256335953351026,53434.141932345,10.5,10500053434.141932,47.655,-122.3035,60.0,11.283333333333333
2026-01-20T23:11:18+00:00,SAT-53192,290.57666307429884,32.2340022761042,4073.8489454604137,-1.5144103380511418,53041.05598792945,10.5,10500053041.055988,47.655,-122.3035,60.0,11.3
2026-01-20T23:11:19+00:00,SAT-53192,290.44945021024563,32.25161568464699,4072.3385735499305,-1.5031726907404332,52647.46604390744,10.5,10500052647.466043,47.655,-122.3035,60.0,11.316666666666666
2026-01-20T23:11:20+00:00,SAT-53192,290.3220852322394,32.26900915619655,4070.839409319699,-1.4919207393276934,52253.37510972601,10.5,10500052253.37511,47.655,-122.3035,60.0,11.333333333333334
2026-01-20T23:11:21+00:00,SAT-53192,290.1945694010543,32.286182043465764,4069.351467035676,-1.4806545750764872,51858.786381821235,10.5,10500051858.786383,47.655,-122.3035,60.0,11.35
2026-01-20T23:11:22+00:00,SAT-53192,290.0669039867377,32.30313370384298,4067.8747608727995,-1.4693742825591583,51463.70282227434,10.5,10500051463.702822,47.655,-122.3035,60.0,11.366666666666667
2026-01-20T23:11:23+00:00,SAT-53192,289.9390902691561,32.31986349936723,4066.4093049216604,-1.45807995051596,51068.12753914436,10.5,10500051068.127539,47.655,-122.3035,60.0,11.383333333333333
2026-01-20T23:11:24+00:00,SAT-53192,289.81112953766495,32.33637079682917,4064.955113184346,-1.4467716719241743,50672.06378888901,10.5,10500050672.06379,47.655,-122.3035,60.0,11.4
2026-01-20T23:11:25+00:00,SAT-53192,289.6830230907252,32.35265496787067,4063.5121995702134,-1.435449534102565,50275.51462978075,10.5,10500050275.51463,47.655,-122.3035,60.0,11.416666666666666
2026-01-20T23:11:26+00:00,SAT-53192,289.5547722363903,32.36871538897336,4062.080577901535,-1.4241136240547978,49878.48310905599,10.5,10500049878.483109,47.655,-122.3035,60.0,11.433333333333334
2026-01-20T23:11:27+00:00,SAT-53192,289.4263782923358,32.38455144150732,4060.660261913811,-1.4127640385850504,49480.9726172065,10.5,10500049480.972618,47.655,-122.3035,60.0,11.45
2026-01-20T23:11:28+00:00,SAT-53192,289.29784258498995,32.4001625118928,4059.251265245996,-1.401400870221338,49082.986394954765,10.5,10500049082.986395,47.655,-122.3035,60.0,11.466666666666667
2026-01-20T23:11:29+00:00,SAT-53192,289.16916644990016,32.415547991602864,4057.853601444762,-1.3900242018532885,48684.52734544619,10.5,10500048684.527346,47.655,-122.3035,60.0,11.483333333333333
2026-01-20T23:11:30+00:00,SAT-53192,289.0403512325779,32.43070727710984,4056.4672839741133,-1.3786341329567902,48285.59895274716,10.5,10500048285.598953,47.655,-122.3035,60.0,11.5
2026-01-20T23:11:31+00:00,SAT-53192,288.9113982870281,32.44563977011901,4055.0923261988446,-1.367230757727836,47886.20451599979,10.5,10500047886.204515,47.655,-122.3035,60.0,11.516666666666667
2026-01-20T23:11:32+00:00,SAT-53192,288.78230897617834,32.46034487756128,4053.728741389804,-1.3558141663911893,47486.347195256945,10.5,10500047486.347195,47.655,-122.3035,60.0,11.533333333333333
2026-01-20T23:11:33+00:00,SAT-53192,288.65308467225117,32.47482201160081,4052.3765427278563,-1.3443844531789269,47086.03029092457,10.5,10500047086.03029,47.655,-122.3035,60.0,11.55
2026-01-20T23:11:34+00:00,SAT-53192,288.52372675637633,32.489070589730005,4051.0357432998862,-1.3329417182296557,46685.25731028025,10.5,10500046685.25731,47.655,-122.3035,60.0,11.566666666666666
2026-01-20T23:11:35+00:00,SAT-53192,288.39423661802124,32.50309003488168,4049.706356092905,-1.3214860448197583,46284.03117001516,10.5,10500046284.03117,47.655,-122.3035,60.0,11.583333333333334
2026-01-20T23:11:36+00:00,SAT-53192,288.2646156565679,32.51687977530199,4048.3883940108717,-1.3100175438407553,45882.35575401944,10.5,10500045882.355755,47.655,-122.3035,60.0,11.6
2026-01-20T23:11:37+00:00,SAT-53192,288.134865278681,32.53043924489069,4047.0818698471476,-1.298536299715066,45480.2340191233,10.5,10500045480.234018,47.655,-122.3035,60.0,11.616666666666667
2026-01-20T23:11:38+00:00,SAT-53192,288.00498690079826,32.5437678829733,4045.7867963108984,-1.2870424145643702,45077.66954205995,10.5,10500045077.669542,47.655,-122.3035,60.0,11.633333333333333
2026-01-20T23:11:39+00:00,SAT-53192,287.8749819474359,32.55686513453582,4044.5031860094396,-1.275535984658197,44674.665694595526,10.5,10500044674.665695,47.655,-122.3035,60.0,11.65
2026-01-20T23:11:40+00:00,SAT-53192,287.7448518517103,32.569730450212674,4043.2310514540736,-1.2640171067504102,44271.225865459586,10.5,10500044271.225866,47.655,-122.3035,60.0,11.666666666666666
2026-01-20T23:11:41+00:00,SAT-53192,287.6145980552906,32.582363286341256,4041.9704050596083,-1.2524858833113288,43867.353643596165,10.5,10500043867.353643,47.655,-122.3035,60.0,11.683333333333334
2026-01-20T23:11:42+00:00,SAT-53192,287.48422200778884,32.59476310506765,4040.721259138652,-1.2409424059414669,43463.052237242744,10.5,10500043463.052237,47.655,-122.3035,60.0,11.7
2026-01-20T23:11:43+00:00,SAT-53192,287.35372516783724,32.6069293742869,4039.48362591246,-1.2293867821867346,43058.325413112005,10.5,10500043058.325413,47.655,-122.3035,60.0,11.716666666666667
2026-01-20T23:11:44+00:00,SAT-53192,287.22310900144686,32.618861567848946,4038.2575174950257,-1.2178191047159244,42653.176416857044,10.5,10500042653.176416,47.655,-122.3035,60.0,11.733333333333333
2026-01-20T23:11:45+00:00,SAT-53192,287.0923749835028,32.630559165460205,4037.0429459079223,-1.2062394779722647,42247.60890652152,10.5,10500042247.608906,47.655,-122.3035,60.0,11.75
2026-01-20T23:11:46+00:00,SAT-53192,286.9615245965189,32.642021652846154,4035.8399230685577,-1.1946480017320011,41841.62637669161,10.5,10500041841.626377,47.655,-122.3035,60.0,11.766666666666667
2026-01-20T23:11:47+00:00,SAT-53192,286.8305593311033,32.65324852175291,4034.6484607948305,-1.1830447763614231,41435.23234261932,10.5,10500041435.232342,47.655,-122.3035,60.0,11.783333333333333
2026-01-20T23:11:48+00:00,SAT-53192,286.6994806858547,32.66423927000004,4033.4685708045395,-1.1714299084860544,41028.430538781504,10.5,10500041028.430538,47.655,-122.3035,60.0,11.8
2026-01-20T23:11:49+00:00,SAT-53192,286.56829016667416,32.67499340158509,4032.300264709143,-1.159803490760458,40621.22421033289,10.5,10500040621.22421,47.655,-122.3035,60.0,11.816666666666666
2026-01-20T23:11:50+00:00,SAT-53192,286.43698928822784,32.6855104266007,4031.143554027691,-1.1481656355815002,40213.617293887204,10.5,10500040213.617294,47.655,-122.3035,60.0,11.833333333333334
2026-01-20T23:11:51+00:00,SAT-53192,286.30557957179076,32.69578986146231,4029.998450167138,-1.1365164423325742,39805.61327027122,10.5,10500039805.61327,47.655,-122.3035,60.0,11.85
2026-01-20T23:11:52+00:00,SAT-53192,286.17406254660887,32.70583122883307,4028.864964435318,-1.1248560119593392,39397.21567502896,10.5,10500039397.215675,47.655,-122.3035,60.0,11.866666666666667
2026-01-20T23:11:53+00:00,SAT-53192,286.0424397497168,32.7156340576856,4027.743108039391,-1.1131844542748737,38988.42835427892,10.5,10500038988.428354,47.655,-122.3035,60.0,11.883333333333333
2026-01-20T23:11:54+00:00,SAT-53192,285.91071272489904,32.725197883423355,4026.632892076994,-1.1015018711076148,38579.25487448372,10.5,10500038579.254875,47.655,-122.3035,60.0,11.9
2026-01-20T23:11:55+00:00,SAT-53192,285.7788830235528,32.73452224785469,4025.534327544209,-1.089808365802528,38169.69885522118,10.5,10500038169.698854,47.655,-122.3035,60.0,11.916666666666666
2026-01-20T23:11:56+00:00,SAT-53192,285.6469522044765,32.74360669925135,4024.447425334049,-1.0781040466897063,37759.76409066941,10.5,10500037759.764091,47.655,-122.3035,60.0,11.933333333333334
2026-01-20T23:11:57+00:00,SAT-53192,285.5149218332728,32.75245079243314,4023.3721962314835,-1.0663890189127045,37349.45426340045,10.5,10500037349.454264,47.655,-122.3035,60.0,11.95
2026-01-20T23:11:58+00:00,SAT-53192,285.3827934826516,32.76105408878416,4022.308650916621,-1.0546633889628765,36938.773103191954,10.5,10500036938.773104,47.655,-122.3035,60.0,11.966666666666667
2026-01-20T23:11:59+00:00,SAT-53192,285.25056873225293,32.76941615630675,4021.256799963362,-1.0429272638169262,36527.724356820625,10.5,10500036527.724358,47.655,-122.3035,60.0,11.983333333333333
2026-01-20T23:12:00+00:00,SAT-53192,285.11824916853243,32.77753656966692,4020.216653838915,-1.0311807508667725,36116.31178560573,10.5,10500036116.311785,47.655,-122.3035,60.0,12.0
2026-01-20T23:12:01+00:00,SAT-53192,284.9858363846747,32.78541491023977,4019.1882229033845,-1.0194239579683395,35704.53916711795,10.5,10500035704.539167,47.655,-122.3035,60.0,12.016666666666667
2026-01-20T23:12:02+00:00,SAT-53192,284.85333198048875,32.79305076615391,4018.171517409304,-1.007656994235903,35292.4103230008,10.5,10500035292.410322,47.655,-122.3035,60.0,12.033333333333333
2026-01-20T23:12:03+00:00,SAT-53192,284.72073756221096,32.80044373234163,4017.166547500386,-0.9958799658929856,34879.928973651324,10.5,10500034879.928974,47.655,-122.3035,60.0,12.05
2026-01-20T23:12:04+00:00,SAT-53192,284.5880547428124,32.80759341055801,4016.173323214402,-0.9840929854131955,34467.09905837108,10.5,10500034467.099058,47.655,-122.3035,60.0,12.066666666666666
2026-01-20T23:12:05+00:00,SAT-53192,284.4552851411779,32.81449940946601,4015.19185447695,-0.9722961583014316,34053.92427238791,10.5,10500034053.924273,47.655,-122.3035,60.0,12.083333333333334
2026-01-20T23:12:06+00:00,SAT-53192,284.32243038292904,32.821161344626205,4014.222151108404,-0.9604895994290845,33640.4086389838,10.5,10500033640.40864,47.655,-122.3035,60.0,12.1
2026-01-20T23:12:07+00:00,SAT-53192,284.18949209918503,32.827578838600786,4013.2642228145733,-0.948673416762361,33226.55593959202,10.5,10500033226.555939,47.655,-122.3035,60.0,12.116666666666667
2026-01-20T23:12:08+00:00,SAT-53192,284.05647192738076,32.83375152094332,4012.3180791935893,-0.9368477203704824,32812.370029302285,10.5,10500032812.37003,47.655,-122.3035,60.0,12.133333333333333
2026-01-20T23:12:09+00:00,SAT-53192,283.9233715109745,32.839679028252,4011.383729733806,-0.9250126207709195,32397.854778903926,10.5,10500032397.854778,47.655,-122.3035,60.0,12.15
2026-01-20T23:12:10+00:00,SAT-53192,283.7901924993245,32.84536100421041,4010.4611838133574,-0.9131682342524867,31983.014261323115,10.5,10500031983.014261,47.655,-122.3035,60.0,12.166666666666666
2026-01-20T23:12:11+00:00,SAT-53192,283.65693654684526,32.85079709965878,4009.550450694396,-0.9013146674930544,31567.85221287012,10.5,10500031567.852213,47.655,-122.3035,60.0,12.183333333333334
2026-01-20T23:12:12+00:00,SAT-53192,283.5236053142733,32.85598697257138,4008.6515395326833,-0.8894520352913372,31152.37265428152,10.5,10500031152.372654,47.655,-122.3035,60.0,12.2
2026-01-20T23:12:13+00:00,SAT-53192,283.39020046750454,32.86093028814204,4007.764459369486,-0.8775804526767808,30736.57961437508,10.5,10500030736.579615,47.655,-122.3035,60.0,12.216666666666667
2026-01-20T23:12:14+00:00,SAT-53192,283.2567236774655,32.86562671881812,4006.8892191313494,-0.8657000284937963,30320.4769053425,10.5,10500030320.476906,47.655,-122.3035,60.0,12.233333333333333
2026-01-20T23:12:15+00:00,SAT-53192,283.12317662097985,32.87007594430142,4006.025827636265,-0.8538108800222268,29904.068634819963,10.5,10500029904.068634,47.655,-122.3035,60.0,12.25
2026-01-20T23:12:16+00:00,SAT-53192,282.9895609794645,32.87427765162812,4005.1742935852562,-0.8419131184285402,29487.358696327417,10.5,10500029487.358696,47.655,-122.3035,60.0,12.266666666666667
2026-01-20T23:12:17+00:00,SAT-53192,282.85587843979226,32.8782315351695,4004.334625568477,-0.8300068609270187,29070.35119520484,10.5,10500029070.351194,47.655,-122.3035,60.0,12.283333333333333
2026-01-20T23:12:18+00:00,SAT-53192,282.7221306933094,32.8819372966951,4003.506832059179,-0.8180922194993147,28653.050053523373,10.5,10500028653.050053,47.655,-122.3035,60.0,12.3
2026-01-20T23:12:19+00:00,SAT-53192,282.5883194365806,32.8853946453797,4002.690921418932,-0.8061693113592024,28235.459376605213,10.5,10500028235.459377,47.655,-122.3035,60.0,12.316666666666666
2026-01-20T23:12:20+00:00,SAT-53192,282.4544463705219,32.888603297858864,4001.886901892403,-0.7942382513399548,27817.583186397325,10.5,10500027817.583187,47.655,-122.3035,60.0,12.333333333333334
2026-01-20T23:12:21+00:00,SAT-53192,282.3205132007201,32.89156297824884,4001.094781609733,-0.782299155919953,27399.425562465305,10.5,10500027399.425562,47.655,-122.3035,60.0,12.35
2026-01-20T23:12:22+00:00,SAT-53192,282.1865216370792,32.89427341818343,4000.314568584896,-0.7703521400330968,26980.990530280505,10.5,10500026980.99053,47.655,-122.3035,60.0,12.366666666666667
2026-01-20T23:12:23+00:00,SAT-53192,282.05247339405076,32.896734356838245,3999.5462707172355,-0.7583973196205791,26562.28215059393,10.5,10500026562.28215,47.655,-122.3035,60.0,12.383333333333333
2026-01-20T23:12:24+00:00,SAT-53192,281.91837019037825,32.898945540964455,3998.7898957904677,-0.7464348154349082,26143.3046526692,10.5,10500026143.304653,47.655,-122.3035,60.0,12.4
2026-01-20T23:12:25+00:00,SAT-53192,281.7842137482528,32.90090672493083,3998.045451467874,-0.734464740264281,25724.061986826066,10.5,10500025724.061987,47.655,-122.3035,60.0,12.416666666666666
2026-01-20T23:12:26+00:00,SAT-53192,281.6500057945608,32.90261767072794,3997.3129453002502,-0.7224872148551076,25304.55838211457,10.5,10500025304.558382,47.655,-122.3035,60.0,12.433333333333334
2026-01-20T23:12:27+00:00,SAT-53192,281.5157480594963,32.90407814801808,3996.5923847179683,-0.7105023546474755,24884.79788173488,10.5,10500024884.797882,47.655,-122.3035,60.0,12.45
2026-01-20T23:12:28+00:00,SAT-53192,281.38144227738786,32.90528793414773,3995.8837770362666,-0.698510280356285,24464.784713633435,10.5,10500024464.784714,47.655,-122.3035,60.0,12.466666666666667
2026-01-20T23:12:29+00:00,SAT-53192,281.24709018572787,32.90624681418559,3995.187129449991,-0.686511108124492,24044.522945627825,10.5,10500024044.522945,47.655,-122.3035,60.0,12.483333333333333
2026-01-20T23:12:30+00:00,SAT-53192,281.11269352589574,32.90695458093818,3994.5024490381547,-0.6745049592082506,23624.016824621493,10.5,10500023624.016825,47.655,-122.3035,60.0,12.5
2026-01-20T23:12:31+00:00,SAT-53192,280.9782540421887,32.90741103498313,3993.829742758838,-0.6624919504889598,23203.270444295427,10.5,10500023203.270445,47.655,-122.3035,60.0,12.516666666666667
2026-01-20T23:12:32+00:00,SAT-53192,280.8437734825368,32.907615984687084,3993.16901745355,-0.6504722032187081,22782.288051410673,10.5,10500022782.288052,47.655,-122.3035,60.0,12.533333333333333
2026-01-20T23:12:33+00:00,SAT-53192,280.7092535976473,32.907569246233365,3992.5202798428736,-0.638445837142713,22361.07383995126,10.5,10500022361.07384,47.655,-122.3035,60.0,12.55
2026-01-20T23:12:34+00:00,SAT-53192,280.5746961411769,32.907270643642015,3991.8835365279633,-0.6264129712870605,21939.631978714202,10.5,10500021939.631979,47.655,-122.3035,60.0,12.566666666666666
2026-01-20T23:12:35+00:00,SAT-53192,280.44010286984087,32.90672000879255,3991.2587939912664,-0.6143737255626475,21517.966667486337,10.5,10500021517.966667,47.655,-122.3035,60.0,12.583333333333334
2026-01-20T23:12:36+00:00,SAT-53192,280.30547554316286,32.90591718144635,3990.6460585956384,-0.6023282243272936,21096.082261804542,10.5,10500021096.082262,47.655,-122.3035,60.0,12.6
2026-01-20T23:12:37+00:00,SAT-53192,280.1708159224944,32.90486200926099,3990.045336579909,-0.5902765833072142,20673.98281489039,10.5,10500020673.982815,47.655,-122.3035,60.0,12.616666666666667
2026-01-20T23:12:38+00:00,SAT-53192,280.03612577270866,32.90355434782052,3989.4566340674905,-0.5782189274202871,20251.672701896376,10.5,10500020251.672703,47.655,-122.3035,60.0,12.633333333333333
2026-01-20T23:12:39+00:00,SAT-53192,279.90140686025364,32.90199406064277,3988.8799570572105,-0.5661553775999475,19829.156158422935,10.5,10500019829.156158,47.655,-122.3035,60.0,12.65
2026-01-20T23:12:40+00:00,SAT-53192,279.76666095386577,32.900181019201625,3988.315311427284,-0.5540860541733241,19406.437398835107,10.5,10500019406.437399,47.655,-122.3035,60.0,12.666666666666666
2026-01-20T23:12:41+00:00,SAT-53192,279.6318898246755,32.89811510294837,3987.762702935922,-0.5420110811307937,18983.520765800364,10.5,10500018983.520765,47.655,-122.3035,60.0,12.683333333333334
2026-01-20T23:12:42+00:00,SAT-53192,279.497095245304,32.89579619931782,3987.222137217674,-0.5299305788782592,18560.410476442747,10.5,10500018560.410477,47.655,-122.3035,60.0,12.7
2026-01-20T23:12:43+00:00,SAT-53192,279.3622789906135,32.89322420375588,3986.6936197870064,-0.5178446718004761,18137.110887242532,10.5,10500018137.110888,47.655,-122.3035,60.0,12.716666666666667
2026-01-20T23:12:44+00:00,SAT-53192,279.2274428366938,32.890399019719915,3986.1771560343304,-0.5057534809106699,17713.626236594762,10.5,10500017713.626236,47.655,-122.3035,60.0,12.733333333333333
2026-01-20T23:12:45+00:00,SAT-53192,279.09258856161296,32.887320558708325,3985.672751229369,-0.49365713056411903,17289.96087994732,10.5,10500017289.96088,47.655,-122.3035,60.0,12.75
2026-01-20T23:12:46+00:00,SAT-53192,278.9577179445163,32.88398874025825,3985.18041051782,-0.4815557440244463,16866.119134513672,10.5,10500016866.119135,47.655,-122.3035,60.0,12.766666666666667
2026-01-20T23:12:47+00:00,SAT-53192,278.82283276582604,32.88040349196339,3984.700138922446,-0.4694494439011957,16442.10529459869,10.5,10500016442.105295,47.655,-122.3035,60.0,12.783333333333333
2026-01-20T23:12:48+00:00,SAT-53192,278.6879348073188,32.87656474949084,3984.2319413437285,-0.4573383544363124,16017.923711680833,10.5,10500016017.923712,47.655,-122.3035,60.0,12.8
2026-01-20T23:12:49+00:00,SAT-53192,278.55302585168295,32.87247245658426,3983.7758225582375,-0.4452225990743457,15593.578709310392,10.5,10500015593.578709,47.655,-122.3035,60.0,12.816666666666666
2026-01-20T23:12:50+00:00,SAT-53192,278.4181076825776,32.868126565078,3983.331787219427,-0.43310230288258994,15169.074667873047,10.5,10500015169.074667,47.655,-122.3035,60.0,12.833333333333334
2026-01-20T23:12:51+00:00,SAT-53192,278.2831820842073,32.863527034896904,3982.899839856019,-0.42097759006894014,14744.41593765468,10.5,10500014744.415937,47.655,-122.3035,60.0,12.85
2026-01-20T23:12:52+00:00,SAT-53192,278.14825084137306,32.85867383406825,3982.4799848728567,-0.4088485845358511,14319.606858243367,10.5,10500014319.606857,47.655,-122.3035,60.0,12.866666666666667
2026-01-20T23:12:53+00:00,SAT-53192,278.0133157395839,32.85356693873824,3982.0722265512127,-0.39671541102535685,13894.651798632796,10.5,10500013894.651798,47.655,-122.3035,60.0,12.883333333333333
2026-01-20T23:12:54+00:00,SAT-53192,277.87837856468695,32.84820633317015,3981.6765690479506,-0.3845781956125517,13469.555174506066,10.5,10500013469.555174,47.655,-122.3035,60.0,12.9
2026-01-20T23:12:55+00:00,SAT-53192,277.743441102424,32.84259200973684,3981.293016394193,-0.37243706230509194,13044.321329135857,10.5,10500013044.32133,47.655,-122.3035,60.0,12.916666666666666
2026-01-20T23:12:56+00:00,SAT-53192,277.6085051389358,32.83672396894927,3980.9215724973874,-0.360292136826384,12618.954665887666,10.5,10500012618.954666,47.655,-122.3035,60.0,12.933333333333334
2026-01-20T23:12:57+00:00,SAT-53192,277.4735724602096,32.83060221944416,3980.5622411395925,-0.34814354370602585,12193.459546314776,10.5,10500012193.459547,47.655,-122.3035,60.0,12.95
2026-01-20T23:12:58+00:00,SAT-53192,277.3386448523594,32.82422677800519,3980.2150259786695,-0.3359914120613155,11767.840492651128,10.5,10500011767.840492,47.655,-122.3035,60.0,12.966666666666667
2026-01-20T23:12:59+00:00,SAT-53192,277.2037241000067,32.817597669493246,3979.8799305437074,-0.32383586270219034,11342.101736171757,10.5,10500011342.101736,47.655,-122.3035,60.0,12.983333333333333
2026-01-20T23:13:00+00:00,SAT-53192,277.06881198903216,32.81071492698566,3979.5569582433054,-0.3116770253898629,10916.247821663215,10.5,10500010916.247822,47.655,-122.3035,60.0,13.0
2026-01-20T23:13:01+00:00,SAT-53192,276.93391030345276,32.803578591632075,3979.24611235665,-0.2995150246701942,10490.28311124838,10.5,10500010490.283112,47.655,-122.3035,60.0,13.016666666666667
2026-01-20T23:13:02+00:00,SAT-53192,276.799020827093,32.796188712741134,3978.947396038712,-0.287349986859683,10064.212029065358,10.5,10500010064.212029,47.655,-122.3035,60.0,13.033333333333333
2026-01-20T23:13:03+00:00,SAT-53192,276.6641453429357,32.78854534775374,3978.660812318484,-0.2751820392002962,9638.039031666069,10.5,10500009638.039032,47.655,-122.3035,60.0,13.05
2026-01-20T23:13:04+00:00,SAT-53192,276.5292856326537,32.780648562221224,3978.3863640980553,-0.2630113074581308,9211.768523911209,10.5,10500009211.768524,47.655,-122.3035,60.0,13.066666666666666
2026-01-20T23:13:05+00:00,SAT-53192,276.3944434771288,32.77249842983824,3978.1240541540838,-0.25083791831763647,8785.40494282609,10.5,10500008785.404943,47.655,-122.3035,60.0,13.083333333333334
2026-01-20T23:13:06+00:00,SAT-53192,276.25962065599384,32.764095032420684,3977.873885136881,-0.23866199910260344,8358.95274782842,10.5,10500008358.952747,47.655,-122.3035,60.0,13.1
2026-01-20T23:13:07+00:00,SAT-53192,276.12481894729194,32.75543845988682,3977.635859569776,-0.22648367710632913,7932.416397267926,10.5,10500007932.416397,47.655,-122.3035,60.0,13.116666666666667
2026-01-20T23:13:08+00:00,SAT-53192,275.9900401273314,32.7465288102487,3977.4099798491425,-0.21430307746979987,7505.800274111295,10.5,10500007505.800274,47.655,-122.3035,60.0,13.133333333333333
2026-01-20T23:13:09+00:00,SAT-53192,275.85528597175806,32.73736618968531,3977.196248246546,-0.20212032920460388,7079.108896890064,10.5,10500007079.108896,47.655,-122.3035,60.0,13.15
2026-01-20T23:13:10+00:00,SAT-53192,275.7205582534625,32.72795071240523,3976.994666904886,-0.18993555920610217,6652.3467100165435,10.5,10500006652.34671,47.655,-122.3035,60.0,13.166666666666666
2026-01-20T23:13:11+00:00,SAT-53192,275.5858587436597,32.71828250071709,3976.8052378405046,-0.17774889430714486,6225.5181557136475,10.5,10500006225.518156,47.655,-122.3035,60.0,13.183333333333334
2026-01-20T23:13:12+00:00,SAT-53192,275.4511892117366,32.70836168501956,3976.6279629432483,-0.16556046184727707,5798.627693950892,10.5,10500005798.627693,47.655,-122.3035,60.0,13.2
2026-01-20T23:13:13+00:00,SAT-53192,275.31655142502626,32.69818840378661,3976.4628439759663,-0.15337039050825244,5371.679831707609,10.5,10500005371.679832,47.655,-122.3035,60.0,13.216666666666667
2026-01-20T23:13:14+00:00,SAT-53192,275.18194714781345,32.68776280348851,3976.309882573166,-0.14117880656489562,4944.678991662305,10.5,10500004944.678991,47.655,-122.3035,60.0,13.233333333333333
2026-01-20T23:13:15+00:00,SAT-53192,275.0473781428267,32.677085038703545,3976.1690802434186,-0.12898583780805095,4517.629649590901,10.5,10500004517.62965,47.655,-122.3035,60.0,13.25
2026-01-20T23:13:16+00:00,SAT-53192,274.91284617012286,32.66615527203152,3976.0404383678447,-0.11679161264300045,4090.5363027895273,10.5,10500004090.536303,47.655,-122.3035,60.0,13.266666666666667
2026-01-20T23:13:17+00:00,SAT-53192,274.7783529866621,32.65497367405382,3975.923958199502,-0.10459625868982658,3663.403421053305,10.5,10500003663.403421,47.655,-122.3035,60.0,13.283333333333333
2026-01-20T23:13:18+00:00,SAT-53192,274.6439003465841,32.643540423349876,3975.819640864169,-0.09239990316762647,3236.23546013315,10.5,10500003236.23546,47.655,-122.3035,60.0,13.3
2026-01-20T23:13:19+00:00,SAT-53192,274.5094900017512,32.631855706540605,3975.727487360743,-0.08020267461534386,2809.0369220065922,10.5,10500002809.036922,47.655,-122.3035,60.0,13.316666666666666
2026-01-20T23:13:20+00:00,SAT-53192,274.37512370030754,32.619919718159856,3975.6474985599266,-0.06800470100322469,2381.8122887329578,10.5,10500002381.812288,47.655,-122.3035,60.0,13.333333333333334
2026-01-20T23:13:21+00:00,SAT-53192,274.24080318711174,32.60773266068181,3975.5796752047927,-0.05580610942127818,1954.5660115419612,10.5,10500001954.566011,47.655,-122.3035,60.0,13.35
2026-01-20T23:13:22+00:00,SAT-53192,274.10653020466754,32.59529474460233,3975.524017911663,-0.04360702883992673,1527.3026075233377,10.5,10500001527.302607,47.655,-122.3035,60.0,13.366666666666667
2026-01-20T23:13:23+00:00,SAT-53192,273.9723064909758,32.58260618823422,3975.4805271682335,-0.031407586717638936,1100.0265408118069,10.5,10500001100.02654,47.655,-122.3035,60.0,13.383333333333333
2026-01-20T23:13:24+00:00,SAT-53192,273.8381337811074,32.56966721784474,3975.4492033350803,-0.0192079113565282,672.742305090097,10.5,10500000672.742306,47.655,-122.3035,60.0,13.4
2026-01-20T23:13:25+00:00,SAT-53192,273.7040138060296,32.5564780675345,3975.430046644821,-0.007008130632311526,245.45437910673195,10.5,10500000245.45438,47.655,-122.3035,60.0,13.416666666666666
2026-01-20T23:13:26+00:00,SAT-53192,273.56994829321195,32.543038979288696,3975.4230572025367,0.005191627339414342,-181.83274998816213,10.5,10499999818.16725,47.655,-122.3035,60.0,13.433333333333334
2026-01-20T23:13:27+00:00,SAT-53192,273.43593896609576,32.52935020291351,3975.428234985537,0.017391234527925358,-609.1145980170597,10.5,10499999390.885403,47.655,-122.3035,60.0,13.45
2026-01-20T23:13:28+00:00,SAT-53192,273.3019875439513,32.5154119960116,3975.445579843439,0.029590562923334486,-1036.3866815322356,10.5,10499998963.61332,47.655,-122.3035,60.0,13.466666666666667
2026-01-20T23:13:29+00:00,SAT-53192,273.16809574231314,32.50122462401603,3975.4750914981946,0.041789484425291575,-1463.6445139175632,10.5,10499998536.355486,47.655,-122.3035,60.0,13.483333333333333
2026-01-20T23:13:30+00:00,SAT-53192,273.0342652718805,32.48678836006335,3975.5167695439945,0.053987871031532894,-1890.8836119923185,10.5,10499998109.116388,47.655,-122.3035,60.0,13.5
2026-01-20T23:13:31+00:00,SAT-53192,272.9004978389432,32.47210348502388,3975.5706134473703,0.06618559483076604,-2318.099495761976,10.5,10499997681.900505,47.655,-122.3035,60.0,13.516666666666667
2026-01-20T23:13:32+00:00,SAT-53192,272.76679514589637,32.457170287547015,3975.6366225472816,0.07838252773534636,-2745.287679055411,10.5,10499997254.71232,47.655,-122.3035,60.0,13.533333333333333
2026-01-20T23:13:33+00:00,SAT-53192,272.63315888964115,32.44198906387032,3975.714796054943,0.09057854187514726,-3172.4436833198993,10.5,10499996827.556316,47.655,-122.3035,60.0,13.55
2026-01-20T23:13:34+00:00,SAT-53192,272.49959076315304,32.42656011798101,3975.8051330540397,0.10277350948981759,-3599.563033847518,10.5,10499996400.436966,47.655,-122.3035,60.0,13.566666666666666
2026-01-20T23:13:35+00:00,SAT-53192,272.36609245368436,32.41088376139467,3975.9076325008377,0.11496730247341681,-4026.6412438263424,10.5,10499995973.358757,47.655,-122.3035,60.0,13.583333333333334
2026-01-20T23:13:36+00:00,SAT-53192,272.23266564433294,32.394960313323686,3976.022293223838,0.12715979336696812,-4453.673849103852,10.5,10499995546.32615,47.655,-122.3035,60.0,13.6
2026-01-20T23:13:37+00:00,SAT-53192,272.09931201224344,32.378790100446096,3976.149113924422,0.13935085413059947,-4880.656365182123,10.5,10499995119.343636,47.655,-122.3035,60.0,13.616666666666667
2026-01-20T23:13:38+00:00,SAT-53192,271.966033230072,32.36237345706592,3976.2880931762757,0.15154035719352574,-5307.584323992634,10.5,10499994692.415676,47.655,-122.3035,60.0,13.633333333333333
2026-01-20T23:13:39+00:00,SAT-53192,271.83283096482273,32.34571072495441,3976.43922942585,0.1637281751557237,-5734.45326344767,10.5,10499994265.546736,47.655,-122.3035,60.0,13.65
2026-01-20T23:13:40+00:00,SAT-53192,271.69970687784263,32.328802253328526,3976.6025209925383,0.17591418041083265,-6161.258714232707,10.5,10499993838.741285,47.655,-122.3035,60.0,13.666666666666666
2026-01-20T23:13:41+00:00,SAT-53192,271.5666626251234,32.31164839887113,3976.7779660684682,0.18809824523560162,-6587.9962029392245,10.5,10499993412.003798,47.655,-122.3035,60.0,13.683333333333334
2026-01-20T23:13:42+00:00,SAT-53192,271.43369985721165,32.29424952570039,3976.965562718383,0.20028024264420638,-7014.6612819865095,10.5,10499992985.338718,47.655,-122.3035,60.0,13.7
2026-01-20T23:13:43+00:00,SAT-53192,271.3008202185483,32.2766060052652,3977.1653088803805,0.21246004523306608,-7441.2494891622455,10.5,10499992558.750511,47.655,-122.3035,60.0,13.716666666666667
2026-01-20T23:13:44+00:00,SAT-53192,271.16802534780584,32.25871821636592,3977.3772023654924,0.22463752571091644,-7867.756366187913,10.5,10499992132.243633,47.655,-122.3035,60.0,13.733333333333333
2026-01-20T23:13:45+00:00,SAT-53192,271.035316877767,32.24058654511941,3977.6012408578017,0.23681255748072141,-8294.177479099806,10.5,10499991705.822521,47.655,-122.3035,60.0,13.75
2026-01-20T23:13:46+00:00,SAT-53192,270.9026964348019,32.22221138486373,3977.837421915129,0.24898501335692638,-8720.50837332181,10.5,10499991279.491627,47.655,-122.3035,60.0,13.766666666666667
2026-01-20T23:13:47+00:00,SAT-53192,270.7701656392917,32.20359313619402,3978.08574296845,0.26115476612450006,-9146.744593245407,10.5,10499990853.255407,47.655,-122.3035,60.0,13.783333333333333
2026-01-20T23:13:48+00:00,SAT-53192,270.6377261055312,32.184732206927244,3978.3462013218655,0.2733216894425491,-9572.88171387809,10.5,10499990427.118286,47.655,-122.3035,60.0,13.8
2026-01-20T23:13:49+00:00,SAT-53192,270.5053794411887,32.165629012002555,3978.618794153469,0.28548565723191344,-9998.915319394362,10.5,10499990001.08468,47.655,-122.3035,60.0,13.816666666666666
2026-01-20T23:13:50+00:00,SAT-53192,270.37312724712064,32.14628397342609,3978.9035185156154,0.29764654207884766,-10424.8409472259,10.5,10499989575.159052,47.655,-122.3035,60.0,13.833333333333334
2026-01-20T23:13:51+00:00,SAT-53192,270.2409711181994,32.12669752036989,3979.2003713335816,0.3098042180597072,-10850.654186994008,10.5,10499989149.345814,47.655,-122.3035,60.0,13.85
2026-01-20T23:13:52+00:00,SAT-53192,270.10891264228826,32.106870088994526,3979.50934940706,0.32195855959745273,-11276.350640459586,10.5,10499988723.649359,47.655,-122.3035,60.0,13.866666666666667
2026-01-20T23:13:53+00:00,SAT-53192,269.9769534002239,32.08680212241898,3979.8304494104987,0.3341094404436871,-11701.925885869734,10.5,10499988298.074114,47.655,-122.3035,60.0,13.883333333333333
2026-01-20T23:13:54+00:00,SAT-53192,269.84509496606177,32.06649407072894,3980.1636678924347,0.3462567336822123,-12127.375478082336,10.5,10499987872.624521,47.655,-122.3035,60.0,13.9
2026-01-20T23:13:55+00:00,SAT-53192,269.7133389073814,32.04594639100081,3980.509001274827,0.3584003146086024,-12552.695049420907,10.5,10499987447.30495,47.655,-122.3035,60.0,13.916666666666666
2026-01-20T23:13:56+00:00,SAT-53192,269.58168678416774,32.02515954709795,3980.866445855263,0.3705400581703014,-12977.880220015957,10.5,10499987022.11978,47.655,-122.3035,60.0,13.933333333333334
2026-01-20T23:13:57+00:00,SAT-53192,269.45014014907485,32.004134009681934,3981.2359978066115,0.3826758378836062,-13402.926559873182,10.5,10499986597.07344,47.655,-122.3035,60.0,13.95
2026-01-20T23:13:58+00:00,SAT-53192,269.3187005479485,31.98287025626609,3981.617653175594,0.3948075299959868,-13827.829734655505,10.5,10499986172.170265,47.655,-122.3035,60.0,13.966666666666667
2026-01-20T23:13:59+00:00,SAT-53192,269.18736951872546,31.961368771009493,3982.0114078855104,0.40693500785297815,-14252.585308387816,10.5,10499985747.414692,47.655,-122.3035,60.0,13.983333333333333
2026-01-20T23:14:00+00:00,SAT-53192,269.05614859253143,31.93963004486413,3982.417257733342,0.4190581478235149,-14677.18895098724,10.5,10499985322.811049,47.655,-122.3035,60.0,14.0
2026-01-20T23:14:01+00:00,SAT-53192,268.9250392925206,31.9176545753549,3982.835198392772,0.43117682557467996,-15101.636307789102,10.5,10499984898.363691,47.655,-122.3035,60.0,14.016666666666667
2026-01-20T23:14:02+00:00,SAT-53192,268.7940431341275,31.89544286658539,3983.2652254134778,0.4432909147259389,-15525.922952412493,10.5,10499984474.077047,47.655,-122.3035,60.0,14.033333333333333
2026-01-20T23:14:03+00:00,SAT-53192,268.6631616257987,31.872995429333777,3983.707334219098,0.4554002932689719,-15950.04461160996,10.5,10499984049.955389,47.655,-122.3035,60.0,14.05
2026-01-20T23:14:04+00:00,SAT-53192,268.53239626735274,31.850312780739007,3984.161520111585,0.4675048369791128,-16373.99693450822,10.5,10499983626.003065,47.655,-122.3035,60.0,14.066666666666666
2026-01-20T23:14:05+00:00,SAT-53192,268.4017485509338,31.82739544442684,3984.627778268999,0.47960442152598576,-16797.7755665316,10.5,10499983202.224434,47.655,-122.3035,60.0,14.083333333333334
2026-01-20T23:14:06+00:00,SAT-53192,268.2712199608386,31.804243950449553,3985.106103745401,0.49169892289990136,-17221.37616433621,10.5,10499982778.623837,47.655,-122.3035,60.0,14.1
2026-01-20T23:14:07+00:00,SAT-53192,268.1408119735198,31.780858835252566,3985.5964914711726,0.5037882190615385,-17644.794453588802,10.5,10499982355.205547,47.655,-122.3035,60.0,14.116666666666667
2026-01-20T23:14:08+00:00,SAT-53192,268.01052605690546,31.75724064151471,3986.098936254984,0.5158721855915828,-18068.026076598697,10.5,10499981931.973923,47.655,-122.3035,60.0,14.133333333333333
2026-01-20T23:14:09+00:00,SAT-53192,267.88036367113153,31.733389918248008,3986.613432781414,0.5279507006804286,-18491.066767078242,10.5,10499981508.933233,47.655,-122.3035,60.0,14.15
2026-01-20T23:14:10+00:00,SAT-53192,267.75032626775953,31.709307220615017,3987.1399756135593,0.5400236418450783,-18913.912235154774,10.5,10499981086.087765,47.655,-122.3035,60.0,14.166666666666666
2026-01-20T23:14:11+00:00,SAT-53192,267.6204152899924,31.68499310993381,3987.678559192359,0.5520908854803863,-19336.558151653222,10.5,10499980663.441849,47.655,-122.3035,60.0,14.183333333333334
2026-01-20T23:14:12+00:00,SAT-53192,267.4906321729318,31.660448153687195,3988.229177835478,0.5641523108943215,-19759.00028942815,10.5,10499980240.99971,47.655,-122.3035,60.0,14.2
2026-01-20T23:14:13+00:00,SAT-53192,267.3609783428651,31.635672925350708,3988.7918257402102,0.5762077956110022,-20181.234358856098,10.5,10499979818.76564,47.655,-122.3035,60.0,14.216666666666667
2026-01-20T23:14:14+00:00,SAT-53192,267.23145521762814,31.610668004422646,3989.3664969816996,0.5882572187950798,-20603.256127772027,10.5,10499979396.743872,47.655,-122.3035,60.0,14.233333333333333
2026-01-20T23:14:15+00:00,SAT-53192,267.1020642063066,31.585433976327252,3989.953185514578,0.6003004577236772,-21025.06129790167,10.5,10499978974.938702,47.655,-122.3035,60.0,14.25
2026-01-20T23:14:16+00:00,SAT-53192,266.97280670960487,31.559971432446265,3990.551885171081,0.612337393567898,-21446.645707354415,10.5,10499978553.354292,47.655,-122.3035,60.0,14.266666666666667
2026-01-20T23:14:17+00:00,SAT-53192,266.84368411893166,31.53428096990073,3991.162589664933,0.6243679011328841,-21868.004971276772,10.5,10499978131.99503,47.655,-122.3035,60.0,14.283333333333333
2026-01-20T23:14:18+00:00,SAT-53192,266.7146978179012,31.50836319180785,3991.7852925849957,0.6363918673991987,-22289.13513124999,10.5,10499977710.864868,47.655,-122.3035,60.0,14.3
2026-01-20T23:14:19+00:00,SAT-53192,266.5858491795682,31.48221870668203,3992.419987407415,0.6484091656503744,-22710.031749127364,10.5,10499977289.96825,47.655,-122.3035,60.0,14.316666666666666
2026-01-20T23:14:20+00:00,SAT-53192,266.45713956947804,31.455848129011883,3993.066667481957,0.6604196794141292,-23130.6907455569,10.5,10499976869.309254,47.655,-122.3035,60.0,14.333333333333334
2026-01-20T23:14:21+00:00,SAT-53192,266.3285703434266,31.42925207876111,3993.7253260422262,0.6724232877056978,-23551.107883140365,10.5,10499976448.892117,47.655,-122.3035,60.0,14.35
2026-01-20T23:14:22+00:00,SAT-53192,266.2001428484354,31.40243118152593,3994.3959562011646,0.6844198711427322,-23971.278980602932,10.5,10499976028.72102,47.655,-122.3035,60.0,14.366666666666667
2026-01-20T23:14:23+00:00,SAT-53192,266.0718584223846,31.37538606841699,3995.078550952651,0.696409311910742,-24391.199911582804,10.5,10499975608.800089,47.655,-122.3035,60.0,14.383333333333333
2026-01-20T23:14:24+00:00,SAT-53192,265.9437183937533,31.348117375956658,3995.7731031730636,0.708391491476614,-24810.866524548946,10.5,10499975189.133476,47.655,-122.3035,60.0,14.4
2026-01-20T23:14:25+00:00,SAT-53192,265.8157240817572,31.320625746066682,3996.479605620563,0.7203662893531305,-25230.27459952935,10.5,10499974769.7254,47.655,-122.3035,60.0,14.416666666666666
2026-01-20T23:14:26+00:00,SAT-53192,265.687876796723,31.292911826102106,3997.1980509331443,0.7323335913824424,-25649.420138233247,10.5,10499974350.579863,47.655,-122.3035,60.0,14.433333333333334
2026-01-20T23:14:27+00:00,SAT-53192,265.56017783888865,31.264976268546786,3997.9284316349494,0.7442932766910845,-26068.298907160588,10.5,10499973931.701094,47.655,-122.3035,60.0,14.45
2026-01-20T23:14:28+00:00,SAT-53192,265.4326284997019,31.23681973124834,3998.6707401295694,0.7562452284850719,-26486.90681569199,10.5,10499973513.093184,47.655,-122.3035,60.0,14.466666666666667
2026-01-20T23:14:29+00:00,SAT-53192,265.3052300610336,31.208442877204128,3999.424968704112,0.7681893309670386,-26905.23980811387,10.5,10499973094.760191,47.655,-122.3035,60.0,14.483333333333333
2026-01-20T23:14:30+00:00,SAT-53192,265.1779837950463,31.17984637447841,4000.1911095301966,0.7801254675737315,-27323.29380188804,10.5,10499972676.706198,47.655,-122.3035,60.0,14.5
2026-01-20T23:14:31+00:00,SAT-53192,265.05089096433636,31.151030896189642,4000.9691546631902,0.7920535208321839,-27741.064682614302,10.5,10499972258.935318,47.655,-122.3035,60.0,14.516666666666667
2026-01-20T23:14:32+00:00,SAT-53192,264.92395282210373,31.12199712050029,4001.7590960413,0.8039733749084382,-28158.54839329748,10.5,10499971841.451607,47.655,-122.3035,60.0,14.533333333333333
2026-01-20T23:14:33+00:00,SAT-53192,264.797170611887,31.092745730510057,4002.560925487209,0.8158849159536428,-28575.740946469203,10.5,10499971424.259054,47.655,-122.3035,60.0,14.55
2026-01-20T23:14:34+00:00,SAT-53192,264.6705455672374,31.063277414127494,4003.3746347100528,0.827788026545653,-28992.638229509284,10.5,10499971007.36177,47.655,-122.3035,60.0,14.566666666666666
2026-01-20T23:14:35+00:00,SAT-53192,264.54407891236343,31.03359286417442,4004.2002153018616,0.839682593400758,-29409.236274742972,10.5,10499970590.763725,47.655,-122.3035,60.0,14.583333333333334
2026-01-20T23:14:36+00:00,SAT-53192,264.4177718614054,31.003692778163828,4005.0376587416795,0.8515685024962952,-29825.53108861431,10.5,10499970174.468912,47.655,-122.3035,60.0,14.6
2026-01-20T23:14:37+00:00,SAT-53192,264.291625618675,30.973577858305497,4005.886956394836,0.8634456375160062,-30241.518597235907,10.5,10499969758.481403,47.655,-122.3035,60.0,14.616666666666667
2026-01-20T23:14:38+00:00,SAT-53192,264.1656413789444,30.943248811525997,4006.748099510652,0.8753138876202086,-30657.194918533238,10.5,10499969342.805082,47.655,-122.3035,60.0,14.633333333333333
2026-01-20T23:14:39+00:00,SAT-53192,264.03982032668455,30.91270634923249,4007.6210792279053,0.8871731361140205,-31072.555965357922,10.5,10499968927.444035,47.655,-122.3035,60.0,14.65
2026-01-20T23:14:40+00:00,SAT-53192,263.91416363694714,30.881951187477522,4008.50588656899,0.8990232754876157,-31487.59797226108,10.5,10499968512.402027,47.655,-122.3035,60.0,14.666666666666666
2026-01-20T23:14:41+00:00,SAT-53192,263.7886724740197,30.850984046573537,4009.402512449076,0.9108641864008281,-31902.31675944528,10.5,10499968097.68324,47.655,-122.3035,60.0,14.683333333333334
2026-01-20T23:14:42+00:00,SAT-53192,263.6633479932076,30.81980565148426,4010.310947664313,0.9226957616172539,-32316.708571038056,10.5,10499967683.29143,47.655,-122.3035,60.0,14.7
2026-01-20T23:14:43+00:00,SAT-53192,263.53819133908246,30.788416731335296,4011.2311829038995,0.9345178886775143,-32730.769468236256,10.5,10499967269.230532,47.655,-122.3035,60.0,14.716666666666667
2026-01-20T23:14:44+00:00,SAT-53192,263.4132036462754,30.756818019555897,4012.163208744874,0.946330454287734,-33144.49548300914,10.5,10499966855.504517,47.655,-122.3035,60.0,14.733333333333333
2026-01-20T23:14:45+00:00,SAT-53192,263.2883860396267,30.725010253868522,4013.1070156512833,0.958133349544548,-33557.8828011002,10.5,10499966442.117199,47.655,-122.3035,60.0,14.75
2026-01-20T23:14:46+00:00,SAT-53192,263.1637396335797,30.692994176075718,4014.0625939785623,0.9699264656706302,-33970.92761266735,10.5,10499966029.072388,47.655,-122.3035,60.0,14.766666666666667
2026-01-20T23:14:47+00:00,SAT-53192,263.0392655322409,30.66077053202072,4015.029933973658,0.981709685010563,-34383.62579692019,10.5,10499965616.374203,47.655,-122.3035,60.0,14.783333333333333
2026-01-20T23:14:48+00:00,SAT-53192,262.91496483055744,30.628340071844118,4016.0090257661755,0.9934829084884272,-34795.97388380093,10.5,10499965204.026115,47.655,-122.3035,60.0,14.8
2026-01-20T23:14:49+00:00,SAT-53192,262.7908386119026,30.595703549289585,4016.9998593869072,1.0052460170898259,-35207.96770492195,10.5,10499964792.032295,47.655,-122.3035,60.0,14.816666666666666
2026-01-20T23:14:50+00:00,SAT-53192,262.6668879507449,30.56286172235588,4018.002424747952,1.0169989104555848,-35619.603745280474,10.5,10499964380.396255,47.655,-122.3035,60.0,14.833333333333334
2026-01-20T23:14:51+00:00,SAT-53192,262.54311391023214,30.529815352597815,4019.016711661313,1.028741474109709,-36030.87799544291,10.5,10499963969.122005,47.655,-122.3035,60.0,14.85
2026-01-20T23:14:52+00:00,SAT-53192,262.419517544074,30.49656520557184,4020.0427098248247,1.0404736040414655,-36441.78681251344,10.5,10499963558.213188,47.655,-122.3035,60.0,14.866666666666667
2026-01-20T23:14:53+00:00,SAT-53192,262.29609989521765,30.463112050425813,4021.0804088325885,1.0521951904255793,-36852.32634994634,10.5,10499963147.67365,47.655,-122.3035,60.0,14.883333333333333
2026-01-20T23:14:54+00:00,SAT-53192,262.1728619966436,30.429456660053468,4022.1297981691732,1.0639061263021177,-37262.49286155235,10.5,10499962737.50714,47.655,-122.3035,60.0,14.9
2026-01-20T23:14:55+00:00,SAT-53192,262.0498048710302,30.395599810950767,4023.190867212472,1.0756063073645634,-37672.282694076035,10.5,10499962327.717306,47.655,-122.3035,60.0,14.916666666666666
2026-01-20T23:14:56+00:00,SAT-53192,261.92692953046924,30.361542283073728,4024.26360523635,1.0872956254296993,-38081.69205848348,10.5,10499961918.307941,47.655,-122.3035,60.0,14.933333333333334
2026-01-20T23:14:57+00:00,SAT-53192,261.8042369770243,30.327284859937073,4025.3480014067786,1.0989739744589953,-38490.71724085684,10.5,10499961509.282759,47.655,-122.3035,60.0,14.95
2026-01-20T23:14:58+00:00,SAT-53192,261.68172820243456,30.292828328476485,4026.4440447839725,1.110641251292986,-38899.354628115274,10.5,10499961100.645372,47.655,-122.3035,60.0,14.966666666666667
2026-01-20T23:14:59+00:00,SAT-53192,261.5594041879032,30.258173478924302,4027.551724325262,1.1222973509517638,-39307.60054341834,10.5,10499960692.399456,47.655,-122.3035,60.0,14.983333333333333
