satellites_20260121_005943/SAT-53559.csv

timestamp,satellite,azimuth_deg,elevation_deg,distance_km,relative_velocity_kms,doppler_shift_hz,tx_freq_ghz,rx_freq_hz,ue_lat,ue_lon,ue_alt_m,time_minutes
2026-01-20T23:07:30+00:00,SAT-53559,178.7840698611247,30.29897716184008,928.4908161882129,-4.871981253670119,170637.3919637973,10.5,10500170637.391964,47.655,-122.3035,60.0,7.5
2026-01-20T23:07:31+00:00,SAT-53559,178.73182371804202,30.63306616803235,923.6318268845527,-4.844896291825929,169688.7620307388,10.5,10500169688.762032,47.655,-122.3035,60.0,7.516666666666667
2026-01-20T23:07:32+00:00,SAT-53559,178.6790195414233,30.97040136446575,918.7998503161715,-4.817376618454025,168724.9066611518,10.5,10500168724.906662,47.655,-122.3035,60.0,7.533333333333333
2026-01-20T23:07:33+00:00,SAT-53559,178.6256421473666,31.311015323389185,913.9953200353667,-4.789415582290951,167745.59289965525,10.5,10500167745.5929,47.655,-122.3035,60.0,7.55
2026-01-20T23:07:34+00:00,SAT-53559,178.57167580198976,31.654940499686063,909.2186762279617,-4.761006462051628,166750.58533841468,10.5,10500166750.585339,47.655,-122.3035,60.0,7.566666666666666
2026-01-20T23:07:35+00:00,SAT-53559,178.5171041966517,32.00220920029807,904.4703657831424,-4.732142539513246,165739.64867684926,10.5,10500165739.648676,47.655,-122.3035,60.0,7.583333333333333
2026-01-20T23:07:36+00:00,SAT-53559,178.46191042096734,32.352853557168466,899.7508422904011,-4.702817025160695,164712.5451174202,10.5,10500164712.545118,47.655,-122.3035,60.0,7.6
2026-01-20T23:07:37+00:00,SAT-53559,178.40607693532345,32.70690549319353,895.0605661106409,-4.673023100843347,163669.03585965175,10.5,10500163669.03586,47.655,-122.3035,60.0,7.616666666666666
2026-01-20T23:07:38+00:00,SAT-53559,178.34958554133522,33.06439668930917,890.4000044047331,-4.642753965578238,162608.8827043524,10.5,10500162608.882704,47.655,-122.3035,60.0,7.633333333333334
2026-01-20T23:07:39+00:00,SAT-53559,178.2924173500926,33.42535855319055,885.7696311163965,-4.612002740788299,161531.84473465686,10.5,10500161531.844734,47.655,-122.3035,60.0,7.65
2026-01-20T23:07:40+00:00,SAT-53559,178.23455274996292,33.78982217900848,881.1699270495835,-4.580762584461856,160437.68231437457,10.5,10500160437.682314,47.655,-122.3035,60.0,7.666666666666667
2026-01-20T23:07:41+00:00,SAT-53559,178.17597137099978,34.157818313675854,876.6013798320137,-4.549026609434706,159326.15422588255,10.5,10500159326.154226,47.655,-122.3035,60.0,7.683333333333334
2026-01-20T23:07:42+00:00,SAT-53559,178.1166520485267,34.52937731490913,872.064483960204,-4.516787952809885,158197.020101499,10.5,10500158197.020102,47.655,-122.3035,60.0,7.7
2026-01-20T23:07:43+00:00,SAT-53559,178.05657278364674,34.90452911243324,867.5597407752683,-4.484039758732066,157050.03982017015,10.5,10500157050.03982,47.655,-122.3035,60.0,7.716666666666667
2026-01-20T23:07:44+00:00,SAT-53559,177.9957107017928,35.28330316585587,863.0876584558928,-4.450775157652198,155884.97278123014,10.5,10500155884.972782,47.655,-122.3035,60.0,7.733333333333333
2026-01-20T23:07:45+00:00,SAT-53559,177.93404200912585,35.665728418403724,858.6487520319944,-4.416987310684666,154701.5794579762,10.5,10500154701.579458,47.655,-122.3035,60.0,7.75
2026-01-20T23:07:46+00:00,SAT-53559,177.8715419458051,36.05183325199134,854.2435433541383,-4.382669422301484,153499.62184227325,10.5,10500153499.621841,47.655,-122.3035,60.0,7.766666666666667
2026-01-20T23:07:47+00:00,SAT-53559,177.80818473626545,36.44164544101703,849.8725610502962,-4.3478147160707685,152278.8625948124,10.5,10500152278.862595,47.655,-122.3035,60.0,7.783333333333333
2026-01-20T23:07:48+00:00,SAT-53559,177.74394353696542,36.835192101703335,845.5363405068016,-4.312416461611191,151039.0659891701,10.5,10500151039.065989,47.655,-122.3035,60.0,7.8
2026-01-20T23:07:49+00:00,SAT-53559,177.67879038049006,37.23249964107401,841.2354238224215,-4.276468002322992,149779.99888306533,10.5,10500149779.998882,47.655,-122.3035,60.0,7.816666666666666
2026-01-20T23:07:50+00:00,SAT-53559,177.61269611592192,37.63359370602898,836.9703597347714,-4.239962693599251,148501.42855425715,10.5,10500148501.428555,47.655,-122.3035,60.0,7.833333333333333
2026-01-20T23:07:51+00:00,SAT-53559,177.5456303464903,38.038499123971505,832.741703608355,-4.202894026027388,147203.12701558214,10.5,10500147203.127016,47.655,-122.3035,60.0,7.85
2026-01-20T23:07:52+00:00,SAT-53559,177.47756136134183,38.447239852089076,828.5500172997304,-4.165255525287651,145884.86750897628,10.5,10500145884.86751,47.655,-122.3035,60.0,7.866666666666666
2026-01-20T23:07:53+00:00,SAT-53559,177.40845606473047,38.85983891462554,824.39586912251,-4.127040843788697,144546.42771494042,10.5,10500144546.427715,47.655,-122.3035,60.0,7.883333333333334
2026-01-20T23:07:54+00:00,SAT-53559,177.33827989911254,39.2763183459229,820.2798337209715,-4.088243713946189,143187.58811615928,10.5,10500143187.588116,47.655,-122.3035,60.0,7.9
2026-01-20T23:07:55+00:00,SAT-53559,177.2669967641581,39.696699126118936,816.2024919902625,-4.048857999133353,141808.1337820053,10.5,10500141808.133781,47.655,-122.3035,60.0,7.916666666666667
2026-01-20T23:07:56+00:00,SAT-53559,177.1945689295911,40.121001118883385,812.1644309457935,-4.008877692126712,140407.85431410177,10.5,10500140407.854315,47.655,-122.3035,60.0,7.933333333333334
2026-01-20T23:07:57+00:00,SAT-53559,177.12095694230896,40.549243006071656,808.1662435941792,-3.9682969062667484,138986.54353673186,10.5,10500138986.543537,47.655,-122.3035,60.0,7.95
2026-01-20T23:07:58+00:00,SAT-53559,177.04611952755488,40.98144221838312,804.2085288129957,-3.927109961861111,137544.00252304433,10.5,10500137544.002523,47.655,-122.3035,60.0,7.966666666666667
2026-01-20T23:07:59+00:00,SAT-53559,176.97001348170423,41.41761487207718,800.2918911443662,-3.885311284994369,136080.0360509432,10.5,10500136080.03605,47.655,-122.3035,60.0,7.983333333333333
2026-01-20T23:08:00+00:00,SAT-53559,176.89259355981426,41.85777569188475,796.4169406894653,-3.8428955092055137,134594.4561642638,10.5,10500134594.456163,47.655,-122.3035,60.0,8.0
2026-01-20T23:08:01+00:00,SAT-53559,176.81381235336866,42.301937941480645,792.5842929016176,-3.7998574811420305,133087.0823708024,10.5,10500133087.08237,47.655,-122.3035,60.0,8.016666666666667
2026-01-20T23:08:02+00:00,SAT-53559,176.73362015931772,42.7501133517392,788.7945683737586,-3.7561922554530454,131557.7414634526,10.5,10500131557.741463,47.655,-122.3035,60.0,8.033333333333333
2026-01-20T23:08:03+00:00,SAT-53559,176.6519648399846,43.20231204531717,785.0483926309868,-3.7118950713146637,130006.26669802336,10.5,10500130006.266699,47.655,-122.3035,60.0,8.05
2026-01-20T23:08:04+00:00,SAT-53559,176.56879167351008,43.6585424550869,781.346395946529,-3.6669614757602886,128432.50211278841,10.5,10500128432.502113,47.655,-122.3035,60.0,8.066666666666666
2026-01-20T23:08:05+00:00,SAT-53559,176.4840431905832,44.118811253936485,777.6892130347039,-3.621387228163771,126836.29918308217,10.5,10500126836.299183,47.655,-122.3035,60.0,8.083333333333334
2026-01-20T23:08:06+00:00,SAT-53559,176.39765900144516,44.583123270184046,774.0774828391487,-3.5751683772376213,125217.51951810282,10.5,10500125217.519518,47.655,-122.3035,60.0,8.1
2026-01-20T23:08:07+00:00,SAT-53559,176.30957560808824,45.05148140885659,770.5118482442504,-3.5283012526999866,123576.03456905464,10.5,10500123576.034569,47.655,-122.3035,60.0,8.116666666666667
2026-01-20T23:08:08+00:00,SAT-53559,176.2197262025818,45.52388656893761,766.9929557948909,-3.480782521884873,121911.7276118773,10.5,10500121911.727612,47.655,-122.3035,60.0,8.133333333333333
2026-01-20T23:08:09+00:00,SAT-53559,176.12804044835332,46.00033756466622,763.5214553597311,-3.432609143296822,120224.49212053437,10.5,10500120224.49212,47.655,-122.3035,60.0,8.15
2026-01-20T23:08:10+00:00,SAT-53559,176.03444424581272,46.48083103777136,760.0979998408163,-3.3837784532526065,118514.23480157185,10.5,10500118514.234802,47.655,-122.3035,60.0,8.166666666666666
2026-01-20T23:08:11+00:00,SAT-53559,175.93885947702793,46.96536137799518,756.7232447967725,-3.3342881027668096,116780.87338358426,10.5,10500116780.873384,47.655,-122.3035,60.0,8.183333333333334
2026-01-20T23:08:12+00:00,SAT-53559,175.84120373196038,47.45392063209743,753.3978481289464,-3.28413617128582,115024.34060066016,10.5,10500115024.340601,47.655,-122.3035,60.0,8.2
2026-01-20T23:08:13+00:00,SAT-53559,175.74139000891998,47.946498425419115,750.1224696541173,-3.2333211095089163,113244.5821897348,10.5,10500113244.58219,47.655,-122.3035,60.0,8.216666666666667
2026-01-20T23:08:14+00:00,SAT-53559,175.63932639225882,48.44308187287428,746.8977707342336,-3.181841779181747,111441.55828432596,10.5,10500111441.558285,47.655,-122.3035,60.0,8.233333333333333
2026-01-20T23:08:15+00:00,SAT-53559,175.53491570177354,48.94365549235575,743.7244138664631,-3.129697495987791,109615.24491677442,10.5,10500109615.244917,47.655,-122.3035,60.0,8.25
2026-01-20T23:08:16+00:00,SAT-53559,175.4280551110194,49.44820112204928,740.6030622304646,-3.0768879947477568,107765.63279937964,10.5,10500107765.6328,47.655,-122.3035,60.0,8.266666666666667
2026-01-20T23:08:17+00:00,SAT-53559,175.31863573387037,49.956697829435136,737.5343792703695,-3.023413518732853,105892.73045252846,10.5,10500105892.730452,47.655,-122.3035,60.0,8.283333333333333
2026-01-20T23:08:18+00:00,SAT-53559,175.20654217173896,50.46912183178722,734.5190281876867,-2.9692747579162124,103996.5620419985,10.5,10500103996.562042,47.655,-122.3035,60.0,8.3
2026-01-20T23:08:19+00:00,SAT-53559,175.0916520228428,50.985446404116104,731.5576714957915,-2.9144729302167787,102077.17022446301,10.5,10500102077.170225,47.655,-122.3035,60.0,8.316666666666666
2026-01-20T23:08:20+00:00,SAT-53559,174.97383534400865,51.50564179775592,728.6509704933887,-2.859009786621401,100134.61632688809,10.5,10500100134.616327,47.655,-122.3035,60.0,8.333333333333334
2026-01-20T23:08:21+00:00,SAT-53559,174.85295406277416,52.02967515781548,725.799584732865,-2.802887570236164,98168.97891233717,10.5,10500098168.978912,47.655,-122.3035,60.0,8.35
2026-01-20T23:08:22+00:00,SAT-53559,174.72886133652383,52.557510430810375,723.0041715294827,-2.7461091197706113,96180.35740442616,10.5,10500096180.357405,47.655,-122.3035,60.0,8.366666666666667
2026-01-20T23:08:23+00:00,SAT-53559,174.60140084618416,53.08910828811085,720.2653853673648,-2.6886778298805916,94168.8706983623,10.5,10500094168.870699,47.655,-122.3035,60.0,8.383333333333333
2026-01-20T23:08:24+00:00,SAT-53559,174.47040602367105,53.624426040493525,717.5838773450306,-2.6305976857143705,92134.658370895,10.5,10500092134.658371,47.655,-122.3035,60.0,8.4
2026-01-20T23:08:25+00:00,SAT-53559,174.33569920179485,54.16341755664351,714.9602945864782,-2.5718732642061775,90077.8807256214,10.5,10500090077.880726,47.655,-122.3035,60.0,8.416666666666666
2026-01-20T23:08:26+00:00,SAT-53559,174.19709067937774,54.70603317980283,712.3952796509765,-2.5125097474608085,87998.71926177172,10.5,10500087998.719261,47.655,-122.3035,60.0,8.433333333333334
2026-01-20T23:08:27+00:00,SAT-53559,174.05437769082576,55.25221964448602,709.8894699295089,-2.4525129699829984,85897.37832838172,10.5,10500085897.378328,47.655,-122.3035,60.0,8.45
2026-01-20T23:08:28+00:00,SAT-53559,173.90734326647686,55.801920000924866,707.4434969941125,-2.3918893782875417,83774.0837096682,10.5,10500083774.08371,47.655,-122.3035,60.0,8.466666666666667
2026-01-20T23:08:29+00:00,SAT-53559,173.75575497554541,56.35507352864461,705.0579859875004,-2.330646088703703,81629.08464958408,10.5,10500081629.08465,47.655,-122.3035,60.0,8.483333333333333
2026-01-20T23:08:30+00:00,SAT-53559,173.5993635308963,56.9116156600525,702.7335549550332,-2.2687908552420044,79462.65272637729,10.5,10500079462.652727,47.655,-122.3035,60.0,8.5
2026-01-20T23:08:31+00:00,SAT-53559,173.43790124392686,57.47147789417425,700.4708142087386,-2.206332111791715,77275.08333052532,10.5,10500077275.08333,47.655,-122.3035,60.0,8.516666666666667
2026-01-20T23:08:32+00:00,SAT-53559,173.27108030495543,58.03458771695042,698.270365649245,-2.1432789689365976,75066.69555320927,10.5,10500075066.695553,47.655,-122.3035,60.0,8.533333333333333
2026-01-20T23:08:33+00:00,SAT-53559,173.09859086920136,58.600868517727044,696.1328020908923,-2.0796412087384137,72837.83200361012,10.5,10500072837.832005,47.655,-122.3035,60.0,8.55
2026-01-20T23:08:34+00:00,SAT-53559,172.92009892275001,59.17023950075845,694.0587065920438,-2.0154293102292296,70588.8597017571,10.5,10500070588.859701,47.655,-122.3035,60.0,8.566666666666666
2026-01-20T23:08:35+00:00,SAT-53559,172.73524389546535,59.742615598583946,692.0486517599751,-1.9506544195062374,68320.16903112183,10.5,10500068320.169031,47.655,-122.3035,60.0,8.583333333333334
2026-01-20T23:08:36+00:00,SAT-53559,172.54363599090897,60.317907372445084,690.1031990855877,-1.8853284038377252,66032.17563363824,10.5,10500066032.175634,47.655,-122.3035,60.0,8.6
2026-01-20T23:08:37+00:00,SAT-53559,172.34485318466602,60.89602092134319,688.2228982241601,-1.8194637712278918,63725.317592522166,10.5,10500063725.317593,47.655,-122.3035,60.0,8.616666666666667
2026-01-20T23:08:38+00:00,SAT-53559,172.1384378572359,61.47685776083937,686.4082863563222,-1.7530737738545654,61400.05905509784,10.5,10500061400.059055,47.655,-122.3035,60.0,8.633333333333333
2026-01-20T23:08:39+00:00,SAT-53559,171.92389298714696,62.06031472323794,684.6598874458645,-1.6861723016944852,59056.88650710517,10.5,10500059056.886507,47.655,-122.3035,60.0,8.65
2026-01-20T23:08:40+00:00,SAT-53559,171.70067786252386,62.646283815531184,682.9782116036413,-1.6187739466251871,56696.311017819084,10.5,10500056696.311018,47.655,-122.3035,60.0,8.666666666666666
2026-01-20T23:08:41+00:00,SAT-53559,171.46820321653996,63.23465208363444,681.3637543875404,-1.5508939586693165,54318.86670754013,10.5,10500054318.866707,47.655,-122.3035,60.0,8.683333333333334
2026-01-20T23:08:42+00:00,SAT-53559,171.2258257104452,63.82530144727037,679.8169961460942,-1.4825482486564263,51925.11084082201,10.5,10500051925.110842,47.655,-122.3035,60.0,8.7
2026-01-20T23:08:43+00:00,SAT-53559,170.97284165364638,64.41810851580145,678.3384013594341,-1.4137533887597875,49515.62384527288,10.5,10500049515.623846,47.655,-122.3035,60.0,8.716666666666667
2026-01-20T23:08:44+00:00,SAT-53559,170.70847983617975,65.01294438202152,676.9284179797111,-1.3445265690747248,47091.00779074506,10.5,10500047091.007792,47.655,-122.3035,60.0,8.733333333333333
2026-01-20T23:08:45+00:00,SAT-53559,170.4318933337292,65.60967437078094,675.5874768148205,-1.2748856155341275,44651.88701681194,10.5,10500044651.887016,47.655,-122.3035,60.0,8.75
2026-01-20T23:08:46+00:00,SAT-53559,170.14215009883284,66.20815776023038,674.3159908942612,-1.2048489478453843,42198.906659541564,10.5,10500042198.90666,47.655,-122.3035,60.0,8.766666666666667
2026-01-20T23:08:47+00:00,SAT-53559,169.83822213909522,66.80824744390232,673.1143548769434,-1.134435573753982,39732.732450583564,10.5,10500039732.73245,47.655,-122.3035,60.0,8.783333333333333
2026-01-20T23:08:48+00:00,SAT-53559,169.5189730236626,67.40978953874681,671.9829444647194,-1.0636650685400126,37254.04999905012,10.5,10500037254.05,47.655,-122.3035,60.0,8.8
2026-01-20T23:08:49+00:00,SAT-53559,169.1831434168259,68.01262292162946,670.9221158363621,-0.9925575366754066,34763.56344859006,10.5,10500034763.563448,47.655,-122.3035,60.0,8.816666666666666
2026-01-20T23:08:50+00:00,SAT-53559,168.82933427810838,68.61657867021914,669.9322051197846,-0.92113361078996,32261.995441174775,10.5,10500032261.995441,47.655,-122.3035,60.0,8.833333333333334
2026-01-20T23:08:51+00:00,SAT-53559,168.45598727281023,69.22147940942203,669.01352786529,-0.8494144110239157,29750.085693453686,10.5,10500029750.085693,47.655,-122.3035,60.0,8.85
2026-01-20T23:08:52+00:00,SAT-53559,168.0613618625786,69.827138521818,668.1663785593621,-0.777421503363728,27228.58953749645,10.5,10500027228.589537,47.655,-122.3035,60.0,8.866666666666667
2026-01-20T23:08:53+00:00,SAT-53559,167.6435084188937,70.43335918955718,667.3910301800074,-0.7051769077839957,24698.27820595792,10.5,10500024698.278206,47.655,-122.3035,60.0,8.883333333333333
2026-01-20T23:08:54+00:00,SAT-53559,167.2002365231014,71.03993326816405,666.6877337439774,-0.6327030288895678,22159.936402871288,10.5,10500022159.936403,47.655,-122.3035,60.0,8.9
2026-01-20T23:08:55+00:00,SAT-53559,166.72907748743893,71.6466398975571,666.0567179231649,-0.5600226435738072,19614.361871388286,10.5,10500019614.361872,47.655,-122.3035,60.0,8.916666666666666
2026-01-20T23:08:56+00:00,SAT-53559,166.22723983336152,72.25324383492885,665.4981886733074,-0.48715885914610907,17062.36392722777,10.5,10500017062.363928,47.655,-122.3035,60.0,8.933333333333334
2026-01-20T23:08:57+00:00,SAT-53559,165.69155620557268,72.85949341952869,665.0123289044524,-0.4141350835901197,14504.76241699268,10.5,10500014504.762417,47.655,-122.3035,60.0,8.95
2026-01-20T23:08:58+00:00,SAT-53559,165.11841979763165,73.46511809446457,664.5992981810851,-0.34097498180309016,11942.386185487183,10.5,10500011942.386185,47.655,-122.3035,60.0,8.966666666666667
2026-01-20T23:08:59+00:00,SAT-53559,164.50370790765004,74.0698253599653,664.2592324659001,-0.2677024465310428,9376.072057743193,10.5,10500009376.072058,47.655,-122.3035,60.0,8.983333333333333
2026-01-20T23:09:00+00:00,SAT-53559,163.8426896023705,74.67329703523546,663.9922438925599,-0.1943415498577969,6806.66313996087,10.5,10500006806.66314,47.655,-122.3035,60.0,9.0
2026-01-20T23:09:01+00:00,SAT-53559,163.12991374057256,75.2751846183959,663.798420586835,-0.12091651450312949,4235.007814248815,10.5,10500004235.007814,47.655,-122.3035,60.0,9.016666666666667
2026-01-20T23:09:02+00:00,SAT-53559,162.3590725617174,75.87510354147466,663.6778265163706,-0.04745166649697009,1661.9580810741606,10.5,10500001661.95808,47.655,-122.3035,60.0,9.033333333333333
2026-01-20T23:09:03+00:00,SAT-53559,161.52283487984755,76.47262597818172,663.630501387651,0.026028601322976345,-911.6317192050631,10.5,10499999088.36828,47.655,-122.3035,60.0,9.05
2026-01-20T23:09:04+00:00,SAT-53559,160.61264131394435,77.06727182041504,663.6564605793703,0.09949986993476005,-3484.906329147815,10.5,10499996515.093672,47.655,-122.3035,60.0,9.066666666666666
2026-01-20T23:09:05+00:00,SAT-53559,159.61845209742071,77.65849728605711,663.7556951163186,0.17293773597989162,-6057.011039913692,10.5,10499993942.98896,47.655,-122.3035,60.0,9.083333333333334
2026-01-20T23:09:06+00:00,SAT-53559,158.52843570822148,78.24568044994993,663.9281716850027,0.2463178502228728,-8627.093038278383,10.5,10499991372.906961,47.655,-122.3035,60.0,9.1
2026-01-20T23:09:07+00:00,SAT-53559,157.32858391363132,78.82810276023001,664.1738326876249,0.3196159593023402,-11194.302868935323,10.5,10499988805.69713,47.655,-122.3035,60.0,9.116666666666667
2026-01-20T23:09:08+00:00,SAT-53559,156.00223600006626,79.40492530885857,664.4925963377025,0.39280794419199344,-13757.795781560093,10.5,10499986242.204218,47.655,-122.3035,60.0,9.133333333333333
2026-01-20T23:09:09+00:00,SAT-53559,154.52949259602158,79.97515819422922,664.8843567940432,0.4658698611767037,-16316.733165967065,10.5,10499983683.266834,47.655,-122.3035,60.0,9.15
2026-01-20T23:09:10+00:00,SAT-53559,152.88649867348286,80.53762080407996,665.3489843355901,0.5387779794553129,-18870.2838691185,10.5,10499981129.716131,47.655,-122.3035,60.0,9.166666666666666
2026-01-20T23:09:11+00:00,SAT-53559,151.04457872810653,81.09089016970046,665.886325573767,0.6115088157568802,-21417.625407531905,10.5,10499978582.374592,47.655,-122.3035,60.0,9.183333333333334
2026-01-20T23:09:12+00:00,SAT-53559,148.96921982063594,81.63323376384943,666.4962036993484,0.6840391803474029,-23957.945578630035,10.5,10499976042.05442,47.655,-122.3035,60.0,9.2
2026-01-20T23:09:13+00:00,SAT-53559,146.61892985762503,82.16252233165899,667.1784187752149,0.756346199166854,-26490.443236073555,10.5,10499973509.556765,47.655,-122.3035,60.0,9.216666666666667
2026-01-20T23:09:14+00:00,SAT-53559,143.94406735574566,82.67611779357374,667.932748051184,0.8284073646295586,-29014.33006900515,10.5,10499970985.669931,47.655,-122.3035,60.0,9.233333333333333
2026-01-20T23:09:15+00:00,SAT-53559,140.88587524159715,83.17073179661342,668.7589463295078,0.9002005505484495,-31528.83112476005,10.5,10499968471.168875,47.655,-122.3035,60.0,9.25
2026-01-20T23:09:16+00:00,SAT-53559,137.3762035630706,83.6422534452754,669.6567463452549,0.9717040626117086,-34033.18657677153,10.5,10499965966.813423,47.655,-122.3035,60.0,9.266666666666667
2026-01-20T23:09:17+00:00,SAT-53559,133.33883247115477,84.08555329993547,670.6258591970329,1.0428966570992297,-36526.65238010061,10.5,10499963473.34762,47.655,-122.3035,60.0,9.283333333333333
2026-01-20T23:09:18+00:00,SAT-53559,128.69393772908563,84.49428965099894,671.6659747963799,1.113757563963801,-39008.501079836744,10.5,10499960991.49892,47.655,-122.3035,60.0,9.3
2026-01-20T23:09:19+00:00,SAT-53559,123.36794131358316,84.86077897057531,672.7767623401731,1.184266534497546,-41478.02348057813,10.5,10499958521.976519,47.655,-122.3035,60.0,9.316666666666666
2026-01-20T23:09:20+00:00,SAT-53559,117.3111706756779,85.17604807131744,673.9578708305787,1.2544038476914032,-43934.528869167654,10.5,10499956065.47113,47.655,-122.3035,60.0,9.333333333333334
2026-01-20T23:09:21+00:00,SAT-53559,110.52401938053708,85.43024526595147,675.2089296013429,1.3241503395637262,-46377.346041904515,10.5,10499953622.653957,47.655,-122.3035,60.0,9.35
2026-01-20T23:09:22+00:00,SAT-53559,103.08681041140622,85.61359324946497,676.5295488733344,1.3934874235696306,-48805.82401936583,10.5,10499951194.175982,47.655,-122.3035,60.0,9.366666666666667
2026-01-20T23:09:23+00:00,SAT-53559,95.17964281260403,85.71791379055453,677.9193203304412,1.4623971173259809,-51219.332982428794,10.5,10499948780.667017,47.655,-122.3035,60.0,9.383333333333333
2026-01-20T23:09:24+00:00,SAT-53559,87.07317359154503,85.73839166285202,679.377817722121,1.530862049033257,-53617.26449719158,10.5,10499946382.735502,47.655,-122.3035,60.0,9.4
2026-01-20T23:09:25+00:00,SAT-53559,79.08140138920244,85.67486543595665,680.9045974723568,1.598865486432011,-55999.032529150936,10.5,10499944000.96747,47.655,-122.3035,60.0,9.416666666666666
2026-01-20T23:09:26+00:00,SAT-53559,71.49301625127568,85.53196111899103,682.4991993174917,1.6663913299603228,-58364.073203547334,10.5,10499941635.926796,47.655,-122.3035,60.0,9.433333333333334
2026-01-20T23:09:27+00:00,SAT-53559,64.51550310615953,85.31798133716664,684.1611469372388,1.7334241522315499,-60711.84618804277,10.5,10499939288.153812,47.655,-122.3035,60.0,9.45
2026-01-20T23:09:28+00:00,SAT-53559,58.25547354460495,85.04314347013803,685.8899486250644,1.7999491808692039,-63041.83409152555,10.5,10499936958.165909,47.655,-122.3035,60.0,9.466666666666667
2026-01-20T23:09:29+00:00,SAT-53559,52.732373792942234,84.71793182984715,687.6850979414512,1.8659523307756025,-65353.54359429492,10.5,10499934646.456406,47.655,-122.3035,60.0,9.483333333333333
2026-01-20T23:09:30+00:00,SAT-53559,47.907353501838564,84.35200059838826,689.5460743993449,1.9314201846058143,-67646.50476417606,10.5,10499932353.495235,47.655,-122.3035,60.0,9.5
2026-01-20T23:09:31+00:00,SAT-53559,43.711260417359874,83.95366121940383,691.4723441301251,1.9963400284984258,-69920.2723079627,10.5,10499930079.727692,47.655,-122.3035,60.0,9.516666666666667
2026-01-20T23:09:32+00:00,SAT-53559,40.06471368707494,83.52978193944794,693.4633605852141,2.06069982450958,-72174.42460594051,10.5,10499927825.575394,47.655,-122.3035,60.0,9.533333333333333
2026-01-20T23:09:33+00:00,SAT-53559,36.88987833888722,83.08590683056542,695.5185652101917,2.124488219790657,-74408.56403332835,10.5,10499925591.435966,47.655,-122.3035,60.0,9.55
2026-01-20T23:09:34+00:00,SAT-53559,34.116159863613234,82.62645862351847,697.637388128063,2.187694561750382,-76622.3174913193,10.5,10499923377.682508,47.655,-122.3035,60.0,9.566666666666666
2026-01-20T23:09:35+00:00,SAT-53559,31.682205079713686,82.15495100774322,699.8192488376485,2.250308882587531,-78815.33586535082,10.5,10499921184.664135,47.655,-122.3035,60.0,9.583333333333334
2026-01-20T23:09:36+00:00,SAT-53559,29.535950088093315,81.6741778238332,702.0635568965491,2.3123218867949564,-80987.29358744256,10.5,10499919012.706413,47.655,-122.3035,60.0,9.6
2026-01-20T23:09:37+00:00,SAT-53559,27.633780486038923,81.18636937018543,704.3697125916461,2.3737249625423082,-83137.88903486771,10.5,10499916862.110966,47.655,-122.3035,60.0,9.616666666666667
2026-01-20T23:09:38+00:00,SAT-53559,25.939385856031233,80.69331653817277,706.7371076209549,2.4345101696565106,-85266.84410917823,10.5,10499914733.155891,47.655,-122.3035,60.0,9.633333333333333
2026-01-20T23:09:39+00:00,SAT-53559,24.422596452213902,80.1964673832083,709.1651257634923,2.49467021034589,-87373.9032108401,10.5,10499912626.096788,47.655,-122.3035,60.0,9.65
2026-01-20T23:09:40+00:00,SAT-53559,23.058327255035735,79.69700151363692,711.653143519944,2.5541984760603245,-89458.83488047389,10.5,10499910541.16512,47.655,-122.3035,60.0,9.666666666666666
2026-01-20T23:09:41+00:00,SAT-53559,21.82567092970406,79.19588718216691,714.2005308000681,2.613088953050031,-91521.42849112411,10.5,10499908478.571508,47.655,-122.3035,60.0,9.683333333333334
2026-01-20T23:09:42+00:00,SAT-53559,20.707141682390613,78.69392515230314,716.8066515159101,2.6713362953400885,-93561.4968041355,10.5,10499906438.503197,47.655,-122.3035,60.0,9.7
2026-01-20T23:09:43+00:00,SAT-53559,19.688055162138223,78.1917824825355,719.4708642477959,2.728935757015479,-95578.87359748899,10.5,10499904421.126402,47.655,-122.3035,60.0,9.716666666666667
2026-01-20T23:09:44+00:00,SAT-53559,18.75602443991076,77.69001869047983,722.1925228427926,2.7858831951908787,-97573.41376981614,10.5,10499902426.58623,47.655,-122.3035,60.0,9.733333333333333
2026-01-20T23:09:45+00:00,SAT-53559,17.900551960721717,77.18910612222327,724.9709770161297,2.842175051205379,-99544.9926817588,10.5,10499900455.007318,47.655,-122.3035,60.0,9.75
2026-01-20T23:09:46+00:00,SAT-53559,17.112699537016255,76.68944591359345,727.8055729338653,2.8978083594416244,-101493.50646485262,10.5,10499898506.493536,47.655,-122.3035,60.0,9.766666666666667
2026-01-20T23:09:47+00:00,SAT-53559,16.384821195668177,76.19138057608062,730.6956538043484,2.9527807015495693,-103418.8704182494,10.5,10499896581.129581,47.655,-122.3035,60.0,9.783333333333333
2026-01-20T23:09:48+00:00,SAT-53559,15.7103464339678,75.6952039967875,733.6405604240271,3.0070901935595473,-105321.01855736227,10.5,10499894678.981443,47.655,-122.3035,60.0,9.8
2026-01-20T23:09:49+00:00,SAT-53559,15.083603819435476,75.2011694339679,736.6396317104038,3.0607354794854413,-107199.90338982154,10.5,10499892800.096611,47.655,-122.3035,60.0,9.816666666666666
2026-01-20T23:09:50+00:00,SAT-53559,14.499676899768126,74.70949595205462,739.6922052286106,3.113715726984861,-109055.49576347595,10.5,10499890944.504236,47.655,-122.3035,60.0,9.833333333333334
2026-01-20T23:09:51+00:00,SAT-53559,13.954286035599331,74.22037363497851,742.7976177136569,3.166030591158909,-110887.78359850714,10.5,10499889112.216402,47.655,-122.3035,60.0,9.85
2026-01-20T23:09:52+00:00,SAT-53559,13.443691092640359,73.73396784185627,745.9552055565727,3.217680178436935,-112696.77062252119,10.5,10499887303.229378,47.655,-122.3035,60.0,9.866666666666667
2026-01-20T23:09:53+00:00,SAT-53559,12.964610967507337,73.2504227043055,749.1643052545338,3.2686650810440048,-114482.47757774495,10.5,10499885517.522423,47.655,-122.3035,60.0,9.883333333333333
2026-01-20T23:09:54+00:00,SAT-53559,12.514156739974734,72.76986400860294,752.4242538953616,3.3189863042464434,-116244.93967285746,10.5,10499883755.060328,47.655,-122.3035,60.0,9.9
2026-01-20T23:09:55+00:00,SAT-53559,12.08977592106848,72.29240159987512,755.7343895694635,3.3686453014635958,-117984.20781275211,10.5,10499882015.792187,47.655,-122.3035,60.0,9.916666666666666
2026-01-20T23:09:56+00:00,SAT-53559,11.689205746685134,71.81813138579908,759.0940518167898,3.417643879119051,-119700.3452660241,10.5,10499880299.654734,47.655,-122.3035,60.0,9.933333333333334
2026-01-20T23:09:57+00:00,SAT-53559,11.310433902212052,71.34713703333752,762.5025819788979,3.465984299839359,-121393.43127942621,10.5,10499878606.56872,47.655,-122.3035,60.0,9.95
2026-01-20T23:09:58+00:00,SAT-53559,10.951665342954454,70.87949138857425,765.9593236539376,3.5136691224895817,-123063.55547523683,10.5,10499876936.444525,47.655,-122.3035,60.0,9.966666666666667
2026-01-20T23:09:59+00:00,SAT-53559,10.611294180142407,70.41525770406224,769.4636229921007,3.560701289089671,-124710.82089543942,10.5,10499875289.179104,47.655,-122.3035,60.0,9.983333333333333
2026-01-20T23:10:00+00:00,SAT-53559,10.2878797463221,69.95449067600755,773.0148290777527,3.607084069420412,-126335.34206158825,10.5,10499873664.657938,47.655,-122.3035,60.0,10.0
2026-01-20T23:10:01+00:00,SAT-53559,9.980126156593448,69.49723734178568,776.6122942563214,3.652821050225543,-127937.24459662092,10.5,10499872062.755404,47.655,-122.3035,60.0,10.016666666666667
2026-01-20T23:10:02+00:00,SAT-53559,9.686864789635546,69.0435378557639,780.2553744504129,3.6979161019455846,-129516.66405973642,10.5,10499870483.33594,47.655,-122.3035,60.0,10.033333333333333
2026-01-20T23:10:03+00:00,SAT-53559,9.407039221502558,68.59342616620377,783.9434294427533,3.742373377727456,-131073.74591170767,10.5,10499868926.254087,47.655,-122.3035,60.0,10.05
2026-01-20T23:10:04+00:00,SAT-53559,9.139692223906124,68.14693060517993,787.6758231581401,3.7861972996504405,-132608.6450324565,10.5,10499867391.354967,47.655,-122.3035,60.0,10.066666666666666
2026-01-20T23:10:05+00:00,SAT-53559,8.883954509084047,67.70407440668195,791.4519239316583,3.829392530683515,-134121.52473888086,10.5,10499865878.475262,47.655,-122.3035,60.0,10.083333333333334
2026-01-20T23:10:06+00:00,SAT-53559,8.639034957760742,67.2648761653982,795.2711047489266,3.8719639778017485,-135612.55689400417,10.5,10499864387.443106,47.655,-122.3035,60.0,10.1
2026-01-20T23:10:07+00:00,SAT-53559,8.404212107630642,66.82935024161624,799.1327434894541,3.9139167444668646,-137081.9202426436,10.5,10499862918.079758,47.655,-122.3035,60.0,10.116666666666667
2026-01-20T23:10:08+00:00,SAT-53559,8.17882672152161,66.39750712557614,803.0362231226025,3.9552561475245387,-138529.8010032249,10.5,10499861470.198997,47.655,-122.3035,60.0,10.133333333333333
2026-01-20T23:10:09+00:00,SAT-53559,7.962275276867532,65.96935376013482,806.9809319204003,3.995987690887882,-139956.39194606675,10.5,10499860043.608053,47.655,-122.3035,60.0,10.15
2026-01-20T23:10:10+00:00,SAT-53559,7.754004249510557,65.54489383198191,810.9662636441125,4.036117036570946,-141361.89137885164,10.5,10499858638.108622,47.655,-122.3035,60.0,10.166666666666666
2026-01-20T23:10:11+00:00,SAT-53559,7.553505081941658,65.12412803602906,814.9916177019193,4.075650025622436,-142746.50387981266,10.5,10499857253.49612,47.655,-122.3035,60.0,10.183333333333334
2026-01-20T23:10:12+00:00,SAT-53559,7.360309740996209,64.70705431128573,819.0563993274734,4.11459263051998,-144110.43863038006,10.5,10499855889.561369,47.655,-122.3035,60.0,10.2
2026-01-20T23:10:13+00:00,SAT-53559,7.17398678946049,64.29366805881955,823.1600197109786,4.152950963824372,-145453.90971828887,10.5,10499854546.090282,47.655,-122.3035,60.0,10.216666666666667
2026-01-20T23:10:14+00:00,SAT-53559,6.994137901910824,63.88396233837643,827.3018961388993,4.1907312467090625,-146777.13503534888,10.5,10499853222.864965,47.655,-122.3035,60.0,10.233333333333333
2026-01-20T23:10:15+00:00,SAT-53559,6.820394769062965,63.47792805026408,831.4814521022839,4.227939816477503,-148080.33654073373,10.5,10499851919.66346,47.655,-122.3035,60.0,10.25
2026-01-20T23:10:16+00:00,SAT-53559,6.652416340186377,63.07555410033793,835.6981174125841,4.2645831177168105,-149363.73995114482,10.5,10499850636.260048,47.655,-122.3035,60.0,10.266666666666667
2026-01-20T23:10:17+00:00,SAT-53559,6.4898863619371445,62.676827551703916,839.9513283086537,4.300667659500457,-150627.57324186852,10.5,10499849372.426758,47.655,-122.3035,60.0,10.283333333333333
2026-01-20T23:10:18+00:00,SAT-53559,6.332511178658268,62.28173376764421,844.2405275210622,4.336200040653017,-151872.06753165444,10.5,10499848127.932468,47.655,-122.3035,60.0,10.3
2026-01-20T23:10:19+00:00,SAT-53559,6.180017760177407,61.890256540552215,848.5651643616068,4.371186921931998,-153097.45610840543,10.5,10499846902.543892,47.655,-122.3035,60.0,10.316666666666666
2026-01-20T23:10:20+00:00,SAT-53559,6.032151932062498,61.5023782130774,852.9246947850803,4.4056350195883125,-154303.97420363818,10.5,10499845696.025797,47.655,-122.3035,60.0,10.333333333333334
2026-01-20T23:10:21+00:00,SAT-53559,5.8886767838915475,61.1180797904057,857.3185814446165,4.439551100879843,-155491.85883534918,10.5,10499844508.141165,47.655,-122.3035,60.0,10.35
2026-01-20T23:10:22+00:00,SAT-53559,5.74937123519242,60.73734104432097,861.7462937425605,4.472941955124889,-156661.3477941841,10.5,10499843338.652206,47.655,-122.3035,60.0,10.366666666666667
2026-01-20T23:10:23+00:00,SAT-53559,5.6140287417517225,60.360140611991625,866.2073078524718,4.505814424343897,-157812.6807166407,10.5,10499842187.319283,47.655,-122.3035,60.0,10.383333333333333
2026-01-20T23:10:24+00:00,SAT-53559,5.482456125173859,59.986456084883294,870.7011067716842,4.538175360719664,-158946.0975951452,10.5,10499841053.902405,47.655,-122.3035,60.0,10.4
2026-01-20T23:10:25+00:00,SAT-53559,5.354472514059939,59.616264094816486,875.2271803314418,4.570031626962639,-160061.8387908468,10.5,10499839938.16121,47.655,-122.3035,60.0,10.416666666666666
2026-01-20T23:10:26+00:00,SAT-53559,5.229908383654237,59.24954039384161,879.7850252073993,4.601390080485206,-161160.14447933398,10.5,10499838839.85552,47.655,-122.3035,60.0,10.433333333333334
2026-01-20T23:10:27+00:00,SAT-53559,5.108604683820775,58.88625992979858,884.3741449143365,4.632257626705301,-162241.25651755274,10.5,10499837758.743483,47.655,-122.3035,60.0,10.45
2026-01-20T23:10:28+00:00,SAT-53559,4.990412044535363,58.52639691245229,888.9940498540373,4.662641113524606,-163305.41474798665,10.5,10499836694.585253,47.655,-122.3035,60.0,10.466666666666667
2026-01-20T23:10:29+00:00,SAT-53559,4.875190054493143,58.1699248833456,893.6442572579258,4.692547417032711,-164352.86000037886,10.5,10499835647.14,47.655,-122.3035,60.0,10.483333333333333
2026-01-20T23:10:30+00:00,SAT-53559,4.762806601101158,57.81681677433751,898.3242912151798,4.721983322751389,-165383.8299324047,10.5,10499834616.170067,47.655,-122.3035,60.0,10.5
2026-01-20T23:10:31+00:00,SAT-53559,4.653137270041655,57.467044971168775,903.0336825824038,4.750955714709384,-166398.5656518702,10.5,10499833601.43435,47.655,-122.3035,60.0,10.516666666666667
2026-01-20T23:10:32+00:00,SAT-53559,4.546064792168122,57.120581358805474,907.7719690818739,4.7794713355983784,-167397.30331635952,10.5,10499832602.696684,47.655,-122.3035,60.0,10.533333333333333
2026-01-20T23:10:33+00:00,SAT-53559,4.441478541795803,56.77739738135501,912.5386951605774,4.807536948494238,-168380.27979739735,10.5,10499831619.720203,47.655,-122.3035,60.0,10.55
2026-01-20T23:10:34+00:00,SAT-53559,4.339274073402204,56.43746408635065,917.3334120105424,4.835159283266895,-169347.73080349606,10.5,10499830652.269196,47.655,-122.3035,60.0,10.566666666666666
2026-01-20T23:10:35+00:00,SAT-53559,4.239352697304942,56.100752170029224,922.1556775357205,4.8623450010587055,-170299.88963603752,10.5,10499829700.110365,47.655,-122.3035,60.0,10.583333333333334
2026-01-20T23:10:36+00:00,SAT-53559,4.141621090342125,55.76723202209403,927.005056283443,4.889100750310598,-171236.9891515459,10.5,10499828763.010849,47.655,-122.3035,60.0,10.6
2026-01-20T23:10:37+00:00,SAT-53559,4.045990936492729,55.436873763795326,931.8811194317528,4.915433098756421,-172159.25937984211,10.5,10499827840.74062,47.655,-122.3035,60.0,10.616666666666667
2026-01-20T23:10:38+00:00,SAT-53559,3.9523785970963927,55.109647288111645,936.7834447089125,4.941348595766901,-173066.9297075928,10.5,10499826933.070292,47.655,-122.3035,60.0,10.633333333333333
2026-01-20T23:10:39+00:00,SAT-53559,3.8607048055567743,54.7855222932238,941.7116163750908,4.966853707246941,-173960.2265981384,10.5,10499826039.773401,47.655,-122.3035,60.0,10.65
2026-01-20T23:10:40+00:00,SAT-53559,3.77089438664407,54.46446831809659,946.6652251391184,4.991954862729049,-174839.3752409042,10.5,10499825160.62476,47.655,-122.3035,60.0,10.666666666666666
2026-01-20T23:10:41+00:00,SAT-53559,3.6828759962453947,54.14645477273748,951.6438681222136,5.016658406743683,-175704.59784818423,10.5,10499824295.402151,47.655,-122.3035,60.0,10.683333333333334
2026-01-20T23:10:42+00:00,SAT-53559,3.596581881435828,53.831450969586605,956.6471487732058,5.040970660082231,-176556.11580082987,10.5,10499823443.8842,47.655,-122.3035,60.0,10.7
2026-01-20T23:10:43+00:00,SAT-53559,3.511947657315276,53.519426149060905,961.6746768448611,5.064897854339068,-177394.14735563568,10.5,10499822605.852644,47.655,-122.3035,60.0,10.716666666666667
2026-01-20T23:10:44+00:00,SAT-53559,3.4289121011926658,53.21034950749166,966.7260683049219,5.088446154482353,-178218.90843586434,10.5,10499821781.091564,47.655,-122.3035,60.0,10.733333333333333
2026-01-20T23:10:45+00:00,SAT-53559,3.3474169612677387,52.90419022186828,971.800945269659,5.1116216582441645,-179030.61260988668,10.5,10499820969.38739,47.655,-122.3035,60.0,10.75
2026-01-20T23:10:46+00:00,SAT-53559,3.267406779018109,52.600917472994794,976.8989359368146,5.134430398011593,-179829.4711574156,10.5,10499820170.528843,47.655,-122.3035,60.0,10.766666666666667
2026-01-20T23:10:47+00:00,SAT-53559,3.1888287240575295,52.3005004670318,982.0196745204314,5.156878349303969,-180615.6933664144,10.5,10499819384.306633,47.655,-122.3035,60.0,10.783333333333333
2026-01-20T23:10:48+00:00,SAT-53559,3.1116324404668103,52.00290845511663,987.1628011941373,5.178971393678915,-181389.4852339101,10.5,10499818610.514767,47.655,-122.3035,60.0,10.8
2026-01-20T23:10:49+00:00,SAT-53559,3.0357699041702193,51.70811075382589,992.3279619974331,5.200715330832941,-182151.04988980707,10.5,10499817848.95011,47.655,-122.3035,60.0,10.816666666666666
2026-01-20T23:10:50+00:00,SAT-53559,2.9611952899163607,51.41607676355991,997.5148087540504,5.222115949162544,-182900.5900682355,10.5,10499817099.409931,47.655,-122.3035,60.0,10.833333333333334
2026-01-20T23:10:51+00:00,SAT-53559,2.8878648463314756,51.1267759817639,1002.7229990606819,5.243178873391533,-183638.30277081585,10.5,10499816361.69723,47.655,-122.3035,60.0,10.85
2026-01-20T23:10:52+00:00,SAT-53559,2.8157367812232152,50.84017802364106,1007.9521961237443,5.263909724552772,-184364.38486989596,10.5,10499815635.61513,47.655,-122.3035,60.0,10.866666666666667
2026-01-20T23:10:53+00:00,SAT-53559,2.744771152491905,50.55625263273105,1013.2020687556984,5.284313998803179,-185079.0288641397,10.5,10499814920.971136,47.655,-122.3035,60.0,10.883333333333333
2026-01-20T23:10:54+00:00,SAT-53559,2.6749297676435524,50.27496969725751,1018.4722912505048,5.304397161237021,-185782.42616426566,10.5,10499814217.573835,47.655,-122.3035,60.0,10.9
2026-01-20T23:10:55+00:00,SAT-53559,2.606176088674896,49.99629926035812,1023.7625433526451,5.324164582819023,-186474.76488417777,10.5,10499813525.235115,47.655,-122.3035,60.0,10.916666666666666
2026-01-20T23:10:56+00:00,SAT-53559,2.5384751438135202,49.72021153287568,1029.0725101632434,5.343621516438578,-187156.22900228217,10.5,10499812843.770998,47.655,-122.3035,60.0,10.933333333333334
2026-01-20T23:10:57+00:00,SAT-53559,2.471793445059092,49.44667690644774,1034.4018820223048,5.3627732072974865,-187827.0022277332,10.5,10499812172.997772,47.655,-122.3035,60.0,10.95
2026-01-20T23:10:58+00:00,SAT-53559,2.4060989097366523,49.175665960019366,1039.7503545010493,5.381624791626982,-188487.26445307478,10.5,10499811512.735546,47.655,-122.3035,60.0,10.966666666666667
2026-01-20T23:10:59+00:00,SAT-53559,2.3413607879702827,48.907149470946614,1045.117628293232,5.400181306252664,-189137.19208924522,10.5,10499810862.80791,47.655,-122.3035,60.0,10.983333333333333
2026-01-20T23:11:00+00:00,SAT-53559,2.277549594552258,48.641098424768224,1050.5034091160014,5.418447752751153,-189776.96031261436,10.5,10499810223.039688,47.655,-122.3035,60.0,11.0
2026-01-20T23:11:01+00:00,SAT-53559,2.2146370442506815,48.37748402108906,1055.9074076747452,5.436429028851097,-190406.7406623569,10.5,10499809593.259338,47.655,-122.3035,60.0,11.016666666666667
2026-01-20T23:11:02+00:00,SAT-53559,2.1525959917552564,48.116277682277705,1061.3293395595194,5.454129980270058,-191026.70285599917,10.5,10499808973.297144,47.655,-122.3035,60.0,11.033333333333333
2026-01-20T23:11:03+00:00,SAT-53559,2.0914003746529795,47.857451059009804,1066.7689251931754,5.471555347681398,-191637.01293197533,10.5,10499808362.987068,47.655,-122.3035,60.0,11.05
2026-01-20T23:11:04+00:00,SAT-53559,2.0310251603414744,47.60097603778985,1072.2258897265963,5.488709816172706,-192237.83498187075,10.5,10499807762.165018,47.655,-122.3035,60.0,11.066666666666666
2026-01-20T23:11:05+00:00,SAT-53559,1.971446295518462,47.346824745571496,1077.6999629832592,5.505597996244478,-192829.3304849151,10.5,10499807170.669516,47.655,-122.3035,60.0,11.083333333333334
2026-01-20T23:11:06+00:00,SAT-53559,1.912640658840814,47.09496955479082,1083.190879384847,5.522224404563572,-193411.6576338872,10.5,10499806588.342365,47.655,-122.3035,60.0,11.1
2026-01-20T23:11:07+00:00,SAT-53559,1.8545860164258066,46.8453830888177,1088.698377857665,5.538593513579319,-193984.9730728811,10.5,10499806015.026928,47.655,-122.3035,60.0,11.116666666666667
2026-01-20T23:11:08+00:00,SAT-53559,1.797260979496714,46.598038224651674,1094.2222017885415,5.554709702191761,-194549.43016949907,10.5,10499805450.56983,47.655,-122.3035,60.0,11.133333333333333
2026-01-20T23:11:09+00:00,SAT-53559,1.740644964797723,46.35290809751431,1099.7620989315274,5.570577282971274,-195105.17996819777,10.5,10499804894.820032,47.655,-122.3035,60.0,11.15
2026-01-20T23:11:10+00:00,SAT-53559,1.6847181570410295,46.10996610375568,1105.317821341744,5.586200505359717,-195652.37130240622,10.5,10499804347.628698,47.655,-122.3035,60.0,11.166666666666666
2026-01-20T23:11:11+00:00,SAT-53559,1.6294614733682269,45.86918590330161,1110.889125312423,5.601583514542108,-196191.1493540379,10.5,10499803808.850645,47.655,-122.3035,60.0,11.183333333333334
2026-01-20T23:11:12+00:00,SAT-53559,1.5748565301444433,45.63054142352579,1116.475771270926,5.616730423646234,-196721.65818222638,10.5,10499803278.341818,47.655,-122.3035,60.0,11.2
2026-01-20T23:11:13+00:00,SAT-53559,1.520885610925038,45.39400685965324,1122.077523746776,5.631645271281397,-197244.03923615275,10.5,10499802755.960764,47.655,-122.3035,60.0,11.216666666666667
2026-01-20T23:11:14+00:00,SAT-53559,1.4675316365401556,45.15955667675302,1127.6941512973342,5.646332007843412,-197758.43087538859,10.5,10499802241.569124,47.655,-122.3035,60.0,11.233333333333333
2026-01-20T23:11:15+00:00,SAT-53559,1.4147781368580774,44.927165611995875,1133.325426419823,5.660794511057373,-198264.9689142694,10.5,10499801735.031086,47.655,-122.3035,60.0,11.25
2026-01-20T23:11:16+00:00,SAT-53559,1.3626092239594534,44.696808675952255,1138.971125478851,5.675036639559888,-198763.78849857132,10.5,10499801236.211502,47.655,-122.3035,60.0,11.266666666666667
2026-01-20T23:11:17+00:00,SAT-53559,1.311009566257613,44.4684611514817,1144.631028687372,5.68906212772288,-199255.0204217954,10.5,10499800744.979578,47.655,-122.3035,60.0,11.283333333333333
2026-01-20T23:11:18+00:00,SAT-53559,1.2599643648434655,44.242098596710925,1150.3049199827544,5.702874648338935,-199738.79332067393,10.5,10499800261.206678,47.655,-122.3035,60.0,11.3
2026-01-20T23:11:19+00:00,SAT-53559,1.2094593305193304,44.01769684517624,1155.9925869653644,5.716477888836221,-200215.23634453912,10.5,10499799784.763655,47.655,-122.3035,60.0,11.316666666666666
2026-01-20T23:11:20+00:00,SAT-53559,1.1594806614770323,43.7952320027967,1161.6938209131638,5.7298753590195926,-200684.4724216035,10.5,10499799315.527578,47.655,-122.3035,60.0,11.333333333333334
2026-01-20T23:11:21+00:00,SAT-53559,1.110015023530511,43.574680452302026,1167.4084166045593,5.743070599893261,-201146.62557281292,10.5,10499798853.374428,47.655,-122.3035,60.0,11.35
2026-01-20T23:11:22+00:00,SAT-53559,1.061049529820452,43.356018849210656,1173.1361723495195,5.756066995975486,-201601.81433831336,10.5,10499798398.185661,47.655,-122.3035,60.0,11.366666666666667
2026-01-20T23:11:23+00:00,SAT-53559,1.0125717228803301,43.139224124988175,1178.8768898335056,5.768867994882557,-202050.15946821065,10.5,10499797949.840532,47.655,-122.3035,60.0,11.383333333333333
2026-01-20T23:11:24+00:00,SAT-53559,0.964569556053352,42.924273481611976,1184.630374180402,5.781476853971827,-202491.77504893797,10.5,10499797508.22495,47.655,-122.3035,60.0,11.4
2026-01-20T23:11:25+00:00,SAT-53559,0.9170313775793765,42.711144395684606,1190.396433762763,5.793896877250401,-202926.7768008,10.5,10499797073.2232,47.655,-122.3035,60.0,11.416666666666666
2026-01-20T23:11:26+00:00,SAT-53559,0.8699459138594885,42.49981461342185,1196.174880248341,5.8061312287672475,-203355.27554217557,10.5,10499796644.724459,47.655,-122.3035,60.0,11.433333333333334
2026-01-20T23:11:27+00:00,SAT-53559,0.823302254766709,42.29026215255866,1201.9655284604983,5.818183075659786,-203777.3821996141,10.5,10499796222.6178,47.655,-122.3035,60.0,11.45
2026-01-20T23:11:28+00:00,SAT-53559,0.7770898387203022,42.08246529882315,1207.7681963812895,5.8300554834057285,-204193.20413911197,10.5,10499795806.79586,47.655,-122.3035,60.0,11.466666666666667
2026-01-20T23:11:29+00:00,SAT-53559,0.731298439193122,41.87640260616757,1213.582705050073,5.841751501259141,-204602.84815844495,10.5,10499795397.151842,47.655,-122.3035,60.0,11.483333333333333
2026-01-20T23:11:30+00:00,SAT-53559,0.6859181512495233,41.67205289382378,1219.4088785473284,5.853274083878128,-205006.417742238,10.5,10499794993.582258,47.655,-122.3035,60.0,11.5
2026-01-20T23:11:31+00:00,SAT-53559,0.6409393792868581,41.46939524607883,1225.2465439003163,5.864626166464108,-205404.01569366077,10.5,10499794595.984306,47.655,-122.3035,60.0,11.516666666666667
2026-01-20T23:11:32+00:00,SAT-53559,0.596352824809406,41.26840900932264,1231.0955310636698,5.87581062183681,-205795.7426310121,10.5,10499794204.257368,47.655,-122.3035,60.0,11.533333333333333
2026-01-20T23:11:33+00:00,SAT-53559,0.5521494751008196,41.069073790555464,1236.955672857182,5.886830234126278,-206181.69606630303,10.5,10499793818.303934,47.655,-122.3035,60.0,11.55
2026-01-20T23:11:34+00:00,SAT-53559,0.5083205925397345,40.87136945671696,1242.8268048773502,5.89768780277242,-206561.97404776077,10.5,10499793438.025951,47.655,-122.3035,60.0,11.566666666666666
2026-01-20T23:11:35+00:00,SAT-53559,0.464857703780563,40.67527613041208,1248.7087655126488,5.908386014616009,-206936.67067991447,10.5,10499793063.32932,47.655,-122.3035,60.0,11.583333333333334
2026-01-20T23:11:36+00:00,SAT-53559,0.42175259020714084,40.48077418996411,1254.601395831226,5.918927569557791,-207305.8805247089,10.5,10499792694.119474,47.655,-122.3035,60.0,11.6
2026-01-20T23:11:37+00:00,SAT-53559,0.37899727806817807,40.28784426518125,1260.5045395939314,5.929315014776949,-207669.6927951335,10.5,10499792330.307205,47.655,-122.3035,60.0,11.616666666666667
2026-01-20T23:11:38+00:00,SAT-53559,0.33658403002382636,40.09646723859717,1266.4180431020022,5.93955098904251,-208028.1999120417,10.5,10499791971.800089,47.655,-122.3035,60.0,11.633333333333333
2026-01-20T23:11:39+00:00,SAT-53559,0.2945053356462801,39.906624238637065,1272.3417552884075,5.949637959790924,-208381.4882954951,10.5,10499791618.511705,47.655,-122.3035,60.0,11.65
2026-01-20T23:11:40+00:00,SAT-53559,0.2527539038622829,39.718296641387525,1278.2755275469722,5.9595784464419035,-208729.64618622925,10.5,10499791270.353813,47.655,-122.3035,60.0,11.666666666666666
2026-01-20T23:11:41+00:00,SAT-53559,0.21132265445084777,39.53146606508082,1284.2192137842237,5.96937481968617,-209072.75661586117,10.5,10499790927.243383,47.655,-122.3035,60.0,11.683333333333334
2026-01-20T23:11:42+00:00,SAT-53559,0.170204711056584,39.346114371003864,1290.172670271057,5.9790295189890275,-209410.90502478482,10.5,10499790589.094975,47.655,-122.3035,60.0,11.7
2026-01-20T23:11:43+00:00,SAT-53559,0.12939339325852114,39.162223657498075,1296.135755711329,5.988544841571423,-209744.17187139494,10.5,10499790255.828129,47.655,-122.3035,60.0,11.716666666666667
2026-01-20T23:11:44+00:00,SAT-53559,0.08888221019047995,38.97977626060501,1302.1083310999895,5.997923114841289,-210072.6386713622,10.5,10499789927.361328,47.655,-122.3035,60.0,11.733333333333333
2026-01-20T23:11:45+00:00,SAT-53559,0.04866485346467474,38.798754749310184,1308.0902597531913,6.007166555103865,-210396.38304907118,10.5,10499789603.616951,47.655,-122.3035,60.0,11.75
2026-01-20T23:11:46+00:00,SAT-53559,0.008735191160091634,38.619141925161166,1314.0814071974814,6.016277410734081,-210715.48375212244,10.5,10499789284.516249,47.655,-122.3035,60.0,11.766666666666667
2026-01-20T23:11:47+00:00,SAT-53559,359.96908726131073,38.440920817507546,1320.0816412017869,6.025257842294113,-211030.0164525426,10.5,10499788969.983547,47.655,-122.3035,60.0,11.783333333333333
2026-01-20T23:11:48+00:00,SAT-53559,359.9297152662889,38.26407468240507,1326.090831689835,6.03410995492909,-211340.05488141882,10.5,10499788659.945118,47.655,-122.3035,60.0,11.8
2026-01-20T23:11:49+00:00,SAT-53559,359.8906135672852,38.088587000499956,1332.1088506848841,6.042835865879262,-211645.67319346056,10.5,10499788354.326807,47.655,-122.3035,60.0,11.816666666666666
2026-01-20T23:11:50+00:00,SAT-53559,359.8517766786037,37.91444147295583,1338.135572321788,6.051437633661359,-211946.94348663124,10.5,10499788053.056513,47.655,-122.3035,60.0,11.833333333333334
2026-01-20T23:11:51+00:00,SAT-53559,359.8131992626233,37.741622019497825,1344.170872788426,6.0599172629444436,-212243.93597292117,10.5,10499787756.064028,47.655,-122.3035,60.0,11.85
2026-01-20T23:11:52+00:00,SAT-53559,359.77487612490114,37.57011277630168,1350.2146302720028,6.068276731826582,-212536.71993369193,10.5,10499787463.280066,47.655,-122.3035,60.0,11.866666666666667
2026-01-20T23:11:53+00:00,SAT-53559,359.73680220935245,37.39989809311093,1356.2667249325443,6.0765179606682596,-212825.36262809095,10.5,10499787174.637371,47.655,-122.3035,60.0,11.883333333333333
2026-01-20T23:11:54+00:00,SAT-53559,359.6989725937783,37.23096253125414,1362.3270388453175,6.084642902639872,-213109.9324644073,10.5,10499786890.067535,47.655,-122.3035,60.0,11.9
2026-01-20T23:11:55+00:00,SAT-53559,359.6613824851109,37.063290859154606,1368.3954560335505,6.092653396738969,-213390.4938521141,10.5,10499786609.506147,47.655,-122.3035,60.0,11.916666666666666
2026-01-20T23:11:56+00:00,SAT-53559,359.62402721559096,36.896868051981365,1374.4718623545648,6.100551263681421,-213667.1105603828,10.5,10499786332.88944,47.655,-122.3035,60.0,11.933333333333334
2026-01-20T23:11:57+00:00,SAT-53559,359.58690223863863,36.731679288609186,1380.556145481543,6.108338363447141,-213939.84773357768,10.5,10499786060.152266,47.655,-122.3035,60.0,11.95
2026-01-20T23:11:58+00:00,SAT-53559,359.5500031245453,36.567709947081084,1386.6481949426877,6.11601639731146,-214208.7649575572,10.5,10499785791.235043,47.655,-122.3035,60.0,11.966666666666667
2026-01-20T23:11:59+00:00,SAT-53559,359.51332555739236,36.40494560547235,1392.7479019629397,6.123587143813598,-214473.924524288,10.5,10499785526.075476,47.655,-122.3035,60.0,11.983333333333333
2026-01-20T23:12:00+00:00,SAT-53559,359.4768653308529,36.24337203637533,1398.8551595410363,6.131052292402613,-214735.3856054225,10.5,10499785264.614395,47.655,-122.3035,60.0,12.0
2026-01-20T23:12:01+00:00,SAT-53559,359.44061834502264,36.08297520591771,1404.9698623606594,6.13841353756122,-214993.2075489131,10.5,10499785006.792452,47.655,-122.3035,60.0,12.016666666666667
2026-01-20T23:12:02+00:00,SAT-53559,359.40458060288626,35.923741270291316,1411.0919067954535,6.145672501350319,-215247.4471661937,10.5,10499784752.552834,47.655,-122.3035,60.0,12.033333333333333
2026-01-20T23:12:03+00:00,SAT-53559,359.36874820731776,35.765656574348945,1417.2211908368004,6.152830785881141,-215498.16056997667,10.5,10499784501.83943,47.655,-122.3035,60.0,12.05
2026-01-20T23:12:04+00:00,SAT-53559,359.333117357913,35.60870764883971,1423.3576140739192,6.15989000139212,-215745.40415762315,10.5,10499784254.595842,47.655,-122.3035,60.0,12.066666666666666
2026-01-20T23:12:05+00:00,SAT-53559,359.2976843478416,35.45288120697621,1429.5010777019743,6.166851690956887,-215989.23197409895,10.5,10499784010.768026,47.655,-122.3035,60.0,12.083333333333334
2026-01-20T23:12:06+00:00,SAT-53559,359.26244556113676,35.29816414297615,1435.6514844550886,6.1737173975542925,-216229.69806105018,10.5,10499783770.301939,47.655,-122.3035,60.0,12.1
2026-01-20T23:12:07+00:00,SAT-53559,359.22739746981694,35.14454352890875,1441.808738606249,6.180488570721133,-216466.85318738705,10.5,10499783533.146812,47.655,-122.3035,60.0,12.116666666666667
2026-01-20T23:12:08+00:00,SAT-53559,359.1925366315046,34.99200661392504,1447.9727458741152,6.187166740336643,-216700.75093595166,10.5,10499783299.249063,47.655,-122.3035,60.0,12.133333333333333
2026-01-20T23:12:09+00:00,SAT-53559,359.1578596863608,34.840540819174755,1454.143413503144,6.193753302405053,-216931.4402007173,10.5,10499783068.5598,47.655,-122.3035,60.0,12.15
2026-01-20T23:12:10+00:00,SAT-53559,359.1233633551027,34.69013373809716,1460.3206501300763,6.200249717972309,-217158.9721536932,10.5,10499782841.027845,47.655,-122.3035,60.0,12.166666666666666
2026-01-20T23:12:11+00:00,SAT-53559,359.0890444361856,34.540773131819876,1466.5043658488007,6.206657341334317,-217383.3942280507,10.5,10499782616.605772,47.655,-122.3035,60.0,12.183333333333334
2026-01-20T23:12:12+00:00,SAT-53559,359.0548998038759,34.392446928810315,1472.6944721038915,6.212977561199054,-217604.75506221727,10.5,10499782395.244938,47.655,-122.3035,60.0,12.2
2026-01-20T23:12:13+00:00,SAT-53559,359.0209264057525,34.2451432211136,1478.8908817249273,6.21921172486424,-217823.10184425826,10.5,10499782176.898155,47.655,-122.3035,60.0,12.216666666666667
2026-01-20T23:12:14+00:00,SAT-53559,358.9871212606239,34.098850262482514,1485.0935088851918,6.225361118253454,-218038.47961265675,10.5,10499781961.520388,47.655,-122.3035,60.0,12.233333333333333
2026-01-20T23:12:15+00:00,SAT-53559,358.9534814566476,33.953556466984864,1491.3022690404632,6.231427062387928,-218250.93463516427,10.5,10499781749.065365,47.655,-122.3035,60.0,12.25
2026-01-20T23:12:16+00:00,SAT-53559,358.9200041490368,33.80925040536999,1497.5170789640183,6.237410838967678,-218460.51180233702,10.5,10499781539.488197,47.655,-122.3035,60.0,12.266666666666667
2026-01-20T23:12:17+00:00,SAT-53559,358.8866865582238,33.66592080324735,1503.7378567074154,6.2433136741737805,-218667.25406022288,10.5,10499781332.74594,47.655,-122.3035,60.0,12.283333333333333
2026-01-20T23:12:18+00:00,SAT-53559,358.8535259681287,33.523556539648794,1509.9645215451246,6.249136788331344,-218871.20414976924,10.5,10499781128.79585,47.655,-122.3035,60.0,12.3
2026-01-20T23:12:19+00:00,SAT-53559,358.8205197242883,33.38214664446625,1516.196993968687,6.254881400745227,-219072.40477618983,10.5,10499780927.595224,47.655,-122.3035,60.0,12.316666666666666
2026-01-20T23:12:20+00:00,SAT-53559,358.78766523201796,33.24168029583445,1522.435195685697,6.260548688791905,-219270.89717618917,10.5,10499780729.102823,47.655,-122.3035,60.0,12.333333333333334
2026-01-20T23:12:21+00:00,SAT-53559,358.7549599548314,33.10214681847819,1528.6790495779853,6.266139817694285,-219466.7221608023,10.5,10499780533.27784,47.655,-122.3035,60.0,12.35
2026-01-20T23:12:22+00:00,SAT-53559,358.7224014127558,32.963535681419806,1534.9284796894992,6.2716559124143565,-219659.91913095675,10.5,10499780340.08087,47.655,-122.3035,60.0,12.366666666666667
2026-01-20T23:12:23+00:00,SAT-53559,358.689987180872,32.8258364963385,1541.183411186147,6.277098118912736,-219850.52822304063,10.5,10499780149.471777,47.655,-122.3035,60.0,12.383333333333333
2026-01-20T23:12:24+00:00,SAT-53559,358.65771488758713,32.68903901461731,1547.4437703767428,6.2824674996170025,-220038.5866477619,10.5,10499779961.413353,47.655,-122.3035,60.0,12.4
2026-01-20T23:12:25+00:00,SAT-53559,358.6255822134691,32.55313312671921,1553.709484629694,6.287765161555345,-220224.13317793046,10.5,10499779775.866821,47.655,-122.3035,60.0,12.416666666666666
2026-01-20T23:12:26+00:00,SAT-53559,358.59358688952204,32.41810885878724,1559.9804824174853,6.292992171592863,-220407.20517967487,10.5,10499779592.79482,47.655,-122.3035,60.0,12.433333333333334
2026-01-20T23:12:27+00:00,SAT-53559,358.5617266959246,32.28395637114351,1566.2566932766206,6.298149566224208,-220587.83895542225,10.5,10499779412.161045,47.655,-122.3035,60.0,12.45
2026-01-20T23:12:28+00:00,SAT-53559,358.5299994607357,32.150665956596676,1572.538047777335,6.303238348496566,-220766.06963612785,10.5,10499779233.930365,47.655,-122.3035,60.0,12.466666666666667
2026-01-20T23:12:29+00:00,SAT-53559,358.4984030586789,32.01822803883154,1578.8244774902353,6.308259550439875,-220941.93336784572,10.5,10499779058.066631,47.655,-122.3035,60.0,12.483333333333333
2026-01-20T23:12:30+00:00,SAT-53559,358.4669354096885,31.886633169520476,1585.1159150152073,6.3132141334753245,-221115.46382361263,10.5,10499778884.536177,47.655,-122.3035,60.0,12.5
2026-01-20T23:12:31+00:00,SAT-53559,358.43559447794024,31.755872027568795,1591.4122939109934,6.318103100838901,-221286.69614099653,10.5,10499778713.30386,47.655,-122.3035,60.0,12.516666666666667
2026-01-20T23:12:32+00:00,SAT-53559,358.4043782704149,31.62593541603264,1597.7135487368969,6.3229273901831196,-221455.66316055472,10.5,10499778544.33684,47.655,-122.3035,60.0,12.533333333333333
2026-01-20T23:12:33+00:00,SAT-53559,358.373284835995,31.496814261315514,1604.019614987373,6.327687932732782,-221622.39749771892,10.5,10499778377.602503,47.655,-122.3035,60.0,12.55
2026-01-20T23:12:34+00:00,SAT-53559,358.3423122643028,31.368499611153347,1610.3304290856183,6.332385649339926,-221786.93140462268,10.5,10499778213.068596,47.655,-122.3035,60.0,12.566666666666666
2026-01-20T23:12:35+00:00,SAT-53559,358.31145868463454,31.240982632717404,1616.6459283732268,6.33702145540314,-221949.2969423966,10.5,10499778050.703058,47.655,-122.3035,60.0,12.583333333333334
2026-01-20T23:12:36+00:00,SAT-53559,358.28072226487285,31.114254610657344,1622.9660511047487,6.34159623436313,-222109.5250528713,10.5,10499777890.474947,47.655,-122.3035,60.0,12.6
2026-01-20T23:12:37+00:00,SAT-53559,358.2501012105663,30.98830694570752,1629.2907364158202,6.346110870282417,-222267.6466996557,10.5,10499777732.3533,47.655,-122.3035,60.0,12.616666666666667
2026-01-20T23:12:38+00:00,SAT-53559,358.21959376389304,30.86313115266862,1635.6199243237818,6.3505661888405,-222423.6908015386,10.5,10499777576.309198,47.655,-122.3035,60.0,12.633333333333333
2026-01-20T23:12:39+00:00,SAT-53559,358.18919820290904,30.738718859585756,1641.953555669452,6.354963071470622,-222577.68823004057,10.5,10499777422.31177,47.655,-122.3035,60.0,12.65
2026-01-20T23:12:40+00:00,SAT-53559,358.1589128403373,30.615061804703785,1648.291572172732,6.359302330532606,-222729.66743743888,10.5,10499777270.332563,47.655,-122.3035,60.0,12.666666666666666
2026-01-20T23:12:41+00:00,SAT-53559,358.12873602293007,30.49215183591708,1654.6339163637165,6.363584769672846,-222879.65657082968,10.5,10499777120.34343,47.655,-122.3035,60.0,12.683333333333334
2026-01-20T23:12:42+00:00,SAT-53559,358.0986661305709,30.369980909047097,1660.9805315740039,6.367811205817267,-223027.68424241446,10.5,10499776972.315758,47.655,-122.3035,60.0,12.7
2026-01-20T23:12:43+00:00,SAT-53559,358.0687015753574,30.24854108573385,1667.3313619499388,6.371982414451805,-223173.77761299102,10.5,10499776826.222387,47.655,-122.3035,60.0,12.716666666666667
2026-01-20T23:12:44+00:00,SAT-53559,358.0388408008887,30.127824532413122,1673.6863524112855,6.376099191140129,-223317.96454656424,10.5,10499776682.035454,47.655,-122.3035,60.0,12.733333333333333
