satellites_20260121_005943/SAT-56347.csv

timestamp,satellite,azimuth_deg,elevation_deg,distance_km,relative_velocity_kms,doppler_shift_hz,tx_freq_ghz,rx_freq_hz,ue_lat,ue_lon,ue_alt_m,time_minutes
2026-01-20T23:00:00+00:00,SAT-56347,295.928530201737,38.09198317043197,3226.1187954304382,4.669451840531006,-163543.95521709745,10.5,10499836456.044783,47.655,-122.3035,60.0,0.0
2026-01-20T23:00:01+00:00,SAT-56347,295.79127324639273,38.066563642189905,3230.775795399394,4.678240690399934,-163851.7779163054,10.5,10499836148.222084,47.655,-122.3035,60.0,0.016666666666666666
2026-01-20T23:00:02+00:00,SAT-56347,295.65449011425414,38.04092468110242,3235.4415607812866,4.686985942244706,-164158.0736282879,10.5,10499835841.926373,47.655,-122.3035,60.0,0.03333333333333333
2026-01-20T23:00:03+00:00,SAT-56347,295.5181803006158,38.015068260776395,3240.116048094352,4.6956877841081575,-164462.84893910057,10.5,10499835537.15106,47.655,-122.3035,60.0,0.05
2026-01-20T23:00:04+00:00,SAT-56347,295.38234327914813,37.98899634377933,3244.7992140443694,4.704346349398998,-164766.10852128066,10.5,10499835233.89148,47.655,-122.3035,60.0,0.06666666666666667
2026-01-20T23:00:05+00:00,SAT-56347,295.246978503762,37.96271088190115,3249.49101547017,4.712961818383793,-165067.85868852588,10.5,10499834932.141312,47.655,-122.3035,60.0,0.08333333333333333
2026-01-20T23:00:06+00:00,SAT-56347,295.11208540762857,37.93621381585593,3254.1914093903715,4.721534340031923,-165368.10465837398,10.5,10499834631.895342,47.655,-122.3035,60.0,0.1
2026-01-20T23:00:07+00:00,SAT-56347,294.9776634043832,37.90950707542072,3258.9003529721635,4.73006407499267,-165666.85205744248,10.5,10499834333.147943,47.655,-122.3035,60.0,0.11666666666666667
2026-01-20T23:00:08+00:00,SAT-56347,294.8437118881065,37.882592579338045,3263.6178035429557,4.738551195834094,-165964.10692979468,10.5,10499834035.89307,47.655,-122.3035,60.0,0.13333333333333333
2026-01-20T23:00:09+00:00,SAT-56347,294.71023023336005,37.85547223521442,3268.3437186022675,4.7469958512668855,-166259.87448390812,10.5,10499833740.125517,47.655,-122.3035,60.0,0.15
2026-01-20T23:00:10+00:00,SAT-56347,294.57721779611387,37.828147939629204,3273.0780557979315,4.75539820188087,-166554.1603443177,10.5,10499833445.839655,47.655,-122.3035,60.0,0.16666666666666666
2026-01-20T23:00:11+00:00,SAT-56347,294.44467391377424,37.800621578039355,3277.8207729379405,4.76375841607111,-166846.97040893088,10.5,10499833153.02959,47.655,-122.3035,60.0,0.18333333333333332
2026-01-20T23:00:12+00:00,SAT-56347,294.3125979052736,37.77289502470913,3282.571827998235,4.7720766543135875,-167138.31029829534,10.5,10499832861.689701,47.655,-122.3035,60.0,0.2
2026-01-20T23:00:13+00:00,SAT-56347,294.1809890716098,37.74497014273249,3287.331179114804,4.780353064936816,-167428.185207503,10.5,10499832571.814793,47.655,-122.3035,60.0,0.21666666666666667
2026-01-20T23:00:14+00:00,SAT-56347,294.04984669646035,37.716848784085094,3292.098784571568,4.7885878281646725,-167716.60144875647,10.5,10499832283.398552,47.655,-122.3035,60.0,0.23333333333333334
2026-01-20T23:00:15+00:00,SAT-56347,293.91917004567944,37.68853278941608,3296.8746028321907,4.796781072050245,-168003.5635070165,10.5,10499831996.436493,47.655,-122.3035,60.0,0.25
2026-01-20T23:00:16+00:00,SAT-56347,293.7889583689259,37.66002398834225,3301.6585924880487,4.8049329926982605,-168289.0782507001,10.5,10499831710.92175,47.655,-122.3035,60.0,0.26666666666666666
2026-01-20T23:00:17+00:00,SAT-56347,293.6592108982508,37.63132419902653,3306.4507123261,4.813043729885926,-168573.1505753965,10.5,10499831426.849424,47.655,-122.3035,60.0,0.2833333333333333
2026-01-20T23:00:18+00:00,SAT-56347,293.52992684980916,37.60243522850202,3311.2509212727064,4.821113451403016,-168855.78635781314,10.5,10499831144.213642,47.655,-122.3035,60.0,0.3
2026-01-20T23:00:19+00:00,SAT-56347,293.4011054234758,37.573358872492165,3316.0591784215717,4.829142304716612,-169136.9907628711,10.5,10499830863.009237,47.655,-122.3035,60.0,0.31666666666666665
2026-01-20T23:00:20+00:00,SAT-56347,293.27274580362575,37.544096915525834,3320.8754430134763,4.837130465397331,-169416.76993979604,10.5,10499830583.23006,47.655,-122.3035,60.0,0.3333333333333333
2026-01-20T23:00:21+00:00,SAT-56347,293.14484715874914,37.51465113075717,3325.699674464299,4.845078080502626,-169695.12903916204,10.5,10499830304.87096,47.655,-122.3035,60.0,0.35
2026-01-20T23:00:22+00:00,SAT-56347,293.0174086424291,37.4850232801351,3330.531832336587,4.852985317293726,-169972.07391916483,10.5,10499830027.92608,47.655,-122.3035,60.0,0.36666666666666664
2026-01-20T23:00:23+00:00,SAT-56347,292.8904293931533,37.45521511427426,3335.371876359701,4.860852314293548,-170247.60943146294,10.5,10499829752.390568,47.655,-122.3035,60.0,0.38333333333333336
2026-01-20T23:00:24+00:00,SAT-56347,292.7639085352885,37.42522837263117,3340.219766401157,4.868679262655747,-170521.7422710659,10.5,10499829478.257729,47.655,-122.3035,60.0,0.4
2026-01-20T23:00:25+00:00,SAT-56347,292.6378451780852,37.39506478317676,3345.075462519112,4.876466304629512,-170794.477420142,10.5,10499829205.52258,47.655,-122.3035,60.0,0.4166666666666667
2026-01-20T23:00:26+00:00,SAT-56347,292.51223841714204,37.364726062700356,3349.938924913596,4.884213594423455,-171065.82027972926,10.5,10499828934.17972,47.655,-122.3035,60.0,0.43333333333333335
2026-01-20T23:00:27+00:00,SAT-56347,292.3870873344132,37.334213916737845,3354.810113938434,4.8919212900365,-171335.77638361818,10.5,10499828664.223616,47.655,-122.3035,60.0,0.45
2026-01-20T23:00:28+00:00,SAT-56347,292.26239099836147,37.30353003955308,3359.6889901050304,4.89958955745017,-171604.35154518392,10.5,10499828395.648455,47.655,-122.3035,60.0,0.4666666666666667
2026-01-20T23:00:29+00:00,SAT-56347,292.13814846406603,37.272676114092,3364.5755140903275,4.907218554251728,-171871.55128379897,10.5,10499828128.448717,47.655,-122.3035,60.0,0.48333333333333334
2026-01-20T23:00:30+00:00,SAT-56347,292.0143587736785,37.2416538120424,3369.469646728435,4.914808429604694,-172137.38082380072,10.5,10499827862.619177,47.655,-122.3035,60.0,0.5
2026-01-20T23:00:31+00:00,SAT-56347,291.89102095690095,37.21046479389544,3374.3713490022274,4.922359336411556,-172401.84552048115,10.5,10499827598.15448,47.655,-122.3035,60.0,0.5166666666666667
2026-01-20T23:00:32+00:00,SAT-56347,291.7681340311451,37.17911070893346,3379.2805820470744,4.929871452044066,-172664.95158614925,10.5,10499827335.048414,47.655,-122.3035,60.0,0.5333333333333333
2026-01-20T23:00:33+00:00,SAT-56347,291.6456970012269,37.147593195083005,3384.1973071752464,4.937344924866308,-172926.7042171429,10.5,10499827073.295782,47.655,-122.3035,60.0,0.55
2026-01-20T23:00:34+00:00,SAT-56347,291.5237088603201,37.11591387911285,3389.12148584698,4.944779886374561,-173187.1080190179,10.5,10499826812.891981,47.655,-122.3035,60.0,0.5666666666666667
2026-01-20T23:00:35+00:00,SAT-56347,291.4021685905723,37.0840743767581,3394.0530796536577,4.952176533853639,-173446.16990152304,10.5,10499826553.8301,47.655,-122.3035,60.0,0.5833333333333334
2026-01-20T23:00:36+00:00,SAT-56347,291.2810751618673,37.05207629230969,3398.992050383421,4.959534994053554,-173703.89430397982,10.5,10499826296.105696,47.655,-122.3035,60.0,0.6
2026-01-20T23:00:37+00:00,SAT-56347,291.1604275336776,37.01992121908688,3403.9383599508237,4.966855430669347,-173960.28695968108,10.5,10499826039.71304,47.655,-122.3035,60.0,0.6166666666666667
2026-01-20T23:00:38+00:00,SAT-56347,291.04022465447673,36.98761073921602,3408.891970433678,4.974137994612817,-174215.35315419635,10.5,10499825784.646845,47.655,-122.3035,60.0,0.6333333333333333
2026-01-20T23:00:39+00:00,SAT-56347,290.9204654622665,36.95514642373222,3413.852844060305,4.981382853154336,-174469.0987460416,10.5,10499825530.901255,47.655,-122.3035,60.0,0.65
2026-01-20T23:00:40+00:00,SAT-56347,290.8011488844623,36.922529832492195,3418.8209432258514,4.988590144111923,-174721.52856218684,10.5,10499825278.471437,47.655,-122.3035,60.0,0.6666666666666666
2026-01-20T23:00:41+00:00,SAT-56347,290.6822738387747,36.88976251438819,3423.796230462912,4.995760038332294,-174972.6485864067,10.5,10499825027.351414,47.655,-122.3035,60.0,0.6833333333333333
2026-01-20T23:00:42+00:00,SAT-56347,290.563839232738,36.85684600715342,3428.7786684744756,5.002892672920945,-175222.46362071563,10.5,10499824777.536379,47.655,-122.3035,60.0,0.7
2026-01-20T23:00:43+00:00,SAT-56347,290.4458439646593,36.823781837607804,3433.7682201002685,5.009988213892436,-175470.97947964582,10.5,10499824529.020521,47.655,-122.3035,60.0,0.7166666666666667
2026-01-20T23:00:44+00:00,SAT-56347,290.3282869232359,36.790571521491174,3438.764848345591,5.0170468185616235,-175718.2016730289,10.5,10499824281.798326,47.655,-122.3035,60.0,0.7333333333333333
2026-01-20T23:00:45+00:00,SAT-56347,290.2111669879597,36.75721656354573,3443.768516372636,5.0240686146853015,-175964.13467544827,10.5,10499824035.865324,47.655,-122.3035,60.0,0.75
2026-01-20T23:00:46+00:00,SAT-56347,290.09448303000556,36.72371845773976,3448.7791874710156,5.031053779764814,-176208.78470375176,10.5,10499823791.215296,47.655,-122.3035,60.0,0.7666666666666667
2026-01-20T23:00:47+00:00,SAT-56347,289.97823391134756,36.690078686963304,3453.7968251073676,5.0380024575364,-176452.15679219057,10.5,10499823547.843208,47.655,-122.3035,60.0,0.7833333333333333
2026-01-20T23:00:48+00:00,SAT-56347,289.86241848573445,36.65629872328165,3458.821392891684,5.0449148039457725,-176694.25640264308,10.5,10499823305.743597,47.655,-122.3035,60.0,0.8
2026-01-20T23:00:49+00:00,SAT-56347,289.74703559862627,36.622380027882706,3463.852854589486,5.0517909535390295,-176935.0882474829,10.5,10499823064.911753,47.655,-122.3035,60.0,0.8166666666666667
2026-01-20T23:00:50+00:00,SAT-56347,289.6320840878841,36.588324051251526,3468.891174100482,5.058631086725552,-177174.6586454096,10.5,10499822825.341354,47.655,-122.3035,60.0,0.8333333333333334
2026-01-20T23:00:51+00:00,SAT-56347,289.51756278297665,36.55413223289174,3473.9363155043097,5.065435328907552,-177412.97198853912,10.5,10499822587.028011,47.655,-122.3035,60.0,0.85
2026-01-20T23:00:52+00:00,SAT-56347,289.40347050639485,36.5198060017289,3478.988243005673,5.072203838709056,-177650.03383255587,10.5,10499822349.966167,47.655,-122.3035,60.0,0.8666666666666667
2026-01-20T23:00:53+00:00,SAT-56347,289.2898060731178,36.485346775918934,3484.0469209674793,5.078936761749261,-177885.84927766008,10.5,10499822114.150723,47.655,-122.3035,60.0,0.8833333333333333
2026-01-20T23:00:54+00:00,SAT-56347,289.17656829111905,36.45075596296926,3489.112313897864,5.085634255926455,-178120.4238541177,10.5,10499821879.576145,47.655,-122.3035,60.0,0.9
2026-01-20T23:00:55+00:00,SAT-56347,289.0637559612891,36.416034959690016,3494.184386462441,5.092296474568005,-178353.76293210167,10.5,10499821646.237068,47.655,-122.3035,60.0,0.9166666666666666
2026-01-20T23:00:56+00:00,SAT-56347,288.9513678777456,36.381185152258965,3499.263103479744,5.098923545130852,-178585.87097569325,10.5,10499821414.129025,47.655,-122.3035,60.0,0.9333333333333333
2026-01-20T23:00:57+00:00,SAT-56347,288.8394028285532,36.34620791643562,3504.348429895421,5.105515624315922,-178816.75347322173,10.5,10499821183.246527,47.655,-122.3035,60.0,0.95
2026-01-20T23:00:58+00:00,SAT-56347,288.72785959532507,36.31110461739697,3509.4403308114056,5.112072876969379,-179046.41619829703,10.5,10499820953.583801,47.655,-122.3035,60.0,0.9666666666666667
2026-01-20T23:00:59+00:00,SAT-56347,288.6167369532204,36.27587660971819,3514.538771494036,5.11859544206443,-179274.86401834872,10.5,10499820725.135983,47.655,-122.3035,60.0,0.9833333333333333
2026-01-20T23:01:00+00:00,SAT-56347,288.5060336717034,36.24052523758791,3519.643717348255,5.125083436742679,-179502.10103617128,10.5,10499820497.898964,47.655,-122.3035,60.0,1.0
2026-01-20T23:01:01+00:00,SAT-56347,288.39574851512566,36.20505183499911,3524.755133895833,5.131537063052487,-179728.13432835296,10.5,10499820271.865671,47.655,-122.3035,60.0,1.0166666666666666
2026-01-20T23:01:02+00:00,SAT-56347,288.28588024122536,36.16945772519955,3529.872986860051,5.137956424504497,-179952.9675202744,10.5,10499820047.03248,47.655,-122.3035,60.0,1.0333333333333334
2026-01-20T23:01:03+00:00,SAT-56347,288.17642760327465,36.13374422141429,3534.997242067423,5.144341679628719,-180176.60616432704,10.5,10499819823.393835,47.655,-122.3035,60.0,1.05
2026-01-20T23:01:04+00:00,SAT-56347,288.0673893491579,36.09791262650469,3540.127865502573,5.150692965170323,-180399.05504990518,10.5,10499819600.94495,47.655,-122.3035,60.0,1.0666666666666667
2026-01-20T23:01:05+00:00,SAT-56347,287.9587642219759,36.06196423316056,3545.264823286503,5.157010451714796,-180620.3201516342,10.5,10499819379.679848,47.655,-122.3035,60.0,1.0833333333333333
2026-01-20T23:01:06+00:00,SAT-56347,287.85055095955676,36.02590032370524,3550.4080817103463,5.163294257979736,-180840.40562750655,10.5,10499819159.594372,47.655,-122.3035,60.0,1.1
2026-01-20T23:01:07+00:00,SAT-56347,287.7427482956353,35.98972217049949,3555.557607183638,5.169544532259097,-181059.3166714038,10.5,10499818940.683329,47.655,-122.3035,60.0,1.1166666666666667
2026-01-20T23:01:08+00:00,SAT-56347,287.6353549594616,35.95343103577753,3560.7133662638116,5.175761430976828,-181277.0587619542,10.5,10499818722.941238,47.655,-122.3035,60.0,1.1333333333333333
2026-01-20T23:01:09+00:00,SAT-56347,287.5283696757747,35.91702817163253,3565.875325664306,5.181945084343911,-181493.63645969727,10.5,10499818506.36354,47.655,-122.3035,60.0,1.15
2026-01-20T23:01:10+00:00,SAT-56347,287.42179116550847,35.880514820243924,3571.0434522284245,5.188095635011031,-181709.05476086336,10.5,10499818290.94524,47.655,-122.3035,60.0,1.1666666666666667
2026-01-20T23:01:11+00:00,SAT-56347,287.31561814567885,35.84389221383385,3576.217712941742,5.194213238107698,-181923.31909874408,10.5,10499818076.6809,47.655,-122.3035,60.0,1.1833333333333333
2026-01-20T23:01:12+00:00,SAT-56347,287.2098493293269,35.80716157462312,3581.398074944548,5.200298018120311,-182136.4338333797,10.5,10499817863.566166,47.655,-122.3035,60.0,1.2
2026-01-20T23:01:13+00:00,SAT-56347,287.1044834262433,35.77032411509232,3586.584505501287,5.2063501336256355,-182348.4045187994,10.5,10499817651.595482,47.655,-122.3035,60.0,1.2166666666666666
2026-01-20T23:01:14+00:00,SAT-56347,286.9995191424805,35.73338103778551,3591.7769720345564,5.212369712470419,-182559.235632737,10.5,10499817440.764368,47.655,-122.3035,60.0,1.2333333333333334
2026-01-20T23:01:15+00:00,SAT-56347,286.89495518107884,35.69633353557309,3596.97544209446,5.2183568906725695,-182768.93193911496,10.5,10499817231.068062,47.655,-122.3035,60.0,1.25
2026-01-20T23:01:16+00:00,SAT-56347,286.79079024206897,35.6591827916403,3602.1798833667576,5.224311829793117,-182977.49909648404,10.5,10499817022.500904,47.655,-122.3035,60.0,1.2666666666666666
2026-01-20T23:01:17+00:00,SAT-56347,286.687023022117,35.62192997935077,3607.390263698338,5.230234656291369,-183184.94153398406,10.5,10499816815.058466,47.655,-122.3035,60.0,1.2833333333333334
2026-01-20T23:01:18+00:00,SAT-56347,286.5836522153568,35.58457626254286,3612.6065510622125,5.236125504743414,-183391.26396503893,10.5,10499816608.736034,47.655,-122.3035,60.0,1.3
2026-01-20T23:01:19+00:00,SAT-56347,286.48067651334645,35.547122795518725,3617.82871356561,5.241984522371878,-183596.4715460077,10.5,10499816403.528454,47.655,-122.3035,60.0,1.3166666666666667
2026-01-20T23:01:20+00:00,SAT-56347,286.37809460499636,35.50957072300101,3623.0567194625887,5.247811820992225,-183800.568193141,10.5,10499816199.431807,47.655,-122.3035,60.0,1.3333333333333333
2026-01-20T23:01:21+00:00,SAT-56347,286.2759051773404,35.47192118043365,3628.290537118725,5.253607594847575,-184003.56070965447,10.5,10499815996.439291,47.655,-122.3035,60.0,1.35
2026-01-20T23:01:22+00:00,SAT-56347,286.1741069141661,35.43417529343818,3633.5301350933196,5.2593719242793435,-184205.4519094443,10.5,10499815794.54809,47.655,-122.3035,60.0,1.3666666666666667
2026-01-20T23:01:23+00:00,SAT-56347,286.0726984982281,35.3963341786785,3638.7754820258006,5.26510496331217,-184406.24718710495,10.5,10499815593.752813,47.655,-122.3035,60.0,1.3833333333333333
2026-01-20T23:01:24+00:00,SAT-56347,285.9716786100357,35.35839894338048,3644.0265467092113,5.270806874268906,-184605.95222786927,10.5,10499815394.047771,47.655,-122.3035,60.0,1.4
2026-01-20T23:01:25+00:00,SAT-56347,285.87104592782106,35.320370685319695,3649.2832980984817,5.27647774902349,-184804.57024955127,10.5,10499815195.42975,47.655,-122.3035,60.0,1.4166666666666667
2026-01-20T23:01:26+00:00,SAT-56347,285.77079912895437,35.28225049337737,3654.545705240175,5.282117753317569,-185002.1070571244,10.5,10499814997.892942,47.655,-122.3035,60.0,1.4333333333333333
2026-01-20T23:01:27+00:00,SAT-56347,285.6709368887151,35.24403944705647,3659.81373734615,5.287727017445478,-185198.5672140475,10.5,10499814801.432785,47.655,-122.3035,60.0,1.45
2026-01-20T23:01:28+00:00,SAT-56347,285.57145788107124,35.20573861678625,3665.087363758216,5.293305662374194,-185393.95495709582,10.5,10499814606.045042,47.655,-122.3035,60.0,1.4666666666666666
2026-01-20T23:01:29+00:00,SAT-56347,285.4723607789409,35.167349064038646,3670.3665539388235,5.298853843716545,-185588.27573648875,10.5,10499814411.724264,47.655,-122.3035,60.0,1.4833333333333334
2026-01-20T23:01:30+00:00,SAT-56347,285.37364425371806,35.12887184112655,3675.651277505623,5.30437165948932,-185781.53298518888,10.5,10499814218.467014,47.655,-122.3035,60.0,1.5
2026-01-20T23:01:31+00:00,SAT-56347,285.27530697637917,35.090307991670905,3680.941504174021,5.309859277520406,-185973.73258123882,10.5,10499814026.267418,47.655,-122.3035,60.0,1.5166666666666666
2026-01-20T23:01:32+00:00,SAT-56347,285.17734761638917,35.05165855014314,3686.237203826801,5.3153168256514745,-186164.87900219453,10.5,10499813835.120998,47.655,-122.3035,60.0,1.5333333333333334
2026-01-20T23:01:33+00:00,SAT-56347,285.07976484249775,35.01292454220487,3691.538346474251,5.320744417912807,-186354.9762418789,10.5,10499813645.023758,47.655,-122.3035,60.0,1.55
2026-01-20T23:01:34+00:00,SAT-56347,284.9825573231036,34.97410698485815,3696.8449022403825,5.326142198745545,-186544.02935923167,10.5,10499813455.97064,47.655,-122.3035,60.0,1.5666666666666667
2026-01-20T23:01:35+00:00,SAT-56347,284.8857237258111,34.93520688627414,3702.156841393265,5.331510281141683,-186732.04231171042,10.5,10499813267.957687,47.655,-122.3035,60.0,1.5833333333333333
2026-01-20T23:01:36+00:00,SAT-56347,284.7892627180993,34.896225246071744,3707.474134313657,5.336848817413158,-186919.02043392352,10.5,10499813080.979567,47.655,-122.3035,60.0,1.6
2026-01-20T23:01:37+00:00,SAT-56347,284.6931729667287,34.85716305508092,3712.7967515342234,5.342157932846818,-187104.9681139463,10.5,10499812895.031885,47.655,-122.3035,60.0,1.6166666666666667
2026-01-20T23:01:38+00:00,SAT-56347,284.5974531383267,34.818021295589425,3718.1246637125823,5.347437738912536,-187289.88925592526,10.5,10499812710.110744,47.655,-122.3035,60.0,1.6333333333333333
2026-01-20T23:01:39+00:00,SAT-56347,284.5021018996993,34.77880094149422,3723.4578416175245,5.352688395334638,-187473.7894540819,10.5,10499812526.210546,47.655,-122.3035,60.0,1.65
2026-01-20T23:01:40+00:00,SAT-56347,284.40711791712886,34.739502957998006,3728.7962561771387,5.357910008166901,-187656.67242286817,10.5,10499812343.327578,47.655,-122.3035,60.0,1.6666666666666667
2026-01-20T23:01:41+00:00,SAT-56347,284.31249985736173,34.70012830205278,3734.1398784252838,5.363102691730312,-187838.5421662885,10.5,10499812161.457834,47.655,-122.3035,60.0,1.6833333333333333
2026-01-20T23:01:42+00:00,SAT-56347,284.2182463875681,34.66067792234919,3739.488679509836,5.368266617697951,-188019.4046970604,10.5,10499811980.595303,47.655,-122.3035,60.0,1.7
2026-01-20T23:01:43+00:00,SAT-56347,284.1243561744691,34.62115275894567,3744.8426307498867,5.37340186382541,-188199.26273851361,10.5,10499811800.73726,47.655,-122.3035,60.0,1.7166666666666666
2026-01-20T23:01:44+00:00,SAT-56347,284.0308278859999,34.58155374400835,3750.201703542075,5.378508591905469,-188378.12195731563,10.5,10499811621.878042,47.655,-122.3035,60.0,1.7333333333333334
2026-01-20T23:01:45+00:00,SAT-56347,283.93766018998963,34.54188180124318,3755.5658694444023,5.3835869053298495,-188555.9859746819,10.5,10499811444.014025,47.655,-122.3035,60.0,1.75
2026-01-20T23:01:46+00:00,SAT-56347,283.84485175523093,34.50213784637639,3760.935100117985,5.388636938210125,-188732.85948776707,10.5,10499811267.140512,47.655,-122.3035,60.0,1.7666666666666666
2026-01-20T23:01:47+00:00,SAT-56347,283.7524012510334,34.46232278697759,3766.3093673576927,5.393658828632655,-188908.7473329395,10.5,10499811091.252666,47.655,-122.3035,60.0,1.7833333333333334
2026-01-20T23:01:48+00:00,SAT-56347,283.6603073472723,34.422437522480394,3771.688643096116,5.398652678441123,-189083.6530771958,10.5,10499810916.346922,47.655,-122.3035,60.0,1.8
2026-01-20T23:01:49+00:00,SAT-56347,283.5685687150329,34.38248294450049,3777.0728993674143,5.403618615729783,-189257.5812069386,10.5,10499810742.418793,47.655,-122.3035,60.0,1.8166666666666667
2026-01-20T23:01:50+00:00,SAT-56347,283.4771840262799,34.342459936691185,3782.4621083335023,5.408556772650512,-189430.53635068558,10.5,10499810569.46365,47.655,-122.3035,60.0,1.8333333333333333
2026-01-20T23:01:51+00:00,SAT-56347,283.3861519538542,34.30236937476362,3787.8562422880927,5.413467271826067,-189602.52280320443,10.5,10499810397.477198,47.655,-122.3035,60.0,1.85
2026-01-20T23:01:52+00:00,SAT-56347,283.29547117172854,34.2622121266069,3793.255273647194,5.418350226492387,-189773.5445304967,10.5,10499810226.45547,47.655,-122.3035,60.0,1.8666666666666667
2026-01-20T23:01:53+00:00,SAT-56347,283.20514035519903,34.22198905240729,3798.659174939749,5.42320575822987,-189943.60579082227,10.5,10499810056.394209,47.655,-122.3035,60.0,1.8833333333333333
2026-01-20T23:01:54+00:00,SAT-56347,283.11515818085223,34.18170100463619,3804.0679188159565,5.428033996860208,-190112.71113108582,10.5,10499809887.28887,47.655,-122.3035,60.0,1.9
2026-01-20T23:01:55+00:00,SAT-56347,283.0255233264844,34.141348828038865,3809.481478055492,5.432835064181823,-190280.86481718346,10.5,10499809719.135183,47.655,-122.3035,60.0,1.9166666666666667
2026-01-20T23:01:56+00:00,SAT-56347,282.9362344713204,34.10093335974277,3814.8998255595025,5.437609065540545,-190448.0705387716,10.5,10499809551.92946,47.655,-122.3035,60.0,1.9333333333333333
2026-01-20T23:01:57+00:00,SAT-56347,282.8472902963179,34.060455429429936,3820.322934334202,5.442356139032389,-190614.33313255693,10.5,10499809385.666868,47.655,-122.3035,60.0,1.95
2026-01-20T23:01:58+00:00,SAT-56347,282.7586894837384,34.019915859142515,3825.75077752353,5.447076385758528,-190779.65613953018,10.5,10499809220.34386,47.655,-122.3035,60.0,1.9666666666666666
2026-01-20T23:01:59+00:00,SAT-56347,282.67043071777573,33.97931546360702,3831.1833283722594,5.451769942377228,-190944.0443460419,10.5,10499809055.955654,47.655,-122.3035,60.0,1.9833333333333334
2026-01-20T23:02:00+00:00,SAT-56347,282.5825126840833,33.93865505001891,3836.6205602614573,5.456436908967125,-191107.50125726915,10.5,10499808892.498743,47.655,-122.3035,60.0,2.0
2026-01-20T23:02:01+00:00,SAT-56347,282.49493407037994,33.897935418364256,3842.0624466720005,5.461077416646377,-191270.0314655246,10.5,10499808729.968534,47.655,-122.3035,60.0,2.0166666666666666
2026-01-20T23:02:02+00:00,SAT-56347,282.40769356605904,33.85715736123677,3847.5089612155357,5.46569157803242,-191431.6389151471,10.5,10499808568.361084,47.655,-122.3035,60.0,2.033333333333333
2026-01-20T23:02:03+00:00,SAT-56347,282.32078986250605,33.81632166402478,3852.960077616027,5.470279514244188,-191592.32784823418,10.5,10499808407.672152,47.655,-122.3035,60.0,2.05
2026-01-20T23:02:04+00:00,SAT-56347,282.2342216530527,33.77542910489634,3858.415769718233,5.474841336884203,-191752.10217357814,10.5,10499808247.897827,47.655,-122.3035,60.0,2.066666666666667
2026-01-20T23:02:05+00:00,SAT-56347,282.14798763315315,33.73448045491854,3863.8760114782185,5.479377143365488,-191910.96530299512,10.5,10499808089.034697,47.655,-122.3035,60.0,2.0833333333333335
2026-01-20T23:02:06+00:00,SAT-56347,282.06208650066606,33.693476478212055,3869.3407769492023,5.483887089633753,-192068.92269836357,10.5,10499807931.077301,47.655,-122.3035,60.0,2.1
2026-01-20T23:02:07+00:00,SAT-56347,281.9765169550313,33.65241793156177,3874.81004033993,5.488371253967041,-192225.97710131167,10.5,10499807774.0229,47.655,-122.3035,60.0,2.1166666666666667
2026-01-20T23:02:08+00:00,SAT-56347,281.89127769848096,33.61130556504541,3880.28377593722,5.492829773174047,-192382.13330345854,10.5,10499807617.866697,47.655,-122.3035,60.0,2.1333333333333333
2026-01-20T23:02:09+00:00,SAT-56347,281.80636743521353,33.570140121643405,3885.7619581643326,5.49726274266033,-192537.39464631048,10.5,10499807462.605354,47.655,-122.3035,60.0,2.15
2026-01-20T23:02:10+00:00,SAT-56347,281.7217848720703,33.52892233759675,3891.2445615396787,5.50167029373107,-192691.76572873036,10.5,10499807308.234272,47.655,-122.3035,60.0,2.1666666666666665
2026-01-20T23:02:11+00:00,SAT-56347,281.6375287180399,33.487652942185285,3896.7315607126266,5.506052525300574,-192845.25001511557,10.5,10499807154.749985,47.655,-122.3035,60.0,2.183333333333333
2026-01-20T23:02:12+00:00,SAT-56347,281.5535976847985,33.446332658017994,3902.222930431193,5.510409549483647,-192997.85143220078,10.5,10499807002.148567,47.655,-122.3035,60.0,2.2
2026-01-20T23:02:13+00:00,SAT-56347,281.46999048654084,33.404962200980954,3907.7186455552114,5.51474148697588,-193149.5742072562,10.5,10499806850.425793,47.655,-122.3035,60.0,2.216666666666667
2026-01-20T23:02:14+00:00,SAT-56347,281.38670583992575,33.36354228022045,3913.2186810648886,5.519048448890881,-193300.42223195036,10.5,10499806699.577768,47.655,-122.3035,60.0,2.2333333333333334
2026-01-20T23:02:15+00:00,SAT-56347,281.30374246424236,33.322073598260715,3918.723012051249,5.523330527592005,-193450.39874123872,10.5,10499806549.60126,47.655,-122.3035,60.0,2.25
2026-01-20T23:02:16+00:00,SAT-56347,281.2210990817238,33.280556851192216,3924.231613697434,5.527587865143449,-193599.50871081025,10.5,10499806400.49129,47.655,-122.3035,60.0,2.2666666666666666
2026-01-20T23:02:17+00:00,SAT-56347,281.1387744168867,33.23899272834419,3929.744461328271,5.531820543724857,-193747.7550189438,10.5,10499806252.244982,47.655,-122.3035,60.0,2.283333333333333
2026-01-20T23:02:18+00:00,SAT-56347,281.0567671974212,33.19738191278092,3935.2615303505454,5.536028677082928,-193895.1416495299,10.5,10499806104.85835,47.655,-122.3035,60.0,2.3
2026-01-20T23:02:19+00:00,SAT-56347,280.9750761537681,33.15572508111058,3940.78279628449,5.540212392103875,-194041.67304666046,10.5,10499805958.326954,47.655,-122.3035,60.0,2.316666666666667
2026-01-20T23:02:20+00:00,SAT-56347,280.8937000190024,33.114022903432165,3946.308234776881,5.5443717602957445,-194187.35171484973,10.5,10499805812.648285,47.655,-122.3035,60.0,2.3333333333333335
2026-01-20T23:02:21+00:00,SAT-56347,280.81263752961013,33.07227604379737,3951.837821545816,5.548506939749952,-194332.1831911278,10.5,10499805667.816809,47.655,-122.3035,60.0,2.35
2026-01-20T23:02:22+00:00,SAT-56347,280.731887424355,33.03048515960526,3957.37153246706,5.552617991753226,-194476.16962201524,10.5,10499805523.830378,47.655,-122.3035,60.0,2.3666666666666667
2026-01-20T23:02:23+00:00,SAT-56347,280.65144844562695,32.98865090237492,3962.909343477502,5.556705036676914,-194619.31522342566,10.5,10499805380.684776,47.655,-122.3035,60.0,2.3833333333333333
2026-01-20T23:02:24+00:00,SAT-56347,280.5713193386732,32.94677391734656,3968.451230634081,5.560768203735888,-194761.62452101056,10.5,10499805238.375479,47.655,-122.3035,60.0,2.4
2026-01-20T23:02:25+00:00,SAT-56347,280.4914988515116,32.90485484345926,3973.9971701226073,5.564807571034889,-194903.10025032828,10.5,10499805096.89975,47.655,-122.3035,60.0,2.4166666666666665
2026-01-20T23:02:26+00:00,SAT-56347,280.4119857356626,32.862894313780544,3979.547138206786,5.56882325298994,-195043.74641871202,10.5,10499804956.253582,47.655,-122.3035,60.0,2.433333333333333
2026-01-20T23:02:27+00:00,SAT-56347,280.33277874567233,32.820892955276825,3985.1011112644346,5.572815349670532,-195183.56653101856,10.5,10499804816.43347,47.655,-122.3035,60.0,2.45
2026-01-20T23:02:28+00:00,SAT-56347,280.25387663935777,32.77885138896613,3990.659065773172,5.576783969984094,-195322.56440164676,10.5,10499804677.435598,47.655,-122.3035,60.0,2.466666666666667
2026-01-20T23:02:29+00:00,SAT-56347,280.1752781776948,32.73677022989501,3996.2209783192366,5.580729236030424,-195460.74430704812,10.5,10499804539.255693,47.655,-122.3035,60.0,2.4833333333333334
2026-01-20T23:02:30+00:00,SAT-56347,280.0969821246994,32.69465008708278,4001.7868256106376,5.584651209696465,-195598.10841476498,10.5,10499804401.891584,47.655,-122.3035,60.0,2.5
2026-01-20T23:02:31+00:00,SAT-56347,280.0189872482222,32.65249156401894,4007.3565844171085,5.588550026008072,-195734.6614539741,10.5,10499804265.338547,47.655,-122.3035,60.0,2.5166666666666666
2026-01-20T23:02:32+00:00,SAT-56347,279.94129231903435,32.61029525815482,4012.930231643047,5.592425778063994,-195870.40668538742,10.5,10499804129.593315,47.655,-122.3035,60.0,2.533333333333333
2026-01-20T23:02:33+00:00,SAT-56347,279.86389611139003,32.56806176126266,4018.5077442857028,5.596278576932104,-196005.3479990717,10.5,10499803994.652,47.655,-122.3035,60.0,2.55
2026-01-20T23:02:34+00:00,SAT-56347,279.78679740282496,32.525791659342964,4024.0890994530964,5.600108496271233,-196139.48797487075,10.5,10499803860.512026,47.655,-122.3035,60.0,2.566666666666667
2026-01-20T23:02:35+00:00,SAT-56347,279.7099949746577,32.483485532949,4029.674274326711,5.603915664617277,-196272.83111465536,10.5,10499803727.168886,47.655,-122.3035,60.0,2.5833333333333335
2026-01-20T23:02:36+00:00,SAT-56347,279.63348761131476,32.44114395681512,4035.263246216223,5.60770017789265,-196405.38077803422,10.5,10499803594.619223,47.655,-122.3035,60.0,2.6
2026-01-20T23:02:37+00:00,SAT-56347,279.5572741007561,32.39876750014478,4040.855992526974,5.611462126664658,-196537.14013705746,10.5,10499803462.859863,47.655,-122.3035,60.0,2.6166666666666667
2026-01-20T23:02:38+00:00,SAT-56347,279.48135323458746,32.35635672669276,4046.4524907546347,5.615201615123434,-196668.11284090427,10.5,10499803331.88716,47.655,-122.3035,60.0,2.6333333333333333
2026-01-20T23:02:39+00:00,SAT-56347,279.405723807882,32.31391219470383,4052.052718498784,5.618918732863549,-196798.30202755556,10.5,10499803201.697973,47.655,-122.3035,60.0,2.65
2026-01-20T23:02:40+00:00,SAT-56347,279.33038461940816,32.27143445706437,4057.65665344836,5.622613611052968,-196927.71229106825,10.5,10499803072.287708,47.655,-122.3035,60.0,2.6666666666666665
2026-01-20T23:02:41+00:00,SAT-56347,279.25533447110837,32.22892406102922,4063.264273423117,5.626286301162157,-197056.3454341558,10.5,10499802943.654566,47.655,-122.3035,60.0,2.683333333333333
2026-01-20T23:02:42+00:00,SAT-56347,279.18057216912837,32.18638154886464,4068.875556294143,5.6299369333782145,-197184.20601652112,10.5,10499802815.793983,47.655,-122.3035,60.0,2.7
2026-01-20T23:02:43+00:00,SAT-56347,279.1060965228444,32.143807457294145,4074.490480062365,5.633565600240849,-197311.29727929618,10.5,10499802688.70272,47.655,-122.3035,60.0,2.716666666666667
2026-01-20T23:02:44+00:00,SAT-56347,279.0319063453466,32.10120231782298,4080.1090228210055,5.637172379680985,-197437.62195195162,10.5,10499802562.378048,47.655,-122.3035,60.0,2.7333333333333334
2026-01-20T23:02:45+00:00,SAT-56347,278.9580004536499,32.05856665688912,4085.731162741007,5.640757405245564,-197563.1847118663,10.5,10499802436.815289,47.655,-122.3035,60.0,2.75
2026-01-20T23:02:46+00:00,SAT-56347,278.8843776680036,32.015900995482426,4091.3568781265053,5.644320721372815,-197687.98711545492,10.5,10499802312.012884,47.655,-122.3035,60.0,2.7666666666666666
2026-01-20T23:02:47+00:00,SAT-56347,278.8110368130191,31.973205849857536,4096.986147325954,5.6478624746460255,-197812.03429668423,10.5,10499802187.965704,47.655,-122.3035,60.0,2.783333333333333
2026-01-20T23:02:48+00:00,SAT-56347,278.7379767164209,31.930481730801475,4102.6189488340015,5.6513827318467955,-197935.3285945284,10.5,10499802064.671406,47.655,-122.3035,60.0,2.8
2026-01-20T23:02:49+00:00,SAT-56347,278.6651962100414,31.88772914427579,4108.255261211897,5.654881573434955,-198057.872827031,10.5,10499801942.127172,47.655,-122.3035,60.0,2.816666666666667
2026-01-20T23:02:50+00:00,SAT-56347,278.5926941296574,31.84494859135191,4113.895063101136,5.6583591399226,-198179.67191551995,10.5,10499801820.328085,47.655,-122.3035,60.0,2.8333333333333335
2026-01-20T23:02:51+00:00,SAT-56347,278.52046931429135,31.80214056779567,4119.538333283353,5.661815478131506,-198300.72749989197,10.5,10499801699.272501,47.655,-122.3035,60.0,2.85
2026-01-20T23:02:52+00:00,SAT-56347,278.44852060733143,31.75930556481422,4125.185050586875,5.665250699673851,-198421.04348927762,10.5,10499801578.95651,47.655,-122.3035,60.0,2.8666666666666667
2026-01-20T23:02:53+00:00,SAT-56347,278.3768468557849,31.716444068603924,4130.8351939513495,5.668664901854408,-198540.62329170163,10.5,10499801459.376709,47.655,-122.3035,60.0,2.8833333333333333
2026-01-20T23:02:54+00:00,SAT-56347,278.3054469104396,31.67355656049653,4136.488742413466,5.67205816733817,-198659.46980244174,10.5,10499801340.530197,47.655,-122.3035,60.0,2.9
2026-01-20T23:02:55+00:00,SAT-56347,278.2343196260673,31.630643517107387,4142.145675092358,5.675430615986739,-198777.58721955828,10.5,10499801222.41278,47.655,-122.3035,60.0,2.9166666666666665
2026-01-20T23:02:56+00:00,SAT-56347,278.16346386098076,31.58770541009152,4147.805971226702,5.678782282700581,-198894.97676541316,10.5,10499801105.023235,47.655,-122.3035,60.0,2.933333333333333
2026-01-20T23:02:57+00:00,SAT-56347,278.0928784780426,31.544742706823026,4153.469610089982,5.682113305157958,-199011.64326208155,10.5,10499800988.356737,47.655,-122.3035,60.0,2.95
2026-01-20T23:02:58+00:00,SAT-56347,278.02256234346856,31.50175586965486,4159.136571092993,5.685423754875553,-199127.58921438013,10.5,10499800872.410786,47.655,-122.3035,60.0,2.966666666666667
2026-01-20T23:02:59+00:00,SAT-56347,277.95251432761444,31.458745356455612,4164.806833717856,5.688713740565643,-199242.81842987274,10.5,10499800757.18157,47.655,-122.3035,60.0,2.9833333333333334
2026-01-20T23:03:00+00:00,SAT-56347,277.88273330453706,31.415711620364473,4170.480377555113,5.691983328140266,-199357.33321707777,10.5,10499800642.666782,47.655,-122.3035,60.0,3.0
2026-01-20T23:03:01+00:00,SAT-56347,277.81321815251397,31.372655110151207,4176.157182261045,5.695232616047686,-199471.13702406985,10.5,10499800528.862976,47.655,-122.3035,60.0,3.0166666666666666
2026-01-20T23:03:02+00:00,SAT-56347,277.7439677536514,31.329576270005564,4181.8372275901165,5.698461688095889,-199584.23278615912,10.5,10499800415.767214,47.655,-122.3035,60.0,3.033333333333333
2026-01-20T23:03:03+00:00,SAT-56347,277.67498099407925,31.28647553968378,4187.520493380378,5.701670646546312,-199696.6240849737,10.5,10499800303.375916,47.655,-122.3035,60.0,3.05
2026-01-20T23:03:04+00:00,SAT-56347,277.6062567637257,31.24335335440422,4193.206959571867,5.704859564964784,-199808.31349710017,10.5,10499800191.686502,47.655,-122.3035,60.0,3.066666666666667
2026-01-20T23:03:05+00:00,SAT-56347,277.53779395666515,31.20021014509965,4198.896606177991,5.708028530687347,-199919.30408141605,10.5,10499800080.695919,47.655,-122.3035,60.0,3.0833333333333335
2026-01-20T23:03:06+00:00,SAT-56347,277.46959147095106,31.157046338347374,4204.5894132992635,5.711177644550905,-200029.59936965627,10.5,10499799970.40063,47.655,-122.3035,60.0,3.1
2026-01-20T23:03:07+00:00,SAT-56347,277.40164820847633,31.11386235630257,4210.285361136763,5.714306974182734,-200139.20173041412,10.5,10499799860.79827,47.655,-122.3035,60.0,3.1166666666666667
2026-01-20T23:03:08+00:00,SAT-56347,277.3339630753422,31.070658616982822,4215.984429959014,5.7174166196629965,-200248.1146689203,10.5,10499799751.88533,47.655,-122.3035,60.0,3.1333333333333333
2026-01-20T23:03:09+00:00,SAT-56347,277.26653498150665,31.027435534057275,4221.686600134358,5.720506671313018,-200356.34134860954,10.5,10499799643.658651,47.655,-122.3035,60.0,3.15
2026-01-20T23:03:10+00:00,SAT-56347,277.19936284088146,30.984193516954363,4227.391852121214,5.723577185878078,-200463.88375694168,10.5,10499799536.116243,47.655,-122.3035,60.0,3.1666666666666665
2026-01-20T23:03:11+00:00,SAT-56347,277.13244557172027,30.940932971148534,4233.100166434596,5.726628281167075,-200570.74602008262,10.5,10499799429.25398,47.655,-122.3035,60.0,3.183333333333333
2026-01-20T23:03:12+00:00,SAT-56347,277.06578209592936,30.897654297732753,4238.811523707013,5.729660013066903,-200676.93009542784,10.5,10499799323.069904,47.655,-122.3035,60.0,3.2
2026-01-20T23:03:13+00:00,SAT-56347,276.99937133976397,30.85435789391907,4244.525904626712,5.732672489088408,-200782.43974846185,10.5,10499799217.560251,47.655,-122.3035,60.0,3.216666666666667
2026-01-20T23:03:14+00:00,SAT-56347,276.93321223325245,30.81104415268161,4250.243289989163,5.735665802077747,-200887.27823104995,10.5,10499799112.72177,47.655,-122.3035,60.0,3.2333333333333334
2026-01-20T23:03:15+00:00,SAT-56347,276.8673037103651,30.767713462899795,4255.963660682435,5.738639983155254,-200991.4466331577,10.5,10499799008.553368,47.655,-122.3035,60.0,3.25
2026-01-20T23:03:16+00:00,SAT-56347,276.80164470966986,30.724366209857084,4261.686997625635,5.741595162137535,-201094.94950151184,10.5,10499798905.050499,47.655,-122.3035,60.0,3.2666666666666666
2026-01-20T23:03:17+00:00,SAT-56347,276.73623417327923,30.68100277452739,4267.413281867341,5.74453140708843,-201197.78921999602,10.5,10499798802.21078,47.655,-122.3035,60.0,3.283333333333333
2026-01-20T23:03:18+00:00,SAT-56347,276.67107104749743,30.63762353407353,4273.1424945240105,5.747448809202385,-201299.96898262546,10.5,10499798700.031017,47.655,-122.3035,60.0,3.3
2026-01-20T23:03:19+00:00,SAT-56347,276.606154282591,30.594228861704035,4278.874616803055,5.750347421508072,-201401.49064668847,10.5,10499798598.509354,47.655,-122.3035,60.0,3.316666666666667
2026-01-20T23:03:20+00:00,SAT-56347,276.5414828331677,30.550819126992682,4284.609629964772,5.753227353302719,-201502.35804023646,10.5,10499798497.64196,47.655,-122.3035,60.0,3.3333333333333335
2026-01-20T23:03:21+00:00,SAT-56347,276.47705565760174,30.50739469548478,4290.347515378466,5.756088685258089,-201602.57398873568,10.5,10499798397.426012,47.655,-122.3035,60.0,3.35
2026-01-20T23:03:22+00:00,SAT-56347,276.4128717183128,30.46395592894438,4296.088254493897,5.758931473752522,-201702.1404667941,10.5,10499798297.859533,47.655,-122.3035,60.0,3.3666666666666667
2026-01-20T23:03:23+00:00,SAT-56347,276.3489299820338,30.420503185567856,4301.831828817053,5.761755812799053,-201801.060767146,10.5,10499798198.939234,47.655,-122.3035,60.0,3.3833333333333333
2026-01-20T23:03:24+00:00,SAT-56347,276.2852294194,30.377036819730616,4307.578219947684,5.764561786474004,-201899.33783449963,10.5,10499798100.662165,47.655,-122.3035,60.0,3.4
2026-01-20T23:03:25+00:00,SAT-56347,276.22176900505633,30.33355718209212,4313.327409569394,5.767349478527417,-201996.97460213583,10.5,10499798003.025398,47.655,-122.3035,60.0,3.4166666666666665
2026-01-20T23:03:26+00:00,SAT-56347,276.15854771765476,30.290064619628353,4319.079379449313,5.770118934183229,-202093.97265398817,10.5,10499797906.027346,47.655,-122.3035,60.0,3.433333333333333
2026-01-20T23:03:27+00:00,SAT-56347,276.09556454024863,30.246559475951937,4324.834111399671,5.772870274449074,-202190.33622825588,10.5,10499797809.663773,47.655,-122.3035,60.0,3.45
2026-01-20T23:03:28+00:00,SAT-56347,276.0328184594994,30.203042090770268,4330.591587353388,5.775603548480987,-202286.06704659117,10.5,10499797713.932953,47.655,-122.3035,60.0,3.466666666666667
2026-01-20T23:03:29+00:00,SAT-56347,275.9703084664234,30.159512800456454,4336.3517892924065,5.778318862304281,-202381.168822449,10.5,10499797618.831177,47.655,-122.3035,60.0,3.4833333333333334
2026-01-20T23:03:30+00:00,SAT-56347,275.9080335557893,30.115971937649487,4342.114699304411,5.781016254712898,-202475.64291455736,10.5,10499797524.357086,47.655,-122.3035,60.0,3.5
2026-01-20T23:03:31+00:00,SAT-56347,275.84599272680936,30.072419831789922,4347.8802995157785,5.783695821447311,-202569.49267615253,10.5,10499797430.507324,47.655,-122.3035,60.0,3.5166666666666666
2026-01-20T23:03:32+00:00,SAT-56347,275.7841849825435,30.028856808718974,4353.648572148369,5.786357648068349,-202662.72110393672,10.5,10499797337.278896,47.655,-122.3035,60.0,3.533333333333333
