satellites_20260121_005943/SAT-56448.csv

timestamp,satellite,azimuth_deg,elevation_deg,distance_km,relative_velocity_kms,doppler_shift_hz,tx_freq_ghz,rx_freq_hz,ue_lat,ue_lon,ue_alt_m,time_minutes
2026-01-20T23:00:09+00:00,SAT-56448,238.04601298383272,30.004030497960393,2875.1974275479242,-2.9292106317052724,102593.34687100555,10.5,10500102593.34687,47.655,-122.3035,60.0,0.15
2026-01-20T23:00:10+00:00,SAT-56448,238.15910851957557,30.09399055202894,2872.2760281445703,-2.9169957176834056,102165.52891292468,10.5,10500102165.528913,47.655,-122.3035,60.0,0.16666666666666666
2026-01-20T23:00:11+00:00,SAT-56448,238.27272915768788,30.183906309281873,2869.366811082134,-2.9047406469047328,101736.30449535757,10.5,10500101736.304495,47.655,-122.3035,60.0,0.18333333333333332
2026-01-20T23:00:12+00:00,SAT-56448,238.38687684667914,30.27377580350009,2866.469816410288,-2.8924454170416074,101305.67353678016,10.5,10500101305.673536,47.655,-122.3035,60.0,0.2
2026-01-20T23:00:13+00:00,SAT-56448,238.501553529768,30.363597050255844,2863.585084181025,-2.8801100555948183,100873.63700038643,10.5,10500100873.637001,47.655,-122.3035,60.0,0.21666666666666667
2026-01-20T23:00:14+00:00,SAT-56448,238.61676114567507,30.453368047714967,2860.712654418912,-2.8677345689841967,100440.195111026,10.5,10500100440.19511,47.655,-122.3035,60.0,0.23333333333333334
2026-01-20T23:00:15+00:00,SAT-56448,238.73250162743443,30.543086775912005,2857.8525671421116,-2.8553189854271217,100005.34885699085,10.5,10500100005.348858,47.655,-122.3035,60.0,0.25
2026-01-20T23:00:16+00:00,SAT-56448,238.84877690287476,30.632751197322946,2855.0048623406456,-2.842863299922201,99569.09806311109,10.5,10500099569.098063,47.655,-122.3035,60.0,0.26666666666666666
2026-01-20T23:00:17+00:00,SAT-56448,238.96558889291532,30.722359255765856,2852.169580009523,-2.830367546774271,99131.44393088717,10.5,10500099131.443932,47.655,-122.3035,60.0,0.2833333333333333
2026-01-20T23:00:18+00:00,SAT-56448,239.08293951273714,30.811908877511904,2849.34676010954,-2.817831757602223,98692.38756774642,10.5,10500098692.387568,47.655,-122.3035,60.0,0.3
2026-01-20T23:00:19+00:00,SAT-56448,239.20083067129252,30.90139797111168,2846.5364425699586,-2.805255924973343,98251.92871336377,10.5,10500098251.928713,47.655,-122.3035,60.0,0.31666666666666665
2026-01-20T23:00:20+00:00,SAT-56448,239.31926426931187,30.990824426134704,2843.7386673274514,-2.792640099506321,97810.06914061985,10.5,10500097810.069141,47.655,-122.3035,60.0,0.3333333333333333
2026-01-20T23:00:21+00:00,SAT-56448,239.43824220124384,31.080186114841343,2840.953474268211,-2.779984302310572,97366.80958885564,10.5,10500097366.80959,47.655,-122.3035,60.0,0.35
2026-01-20T23:00:22+00:00,SAT-56448,239.55776635367184,31.16948089122773,2838.180903257373,-2.7672885579524236,96922.15091848791,10.5,10500096922.150919,47.655,-122.3035,60.0,0.36666666666666664
2026-01-20T23:00:23+00:00,SAT-56448,239.67783860497627,31.258706591024964,2835.420994135575,-2.7545528992791364,96476.09427996662,10.5,10500096476.09428,47.655,-122.3035,60.0,0.38333333333333336
2026-01-20T23:00:24+00:00,SAT-56448,239.79846082528758,31.347861031899036,2832.673786710694,-2.7417773591084935,96028.64082270935,10.5,10500096028.640823,47.655,-122.3035,60.0,0.4
2026-01-20T23:00:25+00:00,SAT-56448,239.91963487603613,31.436942013367087,2829.939320757876,-2.7289619718515463,95579.79175193673,10.5,10500095579.791752,47.655,-122.3035,60.0,0.4166666666666667
2026-01-20T23:00:26+00:00,SAT-56448,240.0413626095734,31.525947316782517,2827.2176360179496,-2.716106776802324,95129.54844389182,10.5,10500095129.548445,47.655,-122.3035,60.0,0.43333333333333335
2026-01-20T23:00:27+00:00,SAT-56448,240.1636458689345,31.614874705408738,2824.5087721925524,-2.7032118025761402,94677.91190080397,10.5,10500094677.911901,47.655,-122.3035,60.0,0.45
2026-01-20T23:00:28+00:00,SAT-56448,240.28648648690773,31.703721924026407,2821.8127689547828,-2.690277102093919,94224.88397618778,10.5,10500094224.883976,47.655,-122.3035,60.0,0.4666666666666667
2026-01-20T23:00:29+00:00,SAT-56448,240.40988628663615,31.792486699622735,2819.129665924961,-2.677302717743222,93770.46615463498,10.5,10500093770.466154,47.655,-122.3035,60.0,0.48333333333333334
2026-01-20T23:00:30+00:00,SAT-56448,240.5338470806891,31.88116674100668,2816.459502681132,-2.6642886848260106,93314.65967256959,10.5,10500093314.659672,47.655,-122.3035,60.0,0.5
2026-01-20T23:00:31+00:00,SAT-56448,240.65837067024643,31.969759738513414,2813.8023187661324,-2.6512350519824746,92857.46623357676,10.5,10500092857.466234,47.655,-122.3035,60.0,0.5166666666666667
2026-01-20T23:00:32+00:00,SAT-56448,240.7834588452336,32.05826336438211,2811.1581536742883,-2.638141873004627,92398.8877216804,10.5,10500092398.887722,47.655,-122.3035,60.0,0.5333333333333333
2026-01-20T23:00:33+00:00,SAT-56448,240.9091133840294,32.14667527285089,2808.5270468462786,-2.6250091939285394,91938.92574925839,10.5,10500091938.925749,47.655,-122.3035,60.0,0.55
2026-01-20T23:00:34+00:00,SAT-56448,241.03533605263488,32.23499309986173,2805.9090376768672,-2.6118370790119942,91477.58256689012,10.5,10500091477.582567,47.655,-122.3035,60.0,0.5666666666666667
2026-01-20T23:00:35+00:00,SAT-56448,241.1621286050082,32.32321446360343,2803.3041654967324,-2.5986255674671965,91014.85954795287,10.5,10500091014.859549,47.655,-122.3035,60.0,0.5833333333333334
2026-01-20T23:00:36+00:00,SAT-56448,241.28949278134937,32.41133696363382,2800.7124695974453,-2.5853747158600218,90550.7586736229,10.5,10500090550.758673,47.655,-122.3035,60.0,0.6
2026-01-20T23:00:37+00:00,SAT-56448,241.41743030841647,32.49935818141739,2798.133989214161,-2.572084604606085,90085.28276039517,10.5,10500090085.28276,47.655,-122.3035,60.0,0.6166666666666667
2026-01-20T23:00:38+00:00,SAT-56448,241.54594290011477,32.5872756810428,2795.5687635018335,-2.558755269336674,89618.4330562281,10.5,10500089618.433056,47.655,-122.3035,60.0,0.6333333333333333
2026-01-20T23:00:39+00:00,SAT-56448,241.6750322548247,32.6750870077334,2793.016831579882,-2.545386792248204,89150.21243998788,10.5,10500089150.21244,47.655,-122.3035,60.0,0.65
2026-01-20T23:00:40+00:00,SAT-56448,241.80470005708833,32.762789689321636,2790.4782324857465,-2.5319792270839003,88680.62279398955,10.5,10500088680.622793,47.655,-122.3035,60.0,0.6666666666666666
2026-01-20T23:00:41+00:00,SAT-56448,241.93494797568547,32.850381235295494,2787.953005203268,-2.518532653822307,88209.66691942004,10.5,10500088209.66692,47.655,-122.3035,60.0,0.6833333333333333
2026-01-20T23:00:42+00:00,SAT-56448,242.06577766433344,32.93785913760755,2785.4411886365224,-2.505047130401494,87737.34684551565,10.5,10500087737.346846,47.655,-122.3035,60.0,0.7
2026-01-20T23:00:43+00:00,SAT-56448,242.19719076006237,33.025220869946985,2782.9428216318024,-2.4915227249706833,87263.66495915041,10.5,10500087263.664959,47.655,-122.3035,60.0,0.7166666666666667
2026-01-20T23:00:44+00:00,SAT-56448,242.32918888310664,33.11246388802697,2780.4579429674313,-2.477959540752867,86788.62487563015,10.5,10500086788.624876,47.655,-122.3035,60.0,0.7333333333333333
2026-01-20T23:00:45+00:00,SAT-56448,242.46177363814198,33.1995856307522,2777.986591318787,-2.464357616798637,86312.22796267172,10.5,10500086312.227962,47.655,-122.3035,60.0,0.75
2026-01-20T23:00:46+00:00,SAT-56448,242.59494661036803,33.28658351803391,2775.5288053223,-2.4507170584263744,85834.4779089704,10.5,10500085834.47791,47.655,-122.3035,60.0,0.7666666666666667
2026-01-20T23:00:47+00:00,SAT-56448,242.7287093683534,33.37345495301271,2773.0846235093627,-2.4370379401304247,85355.3773236332,10.5,10500085355.377323,47.655,-122.3035,60.0,0.7833333333333333
2026-01-20T23:00:48+00:00,SAT-56448,242.86306346182764,33.46019732100238,2770.6540843370726,-2.423320334524721,84874.92874990728,10.5,10500084874.92875,47.655,-122.3035,60.0,0.8
2026-01-20T23:00:49+00:00,SAT-56448,242.99801042092878,33.546807989411484,2768.2372261901064,-2.4095643424426063,84393.1357194028,10.5,10500084393.13572,47.655,-122.3035,60.0,0.8166666666666667
2026-01-20T23:00:50+00:00,SAT-56448,243.13355175712044,33.63328430870298,2765.834087352577,-2.3957700387016536,83910.00085254766,10.5,10500083910.000853,47.655,-122.3035,60.0,0.8333333333333334
2026-01-20T23:00:51+00:00,SAT-56448,243.26968896114028,33.71962361150367,2763.4447060339785,-2.3819375266885014,83425.52777037927,10.5,10500083425.527771,47.655,-122.3035,60.0,0.85
2026-01-20T23:00:52+00:00,SAT-56448,243.40642350392068,33.8058232135785,2761.0691203406946,-2.3680668921992876,82939.7194778413,10.5,10500082939.719479,47.655,-122.3035,60.0,0.8666666666666667
2026-01-20T23:00:53+00:00,SAT-56448,243.54375683498392,33.89188041324002,2758.7073682935415,-2.354158228191981,82452.57923071501,10.5,10500082452.579231,47.655,-122.3035,60.0,0.8833333333333333
2026-01-20T23:00:54+00:00,SAT-56448,243.6816903821708,33.977792491591906,2756.3594878206245,-2.340211631661341,81964.11042616717,10.5,10500081964.110426,47.655,-122.3035,60.0,0.9
2026-01-20T23:00:55+00:00,SAT-56448,243.82022555120915,34.06355671268969,2754.025516753314,-2.326227208669784,81474.31677895223,10.5,10500081474.316778,47.655,-122.3035,60.0,0.9166666666666666
2026-01-20T23:00:56+00:00,SAT-56448,243.95936372554957,34.149170323864446,2751.705492817201,-2.312205054297605,80983.20161918434,10.5,10500080983.20162,47.655,-122.3035,60.0,0.9333333333333333
2026-01-20T23:00:57+00:00,SAT-56448,244.0991062650908,34.23463055537238,2749.399453643048,-2.2981452754371445,80490.76869068539,10.5,10500080490.76869,47.655,-122.3035,60.0,0.95
2026-01-20T23:00:58+00:00,SAT-56448,244.2394545061265,34.31993462080996,2747.1074367550123,-2.2840479759426024,79997.02163086881,10.5,10500079997.021631,47.655,-122.3035,60.0,0.9666666666666667
2026-01-20T23:00:59+00:00,SAT-56448,244.38040976052366,34.40507971706053,2744.829479573672,-2.2699132715208825,79501.96449227975,10.5,10500079501.964493,47.655,-122.3035,60.0,0.9833333333333333
2026-01-20T23:01:00+00:00,SAT-56448,244.52197331568175,34.49006302471963,2742.5656194042085,-2.2557412665948835,79005.60093224986,10.5,10500079005.600933,47.655,-122.3035,60.0,1.0
2026-01-20T23:01:01+00:00,SAT-56448,244.66414643320005,34.57488170775748,2740.3158934476583,-2.241532079649947,78507.935100637,10.5,10500078507.9351,47.655,-122.3035,60.0,1.0166666666666666
2026-01-20T23:01:02+00:00,SAT-56448,244.8069303489517,34.65953291402908,2738.080338786887,-2.2272858201301817,78008.97083063681,10.5,10500078008.97083,47.655,-122.3035,60.0,1.0333333333333334
2026-01-20T23:01:03+00:00,SAT-56448,244.95032627186225,34.744013775021266,2735.8589923956106,-2.213002608893808,77508.71235521536,10.5,10500077508.712355,47.655,-122.3035,60.0,1.05
2026-01-20T23:01:04+00:00,SAT-56448,245.09433538383507,34.8283214062918,2733.6518911270073,-2.198682578559757,77007.16431924864,10.5,10500077007.16432,47.655,-122.3035,60.0,1.0666666666666667
2026-01-20T23:01:05+00:00,SAT-56448,245.23895883979026,34.912452907962276,2731.4590717019905,-2.184325836571278,76504.3304858537,10.5,10500076504.330486,47.655,-122.3035,60.0,1.0833333333333333
2026-01-20T23:01:06+00:00,SAT-56448,245.38419776532498,34.99640536385228,2729.2805707343164,-2.1699325123821103,76000.21538904811,10.5,10500076000.21539,47.655,-122.3035,60.0,1.1
2026-01-20T23:01:07+00:00,SAT-56448,245.53005325734694,35.080175842348716,2727.116424708634,-2.1555027406176386,75494.82374398227,10.5,10500075494.823744,47.655,-122.3035,60.0,1.1166666666666667
2026-01-20T23:01:08+00:00,SAT-56448,245.67652638363415,35.16376139664451,2724.9666699753247,-2.14103664347524,74988.15983052523,10.5,10500074988.15983,47.655,-122.3035,60.0,1.1333333333333333
2026-01-20T23:01:09+00:00,SAT-56448,245.82361818130454,35.247159064376646,2722.8313427628987,-2.1265343582154177,74480.22845612043,10.5,10500074480.228456,47.655,-122.3035,60.0,1.15
2026-01-20T23:01:10+00:00,SAT-56448,245.9713296569949,35.33036586823633,2720.7104791629718,-2.111996029587293,73971.03469049436,10.5,10500073971.03469,47.655,-122.3035,60.0,1.1666666666666667
2026-01-20T23:01:11+00:00,SAT-56448,246.11966178661112,35.41337881634432,2718.604115122797,-2.097421770937088,73460.58250351124,10.5,10500073460.582504,47.655,-122.3035,60.0,1.1833333333333333
2026-01-20T23:01:12+00:00,SAT-56448,246.26861551240808,35.49619490114751,2716.512286476582,-2.0828117490137426,72948.8777354242,10.5,10500072948.877735,47.655,-122.3035,60.0,1.2
2026-01-20T23:01:13+00:00,SAT-56448,246.41819174582594,35.5788111015204,2714.4350288922324,-2.068166091831716,72435.92486984118,10.5,10500072435.92487,47.655,-122.3035,60.0,1.2166666666666666
2026-01-20T23:01:14+00:00,SAT-56448,246.56839136403445,35.661224381391186,2712.3723779099787,-2.0534849444237175,71921.72898642112,10.5,10500071921.728987,47.655,-122.3035,60.0,1.2333333333333334
2026-01-20T23:01:15+00:00,SAT-56448,246.7192152103146,35.743431690494994,2710.3243689254073,-2.0387684696609694,71406.29578960314,10.5,10500071406.29579,47.655,-122.3035,60.0,1.25
2026-01-20T23:01:16+00:00,SAT-56448,246.87066409449096,35.825429965144444,2708.2910371716653,-2.024016791623803,70889.62962520534,10.5,10500070889.629625,47.655,-122.3035,60.0,1.2666666666666666
2026-01-20T23:01:17+00:00,SAT-56448,247.02273878937268,35.9072161268699,2706.272417758152,-2.0092300891278185,70371.73675610643,10.5,10500070371.736755,47.655,-122.3035,60.0,1.2833333333333334
2026-01-20T23:01:18+00:00,SAT-56448,247.17544003382196,35.98878708461383,2704.2685456159293,-1.9944085060459678,69852.62222134574,10.5,10500069852.622221,47.655,-122.3035,60.0,1.3
2026-01-20T23:01:19+00:00,SAT-56448,247.3287685294418,36.07013973352491,2702.279455532566,-1.9795521913054466,69332.29123698364,10.5,10500069332.291237,47.655,-122.3035,60.0,1.3166666666666667
2026-01-20T23:01:20+00:00,SAT-56448,247.4827249400643,36.151270955259065,2700.305182147104,-1.964661321239202,68810.74997894584,10.5,10500068810.749979,47.655,-122.3035,60.0,1.3333333333333333
2026-01-20T23:01:21+00:00,SAT-56448,247.6373098929481,36.232177619180895,2698.3457599227213,-1.9497360477973213,68288.00376916712,10.5,10500068288.003769,47.655,-122.3035,60.0,1.35
2026-01-20T23:01:22+00:00,SAT-56448,247.79252397612163,36.31285658154664,2696.4012231710517,-1.9347765448387388,67764.05869692279,10.5,10500067764.058697,47.655,-122.3035,60.0,1.3666666666666667
2026-01-20T23:01:23+00:00,SAT-56448,247.94836773919184,36.39330468650644,2694.471606030332,-1.9197829713844028,67238.9203317991,10.5,10500067238.920332,47.655,-122.3035,60.0,1.3833333333333333
2026-01-20T23:01:24+00:00,SAT-56448,248.10484169133736,36.47351876565656,2692.5569424802047,-1.9047554992308915,66712.59469083895,10.5,10500066712.59469,47.655,-122.3035,60.0,1.4
2026-01-20T23:01:25+00:00,SAT-56448,248.26194630142982,36.55349563870096,2690.6572663289717,-1.889694302912562,66185.0878869738,10.5,10500066185.087887,47.655,-122.3035,60.0,1.4166666666666667
2026-01-20T23:01:26+00:00,SAT-56448,248.41968199738614,36.63323211370952,2688.772611210867,-1.8745995643344824,65656.40629128857,10.5,10500065656.406292,47.655,-122.3035,60.0,1.4333333333333333
2026-01-20T23:01:27+00:00,SAT-56448,248.57804916589026,36.712724987581296,2686.903010578704,-1.8594714457198962,65126.55558552747,10.5,10500065126.555586,47.655,-122.3035,60.0,1.45
2026-01-20T23:01:28+00:00,SAT-56448,248.73704814994477,36.79197104541898,2685.0484977235064,-1.844310139119462,64595.542496116934,10.5,10500064595.542496,47.655,-122.3035,60.0,1.4666666666666666
2026-01-20T23:01:29+00:00,SAT-56448,248.89667925037446,36.870967061899904,2683.209105744758,-1.8291158238920684,64063.37330496393,10.5,10500064063.373304,47.655,-122.3035,60.0,1.4833333333333334
2026-01-20T23:01:30+00:00,SAT-56448,249.05694272393106,36.94970980094009,2681.384867563063,-1.8138886882177736,63530.054602930075,10.5,10500063530.054604,47.655,-122.3035,60.0,1.5
2026-01-20T23:01:31+00:00,SAT-56448,249.21783878314415,37.028196016245396,2679.575815911347,-1.798628911641981,62995.59267845491,10.5,10500062995.592678,47.655,-122.3035,60.0,1.5166666666666666
2026-01-20T23:01:32+00:00,SAT-56448,249.37936759467934,37.10642245113485,2677.7819833434696,-1.7833366892021596,62459.99436257558,10.5,10500062459.994362,47.655,-122.3035,60.0,1.5333333333333334
2026-01-20T23:01:33+00:00,SAT-56448,249.54152927975184,37.18438583937661,2676.0034022187715,-1.7680122167204677,61923.2665138124,10.5,10500061923.266514,47.655,-122.3035,60.0,1.55
2026-01-20T23:01:34+00:00,SAT-56448,249.70432391332784,37.26208290542183,2674.240104701296,-1.7526556842563605,61385.41578885145,10.5,10500061385.415789,47.655,-122.3035,60.0,1.5666666666666667
2026-01-20T23:01:35+00:00,SAT-56448,249.86775152270988,37.339510364375386,2672.492122765531,-1.7372672896125292,60846.44911557967,10.5,10500060846.449116,47.655,-122.3035,60.0,1.5833333333333333
2026-01-20T23:01:36+00:00,SAT-56448,250.03181208729802,37.41666492251929,2670.7594881886903,-1.721847238958487,60306.37371492552,10.5,10500060306.373714,47.655,-122.3035,60.0,1.6
2026-01-20T23:01:37+00:00,SAT-56448,250.1965055384527,37.493543277893316,2669.042232542369,-1.7063957238793652,59765.1962970107,10.5,10500059765.196297,47.655,-122.3035,60.0,1.6166666666666667
2026-01-20T23:01:38+00:00,SAT-56448,250.36183175725694,37.570142119894896,2667.340387207087,-1.6909129617001009,59222.92447347377,10.5,10500059222.924473,47.655,-122.3035,60.0,1.6333333333333333
2026-01-20T23:01:39+00:00,SAT-56448,250.527790575965,37.64645813060492,2665.6539833466177,-1.6753991508368065,58679.56519368632,10.5,10500058679.565193,47.655,-122.3035,60.0,1.65
2026-01-20T23:01:40+00:00,SAT-56448,250.69438177532174,37.72248798420725,2663.98305192685,-1.6598544994705295,58135.12574902922,10.5,10500058135.12575,47.655,-122.3035,60.0,1.6666666666666667
2026-01-20T23:01:41+00:00,SAT-56448,250.861605084578,37.79822834765827,2662.3276237060445,-1.6442792367209718,57589.6141642436,10.5,10500057589.614164,47.655,-122.3035,60.0,1.6833333333333333
2026-01-20T23:01:42+00:00,SAT-56448,251.02946018257643,37.873675881828056,2660.6877292139548,-1.6286735516992499,57043.0370628007,10.5,10500057043.037064,47.655,-122.3035,60.0,1.7
2026-01-20T23:01:43+00:00,SAT-56448,251.1979466929703,37.94882724002749,2659.063398791727,-1.6130376812774503,56495.40274096298,10.5,10500056495.40274,47.655,-122.3035,60.0,1.7166666666666666
2026-01-20T23:01:44+00:00,SAT-56448,251.36706418794407,38.0236790703315,2657.4546625442663,-1.5973718433502242,55946.718830322796,10.5,10500055946.71883,47.655,-122.3035,60.0,1.7333333333333334
2026-01-20T23:01:45+00:00,SAT-56448,251.53681218547635,38.09822801503003,2655.861550359165,-1.5816762486976552,55396.99271329027,10.5,10500055396.992714,47.655,-122.3035,60.0,1.75
2026-01-20T23:01:46+00:00,SAT-56448,251.70719014765442,38.172470710566735,2654.2840919137975,-1.565951134501335,54846.232696968036,10.5,10500054846.232697,47.655,-122.3035,60.0,1.7666666666666666
2026-01-20T23:01:47+00:00,SAT-56448,251.87819748247847,38.246403789001,2652.722316648988,-1.5501967137180521,54294.446240003635,10.5,10500054294.44624,47.655,-122.3035,60.0,1.7833333333333334
2026-01-20T23:01:48+00:00,SAT-56448,252.0498335404123,38.320023877192426,2651.176253793173,-1.5344132367705563,53741.64211326104,10.5,10500053741.642113,47.655,-122.3035,60.0,1.8
2026-01-20T23:01:49+00:00,SAT-56448,252.22209761741826,38.39332759877933,2649.6459323250338,-1.5186009101973283,53187.82755059151,10.5,10500053187.82755,47.655,-122.3035,60.0,1.8166666666666667
2026-01-20T23:01:50+00:00,SAT-56448,252.39498894938646,38.46631157249022,2648.131381017264,-1.5027599874821262,52633.01143006849,10.5,10500052633.01143,47.655,-122.3035,60.0,1.8333333333333333
2026-01-20T23:01:51+00:00,SAT-56448,252.56850671624375,38.53897241457032,2646.6326283897483,-1.486890701317436,52077.20190156711,10.5,10500052077.201902,47.655,-122.3035,60.0,1.85
2026-01-20T23:01:52+00:00,SAT-56448,252.74265003879606,38.61130673812938,2645.1497027303008,-1.470993279333876,51520.40693767452,10.5,10500051520.406939,47.655,-122.3035,60.0,1.8666666666666667
2026-01-20T23:01:53+00:00,SAT-56448,252.91741797727403,38.68331115323851,2643.6826320997125,-1.4550679765876349,50962.63547153733,10.5,10500050962.635471,47.655,-122.3035,60.0,1.8833333333333333
2026-01-20T23:01:54+00:00,SAT-56448,253.0928095334535,38.75498226848824,2642.2314443043956,-1.4391150297160018,50403.89579119439,10.5,10500050403.895792,47.655,-122.3035,60.0,1.9
2026-01-20T23:01:55+00:00,SAT-56448,253.26882364771774,38.82631669047614,2640.796166914759,-1.4231346848960584,49844.1965188084,10.5,10500049844.196518,47.655,-122.3035,60.0,1.9166666666666667
2026-01-20T23:01:56+00:00,SAT-56448,253.44545919921237,38.89731102456216,2639.376827255689,-1.407127195336107,49283.5465228052,10.5,10500049283.546522,47.655,-122.3035,60.0,1.9333333333333333
2026-01-20T23:01:57+00:00,SAT-56448,253.6227150058153,38.967961875547054,2637.9734523995403,-1.3910928041212205,48721.95431705229,10.5,10500048721.954317,47.655,-122.3035,60.0,1.95
2026-01-20T23:01:58+00:00,SAT-56448,253.80058982200057,39.03826584751687,2636.58606917623,-1.3750317690443514,48159.428930549315,10.5,10500048159.42893,47.655,-122.3035,60.0,1.9666666666666666
2026-01-20T23:01:59+00:00,SAT-56448,253.97908233975213,39.10821954489906,2635.2147041585695,-1.3589443452841703,47595.97930073274,10.5,10500047595.979301,47.655,-122.3035,60.0,1.9833333333333334
2026-01-20T23:02:00+00:00,SAT-56448,254.15819118736457,39.17781957268058,2633.859383664873,-1.3428307864840157,47031.61431126518,10.5,10500047031.614311,47.655,-122.3035,60.0,2.0
2026-01-20T23:02:01+00:00,SAT-56448,254.33791492836028,39.24706253669132,2632.5201337604863,-1.3266913561919207,46466.34319271357,10.5,10500046466.343193,47.655,-122.3035,60.0,2.0166666666666666
2026-01-20T23:02:02+00:00,SAT-56448,254.51825206186388,39.31594504443726,2631.196980247911,-1.3105263161100649,45900.175110995224,10.5,10500045900.175112,47.655,-122.3035,60.0,2.033333333333333
2026-01-20T23:02:03+00:00,SAT-56448,254.69920102153276,39.38446370538945,2629.8899486686437,-1.294335925732921,45333.119154704254,10.5,10500045333.119154,47.655,-122.3035,60.0,2.05
2026-01-20T23:02:04+00:00,SAT-56448,254.8807601743851,39.45261513123372,2628.5990643053797,-1.2781204608957515,44765.18498475832,10.5,10500044765.184984,47.655,-122.3035,60.0,2.066666666666667
2026-01-20T23:02:05+00:00,SAT-56448,255.0629278221096,39.52039593706115,2627.3243521657128,-1.261880178382185,44196.381594806306,10.5,10500044196.381596,47.655,-122.3035,60.0,2.0833333333333335
2026-01-20T23:02:06+00:00,SAT-56448,255.24570219769635,39.587802740802076,2626.0658370011397,-1.245615355953129,43626.71871321012,10.5,10500043626.718714,47.655,-122.3035,60.0,2.1
2026-01-20T23:02:07+00:00,SAT-56448,255.4290814674087,39.65483216465951,2624.823543286136,-1.2293262722365144,43056.20609869846,10.5,10500043056.206099,47.655,-122.3035,60.0,2.1166666666666667
2026-01-20T23:02:08+00:00,SAT-56448,255.61306373013142,39.7214808355468,2623.597495217292,-1.2130131829263455,42484.852706756974,10.5,10500042484.852707,47.655,-122.3035,60.0,2.1333333333333333
2026-01-20T23:02:09+00:00,SAT-56448,255.79764701330993,39.78774538432538,2622.3877167361866,-1.1966763890295027,41912.66907991988,10.5,10500041912.66908,47.655,-122.3035,60.0,2.15
2026-01-20T23:02:10+00:00,SAT-56448,255.98282927855718,39.85362244850314,2621.194231484195,-1.1803161528869972,41339.664406479074,10.5,10500041339.664406,47.655,-122.3035,60.0,2.1666666666666665
2026-01-20T23:02:11+00:00,SAT-56448,256.1686084153642,39.919108670680586,2620.0170628410483,-1.1639327627641312,40765.848782704794,10.5,10500040765.848783,47.655,-122.3035,60.0,2.183333333333333
2026-01-20T23:02:12+00:00,SAT-56448,256.3549822440198,39.984200700276936,2618.856233898985,-1.1475265008829654,40191.232093207414,10.5,10500040191.232094,47.655,-122.3035,60.0,2.2
2026-01-20T23:02:13+00:00,SAT-56448,256.5419485139915,40.04889519364929,2617.7117674687715,-1.131097651891293,39615.824307556715,10.5,10500039615.824308,47.655,-122.3035,60.0,2.216666666666667
2026-01-20T23:02:14+00:00,SAT-56448,256.72950490349825,40.1131888146284,2616.583686077285,-1.1146465063658,39039.63560297738,10.5,10500039039.635603,47.655,-122.3035,60.0,2.2333333333333334
2026-01-20T23:02:15+00:00,SAT-56448,256.91764901970345,40.17707823526765,2615.472011961603,-1.0981733528909496,38462.67608691801,10.5,10500038462.676086,47.655,-122.3035,60.0,2.25
2026-01-20T23:02:16+00:00,SAT-56448,257.10637839765377,40.24056013616082,2614.3767670709863,-1.0816784769632632,37884.955758674434,10.5,10500037884.95576,47.655,-122.3035,60.0,2.2666666666666666
2026-01-20T23:02:17+00:00,SAT-56448,257.29569049903495,40.303631206709156,2613.2979730699617,-1.0651621814710497,37306.48522667646,10.5,10500037306.485228,47.655,-122.3035,60.0,2.283333333333333
2026-01-20T23:02:18+00:00,SAT-56448,257.48558271425884,40.36628814649143,2612.2356513209743,-1.0486247565488434,36727.27465266273,10.5,10500036727.274652,47.655,-122.3035,60.0,2.3
2026-01-20T23:02:19+00:00,SAT-56448,257.6760523597533,40.4285276650359,2611.1898228971095,-1.0320665019395816,36147.33453489883,10.5,10500036147.334536,47.655,-122.3035,60.0,2.316666666666667
2026-01-20T23:02:20+00:00,SAT-56448,257.86709667879313,40.490346482765624,2610.1605085725087,-1.0154877140106056,35566.67525342268,10.5,10500035566.675253,47.655,-122.3035,60.0,2.3333333333333335
2026-01-20T23:02:21+00:00,SAT-56448,258.0587128402882,40.55174133127713,2609.1477288257356,-0.9988886978833424,34985.30749487733,10.5,10500034985.307495,47.655,-122.3035,60.0,2.35
2026-01-20T23:02:22+00:00,SAT-56448,258.25089793964423,40.61270895427609,2608.1515038310467,-0.9822697538069165,34403.24177525714,10.5,10500034403.241776,47.655,-122.3035,60.0,2.3666666666666667
2026-01-20T23:02:23+00:00,SAT-56448,258.44364899727094,40.6732461077645,2607.1718534632496,-0.9656311870394652,33820.48878599336,10.5,10500033820.488787,47.655,-122.3035,60.0,2.3833333333333333
2026-01-20T23:02:24+00:00,SAT-56448,258.63696295879805,40.73334956077101,2606.208797292709,-0.9489733059844995,33237.059328681455,10.5,10500033237.059328,47.655,-122.3035,60.0,2.4
2026-01-20T23:02:25+00:00,SAT-56448,258.83083669512234,40.79301609601286,2605.262354582207,-0.9322964193631662,32652.964216041906,10.5,10500032652.964216,47.655,-122.3035,60.0,2.4166666666666665
2026-01-20T23:02:26+00:00,SAT-56448,259.0252670018369,40.85224251036876,2604.3325442866294,-0.9156008356836699,32068.214253337,10.5,10500032068.214252,47.655,-122.3035,60.0,2.433333333333333
2026-01-20T23:02:27+00:00,SAT-56448,259.2202505986287,40.911025615342986,2603.4193850531738,-0.898886868118146,31482.82040917965,10.5,10500031482.82041,47.655,-122.3035,60.0,2.45
2026-01-20T23:02:28+00:00,SAT-56448,259.4157841295958,40.969362237801136,2602.522895216704,-0.8821548295210939,30896.793641057797,10.5,10500030896.79364,47.655,-122.3035,60.0,2.466666666666667
2026-01-20T23:02:29+00:00,SAT-56448,259.6118641626769,41.02724922043844,2601.643092800062,-0.8654050382967725,30310.14510083543,10.5,10500030310.145102,47.655,-122.3035,60.0,2.4833333333333334
2026-01-20T23:02:30+00:00,SAT-56448,259.8084871901974,41.08468342256987,2600.7799955085334,-0.8486378095988668,29722.8858265277,10.5,10500029722.885826,47.655,-122.3035,60.0,2.5
2026-01-20T23:02:31+00:00,SAT-56448,260.0056496278123,41.141661720444226,2599.9336207330934,-0.8318534609656292,29135.026939667398,10.5,10500029135.02694,47.655,-122.3035,60.0,2.5166666666666666
2026-01-20T23:02:32+00:00,SAT-56448,260.203347814406,41.19818100784252,2599.103985548024,-0.8150523144894695,28546.579721293154,10.5,10500028546.579721,47.655,-122.3035,60.0,2.533333333333333
2026-01-20T23:02:33+00:00,SAT-56448,260.4015780126399,41.25423819685316,2598.291106706373,-0.7982346946204288,27957.55553501784,10.5,10500027957.555534,47.655,-122.3035,60.0,2.55
2026-01-20T23:02:34+00:00,SAT-56448,260.600336409051,41.30983021850434,2597.495000637605,-0.7814009202730189,27367.965550576653,10.5,10500027367.965551,47.655,-122.3035,60.0,2.566666666666667
2026-01-20T23:02:35+00:00,SAT-56448,260.79961911241077,41.36495402291035,2596.7156834531193,-0.764551320782289,26777.82130267612,10.5,10500026777.821302,47.655,-122.3035,60.0,2.5833333333333335
2026-01-20T23:02:36+00:00,SAT-56448,260.9994221556067,41.41960658039889,2595.953170935859,-0.7476862195157724,26187.13411701508,10.5,10500026187.134117,47.655,-122.3035,60.0,2.6
2026-01-20T23:02:37+00:00,SAT-56448,261.1997414940134,41.47378488165336,2595.2074785462623,-0.7308059479537146,25595.9156034339,10.5,10500025595.915604,47.655,-122.3035,60.0,2.6166666666666667
2026-01-20T23:02:38+00:00,SAT-56448,261.40057300693275,41.52748593869398,2594.4786214141695,-0.7139108332778377,25004.177221220474,10.5,10500025004.177221,47.655,-122.3035,60.0,2.6333333333333333
2026-01-20T23:02:39+00:00,SAT-56448,261.6019124963481,41.58070678512241,2593.766614343114,-0.6970012056942803,24411.930535590534,10.5,10500024411.930536,47.655,-122.3035,60.0,2.65
2026-01-20T23:02:40+00:00,SAT-56448,261.80375568718773,41.63344447677526,2593.0714718073014,-0.6800774039152546,23819.18740967851,10.5,10500023819.18741,47.655,-122.3035,60.0,2.6666666666666665
2026-01-20T23:02:41+00:00,SAT-56448,262.00609822945887,41.68569609284039,2592.3932079431297,-0.6631397536547449,23225.95925136589,10.5,10500023225.959251,47.655,-122.3035,60.0,2.683333333333333
2026-01-20T23:02:42+00:00,SAT-56448,262.2089356943458,41.737458735414336,2591.7318365621513,-0.6461885957503383,22632.257998226734,10.5,10500022632.257998,47.655,-122.3035,60.0,2.7
2026-01-20T23:02:43+00:00,SAT-56448,262.41226357816566,41.788729531073656,2591.08737113599,-0.6292242640429613,22038.095342782417,10.5,10500022038.095343,47.655,-122.3035,60.0,2.716666666666667
2026-01-20T23:02:44+00:00,SAT-56448,262.61607730022695,41.83950563087561,2590.459824803318,-0.6122470960606743,21443.483106693366,10.5,10500021443.483107,47.655,-122.3035,60.0,2.7333333333333334
2026-01-20T23:02:45+00:00,SAT-56448,262.8203722035567,41.889784211088816,2589.8492103661797,-0.5952574359155247,20848.43334221907,10.5,10500020848.433342,47.655,-122.3035,60.0,2.75
2026-01-20T23:02:46+00:00,SAT-56448,263.02514355683695,41.93956247419702,2589.255540283427,-0.5782556135666564,20252.957605924472,10.5,10500020252.957605,47.655,-122.3035,60.0,2.7666666666666666
2026-01-20T23:02:47+00:00,SAT-56448,263.23038654985476,41.98883764832129,2588.67882668483,-0.5612419818278557,19657.068254840768,10.5,10500019657.068254,47.655,-122.3035,60.0,2.783333333333333
2026-01-20T23:02:48+00:00,SAT-56448,263.4360963004977,42.03760698943058,2588.1190813482863,-0.5442168777016838,19060.77709222318,10.5,10500019060.777092,47.655,-122.3035,60.0,2.8
2026-01-20T23:02:49+00:00,SAT-56448,263.64226784970435,42.0858677806347,2587.5763157155925,-0.527180642198523,18464.096061697765,10.5,10500018464.096062,47.655,-122.3035,60.0,2.816666666666667
2026-01-20T23:02:50+00:00,SAT-56448,263.8488961626212,42.13361733297662,2587.050540888439,-0.5101336265836144,17867.037466059108,10.5,10500017867.037466,47.655,-122.3035,60.0,2.8333333333333335
2026-01-20T23:02:51+00:00,SAT-56448,264.0559761320153,42.180852986717206,2586.5417676181933,-0.4930761729142729,17269.613285601285,10.5,10500017269.613285,47.655,-122.3035,60.0,2.85
2026-01-20T23:02:52+00:00,SAT-56448,264.26350257519243,42.227572111107435,2586.0500063150735,-0.4760086282685168,16671.835676464638,10.5,10500016671.835676,47.655,-122.3035,60.0,2.8666666666666667
2026-01-20T23:02:53+00:00,SAT-56448,264.47147023566475,42.27377210525339,2585.575267043147,-0.45893134049025136,16073.716821614104,10.5,10500016073.716822,47.655,-122.3035,60.0,2.8833333333333333
2026-01-20T23:02:54+00:00,SAT-56448,264.6798737835296,42.319450398675095,2585.1175595195646,-0.4418446599197575,15475.268991448258,10.5,10500015475.268991,47.655,-122.3035,60.0,2.9
2026-01-20T23:02:55+00:00,SAT-56448,264.8887078164857,42.36460445198766,2584.676893112072,-0.4247489336025274,14876.504340968238,10.5,10500014876.504341,47.655,-122.3035,60.0,2.9166666666666665
2026-01-20T23:02:56+00:00,SAT-56448,265.09796685863887,42.40923175709969,2584.253276842292,-0.40764451741487984,14277.435334468082,10.5,10500014277.435335,47.655,-122.3035,60.0,2.933333333333333
2026-01-20T23:02:57+00:00,SAT-56448,265.3076453642873,42.453329838466836,2583.8467193769234,-0.39053175609753027,13678.074046225898,10.5,10500013678.074047,47.655,-122.3035,60.0,2.95
2026-01-20T23:02:58+00:00,SAT-56448,265.5177377133323,42.4968962525568,2583.4572290388423,-0.37341100671552346,13078.43298216994,10.5,10500013078.432981,47.655,-122.3035,60.0,2.966666666666667
2026-01-20T23:02:59+00:00,SAT-56448,265.72823821676303,42.53992858943469,2583.0848137948115,-0.35628262105299274,12478.524463268599,10.5,10500012478.524464,47.655,-122.3035,60.0,2.9833333333333334
2026-01-20T23:03:00+00:00,SAT-56448,265.93914111465773,42.582424472758184,2582.7294812607474,-0.339146953564258,11878.360904011497,10.5,10500011878.360905,47.655,-122.3035,60.0,3.0
2026-01-20T23:03:01+00:00,SAT-56448,266.15044057755546,42.62438156046855,2582.39123869906,-0.3220043580028041,11277.954694342052,10.5,10500011277.954695,47.655,-122.3035,60.0,3.0166666666666666
2026-01-20T23:03:02+00:00,SAT-56448,266.3621307064982,42.66579754520189,2582.0700930193448,-0.3048551898881795,10677.3182860587,10.5,10500010677.318287,47.655,-122.3035,60.0,3.033333333333333
2026-01-20T23:03:03+00:00,SAT-56448,266.574205534096,42.706670154893224,2581.7660507766295,-0.2876998061151755,10076.46417912669,10.5,10500010076.46418,47.655,-122.3035,60.0,3.05
2026-01-20T23:03:04+00:00,SAT-56448,266.78665902574005,42.7469971533929,2581.479118169998,-0.2705385626485411,9475.404840937263,10.5,10500009475.40484,47.655,-122.3035,60.0,3.066666666666667
2026-01-20T23:03:05+00:00,SAT-56448,266.9994850794243,42.78677634080152,2581.209301043516,-0.25337181579099144,8874.152750718666,10.5,10500008874.15275,47.655,-122.3035,60.0,3.0833333333333335
2026-01-20T23:03:06+00:00,SAT-56448,267.2126775262788,42.82600555394119,2580.9566048859006,-0.23619992542768303,8272.720513171389,10.5,10500008272.720512,47.655,-122.3035,60.0,3.1
2026-01-20T23:03:07+00:00,SAT-56448,267.4262301332215,42.86468266720099,2580.721034826941,-0.21902324781050897,7671.120605743672,10.5,10500007671.120605,47.655,-122.3035,60.0,3.1166666666666667
2026-01-20T23:03:08+00:00,SAT-56448,267.64013660114153,42.90280559254428,2580.5025956411246,-0.20184214237332648,7069.365617329599,10.5,10500007069.365618,47.655,-122.3035,60.0,3.1333333333333333
2026-01-20T23:03:09+00:00,SAT-56448,267.85439056741325,42.94037228030432,2580.301291744464,-0.18465696934586492,6467.468164698065,10.5,10500006467.468164,47.655,-122.3035,60.0,3.15
2026-01-20T23:03:10+00:00,SAT-56448,268.0689856072929,42.97738071975031,2580.1171271937033,-0.16746808722380774,5865.440803884337,10.5,10500005865.440804,47.655,-122.3035,60.0,3.1666666666666665
2026-01-20T23:03:11+00:00,SAT-56448,268.28391523296796,43.01382893923322,2579.9501056880454,-0.15027585631667487,5263.29615445191,10.5,10500005263.296154,47.655,-122.3035,60.0,3.183333333333333
2026-01-20T23:03:12+00:00,SAT-56448,268.4991728957383,43.04971500687199,2579.8002305673454,-0.13308063581742724,4661.046796857665,10.5,10500004661.046797,47.655,-122.3035,60.0,3.2
2026-01-20T23:03:13+00:00,SAT-56448,268.7147519852969,43.08503703073184,2579.667504813224,-0.11588278830122847,4058.7054300175187,10.5,10500004058.70543,47.655,-122.3035,60.0,3.216666666666667
2026-01-20T23:03:14+00:00,SAT-56448,268.93064583404595,43.11979315982405,2579.551931045691,-0.09868267366644863,3456.284659094762,10.5,10500003456.284658,47.655,-122.3035,60.0,3.2333333333333334
2026-01-20T23:03:15+00:00,SAT-56448,269.1468477149182,43.15398158401802,2579.453511525821,-0.0814806531592566,2853.797136458297,10.5,10500002853.797136,47.655,-122.3035,60.0,3.25
2026-01-20T23:03:16+00:00,SAT-56448,269.36335084386855,43.18760053470993,2579.3722481544037,-0.0642770877498579,2251.255504811625,10.5,10500002251.255505,47.655,-122.3035,60.0,3.2666666666666666
2026-01-20T23:03:17+00:00,SAT-56448,269.5801483798152,43.22064828507295,2579.308142472221,-0.04707233974456787,1648.6724536544634,10.5,10500001648.672453,47.655,-122.3035,60.0,3.283333333333333
2026-01-20T23:03:18+00:00,SAT-56448,269.7972334279417,43.253123150809834,2579.261195658716,-0.0298667698625315,1046.0606168971094,10.5,10500001046.060617,47.655,-122.3035,60.0,3.3
2026-01-20T23:03:19+00:00,SAT-56448,270.01459903761076,43.285023490069214,2579.231408533573,-0.012660740159003536,443.4326752460768,10.5,10500000443.432674,47.655,-122.3035,60.0,3.316666666666667
2026-01-20T23:03:20+00:00,SAT-56448,270.2322382058991,43.316347704206734,2579.2187815553875,0.004545387396650408,-159.1986936003216,10.5,10499999840.801306,47.655,-122.3035,60.0,3.3333333333333335
2026-01-20T23:03:21+00:00,SAT-56448,270.4501438784049,43.347094238109435,2579.2233148217515,0.021751251450518858,-761.8208334995805,10.5,10499999238.179167,47.655,-122.3035,60.0,3.35
2026-01-20T23:03:22+00:00,SAT-56448,270.6683089490419,43.377261580374686,2579.2450080698645,0.038956489857392154,-1364.4210605945852,10.5,10499998635.57894,47.655,-122.3035,60.0,3.3666666666666667
2026-01-20T23:03:23+00:00,SAT-56448,270.88672626411375,43.40684826407162,2579.283860675749,0.05616074139600418,-1966.9867233886316,10.5,10499998033.013277,47.655,-122.3035,60.0,3.3833333333333333
2026-01-20T23:03:24+00:00,SAT-56448,271.1053886183702,43.4358528663894,2579.339871655168,0.07336364412240033,-2569.5051450734077,10.5,10499997430.494854,47.655,-122.3035,60.0,3.4
2026-01-20T23:03:25+00:00,SAT-56448,271.3242887629087,43.46427400988074,2579.413039662906,0.09056483671976916,-3171.9636708058083,10.5,10499996828.03633,47.655,-122.3035,60.0,3.4166666666666665
2026-01-20T23:03:26+00:00,SAT-56448,271.5434194005258,43.49211036200075,2579.5033629933946,0.10776395794702397,-3774.3496483949298,10.5,10499996225.650352,47.655,-122.3035,60.0,3.433333333333333
2026-01-20T23:03:27+00:00,SAT-56448,271.76277319119987,43.51936063597799,2579.610839580787,0.12496064658798087,-4376.650426522067,10.5,10499995623.349573,47.655,-122.3035,60.0,3.45
2026-01-20T23:03:28+00:00,SAT-56448,271.9823427503163,43.54602359072959,2579.735466998984,0.14215454178068512,-4978.853366275124,10.5,10499995021.146633,47.655,-122.3035,60.0,3.466666666666667
2026-01-20T23:03:29+00:00,SAT-56448,272.20212065192476,43.57209803140354,2579.877242461987,0.15934528329591555,-5580.945850903005,10.5,10499994419.05415,47.655,-122.3035,60.0,3.4833333333333334
2026-01-20T23:03:30+00:00,SAT-56448,272.4220994300519,43.597582809653765,2580.0361628245273,0.17653251033270384,-6182.915243629613,10.5,10499993817.084757,47.655,-122.3035,60.0,3.5
2026-01-20T23:03:31+00:00,SAT-56448,272.6422715783701,43.622476823716475,2580.212224581499,0.19371586349937503,-6784.748957038265,10.5,10499993215.251043,47.655,-122.3035,60.0,3.5166666666666666
2026-01-20T23:03:32+00:00,SAT-56448,272.8626295536516,43.64677901891396,2580.4054238693625,0.21089498264700668,-7386.43437719027,10.5,10499992613.565622,47.655,-122.3035,60.0,3.533333333333333
2026-01-20T23:03:33+00:00,SAT-56448,273.08316577547555,43.67048838771471,2580.615756465389,0.22806950936529632,-7987.95895104076,10.5,10499992012.041048,47.655,-122.3035,60.0,3.55
2026-01-20T23:03:34+00:00,SAT-56448,273.30387262913735,43.69360397013245,2580.843217789396,0.245239084394706,-8589.310095801053,10.5,10499991410.689903,47.655,-122.3035,60.0,3.566666666666667
2026-01-20T23:03:35+00:00,SAT-56448,273.5247424657851,43.71612485381573,2581.0878029028986,0.2624033494870554,-9190.475264104482,10.5,10499990809.524736,47.655,-122.3035,60.0,3.5833333333333335
2026-01-20T23:03:36+00:00,SAT-56448,273.7457676041997,43.73805017429821,2581.3495065101206,0.2795619478613943,-9791.441959972992,10.5,10499990208.55804,47.655,-122.3035,60.0,3.6
2026-01-20T23:03:37+00:00,SAT-56448,273.966940333664,43.759379115340714,2581.628322959454,0.29671452180520613,-10392.197654801123,10.5,10499989607.802345,47.655,-122.3035,60.0,3.6166666666666667
2026-01-20T23:03:38+00:00,SAT-56448,274.1882529132648,43.78011090889805,2581.924246242535,0.3138607140765854,-10992.729836466222,10.5,10499989007.270163,47.655,-122.3035,60.0,3.6333333333333333
2026-01-20T23:03:39+00:00,SAT-56448,274.40969757402775,43.800244835369845,2582.2372699947073,0.3310001702100314,-11593.026090087062,10.5,10499988406.97391,47.655,-122.3035,60.0,3.65
2026-01-20T23:03:40+00:00,SAT-56448,274.63126652191045,43.81978022389697,2582.5673874977965,0.3481325337971193,-12193.073932733,10.5,10499987806.926067,47.655,-122.3035,60.0,3.6666666666666665
2026-01-20T23:03:41+00:00,SAT-56448,274.85295193724795,43.838716452321194,2582.9145916781704,0.36525745161748663,-12792.860993132823,10.5,10499987207.139008,47.655,-122.3035,60.0,3.683333333333333
2026-01-20T23:03:42+00:00,SAT-56448,275.0747459781845,43.85705294749144,2583.278875109917,0.38237456855511154,-13392.374833621301,10.5,10499986607.625166,47.655,-122.3035,60.0,3.7
2026-01-20T23:03:43+00:00,SAT-56448,275.29664078030885,43.87478918522489,2583.6602300129557,0.3994835312173451,-13991.603076893027,10.5,10499986008.396923,47.655,-122.3035,60.0,3.716666666666667
2026-01-20T23:03:44+00:00,SAT-56448,275.51862845896704,43.89192469048838,2584.058648254757,0.41658398939502717,-14590.533457141824,10.5,10499985409.466543,47.655,-122.3035,60.0,3.7333333333333334
2026-01-20T23:03:45+00:00,SAT-56448,275.74070111239047,43.90845903761553,2584.474121353513,0.43367559125066146,-15189.153651530303,10.5,10499984810.846348,47.655,-122.3035,60.0,3.75
2026-01-20T23:03:46+00:00,SAT-56448,275.9628508215193,43.92439185024993,2584.906640476521,0.45075798429470576,-15787.451314383667,10.5,10499984212.548685,47.655,-122.3035,60.0,3.7666666666666666
2026-01-20T23:03:47+00:00,SAT-56448,276.18506965082446,43.93972280136847,2585.3561964395235,0.46783081976744245,-16385.41423066135,10.5,10499983614.58577,47.655,-122.3035,60.0,3.783333333333333
2026-01-20T23:03:48+00:00,SAT-56448,276.4073496516228,43.95445161347038,2585.8227797104387,0.48489375120529127,-16983.030265743237,10.5,10499983016.969734,47.655,-122.3035,60.0,3.8
2026-01-20T23:03:49+00:00,SAT-56448,276.62968286427326,43.96857805865117,2586.306380411641,0.501946426847497,-17580.28709947973,10.5,10499982419.7129,47.655,-122.3035,60.0,3.816666666666667
2026-01-20T23:03:50+00:00,SAT-56448,276.85206131648135,43.98210195842089,2586.806988314683,0.5189885040380617,-18177.172730608345,10.5,10499981822.827269,47.655,-122.3035,60.0,3.8333333333333335
2026-01-20T23:03:51+00:00,SAT-56448,277.07447702918387,43.995023183998796,2587.324592849377,0.5360196336381361,-18773.674930809728,10.5,10499981226.32507,47.655,-122.3035,60.0,3.85
2026-01-20T23:03:52+00:00,SAT-56448,277.296922014268,44.00734165607297,2587.8591830973255,0.5530394747089965,-19369.781758967612,10.5,10499980630.21824,47.655,-122.3035,60.0,3.8666666666666667
2026-01-20T23:03:53+00:00,SAT-56448,277.51938827969747,44.019057345000924,2588.410747800102,0.570047679959681,-19965.481051483457,10.5,10499980034.518948,47.655,-122.3035,60.0,3.8833333333333333
2026-01-20T23:03:54+00:00,SAT-56448,277.74186782762416,44.0301702705899,2588.9792753529155,0.5870439085836033,-20560.760871869013,10.5,10499979439.239128,47.655,-122.3035,60.0,3.9
2026-01-20T23:03:55+00:00,SAT-56448,277.96435265856053,44.04068050220477,2589.5647538110757,0.6040278203621873,-21155.609304230617,10.5,10499978844.390696,47.655,-122.3035,60.0,3.9166666666666665
2026-01-20T23:03:56+00:00,SAT-56448,278.1868347725815,44.05058815869085,2590.1671708905837,0.6209990738307022,-21750.014389029002,10.5,10499978249.985611,47.655,-122.3035,60.0,3.933333333333333
2026-01-20T23:03:57+00:00,SAT-56448,278.40930617001516,44.05989340826744,2590.7865139668843,0.6379573301122722,-22343.96425736253,10.5,10499977656.035742,47.655,-122.3035,60.0,3.95
2026-01-20T23:03:58+00:00,SAT-56448,278.63175885362256,44.06859646848277,2591.4227700774495,0.6549022531765605,-22937.447140027405,10.5,10499977062.55286,47.655,-122.3035,60.0,3.966666666666667
2026-01-20T23:03:59+00:00,SAT-56448,278.85418483081753,44.076697606146574,2592.075925924618,0.6718335046945523,-23530.451187310384,10.5,10499976469.548813,47.655,-122.3035,60.0,3.9833333333333334
2026-01-20T23:04:00+00:00,SAT-56448,279.076576113922,44.08419713717495,2592.7459678732994,0.688750752339308,-24122.964759716317,10.5,10499975877.03524,47.655,-122.3035,60.0,4.0
2026-01-20T23:04:01+00:00,SAT-56448,279.2989247235387,44.091095426540605,2593.432881956966,0.7056536592576831,-24714.976059223187,10.5,10499975285.023941,47.655,-122.3035,60.0,4.016666666666667
2026-01-20T23:04:02+00:00,SAT-56448,279.52122268802145,44.0973928880707,2594.1366538731327,0.7225418953441667,-25306.47352413966,10.5,10499974693.526476,47.655,-122.3035,60.0,4.033333333333333
2026-01-20T23:04:03+00:00,SAT-56448,279.7434620470425,44.10308998437183,2594.8572689900893,0.739415129251159,-25897.445549271186,10.5,10499974102.554451,47.655,-122.3035,60.0,4.05
2026-01-20T23:04:04+00:00,SAT-56448,279.9656348521981,44.108187226642244,2595.594712345662,0.7562730321274355,-26487.88061685685,10.5,10499973512.119383,47.655,-122.3035,60.0,4.066666666666666
2026-01-20T23:04:05+00:00,SAT-56448,280.1877331690362,44.11268517451763,2596.348968649704,0.7731152742425517,-27077.76717834173,10.5,10499972922.232822,47.655,-122.3035,60.0,4.083333333333333
2026-01-20T23:04:06+00:00,SAT-56448,280.4097490778294,44.116584435872674,2597.120022283215,0.7899415309177672,-27667.09386210295,10.5,10499972332.906137,47.655,-122.3035,60.0,4.1
2026-01-20T23:04:07+00:00,SAT-56448,280.631674676358,44.119885666655705,2597.907857303384,0.8067514766449277,-28255.849267468035,10.5,10499971744.150732,47.655,-122.3035,60.0,4.116666666666666
2026-01-20T23:04:08+00:00,SAT-56448,280.85350208068417,44.12258957066542,2598.7124574427576,0.8235447886775442,-28844.022090489732,10.5,10499971155.97791,47.655,-122.3035,60.0,4.133333333333334
2026-01-20T23:04:09+00:00,SAT-56448,281.07522342712457,44.12469689934082,2599.5338061119987,0.8403211438920294,-29431.601014013195,10.5,10499970568.398987,47.655,-122.3035,60.0,4.15
2026-01-20T23:04:10+00:00,SAT-56448,281.29683087321007,44.126208451523816,2600.3718863995073,0.8570802212739076,-30018.574794753607,10.5,10499969981.425205,47.655,-122.3035,60.0,4.166666666666667
2026-01-20T23:04:11+00:00,SAT-56448,281.5183165994452,44.1271250732242,2601.226681073524,0.873821707201776,-30604.932448362822,10.5,10499969395.067553,47.655,-122.3035,60.0,4.183333333333334
2026-01-20T23:04:12+00:00,SAT-56448,281.7396728123582,44.12744765737006,2602.098172589507,0.8905452776281035,-31190.662625325578,10.5,10499968809.337374,47.655,-122.3035,60.0,4.2
2026-01-20T23:04:13+00:00,SAT-56448,281.96089174277336,44.12717714352799,2602.986343079728,0.9072506237870197,-31775.754511355008,10.5,10499968224.24549,47.655,-122.3035,60.0,4.216666666666667
2026-01-20T23:04:14+00:00,SAT-56448,282.18196565095366,44.12631451763644,2603.891174368518,0.9239374246874266,-32360.19686398508,10.5,10499967639.803137,47.655,-122.3035,60.0,4.233333333333333
2026-01-20T23:04:15+00:00,SAT-56448,282.4028868244639,44.124860811717696,2604.812647960073,0.9406053798769123,-32943.979160101415,10.5,10499967056.02084,47.655,-122.3035,60.0,4.25
2026-01-20T23:04:16+00:00,SAT-56448,282.6236475844293,44.12281710355862,2605.750745058937,0.9572541670496143,-33527.09011118936,10.5,10499966472.90989,47.655,-122.3035,60.0,4.266666666666667
2026-01-20T23:04:17+00:00,SAT-56448,282.8442402810813,44.12018451643026,2606.705446548208,0.9738834840500774,-34109.51913448674,10.5,10499965890.480865,47.655,-122.3035,60.0,4.283333333333333
2026-01-20T23:04:18+00:00,SAT-56448,283.0646572997704,44.11696421873815,2607.6767330096336,0.9904930268653007,-34691.255582172314,10.5,10499965308.744417,47.655,-122.3035,60.0,4.3
2026-01-20T23:04:19+00:00,SAT-56448,283.28489106148265,44.11315742368632,2608.664584721761,1.007082481893195,-35272.288470574356,10.5,10499964727.711529,47.655,-122.3035,60.0,4.316666666666666
2026-01-20T23:04:20+00:00,SAT-56448,283.5049340215325,44.10876538897474,2609.6689816503686,1.0236515569866749,-35852.60756746618,10.5,10499964147.392433,47.655,-122.3035,60.0,4.333333333333333
2026-01-20T23:04:21+00:00,SAT-56448,283.7247786755936,44.10378941637145,2610.6899034698704,1.0401999446377137,-36432.20210261592,10.5,10499963567.797897,47.655,-122.3035,60.0,4.35
2026-01-20T23:04:22+00:00,SAT-56448,283.9444175570253,44.09823085141252,2611.7273295479886,1.05672734833057,-37011.06169078804,10.5,10499962988.938309,47.655,-122.3035,60.0,4.366666666666666
2026-01-20T23:04:23+00:00,SAT-56448,284.1638432403673,44.09209108298909,2612.781238956724,1.0732334692259209,-37589.175865365396,10.5,10499962410.824135,47.655,-122.3035,60.0,4.383333333333334
2026-01-20T23:04:24+00:00,SAT-56448,284.38304834169577,44.08537154298209,2613.851610470032,1.0897180120811158,-38166.53428570147,10.5,10499961833.465714,47.655,-122.3035,60.0,4.4
2026-01-20T23:04:25+00:00,SAT-56448,284.6020255203594,44.07807370585907,2614.938422567414,1.106180685498694,-38743.126745824564,10.5,10499961256.873255,47.655,-122.3035,60.0,4.416666666666667
2026-01-20T23:04:26+00:00,SAT-56448,284.8207674806222,44.07019908825492,2616.0416534377514,1.1226211982921062,-39318.943047150016,10.5,10499960681.056953,47.655,-122.3035,60.0,4.433333333333334
2026-01-20T23:04:27+00:00,SAT-56448,285.03926697259294,44.061749248567274,2617.161280979515,1.1390392594008423,-39893.97299550758,10.5,10499960106.027004,47.655,-122.3035,60.0,4.45
2026-01-20T23:04:28+00:00,SAT-56448,285.2575167930801,44.052725786547775,2618.2972828008906,1.1554345796143108,-40468.206461519,10.5,10499959531.79354,47.655,-122.3035,60.0,4.466666666666667
2026-01-20T23:04:29+00:00,SAT-56448,285.47550978684353,44.04313034287409,2619.449636221626,1.1718068834504622,-41041.63379663759,10.5,10499958958.366203,47.655,-122.3035,60.0,4.483333333333333
2026-01-20T23:04:30+00:00,SAT-56448,285.69323885007435,44.03296459860943,2620.6183182867208,1.1881558762465243,-41614.24468052663,10.5,10499958385.75532,47.655,-122.3035,60.0,4.5
2026-01-20T23:04:31+00:00,SAT-56448,285.9106969274171,44.02223027493014,2621.803305747297,1.2044812837833727,-42186.029508872474,10.5,10499957813.970491,47.655,-122.3035,60.0,4.516666666666667
2026-01-20T23:04:32+00:00,SAT-56448,286.127877016712,44.01092913251277,2623.0045750809904,1.2207828211138723,-42756.97830162111,10.5,10499957243.021698,47.655,-122.3035,60.0,4.533333333333333
2026-01-20T23:04:33+00:00,SAT-56448,286.3447721677219,43.99906297118372,2624.222102481248,1.2370602205896728,-43327.08168459516,10.5,10499956672.918316,47.655,-122.3035,60.0,4.55
2026-01-20T23:04:34+00:00,SAT-56448,286.5613754860375,43.98663362930043,2625.4558638745825,1.2533132015027,-43896.32982621047,10.5,10499956103.670174,47.655,-122.3035,60.0,4.566666666666666
2026-01-20T23:04:35+00:00,SAT-56448,286.77768013136784,43.973642983414884,2626.7058349075483,1.269541489166268,-44464.71310577737,10.5,10499955535.286894,47.655,-122.3035,60.0,4.583333333333333
2026-01-20T23:04:36+00:00,SAT-56448,286.9936793193493,43.960092947753296,2627.971990952743,1.2857448206594861,-45032.22231469413,10.5,10499954967.777685,47.655,-122.3035,60.0,4.6
2026-01-20T23:04:37+00:00,SAT-56448,287.2093663242854,43.945985473616716,2629.2543071205478,1.301922919289217,-45598.84776199666,10.5,10499954401.152239,47.655,-122.3035,60.0,4.616666666666666
2026-01-20T23:04:38+00:00,SAT-56448,287.42473447732675,43.931322549051245,2630.552758245385,1.3180755277808915,-46164.58043684127,10.5,10499953835.419563,47.655,-122.3035,60.0,4.633333333333334
2026-01-20T23:04:39+00:00,SAT-56448,287.63977717050193,43.9161061981489,2631.8673189050924,1.334202374757351,-46729.41083445196,10.5,10499953270.589165,47.655,-122.3035,60.0,4.65
2026-01-20T23:04:40+00:00,SAT-56448,287.8544878548154,43.900338480717416,2633.1979634068502,1.3503032031300353,-47293.32995049985,10.5,10499952706.67005,47.655,-122.3035,60.0,4.666666666666667
2026-01-20T23:04:41+00:00,SAT-56448,288.0688600433005,43.884021491621134,2634.5446658014384,1.3663777537129607,-47856.32870719545,10.5,10499952143.671293,47.655,-122.3035,60.0,4.683333333333334
2026-01-20T23:04:42+00:00,SAT-56448,288.2828873111357,43.867157360303686,2635.907399881142,1.3824257649096579,-48418.39794232384,10.5,10499951581.602058,47.655,-122.3035,60.0,4.7
2026-01-20T23:04:43+00:00,SAT-56448,288.49656329580887,43.84974825031538,2637.286139177345,1.398446990119698,-48979.5290188949,10.5,10499951020.470982,47.655,-122.3035,60.0,4.716666666666667
2026-01-20T23:04:44+00:00,SAT-56448,288.7098817000009,43.83179635861624,2638.6808569754908,1.4144411688072662,-49539.7128118423,10.5,10499950460.287188,47.655,-122.3035,60.0,4.733333333333333
2026-01-20T23:04:45+00:00,SAT-56448,288.92283628983694,43.81330391523904,2640.0915263011816,1.4304080567194009,-50098.94076639415,10.5,10499949901.059233,47.655,-122.3035,60.0,4.75
2026-01-20T23:04:46+00:00,SAT-56448,289.135420897882,43.79427318256362,2641.5181199364165,1.4463474025338026,-50657.204080180454,10.5,10499949342.79592,47.655,-122.3035,60.0,4.766666666666667
2026-01-20T23:04:47+00:00,SAT-56448,289.34762942247,43.77470645488713,2642.9606104125432,1.462258960688336,-51214.49415257647,10.5,10499948785.505848,47.655,-122.3035,60.0,4.783333333333333
2026-01-20T23:04:48+00:00,SAT-56448,289.5594558289564,43.754606057825676,2644.418970016003,1.4781424930606943,-51770.80264353177,10.5,10499948229.197357,47.655,-122.3035,60.0,4.8
2026-01-20T23:04:49+00:00,SAT-56448,289.7708941512324,43.73397434768166,2645.893170795749,1.4939977501429231,-52326.1208142224,10.5,10499947673.879187,47.655,-122.3035,60.0,4.816666666666666
2026-01-20T23:04:50+00:00,SAT-56448,289.98193849032646,43.7128137110736,2647.383184551891,1.5098245022745755,-52880.440620968,10.5,10499947119.55938,47.655,-122.3035,60.0,4.833333333333333
2026-01-20T23:04:51+00:00,SAT-56448,290.1925830176933,43.69112656412341,2648.8889828554934,1.52562250581052,-53433.753530285474,10.5,10499946566.24647,47.655,-122.3035,60.0,4.85
2026-01-20T23:04:52+00:00,SAT-56448,290.4028219734222,43.66891535211981,2650.4105370346215,1.5413915386795547,-53986.05176430197,10.5,10499946013.948236,47.655,-122.3035,60.0,4.866666666666666
2026-01-20T23:04:53+00:00,SAT-56448,290.61264966961016,43.64618254866649,2651.947818195865,1.557131352798266,-54537.326634086945,10.5,10499945462.673367,47.655,-122.3035,60.0,4.883333333333334
2026-01-20T23:04:54+00:00,SAT-56448,290.82206048691717,43.622930655524826,2653.5007971983887,1.5728417335642493,-55087.57062335644,10.5,10499944912.429377,47.655,-122.3035,60.0,4.9
2026-01-20T23:04:55+00:00,SAT-56448,291.0310488794866,43.599162201576796,2655.0694446873304,1.588522448025318,-55636.775573139465,10.5,10499944363.224426,47.655,-122.3035,60.0,4.916666666666667
2026-01-20T23:04:56+00:00,SAT-56448,291.23960937256555,43.57487974255412,2656.6537310754943,1.6041732734079106,-56184.933680963586,10.5,10499943815.066319,47.655,-122.3035,60.0,4.933333333333334
2026-01-20T23:04:57+00:00,SAT-56448,291.4477365640675,43.5500858603399,2658.2536265535064,1.6197939908776766,-56732.03728232417,10.5,10499943267.962717,47.655,-122.3035,60.0,4.95
2026-01-20T23:04:58+00:00,SAT-56448,291.6554251252472,43.52478316236102,2659.8691010937414,1.635384370207504,-57278.078313693906,10.5,10499942721.921686,47.655,-122.3035,60.0,4.966666666666667
2026-01-20T23:04:59+00:00,SAT-56448,291.86266979930474,43.49897428122148,2661.500124438962,1.6509442112009858,-57823.049763347786,10.5,10499942176.950237,47.655,-122.3035,60.0,4.983333333333333
2026-01-20T23:05:00+00:00,SAT-56448,292.06946540543174,43.47266187368128,2663.1466661322665,1.6664732899420829,-58366.94378879895,10.5,10499941633.056211,47.655,-122.3035,60.0,5.0
2026-01-20T23:05:01+00:00,SAT-56448,292.27580683574666,43.445848620481584,2664.8086954934356,1.6819713931116458,-58909.75291870845,10.5,10499941090.247082,47.655,-122.3035,60.0,5.016666666666667
2026-01-20T23:05:02+00:00,SAT-56448,292.4816890567503,43.418537225631226,2666.4861816294983,1.6974383184077135,-59451.47006760588,10.5,10499940548.529932,47.655,-122.3035,60.0,5.033333333333333
2026-01-20T23:05:03+00:00,SAT-56448,292.6871071107109,43.39073041567842,2668.179093445724,1.7128738474401204,-59992.08758654384,10.5,10499940007.912413,47.655,-122.3035,60.0,5.05
2026-01-20T23:05:04+00:00,SAT-56448,292.89205611366697,43.3624309394264,2669.887399629571,1.7282777901453459,-60531.59881869388,10.5,10499939468.401182,47.655,-122.3035,60.0,5.066666666666666
2026-01-20T23:05:05+00:00,SAT-56448,293.0965312588862,43.33364156691905,2671.6110686789425,1.743649932979099,-61069.99628483162,10.5,10499938930.003716,47.655,-122.3035,60.0,5.083333333333333
2026-01-20T23:05:06+00:00,SAT-56448,293.3005278139366,43.30436508928225,2673.350068878767,1.758990083715892,-61607.273252407394,10.5,10499938392.726748,47.655,-122.3035,60.0,5.1
2026-01-20T23:05:07+00:00,SAT-56448,293.50404112318995,43.27460431782322,2675.1043683222597,1.7742980409644944,-62143.422667848405,10.5,10499937856.577332,47.655,-122.3035,60.0,5.116666666666666
2026-01-20T23:05:08+00:00,SAT-56448,293.7070666066341,43.24436208363804,2676.873934901782,1.7895736131021662,-62678.43781971575,10.5,10499937321.56218,47.655,-122.3035,60.0,5.133333333333334
2026-01-20T23:05:09+00:00,SAT-56448,293.90959976089346,43.21364123690313,2678.658736318582,1.804816600499675,-63212.31171614928,10.5,10499936787.688284,47.655,-122.3035,60.0,5.15
2026-01-20T23:05:10+00:00,SAT-56448,294.1116361581669,43.18244464647122,2680.4587400748137,1.8200268288417059,-63745.03825188928,10.5,10499936254.961748,47.655,-122.3035,60.0,5.166666666666667
2026-01-20T23:05:11+00:00,SAT-56448,294.31317144897116,43.15077519889184,2682.2739134987787,1.8352040942066012,-64276.61028473676,10.5,10499935723.389715,47.655,-122.3035,60.0,5.183333333333334
2026-01-20T23:05:12+00:00,SAT-56448,294.51420135856046,43.11863579838634,2684.1042237154006,1.8503482258904562,-64807.021835918866,10.5,10499935192.978165,47.655,-122.3035,60.0,5.2
2026-01-20T23:05:13+00:00,SAT-56448,294.7147216904806,43.086029365732955,2685.9496376793554,1.8654590309847352,-65336.26614896269,10.5,10499934663.73385,47.655,-122.3035,60.0,5.216666666666667
2026-01-20T23:05:14+00:00,SAT-56448,294.9147283238547,43.052958838119174,2687.810122152924,1.8805363344402548,-65864.33709290538,10.5,10499934135.662907,47.655,-122.3035,60.0,5.233333333333333
2026-01-20T23:05:15+00:00,SAT-56448,295.11421721510396,43.01942716829786,2689.6856437238057,1.8955799640813047,-66391.22863742523,10.5,10499933608.771362,47.655,-122.3035,60.0,5.25
2026-01-20T23:05:16+00:00,SAT-56448,295.3131843979854,42.98543732400215,2691.576168807983,1.9105897356558583,-66916.9343292369,10.5,10499933083.06567,47.655,-122.3035,60.0,5.266666666666667
2026-01-20T23:05:17+00:00,SAT-56448,295.51162598197595,42.950992287636524,2693.4816636376772,1.925565481874738,-67441.44830916577,10.5,10499932558.551691,47.655,-122.3035,60.0,5.283333333333333
2026-01-20T23:05:18+00:00,SAT-56448,295.70953815380733,42.91609505544777,2695.402094278267,1.940507039704092,-67964.7648670767,10.5,10499932035.235132,47.655,-122.3035,60.0,5.3
2026-01-20T23:05:19+00:00,SAT-56448,295.90691717754225,42.88074863692535,2697.337426632532,1.9554142256623535,-68486.8775766691,10.5,10499931513.122423,47.655,-122.3035,60.0,5.316666666666666
2026-01-20T23:05:20+00:00,SAT-56448,296.10375939210405,42.844956054656265,2699.287626420259,1.9702868965580953,-69007.78142277348,10.5,10499930992.218576,47.655,-122.3035,60.0,5.333333333333333
2026-01-20T23:05:21+00:00,SAT-56448,296.30006121506773,42.80872034307445,2701.2526592184263,1.985124865324259,-69527.46985351019,10.5,10499930472.530146,47.655,-122.3035,60.0,5.35
2026-01-20T23:05:22+00:00,SAT-56448,296.49581913777524,42.77204454875451,2703.2324904174434,1.999927995741685,-70045.93809790803,10.5,10499929954.061903,47.655,-122.3035,60.0,5.366666666666666
