satellites_20260121_005943/SAT-53578.csv

timestamp,satellite,azimuth_deg,elevation_deg,distance_km,relative_velocity_kms,doppler_shift_hz,tx_freq_ghz,rx_freq_hz,ue_lat,ue_lon,ue_alt_m,time_minutes
2026-01-20T23:07:34+00:00,SAT-53578,194.95510975269107,30.174999804341436,1212.3278691945945,-5.2415616849651565,183581.6619914239,10.5,10500183581.661991,47.655,-122.3035,60.0,7.566666666666666
2026-01-20T23:07:35+00:00,SAT-53578,194.97178845345974,30.415221042363704,1207.1002850074558,-5.224400416234919,182980.60176839618,10.5,10500182980.601768,47.655,-122.3035,60.0,7.583333333333333
2026-01-20T23:07:36+00:00,SAT-53578,194.98898202158097,30.65729478237508,1201.8898163256642,-5.2070093623018705,182371.49349557568,10.5,10500182371.493496,47.655,-122.3035,60.0,7.6
2026-01-20T23:07:37+00:00,SAT-53578,195.00670113743618,30.901238653703437,1196.6966923216619,-5.189385273050537,181754.22334017037,10.5,10500181754.223341,47.655,-122.3035,60.0,7.616666666666666
2026-01-20T23:07:38+00:00,SAT-53578,195.02495678011638,31.14707036116157,1191.5211454093396,-5.171524953854145,181128.6794128374,10.5,10500181128.679413,47.655,-122.3035,60.0,7.633333333333334
2026-01-20T23:07:39+00:00,SAT-53578,195.04376023819472,31.394807684439726,1186.3634111886956,-5.153425073360316,180494.74503552497,10.5,10500180494.745035,47.655,-122.3035,60.0,7.65
2026-01-20T23:07:40+00:00,SAT-53578,195.06312312034444,31.644468468351086,1181.2237285821975,-5.13508234750551,179852.30518643622,10.5,10500179852.305187,47.655,-122.3035,60.0,7.666666666666667
2026-01-20T23:07:41+00:00,SAT-53578,195.083057366987,31.896070621299597,1176.1023397876188,-5.116493424210117,179201.24246156396,10.5,10500179201.242462,47.655,-122.3035,60.0,7.683333333333334
2026-01-20T23:07:42+00:00,SAT-53578,195.10357526207503,32.14963210811123,1170.9994903458733,-5.097654896045327,178541.4375183379,10.5,10500178541.43752,47.655,-122.3035,60.0,7.7
2026-01-20T23:07:43+00:00,SAT-53578,195.12468944538855,32.4051709430117,1165.9154291962172,-5.078563364045208,177872.7713105934,10.5,10500177872.77131,47.655,-122.3035,60.0,7.716666666666667
2026-01-20T23:07:44+00:00,SAT-53578,195.1464129256457,32.662705185448225,1160.8504086678095,-5.059215348335237,177195.12195840492,10.5,10500177195.121958,47.655,-122.3035,60.0,7.733333333333333
2026-01-20T23:07:45+00:00,SAT-53578,195.16875909379547,32.92225293111416,1155.8046845604033,-5.039607400925333,176508.3686985748,10.5,10500176508.368698,47.655,-122.3035,60.0,7.75
2026-01-20T23:07:46+00:00,SAT-53578,195.1917417373864,33.183832308276045,1150.778516112547,-5.019735971051941,175812.3871683436,10.5,10500175812.387169,47.655,-122.3035,60.0,7.766666666666667
2026-01-20T23:07:47+00:00,SAT-53578,195.2153750549861,33.44746146693899,1145.7721661040846,-4.999597514630912,175107.05323889296,10.5,10500175107.05324,47.655,-122.3035,60.0,7.783333333333333
2026-01-20T23:07:48+00:00,SAT-53578,195.23967367173424,33.713158573133164,1140.7859008494927,-4.979188449240538,174392.24143866103,10.5,10500174392.241438,47.655,-122.3035,60.0,7.8
2026-01-20T23:07:49+00:00,SAT-53578,195.26465265534947,33.980941800485944,1135.8199902361168,-4.9585051596755045,173667.82514786546,10.5,10500173667.825148,47.655,-122.3035,60.0,7.816666666666666
2026-01-20T23:07:50+00:00,SAT-53578,195.290327532945,34.2508293217181,1130.874707756867,-4.9375440028657,172933.67677078067,10.5,10500172933.676771,47.655,-122.3035,60.0,7.833333333333333
2026-01-20T23:07:51+00:00,SAT-53578,195.31671430858236,34.522839299873006,1125.950330538009,-4.916301296978832,172189.66735406578,10.5,10500172189.667355,47.655,-122.3035,60.0,7.85
2026-01-20T23:07:52+00:00,SAT-53578,195.34382948159646,34.79698987855679,1121.047139377822,-4.894773371425705,171435.66833816047,10.5,10500171435.668339,47.655,-122.3035,60.0,7.866666666666666
2026-01-20T23:07:53+00:00,SAT-53578,195.37169006603546,35.0732991744088,1116.165418735387,-4.872956464057644,170671.5479567043,10.5,10500170671.547956,47.655,-122.3035,60.0,7.883333333333334
2026-01-20T23:07:54+00:00,SAT-53578,195.40031361043367,35.35178526345477,1111.3054568219002,-4.850846830436928,169897.17506364934,10.5,10500169897.175064,47.655,-122.3035,60.0,7.9
2026-01-20T23:07:55+00:00,SAT-53578,195.4297182191118,35.63246617290276,1106.467545583011,-4.828440700750038,169112.41762417986,10.5,10500169112.417624,47.655,-122.3035,60.0,7.916666666666667
2026-01-20T23:07:56+00:00,SAT-53578,195.4599225742523,35.91535987011654,1101.6519807241295,-4.8057342655456186,168317.1422151954,10.5,10500168317.142216,47.655,-122.3035,60.0,7.933333333333334
2026-01-20T23:07:57+00:00,SAT-53578,195.49094595892657,36.200484250173915,1096.859061749959,-4.782723722466173,167511.2156620525,10.5,10500167511.215662,47.655,-122.3035,60.0,7.95
2026-01-20T23:07:58+00:00,SAT-53578,195.5228082815169,36.48785712557143,1092.0890919574192,-4.759405185916066,166694.50187475592,10.5,10500166694.501875,47.655,-122.3035,60.0,7.966666666666667
2026-01-20T23:07:59+00:00,SAT-53578,195.5555301007528,36.7774962100334,1087.3423785186658,-4.735774834968337,165866.86702828106,10.5,10500165866.86703,47.655,-122.3035,60.0,7.983333333333333
2026-01-20T23:08:00+00:00,SAT-53578,195.58913265288555,37.06941911042038,1082.6192324165904,-4.71182876901886,165028.17450697185,10.5,10500165028.174507,47.655,-122.3035,60.0,8.0
2026-01-20T23:08:01+00:00,SAT-53578,195.62363787928683,37.36364330948628,1077.919968524289,-4.687563104605502,164178.28829555737,10.5,10500164178.288296,47.655,-122.3035,60.0,8.016666666666667
2026-01-20T23:08:02+00:00,SAT-53578,195.6590684560287,37.66018615374826,1073.2449055879624,-4.662973899838269,163317.07033237582,10.5,10500163317.070332,47.655,-122.3035,60.0,8.033333333333333
2026-01-20T23:08:03+00:00,SAT-53578,195.69544782441838,37.95906483603332,1068.5943662851905,-4.638057287070321,162444.38515607477,10.5,10500162444.385157,47.655,-122.3035,60.0,8.05
2026-01-20T23:08:04+00:00,SAT-53578,195.73280022401164,38.2602963856146,1063.9686771508855,-4.612809290365892,161560.09351256548,10.5,10500161560.093513,47.655,-122.3035,60.0,8.066666666666666
2026-01-20T23:08:05+00:00,SAT-53578,195.77115072596723,38.563897646208005,1059.368168685294,-4.58722599125553,160664.0581604727,10.5,10500160664.05816,47.655,-122.3035,60.0,8.083333333333334
2026-01-20T23:08:06+00:00,SAT-53578,195.8105252693382,38.86988526362807,1054.793175296682,-4.561303446747927,159756.14099956187,10.5,10500159756.140999,47.655,-122.3035,60.0,8.1
2026-01-20T23:08:07+00:00,SAT-53578,195.85095069857334,39.17827566750122,1050.2440353257919,-4.535037697487479,158836.2033564518,10.5,10500158836.203356,47.655,-122.3035,60.0,8.116666666666667
2026-01-20T23:08:08+00:00,SAT-53578,195.89245480305823,39.48908505269521,1045.7210910621643,-4.508424808706888,157904.10741894756,10.5,10500157904.107418,47.655,-122.3035,60.0,8.133333333333333
2026-01-20T23:08:09+00:00,SAT-53578,195.93506635903796,39.8023293626041,1041.224688719614,-4.481460831212024,156959.7148695657,10.5,10500156959.71487,47.655,-122.3035,60.0,8.15
2026-01-20T23:08:10+00:00,SAT-53578,195.97881517341398,40.11802426904737,1036.7551784506186,-4.454141821953258,156002.88760602914,10.5,10500156002.887606,47.655,-122.3035,60.0,8.166666666666666
2026-01-20T23:08:11+00:00,SAT-53578,196.02373213003912,40.43618515260952,1032.3129143401907,-4.426463871038494,155033.48868737777,10.5,10500155033.488688,47.655,-122.3035,60.0,8.183333333333334
2026-01-20T23:08:12+00:00,SAT-53578,196.0698492387915,40.75682708408895,1027.8982543728082,-4.398423011754116,154051.37918252175,10.5,10500154051.379183,47.655,-122.3035,60.0,8.2
2026-01-20T23:08:13+00:00,SAT-53578,196.11719968633372,41.079964798542825,1023.5115604890854,-4.370015378558084,153056.4237038274,10.5,10500153056.423704,47.655,-122.3035,60.0,8.216666666666667
2026-01-20T23:08:14+00:00,SAT-53578,196.16581789130277,41.40561267969268,1019.1531984848701,-4.341237051797172,152048.48496845877,10.5,10500152048.484968,47.655,-122.3035,60.0,8.233333333333333
2026-01-20T23:08:15+00:00,SAT-53578,196.21573956085263,41.73378473219415,1014.8235380652111,-4.312084203090618,151027.42889032746,10.5,10500151027.42889,47.655,-122.3035,60.0,8.25
2026-01-20T23:08:16+00:00,SAT-53578,196.26700175197806,42.06449456354914,1010.5229527533287,-4.282552943083865,149993.11924778504,10.5,10500149993.119247,47.655,-122.3035,60.0,8.266666666666667
2026-01-20T23:08:17+00:00,SAT-53578,196.3196429344648,42.39775535362846,1006.2518199514265,-4.252639473183672,148945.42299802805,10.5,10500148945.422998,47.655,-122.3035,60.0,8.283333333333333
2026-01-20T23:08:18+00:00,SAT-53578,196.3737030591979,42.7335798344966,1002.0105208501712,-4.222340012516391,147884.2077188683,10.5,10500147884.20772,47.655,-122.3035,60.0,8.3
2026-01-20T23:08:19+00:00,SAT-53578,196.42922362947616,43.07198026368613,997.7994404110216,-4.1916508080444554,146809.34196305493,10.5,10500146809.341963,47.655,-122.3035,60.0,8.316666666666666
2026-01-20T23:08:20+00:00,SAT-53578,196.4862477765371,43.412968397105246,993.6189673384653,-4.160568157835867,145720.6960732701,10.5,10500145720.696074,47.655,-122.3035,60.0,8.333333333333334
2026-01-20T23:08:21+00:00,SAT-53578,196.54482033977865,43.756555462602016,989.4694940290502,-4.129088375288692,144618.14092911992,10.5,10500144618.140928,47.655,-122.3035,60.0,8.35
2026-01-20T23:08:22+00:00,SAT-53578,196.60498795114577,44.102752129443125,985.3514165560957,-4.09720786330333,143501.55054496054,10.5,10500143501.550545,47.655,-122.3035,60.0,8.366666666666667
2026-01-20T23:08:23+00:00,SAT-53578,196.66679912552857,44.451568482574515,981.2651345804278,-4.064923072651428,142370.8006118019,10.5,10500142370.800611,47.655,-122.3035,60.0,8.383333333333333
2026-01-20T23:08:24+00:00,SAT-53578,196.7303043560428,44.8030139924106,977.2110513026367,-4.032230460091088,141225.76703032476,10.5,10500141225.76703,47.655,-122.3035,60.0,8.4
2026-01-20T23:08:25+00:00,SAT-53578,196.79555621430427,45.157097479583264,973.1895734571059,-3.999126602068191,140066.32989318232,10.5,10500140066.329893,47.655,-122.3035,60.0,8.416666666666666
2026-01-20T23:08:26+00:00,SAT-53578,196.86260945855435,45.51382708801359,969.2011111926433,-3.965608149951275,138892.37191713604,10.5,10500138892.371918,47.655,-122.3035,60.0,8.433333333333334
2026-01-20T23:08:27+00:00,SAT-53578,196.9315211477855,45.87321025301891,965.2460779977586,-3.931671771717619,137703.77640065583,10.5,10500137703.776402,47.655,-122.3035,60.0,8.45
2026-01-20T23:08:28+00:00,SAT-53578,197.00235076193732,46.23525366279725,961.3248906840988,-3.89731425722031,136500.43091081784,10.5,10500136500.43091,47.655,-122.3035,60.0,8.466666666666667
2026-01-20T23:08:29+00:00,SAT-53578,197.07516033134206,46.59996322766571,957.4379692648978,-3.8625324724751353,135282.2256822382,10.5,10500135282.225681,47.655,-122.3035,60.0,8.483333333333333
2026-01-20T23:08:30+00:00,SAT-53578,197.15001457363093,46.9673440439314,953.5857368790159,-3.8273233534084676,134049.05339809752,10.5,10500134049.053398,47.655,-122.3035,60.0,8.5
2026-01-20T23:08:31+00:00,SAT-53578,197.22698103922679,47.33740035552618,949.7686197212165,-3.7916839783684066,132800.81172978765,10.5,10500132800.81173,47.655,-122.3035,60.0,8.516666666666667
2026-01-20T23:08:32+00:00,SAT-53578,197.3061302676145,47.71013552094933,945.9870469001237,-3.7556114743846667,131537.40005373652,10.5,10500131537.400053,47.655,-122.3035,60.0,8.533333333333333
2026-01-20T23:08:33+00:00,SAT-53578,197.38753595194117,48.08555196971245,942.2414503896708,-3.719103104946632,130258.72252576692,10.5,10500130258.722527,47.655,-122.3035,60.0,8.55
2026-01-20T23:08:34+00:00,SAT-53578,197.4712751162719,48.46365116550901,938.532264893004,-3.6821562388688047,128964.68699063288,10.5,10500128964.68699,47.655,-122.3035,60.0,8.566666666666666
2026-01-20T23:08:35+00:00,SAT-53578,197.55742830393294,48.84443356466021,934.8599277374389,-3.6447683833230595,127655.20613894872,10.5,10500127655.206139,47.655,-122.3035,60.0,8.583333333333334
2026-01-20T23:08:36+00:00,SAT-53578,197.6460797793398,49.22789857621148,931.2248787364713,-3.606937124564329,126330.19543115208,10.5,10500126330.19543,47.655,-122.3035,60.0,8.6
2026-01-20T23:08:37+00:00,SAT-53578,197.73731774213036,49.61404451406015,927.6275601109057,-3.5686602392947724,124989.57699794805,10.5,10500124989.576998,47.655,-122.3035,60.0,8.616666666666667
2026-01-20T23:08:38+00:00,SAT-53578,197.83123455866885,50.00286855870247,924.0684162989158,-3.529935630818669,123633.27740418348,10.5,10500123633.277405,47.655,-122.3035,60.0,8.633333333333333
2026-01-20T23:08:39+00:00,SAT-53578,197.92792700818188,50.39436671061396,920.5478938297794,-3.4907612900215557,122261.2262821713,10.5,10500122261.226282,47.655,-122.3035,60.0,8.65
2026-01-20T23:08:40+00:00,SAT-53578,198.02749654504674,50.788533737126606,917.0664412365312,-3.4511354485225096,120873.36169573135,10.5,10500120873.361696,47.655,-122.3035,60.0,8.666666666666666
2026-01-20T23:08:41+00:00,SAT-53578,198.1300495838558,51.185363133887456,913.6245088158714,-3.4110564504707557,119469.62564996528,10.5,10500119469.62565,47.655,-122.3035,60.0,8.683333333333334
2026-01-20T23:08:42+00:00,SAT-53578,198.23569780158059,51.584847070364674,910.2225485159352,-3.3705228004596113,118049.96576940543,10.5,10500118049.965769,47.655,-122.3035,60.0,8.7
2026-01-20T23:08:43+00:00,SAT-53578,198.3445584628573,51.98697633805499,906.8610137762769,-3.3295331999387776,116614.33657332756,10.5,10500116614.336573,47.655,-122.3035,60.0,8.716666666666667
2026-01-20T23:08:44+00:00,SAT-53578,198.4567547704761,52.39174030071093,903.540359331538,-3.2880865295204194,115162.6988560346,10.5,10500115162.698856,47.655,-122.3035,60.0,8.733333333333333
2026-01-20T23:08:45+00:00,SAT-53578,198.57241624137862,52.79912684009971,900.2610410327628,-3.2461818405378846,113695.01939120758,10.5,10500113695.019392,47.655,-122.3035,60.0,8.75
2026-01-20T23:08:46+00:00,SAT-53578,198.69167911068092,53.20912229813192,897.0235156771331,-3.2038184064512456,112211.27273234498,10.5,10500112211.272732,47.655,-122.3035,60.0,8.766666666666667
2026-01-20T23:08:47+00:00,SAT-53578,198.8146867682789,53.62171142251205,893.8282407864324,-3.160995677459718,110711.43962309766,10.5,10500110711.439623,47.655,-122.3035,60.0,8.783333333333333
2026-01-20T23:08:48+00:00,SAT-53578,198.9415902275171,54.036877304010545,890.6756744307793,-3.117713315293494,109195.50821582606,10.5,10500109195.508215,47.655,-122.3035,60.0,8.8
2026-01-20T23:08:49+00:00,SAT-53578,199.07254863164673,54.45460131487531,887.5662750176599,-3.0739712418750256,107663.47577592419,10.5,10500107663.475777,47.655,-122.3035,60.0,8.816666666666666
2026-01-20T23:08:50+00:00,SAT-53578,199.20772980243368,54.87486305065749,884.5005010324298,-3.029769543734572,106115.34533404774,10.5,10500106115.345333,47.655,-122.3035,60.0,8.833333333333334
2026-01-20T23:08:51+00:00,SAT-53578,199.34731082861782,55.29764025604452,881.4788108741452,-2.985108568936098,104551.1290808691,10.5,10500104551.129082,47.655,-122.3035,60.0,8.85
2026-01-20T23:08:52+00:00,SAT-53578,199.4914787061299,55.722908759768465,878.5016625947263,-2.9399889142938935,102970.8479193492,10.5,10500102970.84792,47.655,-122.3035,60.0,8.866666666666667
2026-01-20T23:08:53+00:00,SAT-53578,199.64043103039384,56.150642404233096,875.5695136508705,-2.8944114003109873,101374.53058697481,10.5,10500101374.530586,47.655,-122.3035,60.0,8.883333333333333
2026-01-20T23:08:54+00:00,SAT-53578,199.79437674491052,56.580812967486054,872.6828206809603,-2.848377101020412,99762.21470092596,10.5,10500099762.2147,47.655,-122.3035,60.0,8.9
2026-01-20T23:08:55+00:00,SAT-53578,199.95353695412777,57.0133900847064,869.8420392522094,-2.8018873705534135,98133.94768860676,10.5,10500098133.94769,47.655,-122.3035,60.0,8.916666666666666
2026-01-20T23:08:56+00:00,SAT-53578,200.11814580714173,57.44834116903141,867.0476235813107,-2.754943808591554,96489.78557763222,10.5,10500096489.785578,47.655,-122.3035,60.0,8.933333333333334
2026-01-20T23:08:57+00:00,SAT-53578,200.28845145567547,57.885631321998595,864.3000262895421,-2.707548281443734,94829.79373403452,10.5,10500094829.793734,47.655,-122.3035,60.0,8.95
2026-01-20T23:08:58+00:00,SAT-53578,200.4647170968792,58.32522324132025,861.5996981368488,-2.6597029481134205,93154.04777524761,10.5,10500093154.047775,47.655,-122.3035,60.0,8.966666666666667
2026-01-20T23:08:59+00:00,SAT-53578,200.64722211003144,58.76707712652761,858.9470877299304,-2.6114102546373275,91462.63337182398,10.5,10500091462.633371,47.655,-122.3035,60.0,8.983333333333333
2026-01-20T23:09:00+00:00,SAT-53578,200.83626329500524,59.21115057720599,856.3426412359722,-2.562672916010711,89755.64561438188,10.5,10500089755.645615,47.655,-122.3035,60.0,9.0
2026-01-20T23:09:01+00:00,SAT-53578,201.03215622180332,59.65739848062389,853.7868021144042,-2.5134939678969523,88033.1908246938,10.5,10500088033.190825,47.655,-122.3035,60.0,9.016666666666667
2026-01-20T23:09:02+00:00,SAT-53578,201.23523670814885,60.10577289986319,851.2800107970883,-2.4638767039674883,86295.38436106563,10.5,10500086295.384361,47.655,-122.3035,60.0,9.033333333333333
2026-01-20T23:09:03+00:00,SAT-53578,201.44586242989647,60.556222942036634,848.822704430998,-2.413824768644423,84542.3538665754,10.5,10500084542.353867,47.655,-122.3035,60.0,9.05
2026-01-20T23:09:04+00:00,SAT-53578,201.66441469101582,61.00869463259169,846.4153165284033,-2.3633420947630577,82774.23708575119,10.5,10500082774.237085,47.655,-122.3035,60.0,9.066666666666666
2026-01-20T23:09:05+00:00,SAT-53578,201.89130035804445,61.46313076775439,844.0582766792262,-2.3124329254351172,80991.18263031397,10.5,10500080991.18263,47.655,-122.3035,60.0,9.083333333333334
2026-01-20T23:09:06+00:00,SAT-53578,202.12695398385617,61.91947075826752,841.7520102415923,-2.261101813499117,79193.34995992703,10.5,10500079193.34996,47.655,-122.3035,60.0,9.1
2026-01-20T23:09:07+00:00,SAT-53578,202.37184013983511,62.37765045890756,839.4969380329292,-2.209353654583102,77380.91054019301,10.5,10500077380.91054,47.655,-122.3035,60.0,9.116666666666667
2026-01-20T23:09:08+00:00,SAT-53578,202.62645598387363,62.83760198916767,837.2934759880917,-2.157193643685786,75554.04632194167,10.5,10500075554.046322,47.655,-122.3035,60.0,9.133333333333333
2026-01-20T23:09:09+00:00,SAT-53578,202.8913340825397,63.29925352786017,835.142034860789,-2.1046273179325685,73712.95123872653,10.5,10500073712.951239,47.655,-122.3035,60.0,9.15
2026-01-20T23:09:10+00:00,SAT-53578,203.16704552638075,63.762529096725046,833.0430198823709,-2.051660530097415,71857.83027944904,10.5,10500071857.83028,47.655,-122.3035,60.0,9.166666666666666
2026-01-20T23:09:11+00:00,SAT-53578,203.45420336437778,64.22734831650979,830.9968304470204,-1.9982994561388612,69988.89975230146,10.5,10500069988.899752,47.655,-122.3035,60.0,9.183333333333334
2026-01-20T23:09:12+00:00,SAT-53578,203.75346639891094,64.69362613946826,829.0038597894312,-1.9445506333411524,68106.38862063068,10.5,10500068106.38862,47.655,-122.3035,60.0,9.2
2026-01-20T23:09:13+00:00,SAT-53578,204.0655433890242,65.16127256239018,827.0644946244457,-1.8904208825129056,66210.5357780065,10.5,10500066210.535778,47.655,-122.3035,60.0,9.216666666666667
2026-01-20T23:09:14+00:00,SAT-53578,204.39119769330998,65.63019228993667,825.1791148642861,-1.835917387419955,64301.59283029571,10.5,10500064301.59283,47.655,-122.3035,60.0,9.233333333333333
2026-01-20T23:09:15+00:00,SAT-53578,204.73125242944215,66.10028437970627,823.348093256566,-1.7810476450983586,62379.82235541351,10.5,10500062379.822355,47.655,-122.3035,60.0,9.25
2026-01-20T23:09:16+00:00,SAT-53578,205.08659619283986,66.5714418344708,821.5717950718546,-1.7258194959629882,60445.49895785362,10.5,10500060445.498959,47.655,-122.3035,60.0,9.266666666666667
2026-01-20T23:09:17+00:00,SAT-53578,205.45818941633064,67.04355115465967,819.8505777612141,-1.6702410793690456,58498.907712264656,10.5,10500058498.907713,47.655,-122.3035,60.0,9.283333333333333
2026-01-20T23:09:18+00:00,SAT-53578,205.8470714350503,67.51649182549612,818.1847906580567,-1.6143208823303927,56540.3458697721,10.5,10500056540.34587,47.655,-122.3035,60.0,9.3
2026-01-20T23:09:19+00:00,SAT-53578,206.25436836278328,67.990135755269,816.5747746314125,-1.5580677066876645,54570.121708066705,10.5,10500054570.121708,47.655,-122.3035,60.0,9.316666666666666
2026-01-20T23:09:20+00:00,SAT-53578,206.68130186301178,68.46434663463475,815.0208617719427,-1.5014906543599842,52588.554014857276,10.5,10500052588.554014,47.655,-122.3035,60.0,9.333333333333334
2026-01-20T23:09:21+00:00,SAT-53578,207.1291989276697,68.93897921039874,813.523375092661,-1.444599157819347,50595.97315521241,10.5,10500050595.973156,47.655,-122.3035,60.0,9.35
2026-01-20T23:09:22+00:00,SAT-53578,207.59950280014914,69.41387847508555,812.0826281992626,-1.3874029447154737,48592.719832573224,10.5,10500048592.719833,47.655,-122.3035,60.0,9.366666666666667
2026-01-20T23:09:23+00:00,SAT-53578,208.09378516494385,69.88887873925032,810.6989249957329,-1.3299120573443135,46579.14577062273,10.5,10500046579.145771,47.655,-122.3035,60.0,9.383333333333333
2026-01-20T23:09:24+00:00,SAT-53578,208.61375977343573,70.3638025866757,809.3725593705416,-1.272136807906916,44555.612146262254,10.5,10500044555.612146,47.655,-122.3035,60.0,9.4
2026-01-20T23:09:25+00:00,SAT-53578,209.16129765479278,70.83845967258337,808.1038149274557,-1.2140878203036454,42522.491053421625,10.5,10500042522.491053,47.655,-122.3035,60.0,9.416666666666666
2026-01-20T23:09:26+00:00,SAT-53578,209.73844412866507,71.3126453718685,806.892964674673,-1.155775986280661,40480.16396712335,10.5,10500040480.163967,47.655,-122.3035,60.0,9.433333333333334
2026-01-20T23:09:27+00:00,SAT-53578,210.34743779046156,71.78613922280763,805.740270757689,-1.0972124704982638,38429.02192099765,10.5,10500038429.021921,47.655,-122.3035,60.0,9.45
2026-01-20T23:09:28+00:00,SAT-53578,210.99073170052435,72.25870315305912,804.645984187112,-1.038408704669091,36369.4653019772,10.5,10500036369.465302,47.655,-122.3035,60.0,9.466666666666667
2026-01-20T23:09:29+00:00,SAT-53578,211.67101699690593,72.73007945033453,803.6103445723221,-0.9793763628388149,34301.90298452257,10.5,10500034301.902985,47.655,-122.3035,60.0,9.483333333333333
2026-01-20T23:09:30+00:00,SAT-53578,212.39124914222688,73.19998842942793,802.6335798797842,-0.9201273779735455,32226.752911583342,10.5,10500032226.752913,47.655,-122.3035,60.0,9.5
2026-01-20T23:09:31+00:00,SAT-53578,213.15467704207666,73.66812576809991,801.7159061748185,-0.8606739019612835,30144.440693679746,10.5,10500030144.440693,47.655,-122.3035,60.0,9.516666666666667
2026-01-20T23:09:32+00:00,SAT-53578,213.96487517833603,74.13415943381135,800.8575274032626,-0.801028308578019,28055.39971278797,10.5,10500028055.399714,47.655,-122.3035,60.0,9.533333333333333
2026-01-20T23:09:33+00:00,SAT-53578,214.8257789048311,74.59772616011412,800.058635170174,-0.7412031914121603,25960.071049644896,10.5,10500025960.071049,47.655,-122.3035,60.0,9.55
2026-01-20T23:09:34+00:00,SAT-53578,215.7417229285807,75.0584274044539,799.3194085206056,-0.6812113294478926,23858.90227833174,10.5,10500023858.902279,47.655,-122.3035,60.0,9.566666666666666
2026-01-20T23:09:35+00:00,SAT-53578,216.71748280294045,75.51582469404676,798.640013754703,-0.621065693431265,21752.347689241342,10.5,10500021752.347689,47.655,-122.3035,60.0,9.583333333333334
2026-01-20T23:09:36+00:00,SAT-53578,217.75831908428182,75.96943429891947,798.0206042364541,-0.5607794174219536,19640.867292700583,10.5,10500019640.867292,47.655,-122.3035,60.0,9.6
2026-01-20T23:09:37+00:00,SAT-53578,218.87002335749284,76.41872112370321,797.4613202308119,-0.5003658012041301,17524.926903409178,10.5,10500017524.926903,47.655,-122.3035,60.0,9.616666666666667
2026-01-20T23:09:38+00:00,SAT-53578,220.05896488278998,76.86309174700422,796.9622887384111,-0.4398382797813312,15404.997072020997,10.5,10500015404.997072,47.655,-122.3035,60.0,9.633333333333333
2026-01-20T23:09:39+00:00,SAT-53578,221.33213576070116,77.30188649855836,796.5236233607092,-0.3792104204375516,13281.552982211086,10.5,10500013281.552982,47.655,-122.3035,60.0,9.65
2026-01-20T23:09:40+00:00,SAT-53578,222.6971915436452,77.73437051915253,796.1454241680594,-0.31849590376908443,11155.073786330497,10.5,10500011155.073786,47.655,-122.3035,60.0,9.666666666666666
2026-01-20T23:09:41+00:00,SAT-53578,224.16248268888322,78.15972374560756,795.8277775867004,-0.25770850908692455,9026.042094136697,10.5,10500009026.042093,47.655,-122.3035,60.0,9.683333333333334
2026-01-20T23:09:42+00:00,SAT-53578,225.73707031825515,78.5770298282847,795.5707563003044,-0.19686209635031873,6894.943340030078,10.5,10500006894.94334,47.655,-122.3035,60.0,9.7
2026-01-20T23:09:43+00:00,SAT-53578,227.43071715454363,78.98526406461072,795.3744191695444,-0.13597059502696893,4762.26539289115,10.5,10500004762.265392,47.655,-122.3035,60.0,9.716666666666667
2026-01-20T23:09:44+00:00,SAT-53578,229.25384129985562,79.38328057637365,795.2388111627707,-0.07504798650189447,2628.4979399644935,10.5,10500002628.49794,47.655,-122.3035,60.0,9.733333333333333
2026-01-20T23:09:45+00:00,SAT-53578,231.2174165521852,79.7697991407852,795.1639633042329,-0.014108286107162573,494.131857463896,10.5,10500000494.131857,47.655,-122.3035,60.0,9.75
2026-01-20T23:09:46+00:00,SAT-53578,233.3327985049987,80.14339236336728,795.149892640222,0.04683446961092306,-1640.3412353845545,10.5,10499998359.658764,47.655,-122.3035,60.0,9.766666666666667
2026-01-20T23:09:47+00:00,SAT-53578,235.61145138135495,80.50247428978409,795.196602217914,0.10776624160701505,-3774.4296318276893,10.5,10499996225.570368,47.655,-122.3035,60.0,9.783333333333333
2026-01-20T23:09:48+00:00,SAT-53578,238.0645469219822,80.84529200915519,795.3040810828767,0.16867300259673373,-5907.64203703118,10.5,10499994092.357964,47.655,-122.3035,60.0,9.8
2026-01-20T23:09:49+00:00,SAT-53578,240.7024062713176,81.16992245533557,795.4723042907999,0.22954075421988415,-8039.488169207992,10.5,10499991960.511831,47.655,-122.3035,60.0,9.816666666666666
2026-01-20T23:09:50+00:00,SAT-53578,243.53376048650006,81.47427724297165,795.7012329363417,0.2903555429431607,-10169.479316598376,10.5,10499989830.520683,47.655,-122.3035,60.0,9.833333333333334
2026-01-20T23:09:51+00:00,SAT-53578,246.56481939003288,81.7561190096191,795.9908141978372,0.35110347480220505,-12297.128853799093,10.5,10499987702.871145,47.655,-122.3035,60.0,9.85
2026-01-20T23:09:52+00:00,SAT-53578,249.79816559283287,82.0130930999634,796.3409813967065,0.4117707323312959,-14421.952834712763,10.5,10499985578.047165,47.655,-122.3035,60.0,9.866666666666667
2026-01-20T23:09:53+00:00,SAT-53578,253.23153345541033,82.24277823848787,796.7516540737516,0.4723435907342671,-16543.470558921814,10.5,10499983456.529442,47.655,-122.3035,60.0,9.883333333333333
2026-01-20T23:09:54+00:00,SAT-53578,256.8565902286863,82.442758715061,797.2227380815773,0.5328084297680828,-18661.204987901565,10.5,10499981338.795012,47.655,-122.3035,60.0,9.9
2026-01-20T23:09:55+00:00,SAT-53578,260.6578997312906,82.61071821366723,797.7541256888659,0.5931517539643948,-20774.68345326467,10.5,10499979225.316547,47.655,-122.3035,60.0,9.916666666666666
2026-01-20T23:09:56+00:00,SAT-53578,264.61229879388605,82.74455165564028,798.3456957048197,0.6533602009968714,-22883.437949820436,10.5,10499977116.56205,47.655,-122.3035,60.0,9.933333333333334
2026-01-20T23:09:57+00:00,SAT-53578,268.68892535794726,82.84248667729567,798.9973136119473,0.7134205631106665,-24987.00588612539,10.5,10499975012.994114,47.655,-122.3035,60.0,9.95
2026-01-20T23:09:58+00:00,SAT-53578,272.8500785768069,82.9032017233418,799.7088317202231,0.77331979305652,-27084.93029232063,10.5,10499972915.069708,47.655,-122.3035,60.0,9.966666666666667
2026-01-20T23:09:59+00:00,SAT-53578,277.0529553717759,82.92592478995022,800.4800893271647,0.833045025686032,-29176.760576489673,10.5,10499970823.239424,47.655,-122.3035,60.0,9.983333333333333
2026-01-20T23:10:00+00:00,SAT-53578,281.2521190390805,82.91049723760224,801.3109128994489,0.8925835847564719,-31262.05276299164,10.5,10499968737.947237,47.655,-122.3035,60.0,10.0
2026-01-20T23:10:01+00:00,SAT-53578,285.40237049844995,82.85739153562109,802.2011162613128,0.9519230002821634,-33340.37010018015,10.5,10499966659.6299,47.655,-122.3035,60.0,10.016666666666667
2026-01-20T23:10:02+00:00,SAT-53578,289.46158255784644,82.76767954425019,803.1505008002608,1.0110510120747431,-35411.2831843982,10.5,10499964588.716816,47.655,-122.3035,60.0,10.033333333333333
2026-01-20T23:10:03+00:00,SAT-53578,293.3930678164164,82.64295676057448,804.1588556763033,1.0699555918352206,-37474.37073373545,10.5,10499962525.629267,47.655,-122.3035,60.0,10.05
2026-01-20T23:10:04+00:00,SAT-53578,297.16717765225286,82.48523512942187,805.2259580532269,1.1286249574670975,-39529.22008933434,10.5,10499960470.779911,47.655,-122.3035,60.0,10.066666666666666
2026-01-20T23:10:05+00:00,SAT-53578,300.7620199382497,82.29682058265226,806.3515733441409,1.1870475564387781,-41575.42663267123,10.5,10499958424.573368,47.655,-122.3035,60.0,10.083333333333334
2026-01-20T23:10:06+00:00,SAT-53578,304.1633666713686,82.08019099126933,807.5354554404291,1.2452121097768514,-43612.59532638723,10.5,10499956387.404675,47.655,-122.3035,60.0,10.1
2026-01-20T23:10:07+00:00,SAT-53578,307.36394681221503,81.83788667459785,808.7773469845799,1.3031076040969491,-45640.34043517521,10.5,10499954359.659565,47.655,-122.3035,60.0,10.116666666666667
2026-01-20T23:10:08+00:00,SAT-53578,310.36236570100226,81.57242075942115,810.0769796350659,1.3607232967745033,-47658.28570688154,10.5,10499952341.714293,47.655,-122.3035,60.0,10.133333333333333
2026-01-20T23:10:09+00:00,SAT-53578,313.16187519232886,81.28621201057985,811.4340743363823,1.418048732293031,-49666.0649450922,10.5,10499950333.935055,47.655,-122.3035,60.0,10.15
2026-01-20T23:10:10+00:00,SAT-53578,315.7691649702544,80.98153923127745,812.8483416053892,1.4750737515956325,-51663.32233666179,10.5,10499948336.677664,47.655,-122.3035,60.0,10.166666666666666
2026-01-20T23:10:11+00:00,SAT-53578,318.19328220371966,80.66051422589952,814.3194818269806,1.5317884814640879,-53649.71207972458,10.5,10499946350.28792,47.655,-122.3035,60.0,10.183333333333334
2026-01-20T23:10:12+00:00,SAT-53578,320.44473121615295,80.32506944504478,815.8471855391608,1.5881833635211804,-55624.899399478534,10.5,10499944375.100601,47.655,-122.3035,60.0,10.2
2026-01-20T23:10:13+00:00,SAT-53578,322.53476463023924,79.97695640475105,817.431133747046,1.6442491482908774,-57588.56034014776,10.5,10499942411.43966,47.655,-122.3035,60.0,10.216666666666667
2026-01-20T23:10:14+00:00,SAT-53578,324.47485257110645,79.61775145993845,819.0709982309413,1.699976891885373,-59540.38164894868,10.5,10499940459.618351,47.655,-122.3035,60.0,10.233333333333333
2026-01-20T23:10:15+00:00,SAT-53578,326.2763043326473,79.24886617318987,820.7664418511151,1.755357981485195,-61480.061668511175,10.5,10499938519.938332,47.655,-122.3035,60.0,10.25
2026-01-20T23:10:16+00:00,SAT-53578,327.9500131727695,78.87156019707236,822.517118877983,1.8103841082566807,-63407.30938833408,10.5,10499936592.69061,47.655,-122.3035,60.0,10.266666666666667
2026-01-20T23:10:17+00:00,SAT-53578,329.50629604568553,78.48695520843934,824.3226752952843,1.8650473086739294,-65321.845892054625,10.5,10499934678.154108,47.655,-122.3035,60.0,10.283333333333333
2026-01-20T23:10:18+00:00,SAT-53578,330.95480388702714,78.09604889133821,826.1827491444684,1.919339930968419,-67223.40318237225,10.5,10499932776.596817,47.655,-122.3035,60.0,10.3
2026-01-20T23:10:19+00:00,SAT-53578,332.3044823965053,77.69972836368198,828.0969708356209,1.973254650936676,-69111.72473469995,10.5,10499930888.275265,47.655,-122.3035,60.0,10.316666666666666
2026-01-20T23:10:20+00:00,SAT-53578,333.5635677556515,77.29878267966473,830.0649634741552,2.0267844885177673,-70986.56607777823,10.5,10499929013.433922,47.655,-122.3035,60.0,10.333333333333334
2026-01-20T23:10:21+00:00,SAT-53578,334.73960548306343,76.89391423300691,832.0863432040368,2.0799227770003905,-72847.69371517711,10.5,10499927152.306284,47.655,-122.3035,60.0,10.35
2026-01-20T23:10:22+00:00,SAT-53578,335.8394837463404,76.48574901558436,834.1607195202986,2.1326631853934415,-74694.88590880806,10.5,10499925305.114092,47.655,-122.3035,60.0,10.366666666666667
2026-01-20T23:10:23+00:00,SAT-53578,336.86947498064984,76.07484574054195,836.2876956038642,2.1849997192212465,-76527.93270677638,10.5,10499923472.067293,47.655,-122.3035,60.0,10.383333333333333
2026-01-20T23:10:24+00:00,SAT-53578,337.8352814856591,75.66170389858452,838.4668686571677,2.2369266950989823,-78346.63505290488,10.5,10499921653.364946,47.655,-122.3035,60.0,10.4
2026-01-20T23:10:25+00:00,SAT-53578,338.7420820699249,75.24677083953225,840.697830214413,2.288438766409589,-80150.80568604793,10.5,10499919849.194313,47.655,-122.3035,60.0,10.416666666666666
2026-01-20T23:10:26+00:00,SAT-53578,339.5945778575828,74.83044796562962,842.9801664774456,2.339530908345211,-81940.2686161795,10.5,10499918059.731384,47.655,-122.3035,60.0,10.433333333333334
2026-01-20T23:10:27+00:00,SAT-53578,340.3970360464855,74.4130961418708,845.3134586367019,2.3901984297402055,-83714.85953883521,10.5,10499916285.140461,47.655,-122.3035,60.0,10.45
2026-01-20T23:10:28+00:00,SAT-53578,341.15333094288155,73.99504041130432,847.6972832039627,2.4404369290392327,-85474.4242929285,10.5,10499914525.575706,47.655,-122.3035,60.0,10.466666666666667
2026-01-20T23:10:29+00:00,SAT-53578,341.86698191247683,73.57657411133864,850.1312123011912,2.4902423391704,-87218.82043239793,10.5,10499912781.179567,47.655,-122.3035,60.0,10.483333333333333
2026-01-20T23:10:30+00:00,SAT-53578,342.54118816825786,73.15796245292893,852.6148139941237,2.5396109038460772,-88947.91639616169,10.5,10499911052.083603,47.655,-122.3035,60.0,10.5
2026-01-20T23:10:31+00:00,SAT-53578,343.1788604097324,72.73944564448469,855.1476526022262,2.5885391692537625,-90661.59121709627,10.5,10499909338.408783,47.655,-122.3035,60.0,10.516666666666667
2026-01-20T23:10:32+00:00,SAT-53578,343.78264945340936,72.32124161858235,857.7292890003621,2.6370239740014583,-92359.73416988131,10.5,10499907640.265831,47.655,-122.3035,60.0,10.533333333333333
2026-01-20T23:10:33+00:00,SAT-53578,344.35497204088114,71.90354841512874,860.3592809104329,2.68506247594914,-94042.2457107509,10.5,10499905957.75429,47.655,-122.3035,60.0,10.55
2026-01-20T23:10:34+00:00,SAT-53578,344.89803404624826,71.4865462614771,863.0371832197794,2.732652101819649,-95709.03571265397,10.5,10499904290.964287,47.655,-122.3035,60.0,10.566666666666666
2026-01-20T23:10:35+00:00,SAT-53578,345.41385128809355,71.0703994021887,865.7625482493274,2.779790578416859,-97360.02455864658,10.5,10499902639.975441,47.655,-122.3035,60.0,10.583333333333334
2026-01-20T23:10:36+00:00,SAT-53578,345.90426818603737,70.65525769988483,868.5349260528686,2.8264759003342785,-98995.1420109105,10.5,10499901004.857988,47.655,-122.3035,60.0,10.6
2026-01-20T23:10:37+00:00,SAT-53578,346.3709744596725,70.2412580472486,871.3538646841353,2.8727063511149082,-100614.32795186107,10.5,10499899385.672049,47.655,-122.3035,60.0,10.616666666666667
2026-01-20T23:10:38+00:00,SAT-53578,346.8155200794325,69.8285256075876,874.2189104849806,2.918480475012011,-102217.53139508971,10.5,10499897782.468605,47.655,-122.3035,60.0,10.633333333333333
2026-01-20T23:10:39+00:00,SAT-53578,347.2393286434021,69.41717491364538,877.1296083453925,2.963797072999331,-103804.71034562509,10.5,10499896195.289654,47.655,-122.3035,60.0,10.65
2026-01-20T23:10:40+00:00,SAT-53578,347.64370935266044,69.0073108398764,880.0855019595306,3.008655205645079,-105375.83190059214,10.5,10499894624.1681,47.655,-122.3035,60.0,10.666666666666666
2026-01-20T23:10:41+00:00,SAT-53578,348.0298677372051,68.59902946372291,883.0861340846272,3.0530541873189856,-106930.87204631862,10.5,10499893069.127954,47.655,-122.3035,60.0,10.683333333333334
2026-01-20T23:10:42+00:00,SAT-53578,348.3989152674127,68.19241883129155,886.1310467941133,3.0969935713741403,-108469.81513934041,10.5,10499891530.18486,47.655,-122.3035,60.0,10.7
2026-01-20T23:10:43+00:00,SAT-53578,348.75187797197424,67.78755964080248,889.2197817159639,3.1404731244389477,-109992.65300599707,10.5,10499890007.346994,47.655,-122.3035,60.0,10.716666666666667
2026-01-20T23:10:44+00:00,SAT-53578,349.0897041706487,67.38452585551475,892.3518802454043,3.183492883110568,-111499.38692807597,10.5,10499888500.613071,47.655,-122.3035,60.0,10.733333333333333
2026-01-20T23:10:45+00:00,SAT-53578,349.4132714278688,66.9833852445553,895.5268838141599,3.2260530673639236,-112990.02461002937,10.5,10499887009.97539,47.655,-122.3035,60.0,10.75
2026-01-20T23:10:46+00:00,SAT-53578,349.7233927969833,66.58419987816885,898.7443340733442,3.2681541319286507,-114464.58197841265,10.5,10499885535.418022,47.655,-122.3035,60.0,10.766666666666667
2026-01-20T23:10:47+00:00,SAT-53578,350.0208224473229,66.18702656619821,902.0037731275877,3.309796715599137,-115923.08140650735,10.5,10499884076.918594,47.655,-122.3035,60.0,10.783333333333333
2026-01-20T23:10:48+00:00,SAT-53578,350.3062607308889,65.79191725871452,905.3047437186119,3.350981678302289,-117365.55301259123,10.5,10499882634.446987,47.655,-122.3035,60.0,10.8
2026-01-20T23:10:49+00:00,SAT-53578,350.58035875735663,65.39891940300008,908.646789445772,3.3917100636262343,-118792.03334753492,10.5,10499881207.966652,47.655,-122.3035,60.0,10.816666666666666
2026-01-20T23:10:50+00:00,SAT-53578,350.84372252346844,65.00807627053184,912.0294549492287,3.431983111593792,-120202.5658421828,10.5,10499879797.434158,47.655,-122.3035,60.0,10.833333333333334
2026-01-20T23:10:51+00:00,SAT-53578,351.0969166485958,64.61942725172234,915.4522861058582,3.4718022045848427,-121597.19891332572,10.5,10499878402.801086,47.655,-122.3035,60.0,10.85
2026-01-20T23:10:52+00:00,SAT-53578,351.34046775304756,64.23300812947271,918.9148301712308,3.5111689304193505,-122975.98817313537,10.5,10499877024.011827,47.655,-122.3035,60.0,10.866666666666667
2026-01-20T23:10:53+00:00,SAT-53578,351.57486752523886,63.84885132109623,922.4166359845024,3.5500850380822873,-124338.9948784636,10.5,10499875661.005121,47.655,-122.3035,60.0,10.883333333333333
2026-01-20T23:10:54+00:00,SAT-53578,351.8005755020138,63.46698610362275,925.9572541291498,3.5885523993540476,-125686.2845869775,10.5,10499874313.715412,47.655,-122.3035,60.0,10.9
2026-01-20T23:10:55+00:00,SAT-53578,352.01802159257494,63.087438823642,929.5362370554388,3.626573087584643,-127017.9299161647,10.5,10499872982.070084,47.655,-122.3035,60.0,10.916666666666666
2026-01-20T23:10:56+00:00,SAT-53578,352.22760837951296,62.71023308112827,933.1531392814566,3.664149282316224,-128334.0072028108,10.5,10499871665.992798,47.655,-122.3035,60.0,10.933333333333334
2026-01-20T23:10:57+00:00,SAT-53578,352.42971320846937,62.335389907822695,936.8075174990199,3.7012832956957697,-129634.59742808332,10.5,10499870365.402573,47.655,-122.3035,60.0,10.95
2026-01-20T23:10:58+00:00,SAT-53578,352.62469009530804,61.96292792839893,940.4989307059273,3.737977594303636,-130919.78698206003,10.5,10499869080.213018,47.655,-122.3035,60.0,10.966666666666667
2026-01-20T23:10:59+00:00,SAT-53578,352.81287146809433,61.59286350666417,944.2269403599794,3.7742347490427055,-132189.66590863472,10.5,10499867810.334091,47.655,-122.3035,60.0,10.983333333333333
2026-01-20T23:11:00+00:00,SAT-53578,352.9945697563376,61.22521088526343,947.9911104830246,3.810057460061229,-133444.32877842078,10.5,10499866555.67122,47.655,-122.3035,60.0,11.0
2026-01-20T23:11:01+00:00,SAT-53578,353.1700788461958,60.859982312323815,951.7910077898591,3.8454485352476344,-134683.87393554833,10.5,10499865316.126064,47.655,-122.3035,60.0,11.016666666666667
2026-01-20T23:11:02+00:00,SAT-53578,353.33967541216896,60.49718816067238,955.6262017956794,3.8804108659399086,-135908.40264690394,10.5,10499864091.597353,47.655,-122.3035,60.0,11.033333333333333
2026-01-20T23:11:03+00:00,SAT-53578,353.5036201369713,60.13683704058264,959.4962648993101,3.9149474690591766,-137118.02057782706,10.5,10499862881.979422,47.655,-122.3035,60.0,11.05
2026-01-20T23:11:04+00:00,SAT-53578,353.6621588330563,59.77893590052767,963.4007725084518,3.949061450212309,-138312.83649980696,10.5,10499861687.1635,47.655,-122.3035,60.0,11.066666666666666
2026-01-20T23:11:05+00:00,SAT-53578,353.81552347129787,59.42349012423089,967.3393031281302,3.9827559886324844,-139492.9617630377,10.5,10499860507.038237,47.655,-122.3035,60.0,11.083333333333334
2026-01-20T23:11:06+00:00,SAT-53578,353.96393312656056,59.070503622324345,971.3114384341263,4.016034340485283,-140658.51041221147,10.5,10499859341.489588,47.655,-122.3035,60.0,11.1
2026-01-20T23:11:07+00:00,SAT-53578,354.1075948483457,58.71997891749909,975.3167633497036,4.04889986592237,-141809.600134053,10.5,10499858190.399866,47.655,-122.3035,60.0,11.116666666666667
2026-01-20T23:11:08+00:00,SAT-53578,354.2467044641369,58.37191722164682,979.3548661493169,4.081355977476732,-142946.35044990253,10.5,10499857053.64955,47.655,-122.3035,60.0,11.133333333333333
2026-01-20T23:11:09+00:00,SAT-53578,354.38144731844204,58.02631851240223,983.4253385108537,4.113406136248236,-144068.88258211777,10.5,10499855931.117418,47.655,-122.3035,60.0,11.15
2026-01-20T23:11:10+00:00,SAT-53578,354.5119989551686,57.683181605022625,987.5277755640719,4.145053894489139,-145177.32094559883,10.5,10499854822.679054,47.655,-122.3035,60.0,11.166666666666666
2026-01-20T23:11:11+00:00,SAT-53578,354.6385257496188,57.34250421622104,991.6617759815091,4.176302842761685,-146271.79129702353,10.5,10499853728.208702,47.655,-122.3035,60.0,11.183333333333334
2026-01-20T23:11:12+00:00,SAT-53578,354.7611854913629,57.004283028356696,995.82694201669,4.207156625991626,-147352.42129710974,10.5,10499852647.578703,47.655,-122.3035,60.0,11.2
2026-01-20T23:11:13+00:00,SAT-53578,354.8801279243929,56.66851374838077,1000.0228795583457,4.237618931481984,-148419.3400908065,10.5,10499851580.659908,47.655,-122.3035,60.0,11.216666666666667
2026-01-20T23:11:14+00:00,SAT-53578,354.9954952473358,56.33519116417839,1004.2491981726771,4.267693503096065,-149472.67880404342,10.5,10499850527.321196,47.655,-122.3035,60.0,11.233333333333333
2026-01-20T23:11:15+00:00,SAT-53578,355.1074225777351,56.00430919645472,1008.505511159765,4.297384104511523,-150512.56925673224,10.5,10499849487.430744,47.655,-122.3035,60.0,11.25
2026-01-20T23:11:16+00:00,SAT-53578,355.2160383820329,55.675860950399894,1012.7914355733311,4.326694536111167,-151539.1445543545,10.5,10499848460.855446,47.655,-122.3035,60.0,11.266666666666667
2026-01-20T23:11:17+00:00,SAT-53578,355.32146487547817,55.349838763061015,1017.1065922573459,4.355628628241935,-152552.53885186237,10.5,10499847447.461147,47.655,-122.3035,60.0,11.283333333333333
2026-01-20T23:11:18+00:00,SAT-53578,355.42381839381295,55.02623424850228,1021.4506058759126,4.384190259365328,-153552.88798938342,10.5,10499846447.112011,47.655,-122.3035,60.0,11.3
2026-01-20T23:11:19+00:00,SAT-53578,355.5232097395151,54.70503833908811,1025.823104961253,4.412383300908959,-154540.3275606889,10.5,10499845459.67244,47.655,-122.3035,60.0,11.316666666666666
2026-01-20T23:11:20+00:00,SAT-53578,355.6197445029389,54.38624132846112,1030.2237219066926,4.440211645912616,-155514.99391649963,10.5,10499844485.006084,47.655,-122.3035,60.0,11.333333333333334
2026-01-20T23:11:21+00:00,SAT-53578,355.7135233623036,54.06983291005398,1034.6520929882163,4.467679222512341,-156477.0246367558,10.5,10499843522.975363,47.655,-122.3035,60.0,11.35
2026-01-20T23:11:22+00:00,SAT-53578,355.8046423637827,53.75580221253527,1039.1078583994686,4.494789955438348,-157426.55718211114,10.5,10499842573.442818,47.655,-122.3035,60.0,11.366666666666667
2026-01-20T23:11:23+00:00,SAT-53578,355.8931931820447,53.44413783602875,1043.590662248359,4.521547782938727,-158363.72948667256,10.5,10499841636.270514,47.655,-122.3035,60.0,11.383333333333333
2026-01-20T23:11:24+00:00,SAT-53578,355.97926336403236,53.13482788518881,1048.1001525705433,4.547956652387677,-159288.67980418177,10.5,10499840711.320196,47.655,-122.3035,60.0,11.4
2026-01-20T23:11:25+00:00,SAT-53578,356.0629365566722,52.82786000080624,1052.6359813385247,4.57402050044485,-160201.54601311192,10.5,10499839798.453987,47.655,-122.3035,60.0,11.416666666666666
2026-01-20T23:11:26+00:00,SAT-53578,356.14429271954845,52.523221391045084,1057.1978044509683,4.599743286495072,-161102.46678786783,10.5,10499838897.533213,47.655,-122.3035,60.0,11.433333333333334
2026-01-20T23:11:27+00:00,SAT-53578,356.2234083245468,52.2208988588197,1061.7852817553662,4.625128953143916,-161991.58021517377,10.5,10499838008.419785,47.655,-122.3035,60.0,11.45
2026-01-20T23:11:28+00:00,SAT-53578,356.30035654213134,51.92087883031071,1066.3980770313015,4.650181446705939,-162869.0245116585,10.5,10499837130.975489,47.655,-122.3035,60.0,11.466666666666667
2026-01-20T23:11:29+00:00,SAT-53578,356.3752074163242,51.62314738065899,1071.0358579941496,4.674904686399071,-163734.93694491222,10.5,10499836265.063055,47.655,-122.3035,60.0,11.483333333333333
2026-01-20T23:11:30+00:00,SAT-53578,356.4480280282518,51.32769026027,1075.6982962680518,4.699302631363687,-164589.45618077795,10.5,10499835410.54382,47.655,-122.3035,60.0,11.5
2026-01-20T23:11:31+00:00,SAT-53578,356.51888265077844,51.03449291555065,1080.385067425732,4.72337916081358,-165432.7180857318,10.5,10499834567.281914,47.655,-122.3035,60.0,11.516666666666667
2026-01-20T23:11:32+00:00,SAT-53578,356.5878328917206,50.74354051600244,1085.095850908783,4.747138194081921,-166264.8599314002,10.5,10499833735.140068,47.655,-122.3035,60.0,11.533333333333333
2026-01-20T23:11:33+00:00,SAT-53578,356.65493783038914,50.454817972535345,1089.830330067681,4.770583623019134,-167086.01802684748,10.5,10499832913.981974,47.655,-122.3035,60.0,11.55
2026-01-20T23:11:34+00:00,SAT-53578,356.7202541448422,50.168309958962425,1094.5881921343719,4.793719315514989,-167896.32784193452,10.5,10499832103.672157,47.655,-122.3035,60.0,11.566666666666666
2026-01-20T23:11:35+00:00,SAT-53578,356.7838362316969,49.88400093215705,1099.369128198379,4.816549128363162,-168695.92445789013,10.5,10499831304.075542,47.655,-122.3035,60.0,11.583333333333334
2026-01-20T23:11:36+00:00,SAT-53578,356.84573631907756,49.601875150418564,1104.1728331957331,4.8390768876066055,-169484.94187892266,10.5,10499830515.05812,47.655,-122.3035,60.0,11.6
2026-01-20T23:11:37+00:00,SAT-53578,356.90600457274115,49.321916692028374,1108.999005878306,4.861306404480657,-170263.51359061507,10.5,10499829736.48641,47.655,-122.3035,60.0,11.616666666666667
2026-01-20T23:11:38+00:00,SAT-53578,356.96468919627193,49.044109471942534,1113.8473487990416,4.883241486070651,-171031.7729331998,10.5,10499828968.227066,47.655,-122.3035,60.0,11.633333333333333
2026-01-20T23:11:39+00:00,SAT-53578,357.0218365257189,48.768437257025695,1118.7175683078158,4.904885867691386,-171789.85073320143,10.5,10499828210.149267,47.655,-122.3035,60.0,11.65
2026-01-20T23:11:40+00:00,SAT-53578,357.0774911179784,48.494883684288475,1123.60937447986,4.9262433150913845,-172537.87888306228,10.5,10499827462.121117,47.655,-122.3035,60.0,11.666666666666666
2026-01-20T23:11:41+00:00,SAT-53578,357.1316958355346,48.2234322725182,1128.5224811461112,4.947317533353988,-173275.9871504735,10.5,10499826724.01285,47.655,-122.3035,60.0,11.683333333333334
2026-01-20T23:11:42+00:00,SAT-53578,357.1844919253277,47.95406643831435,1133.4566058327098,4.9681122132940185,-174004.3048033823,10.5,10499825995.695196,47.655,-122.3035,60.0,11.7
2026-01-20T23:11:43+00:00,SAT-53578,357.2359190938573,47.6867695087744,1138.4114697467683,4.988631008028457,-174722.95978939804,10.5,10499825277.04021,47.655,-122.3035,60.0,11.716666666666667
2026-01-20T23:11:44+00:00,SAT-53578,357.2860155778979,47.421524734777144,1143.3867977387752,5.008877529325148,-175432.07860790833,10.5,10499824567.921392,47.655,-122.3035,60.0,11.733333333333333
2026-01-20T23:11:45+00:00,SAT-53578,357.3348182113672,47.15831530375822,1148.3823182613553,5.028855413366684,-176131.7886134086,10.5,10499823868.211386,47.655,-122.3035,60.0,11.75
2026-01-20T23:11:46+00:00,SAT-53578,357.38236248925926,46.89712434841547,1153.3977633936197,5.048568193001743,-176822.21354120356,10.5,10499823177.786459,47.655,-122.3035,60.0,11.766666666666667
2026-01-20T23:11:47+00:00,SAT-53578,357.4286826268744,46.63793496152952,1158.432868738107,5.068019425083117,-177503.47796732342,10.5,10499822496.522032,47.655,-122.3035,60.0,11.783333333333333
2026-01-20T23:11:48+00:00,SAT-53578,357.47381161719295,46.38073020352113,1163.4873734447233,5.087212603980007,-178175.70427935876,10.5,10499821824.295721,47.655,-122.3035,60.0,11.8
2026-01-20T23:11:49+00:00,SAT-53578,357.51778128440367,46.1254931139709,1168.5610201484258,5.106151185982744,-178839.01353121703,10.5,10499821160.98647,47.655,-122.3035,60.0,11.816666666666666
2026-01-20T23:11:50+00:00,SAT-53578,357.56062233486756,45.8722067213043,1173.653554931246,5.124838638287287,-179493.527158767,10.5,10499820506.472841,47.655,-122.3035,60.0,11.833333333333334
2026-01-20T23:11:51+00:00,SAT-53578,357.60236440593167,45.62085404956705,1178.7647273331645,5.143278327599813,-180139.36307830008,10.5,10499819860.63692,47.655,-122.3035,60.0,11.85
2026-01-20T23:11:52+00:00,SAT-53578,357.643036111206,45.371418130245395,1183.8942902518907,5.161473652551591,-180776.64032425964,10.5,10499819223.359676,47.655,-122.3035,60.0,11.866666666666667
2026-01-20T23:11:53+00:00,SAT-53578,357.6826650847421,45.12388200708886,1189.0419999747023,5.179427923372876,-181405.4748349113,10.5,10499818594.525166,47.655,-122.3035,60.0,11.883333333333333
2026-01-20T23:11:54+00:00,SAT-53578,357.72127802193114,44.878228746389894,1194.2076160902793,5.197144460024805,-182025.98288933758,10.5,10499817974.01711,47.655,-122.3035,60.0,11.9
2026-01-20T23:11:55+00:00,SAT-53578,357.75890071919963,44.63444144209614,1199.3909014984108,5.214626492637113,-182638.27762034524,10.5,10499817361.72238,47.655,-122.3035,60.0,11.916666666666666
2026-01-20T23:11:56+00:00,SAT-53578,357.7955581109066,44.39250322525758,1204.591622320401,5.2318772743087845,-183242.4729652213,10.5,10499816757.527035,47.655,-122.3035,60.0,11.933333333333334
2026-01-20T23:11:57+00:00,SAT-53578,357.8312743053562,44.15239726777665,1209.8095479219783,5.248900003819508,-183838.68095876125,10.5,10499816161.31904,47.655,-122.3035,60.0,11.95
2026-01-20T23:11:58+00:00,SAT-53578,357.8660726183994,43.91410678946552,1215.0444508591208,5.265697776121711,-184427.0099992908,10.5,10499815572.99,47.655,-122.3035,60.0,11.966666666666667
2026-01-20T23:11:59+00:00,SAT-53578,357.89997560510767,43.67761506690753,1220.2961067745061,5.282273776140252,-185007.57163635065,10.5,10499814992.428364,47.655,-122.3035,60.0,11.983333333333333
2026-01-20T23:12:00+00:00,SAT-53578,357.93300509129614,43.44290543323051,1225.5642944872436,5.298631057732649,-185580.47282894896,10.5,10499814419.52717,47.655,-122.3035,60.0,12.0
2026-01-20T23:12:01+00:00,SAT-53578,357.96518220196623,43.20996128758897,1230.8487958621556,5.314772669375141,-186145.82034761857,10.5,10499813854.179653,47.655,-122.3035,60.0,12.016666666666667
2026-01-20T23:12:02+00:00,SAT-53578,357.9965273892971,42.978766098639376,1236.1493958044123,5.330701591179001,-186703.71856846218,10.5,10499813296.281431,47.655,-122.3035,60.0,12.033333333333333
2026-01-20T23:12:03+00:00,SAT-53578,358.0270604589019,42.74930341051011,1241.465882191348,5.34642083520652,-187254.27298664214,10.5,10499812745.727013,47.655,-122.3035,60.0,12.05
2026-01-20T23:12:04+00:00,SAT-53578,358.0568005954892,42.52155684416185,1246.7980459043274,5.361933313109988,-187797.5855805381,10.5,10499812202.41442,47.655,-122.3035,60.0,12.066666666666666
2026-01-20T23:12:05+00:00,SAT-53578,358.0857663865177,42.2955101042199,1252.1456807286024,5.377241931045051,-188333.75813601367,10.5,10499811666.241863,47.655,-122.3035,60.0,12.083333333333334
2026-01-20T23:12:06+00:00,SAT-53578,358.11397584532915,42.07114698144695,1257.5085833478313,5.3923495324324495,-188862.89024169085,10.5,10499811137.109758,47.655,-122.3035,60.0,12.1
2026-01-20T23:12:07+00:00,SAT-53578,358.14144643291803,41.84845135741292,1262.8865532815107,5.4072589737559476,-189385.08194371403,10.5,10499810614.918056,47.655,-122.3035,60.0,12.116666666666667
2026-01-20T23:12:08+00:00,SAT-53578,358.1681950791152,41.627407205787655,1268.2793928980034,5.421973011150303,-189900.42977358087,10.5,10499810099.570227,47.655,-122.3035,60.0,12.133333333333333
2026-01-20T23:12:09+00:00,SAT-53578,358.19423820220806,41.40799859810657,1273.6869073144571,5.436494415162119,-190409.03076755267,10.5,10499809590.969233,47.655,-122.3035,60.0,12.15
2026-01-20T23:12:10+00:00,SAT-53578,358.2195917283036,41.19020970459991,1279.1089044111789,5.4508258976159905,-190910.97990519795,10.5,10499809089.020094,47.655,-122.3035,60.0,12.166666666666666
2026-01-20T23:12:11+00:00,SAT-53578,358.2442711094403,40.97402479783476,1284.545194773068,5.464970142974477,-191406.37120775066,10.5,10499808593.628792,47.655,-122.3035,60.0,12.183333333333334
2026-01-20T23:12:12+00:00,SAT-53578,358.2682913410706,40.75942825489175,1289.9955916623278,5.478929786621858,-191895.2969775161,10.5,10499808104.703022,47.655,-122.3035,60.0,12.2
2026-01-20T23:12:13+00:00,SAT-53578,358.29166697867106,40.546404560221916,1295.4599109695187,5.492707437224033,-192377.8485810085,10.5,10499807622.151419,47.655,-122.3035,60.0,12.216666666666667
2026-01-20T23:12:14+00:00,SAT-53578,358.3144121537307,40.334938307451324,1300.93797118691,5.506305673337165,-192854.1163301721,10.5,10499807145.883669,47.655,-122.3035,60.0,12.233333333333333
2026-01-20T23:12:15+00:00,SAT-53578,358.3365405890576,40.125014201171375,1306.4295933784517,5.5197270432087135,-193324.189475412,10.5,10499806675.810524,47.655,-122.3035,60.0,12.25
2026-01-20T23:12:16+00:00,SAT-53578,358.3580656133913,39.9166170585975,1311.9346011495452,5.532974046076476,-193788.15555060763,10.5,10499806211.84445,47.655,-122.3035,60.0,12.266666666666667
2026-01-20T23:12:17+00:00,SAT-53578,358.3790001753448,39.70973181178866,1317.4528205981655,5.546049122166564,-194246.1000227995,10.5,10499805753.899977,47.655,-122.3035,60.0,12.283333333333333
2026-01-20T23:12:18+00:00,SAT-53578,358.3993568566911,39.50434351006275,1322.984080256006,5.558954754561991,-194698.10986005826,10.5,10499805301.89014,47.655,-122.3035,60.0,12.3
2026-01-20T23:12:19+00:00,SAT-53578,358.4191478855499,39.30043731852125,1328.5282111312229,5.571693305522619,-195144.2677987166,10.5,10499804855.7322,47.655,-122.3035,60.0,12.316666666666666
2026-01-20T23:12:20+00:00,SAT-53578,358.4383851483125,39.097998522520335,1334.0850465879305,5.584267162216927,-195584.65744751232,10.5,10499804415.342552,47.655,-122.3035,60.0,12.333333333333334
2026-01-20T23:12:21+00:00,SAT-53578,358.45708020169747,38.897012526631414,1339.6544223710482,5.596678652726486,-196019.3603457099,10.5,10499803980.639654,47.655,-122.3035,60.0,12.35
2026-01-20T23:12:22+00:00,SAT-53578,358.4752442839457,38.69746485658714,1345.2361765473677,5.608930083583594,-196448.45727782696,10.5,10499803551.542723,47.655,-122.3035,60.0,12.366666666666667
2026-01-20T23:12:23+00:00,SAT-53578,358.4928883257337,38.499341159753364,1350.8301494840616,5.621023712204915,-196872.02730814397,10.5,10499803127.972692,47.655,-122.3035,60.0,12.383333333333333
2026-01-20T23:12:24+00:00,SAT-53578,358.51002296050893,38.30262720648101,1356.4361837997005,5.632961779243232,-197290.14891379935,10.5,10499802709.851086,47.655,-122.3035,60.0,12.4
2026-01-20T23:12:25+00:00,SAT-53578,358.5266585345637,38.10730889022071,1362.0541243475325,5.6447464778114345,-197702.89890688332,10.5,10499802297.101093,47.655,-122.3035,60.0,12.416666666666666
2026-01-20T23:12:26+00:00,SAT-53578,358.54280511655446,37.91337222862429,1367.6838181680696,5.656380008847216,-198110.3543735439,10.5,10499801889.645626,47.655,-122.3035,60.0,12.433333333333334
2026-01-20T23:12:27+00:00,SAT-53578,358.5584725068731,37.72080336266564,1373.3251144968935,5.667864487408279,-198512.58939204845,10.5,10499801487.410608,47.655,-122.3035,60.0,12.45
2026-01-20T23:12:28+00:00,SAT-53578,358.5736702462924,37.529588558891874,1378.9778646790019,5.679202008187452,-198909.67732740042,10.5,10499801090.322672,47.655,-122.3035,60.0,12.466666666666667
2026-01-20T23:12:29+00:00,SAT-53578,358.5884076245198,37.33971420932772,1384.6419221485007,5.69039469227856,-199301.69246927777,10.5,10499800698.307531,47.655,-122.3035,60.0,12.483333333333333
2026-01-20T23:12:30+00:00,SAT-53578,358.6026936885534,37.15116682978483,1390.3171424549334,5.701444548227625,-199688.70516545835,10.5,10499800311.294834,47.655,-122.3035,60.0,12.5
2026-01-20T23:12:31+00:00,SAT-53578,358.6165372502766,36.96393306274449,1396.0033831510323,5.712353622641243,-200070.78709676227,10.5,10499799929.212904,47.655,-122.3035,60.0,12.516666666666667
2026-01-20T23:12:32+00:00,SAT-53578,358.6299468942143,36.77799967516048,1401.70050383068,5.723123868609508,-200448.0066686662,10.5,10499799551.993332,47.655,-122.3035,60.0,12.533333333333333
2026-01-20T23:12:33+00:00,SAT-53578,358.64293098462286,36.593353560537764,1407.4083660356398,5.733757268487335,-200820.4333116246,10.5,10499799179.566689,47.655,-122.3035,60.0,12.55
2026-01-20T23:12:34+00:00,SAT-53578,358.6554976726366,36.40998173694867,1413.1268332847446,5.744255766343916,-201188.13511516398,10.5,10499798811.864885,47.655,-122.3035,60.0,12.566666666666666
2026-01-20T23:12:35+00:00,SAT-53578,358.6676549029762,36.22787134722332,1418.8557710357115,5.754621222630287,-201551.17724014926,10.5,10499798448.82276,47.655,-122.3035,60.0,12.583333333333334
2026-01-20T23:12:36+00:00,SAT-53578,358.679410420259,36.04700966048833,1424.595046601748,5.76485553401347,-201909.6261158826,10.5,10499798090.373884,47.655,-122.3035,60.0,12.6
2026-01-20T23:12:37+00:00,SAT-53578,358.6907717754161,35.86738406986519,1430.344529187671,5.774960534110499,-202263.54596338855,10.5,10499797736.454037,47.655,-122.3035,60.0,12.616666666666667
2026-01-20T23:12:38+00:00,SAT-53578,358.70174633159417,35.688982093272664,1436.1040898270237,5.784938054351022,-202613.00092708046,10.5,10499797386.999073,47.655,-122.3035,60.0,12.633333333333333
2026-01-20T23:12:39+00:00,SAT-53578,358.7123412700058,35.51179137228713,1441.8736013798966,5.794789863372359,-202958.0529521185,10.5,10499797041.947048,47.655,-122.3035,60.0,12.65
2026-01-20T23:12:40+00:00,SAT-53578,358.7225635953961,35.33579967282931,1447.6529384703,5.804517753125396,-203298.76480020277,10.5,10499796701.235199,47.655,-122.3035,60.0,12.666666666666666
2026-01-20T23:12:41+00:00,SAT-53578,358.73242014154675,35.16099488318855,1453.4419775094168,5.814123408900939,-203635.19549734594,10.5,10499796364.804502,47.655,-122.3035,60.0,12.683333333333334
2026-01-20T23:12:42+00:00,SAT-53578,358.7419175762407,34.9873650159476,1459.2405965892274,5.823608595006271,-203967.40683705205,10.5,10499796032.593163,47.655,-122.3035,60.0,12.7
2026-01-20T23:12:43+00:00,SAT-53578,358.7510624065081,34.81489820429479,1465.0486755613138,5.8329749440956205,-204295.45600177845,10.5,10499795704.543999,47.655,-122.3035,60.0,12.716666666666667
2026-01-20T23:12:44+00:00,SAT-53578,358.7598609831768,34.64358270461083,1470.8660959055585,5.842224159469828,-204619.40264832546,10.5,10499795380.597351,47.655,-122.3035,60.0,12.733333333333333
2026-01-20T23:12:45+00:00,SAT-53578,358.768319505735,34.473406893025505,1476.6927408006031,5.85135785823007,-204939.3034144166,10.5,10499795060.696585,47.655,-122.3035,60.0,12.75
2026-01-20T23:12:46+00:00,SAT-53578,358.77644402665675,34.30435926658653,1482.5284950378777,5.86037762810522,-205255.21390903305,10.5,10499794744.78609,47.655,-122.3035,60.0,12.766666666666667
2026-01-20T23:12:47+00:00,SAT-53578,358.78424045571916,34.136428442706375,1488.3732449923082,5.869285077078227,-205567.19045053955,10.5,10499794432.80955,47.655,-122.3035,60.0,12.783333333333333
2026-01-20T23:12:48+00:00,SAT-53578,358.7917145642518,33.96960315718055,1494.226878642514,5.87808173966659,-205875.2867842299,10.5,10499794124.713215,47.655,-122.3035,60.0,12.8
