satellites_20260121_005943/SAT-66123.csv

timestamp,satellite,azimuth_deg,elevation_deg,distance_km,relative_velocity_kms,doppler_shift_hz,tx_freq_ghz,rx_freq_hz,ue_lat,ue_lon,ue_alt_m,time_minutes
2026-01-20T23:00:05+00:00,SAT-66123,206.8154227383142,30.054932261548124,1193.2922111886573,-5.485335497410577,192119.65206546674,10.5,10500192119.652065,47.655,-122.3035,60.0,0.08333333333333333
2026-01-20T23:00:06+00:00,SAT-66123,206.87849356161368,30.285195518616163,1187.8215032525734,-5.4685898761828176,191533.14957616306,10.5,10500191533.149576,47.655,-122.3035,60.0,0.1
2026-01-20T23:00:07+00:00,SAT-66123,206.94275076329197,30.51728325726559,1182.367496282727,-5.451605151009675,190938.27265528336,10.5,10500190938.272655,47.655,-122.3035,60.0,0.11666666666666667
2026-01-20T23:00:08+00:00,SAT-66123,207.0082192670728,30.75121330977365,1176.9304287454534,-5.434377662574393,190334.89313807595,10.5,10500190334.893139,47.655,-122.3035,60.0,0.13333333333333333
2026-01-20T23:00:09+00:00,SAT-66123,207.07492469043774,30.98700356847933,1171.5105427566457,-5.4169036918621805,189722.88076891148,10.5,10500189722.88077,47.655,-122.3035,60.0,0.15
2026-01-20T23:00:10+00:00,SAT-66123,207.1428933683705,31.224671978328647,1166.1080841412952,-5.399179484584998,189102.10405674207,10.5,10500189102.104057,47.655,-122.3035,60.0,0.16666666666666666
2026-01-20T23:00:11+00:00,SAT-66123,207.21215237839343,31.46423653001649,1160.723302468669,-5.381201231280691,188472.42957808918,10.5,10500188472.429579,47.655,-122.3035,60.0,0.18333333333333332
2026-01-20T23:00:12+00:00,SAT-66123,207.28272956637366,31.705715251852332,1155.3564511073384,-5.362965073287619,187833.72218629997,10.5,10500187833.722187,47.655,-122.3035,60.0,0.2
2026-01-20T23:00:13+00:00,SAT-66123,207.35465357346723,31.94912620138822,1150.0077872742463,-5.344467101549831,187185.84496969974,10.5,10500187185.844969,47.655,-122.3035,60.0,0.21666666666666667
2026-01-20T23:00:14+00:00,SAT-66123,207.42795386417887,32.19448745651626,1144.6775720849673,-5.325703357999424,186528.65930000797,10.5,10500186528.6593,47.655,-122.3035,60.0,0.23333333333333334
2026-01-20T23:00:15+00:00,SAT-66123,207.50266075559568,32.44181710608897,1139.3660706025894,-5.306669843377032,185862.02510624475,10.5,10500185862.025106,47.655,-122.3035,60.0,0.25
2026-01-20T23:00:16+00:00,SAT-66123,207.5788054479652,32.69113324037898,1134.0735518787947,-5.287362483143483,185185.7996808131,10.5,10500185185.79968,47.655,-122.3035,60.0,0.26666666666666666
2026-01-20T23:00:17+00:00,SAT-66123,207.65642005607302,32.94245393936774,1128.8002890289392,-5.267777170826257,184499.83919767488,10.5,10500184499.839197,47.655,-122.3035,60.0,0.2833333333333333
2026-01-20T23:00:18+00:00,SAT-66123,207.7355376425645,33.1957972624434,1123.546559263902,-5.247909774530409,183803.9989403913,10.5,10500183803.99894,47.655,-122.3035,60.0,0.3
2026-01-20T23:00:19+00:00,SAT-66123,207.81619225281727,33.451181237809145,1118.3126439154369,-5.227756068847413,183098.13091728222,10.5,10500183098.130917,47.655,-122.3035,60.0,0.31666666666666665
2026-01-20T23:00:20+00:00,SAT-66123,207.89841895024838,33.70862384802333,1113.09882852944,-5.20731182588304,182382.08704960792,10.5,10500182382.08705,47.655,-122.3035,60.0,0.3333333333333333
2026-01-20T23:00:21+00:00,SAT-66123,207.98225385456468,33.96814301916368,1107.9054028684259,-5.18657272505864,181655.7160124279,10.5,10500181655.716013,47.655,-122.3035,60.0,0.35
2026-01-20T23:00:22+00:00,SAT-66123,208.0677341802461,34.22975660495634,1102.7326610039672,-5.165534436423992,180918.86615256983,10.5,10500180918.866152,47.655,-122.3035,60.0,0.36666666666666664
2026-01-20T23:00:23+00:00,SAT-66123,208.15489827800712,34.493482374160536,1097.5809013260405,-5.144192552152834,180171.38308931293,10.5,10500180171.38309,47.655,-122.3035,60.0,0.38333333333333336
2026-01-20T23:00:24+00:00,SAT-66123,208.2437856769943,34.75933799383822,1092.4504266206934,-5.122542663744244,179413.1124183069,10.5,10500179413.11242,47.655,-122.3035,60.0,0.4
2026-01-20T23:00:25+00:00,SAT-66123,208.33443713012804,35.027341015652915,1087.3415440707192,-5.100580270225183,178643.89649643694,10.5,10500178643.896496,47.655,-122.3035,60.0,0.4166666666666667
2026-01-20T23:00:26+00:00,SAT-66123,208.42689465985325,35.2975088566757,1082.2545653478812,-5.07830086713331,177863.57755837793,10.5,10500177863.577559,47.655,-122.3035,60.0,0.43333333333333335
2026-01-20T23:00:27+00:00,SAT-66123,208.52120160751184,35.56985878381972,1077.1898066163935,-5.0556998814008045,177071.99543595072,10.5,10500177071.995436,47.655,-122.3035,60.0,0.45
2026-01-20T23:00:28+00:00,SAT-66123,208.61740268373373,35.84440789400229,1072.1475886013434,-5.032772704018543,176268.98870215972,10.5,10500176268.988703,47.655,-122.3035,60.0,0.4666666666666667
2026-01-20T23:00:29+00:00,SAT-66123,208.7155440216967,36.12117309498301,1067.1282366245355,-5.009514690408753,175454.39468424485,10.5,10500175454.394684,47.655,-122.3035,60.0,0.48333333333333334
2026-01-20T23:00:30+00:00,SAT-66123,208.81567323279216,36.40017108522637,1062.1320806399676,-4.985921175186254,174628.04998068252,10.5,10500174628.04998,47.655,-122.3035,60.0,0.5
2026-01-20T23:00:31+00:00,SAT-66123,208.917839465134,36.6814183335239,1057.159455254582,-4.961987417170354,173789.78853526968,10.5,10500173789.788536,47.655,-122.3035,60.0,0.5166666666666667
2026-01-20T23:00:32+00:00,SAT-66123,209.02209346363796,36.96493105447594,1052.2106998038573,-4.937708666701727,172939.44399484573,10.5,10500172939.443995,47.655,-122.3035,60.0,0.5333333333333333
2026-01-20T23:00:33+00:00,SAT-66123,209.12848763418046,37.25072518646691,1047.2861583602669,-4.913080144505939,172076.84896900362,10.5,10500172076.848969,47.655,-122.3035,60.0,0.55
2026-01-20T23:00:34+00:00,SAT-66123,209.2370761103574,37.5388163673302,1042.386179762813,-4.888097026870582,171201.8345109306,10.5,10500171201.83451,47.655,-122.3035,60.0,0.5666666666666667
2026-01-20T23:00:35+00:00,SAT-66123,209.34791482297584,37.82921990787928,1037.5111176613473,-4.862754470377661,170314.23098364085,10.5,10500170314.230984,47.655,-122.3035,60.0,0.5833333333333334
2026-01-20T23:00:36+00:00,SAT-66123,209.46106157333318,38.1219507654977,1032.661330536224,-4.837047590327887,169413.86730430296,10.5,10500169413.867304,47.655,-122.3035,60.0,0.6
2026-01-20T23:00:37+00:00,SAT-66123,209.57657610946737,38.41702351512777,1027.8371817394705,-4.810971494866366,168500.57213946604,10.5,10500168500.57214,47.655,-122.3035,60.0,0.6166666666666667
2026-01-20T23:00:38+00:00,SAT-66123,209.6945202067575,38.714452320786435,1023.0390395019238,-4.784521244479383,167574.1724864657,10.5,10500167574.172487,47.655,-122.3035,60.0,0.6333333333333333
2026-01-20T23:00:39+00:00,SAT-66123,209.81495775139823,39.01425090316647,1018.2672769807629,-4.757691925113002,166634.49623434665,10.5,10500166634.496235,47.655,-122.3035,60.0,0.65
2026-01-20T23:00:40+00:00,SAT-66123,209.93795482965297,39.31643251012221,1013.5222722341169,-4.730478548060125,165681.36865748407,10.5,10500165681.368658,47.655,-122.3035,60.0,0.6666666666666666
2026-01-20T23:00:41+00:00,SAT-66123,210.063579818849,39.62100987935897,1008.8044082955182,-4.702876156531887,164714.61614816476,10.5,10500164714.616148,47.655,-122.3035,60.0,0.6833333333333333
2026-01-20T23:00:42+00:00,SAT-66123,210.19190348547326,39.92799520597694,1004.1140731420704,-4.674879768595375,163734.06421802458,10.5,10500163734.064219,47.655,-122.3035,60.0,0.7
2026-01-20T23:00:43+00:00,SAT-66123,210.3229990865804,40.23740010476398,999.4516597195246,-4.646484372198922,162739.53732381316,10.5,10500162739.537323,47.655,-122.3035,60.0,0.7166666666666667
2026-01-20T23:00:44+00:00,SAT-66123,210.45694247590365,40.549235570162246,994.8175659723183,-4.617684990026036,161730.86113885284,10.5,10500161730.86114,47.655,-122.3035,60.0,0.7333333333333333
2026-01-20T23:00:45+00:00,SAT-66123,210.5938122170065,40.86351193857371,990.2121948089323,-4.588476609466637,160707.86010033547,10.5,10500160707.8601,47.655,-122.3035,60.0,0.75
2026-01-20T23:00:46+00:00,SAT-66123,210.73368969996235,41.18023884401717,985.635954137091,-4.558854247848232,159670.3596939935,10.5,10500159670.359694,47.655,-122.3035,60.0,0.7666666666666667
2026-01-20T23:00:47+00:00,SAT-66123,210.8766592657384,41.499425176031494,981.0892568339036,-4.52881291854183,158618.18526698634,10.5,10500158618.185266,47.655,-122.3035,60.0,0.7833333333333333
2026-01-20T23:00:48+00:00,SAT-66123,211.0228083357142,41.82107903309914,976.5725207498112,-4.498347635127449,157551.16217379365,10.5,10500157551.162174,47.655,-122.3035,60.0,0.8
2026-01-20T23:00:49+00:00,SAT-66123,211.17222754772934,42.14520767399763,972.0861687083774,-4.467453453826521,156469.1172623778,10.5,10500156469.117262,47.655,-122.3035,60.0,0.8166666666666667
2026-01-20T23:00:50+00:00,SAT-66123,211.32501090037644,42.47181746975601,967.630628463761,-4.436125424860313,155371.87717055003,10.5,10500155371.87717,47.655,-122.3035,60.0,0.8333333333333334
2026-01-20T23:00:51+00:00,SAT-66123,211.4812559028804,42.80091384966937,963.2063327067004,-4.404358639852842,154259.26998622107,10.5,10500154259.269987,47.655,-122.3035,60.0,0.85
2026-01-20T23:00:52+00:00,SAT-66123,211.64106373417113,43.13250124805207,958.8137190232205,-4.372148224176597,153131.12497931573,10.5,10500153131.124979,47.655,-122.3035,60.0,0.8666666666666667
2026-01-20T23:00:53+00:00,SAT-66123,211.80453940977668,43.46658304779046,954.4532298609751,-4.339489310352551,151987.27167012918,10.5,10500151987.27167,47.655,-122.3035,60.0,0.8833333333333333
2026-01-20T23:00:54+00:00,SAT-66123,211.97179195619344,43.8031615189819,950.1253125221168,-4.306377116507743,150827.54257724292,10.5,10500150827.542578,47.655,-122.3035,60.0,0.9
2026-01-20T23:00:55+00:00,SAT-66123,212.14293459713528,44.14223776054861,945.8304190779197,-4.27280688277729,149651.77099005453,10.5,10500149651.77099,47.655,-122.3035,60.0,0.9166666666666666
2026-01-20T23:00:56+00:00,SAT-66123,212.31808494692226,44.48381163396302,941.5690063468298,-4.238773894961118,148459.79179733645,10.5,10500148459.791798,47.655,-122.3035,60.0,0.9333333333333333
2026-01-20T23:00:57+00:00,SAT-66123,212.49736521471544,44.82788169547279,937.341535848922,-4.204273528776197,147251.44303713628,10.5,10500147251.443037,47.655,-122.3035,60.0,0.95
2026-01-20T23:00:58+00:00,SAT-66123,212.68090242112677,45.17444512844948,933.1484737162225,-4.169301188758477,146026.5637568641,10.5,10500146026.563757,47.655,-122.3035,60.0,0.9666666666666667
2026-01-20T23:00:59+00:00,SAT-66123,212.86882862351626,45.5234976673782,928.9902906639674,-4.13385237930884,144784.99650162255,10.5,10500144784.996502,47.655,-122.3035,60.0,0.9833333333333333
2026-01-20T23:01:00+00:00,SAT-66123,213.0612811560193,45.87503352378601,924.8674618910034,-4.0979226690389385,143526.58606544684,10.5,10500143526.586065,47.655,-122.3035,60.0,1.0
2026-01-20T23:01:01+00:00,SAT-66123,213.2584028805738,46.22904530550322,920.7804670157485,-4.061507746808527,142251.1814539695,10.5,10500142251.181454,47.655,-122.3035,60.0,1.0166666666666666
2026-01-20T23:01:02+00:00,SAT-66123,213.46034245368017,46.585523936548455,916.7297899562648,-4.024603339066945,140958.63298936933,10.5,10500140958.63299,47.655,-122.3035,60.0,1.0333333333333334
2026-01-20T23:01:03+00:00,SAT-66123,213.66725460315843,46.94445856578126,912.7159188927686,-3.987205324346139,139648.7963204013,10.5,10500139648.79632,47.655,-122.3035,60.0,1.05
2026-01-20T23:01:04+00:00,SAT-66123,213.87930042503152,47.30583648088963,908.7393461159543,-3.949309670158061,138321.53021227653,10.5,10500138321.530212,47.655,-122.3035,60.0,1.0666666666666667
2026-01-20T23:01:05+00:00,SAT-66123,214.09664769293516,47.66964301239211,904.8005679382499,-3.9109124695486295,136976.6978269367,10.5,10500136976.697826,47.655,-122.3035,60.0,1.0833333333333333
2026-01-20T23:01:06+00:00,SAT-66123,214.31947118568667,48.03586143597028,900.9000845686201,-3.8720099287643817,135614.16629108798,10.5,10500135614.16629,47.655,-122.3035,60.0,1.1
2026-01-20T23:01:07+00:00,SAT-66123,214.54795303141572,48.40447286859157,897.0383999996657,-3.8325984137320925,134233.8083241139,10.5,10500134233.808325,47.655,-122.3035,60.0,1.1166666666666667
2026-01-20T23:01:08+00:00,SAT-66123,214.78228307249762,48.7754561635935,893.2160218483702,-3.7926744102246315,132835.50084291524,10.5,10500132835.500843,47.655,-122.3035,60.0,1.1333333333333333
2026-01-20T23:01:09+00:00,SAT-66123,215.02265924741448,49.14878779652286,889.4334612365728,-3.7522345715533323,131419.12663229837,10.5,10500131419.126633,47.655,-122.3035,60.0,1.15
2026-01-20T23:01:10+00:00,SAT-66123,215.26928799552715,49.52444174953463,885.691232623877,-3.711275709666895,129984.57403322133,10.5,10500129984.574034,47.655,-122.3035,60.0,1.1666666666666667
2026-01-20T23:01:11+00:00,SAT-66123,215.5223846826171,49.90238938886696,881.9898536494359,-3.669794805829087,128531.73731677204,10.5,10500128531.737316,47.655,-122.3035,60.0,1.1833333333333333
2026-01-20T23:01:12+00:00,SAT-66123,215.78217404939508,50.28259933684421,878.3298449630889,-3.6277890378805435,127060.5176389918,10.5,10500127060.51764,47.655,-122.3035,60.0,1.2
2026-01-20T23:01:13+00:00,SAT-66123,216.04889068536096,50.66503733988353,874.7117300293095,-3.585255747664545,125570.82189998831,10.5,10500125570.8219,47.655,-122.3035,60.0,1.2166666666666666
2026-01-20T23:01:14+00:00,SAT-66123,216.3227795249057,51.049666125962105,871.1360349636386,-3.542192502267499,124062.56488883634,10.5,10500124062.564888,47.655,-122.3035,60.0,1.2333333333333334
2026-01-20T23:01:15+00:00,SAT-66123,216.60409637357398,51.43644526089654,867.603288308044,-3.4985970595906113,122535.66807775205,10.5,10500122535.668077,47.655,-122.3035,60.0,1.25
2026-01-20T23:01:16+00:00,SAT-66123,216.8931084586984,51.82533099305938,864.1140208406123,-3.454467428125042,120990.06171567178,10.5,10500120990.061716,47.655,-122.3035,60.0,1.2666666666666666
2026-01-20T23:01:17+00:00,SAT-66123,217.19009501290293,52.21627609623039,860.6687653256288,-3.4098018218726804,119425.68324938697,10.5,10500119425.683249,47.655,-122.3035,60.0,1.2833333333333334
2026-01-20T23:01:18+00:00,SAT-66123,217.4953478833205,52.60922969871332,857.2680563086144,-3.3645986996154083,117842.47869891973,10.5,10500117842.478699,47.655,-122.3035,60.0,1.3
2026-01-20T23:01:19+00:00,SAT-66123,217.80917217434416,53.004137107426686,853.912429872198,-3.318856787494023,116240.40344833239,10.5,10500116240.403448,47.655,-122.3035,60.0,1.3166666666666667
2026-01-20T23:01:20+00:00,SAT-66123,218.1318869240902,53.40093962481703,850.6024233694707,-3.2725750655562993,114619.4217745836,10.5,10500114619.421774,47.655,-122.3035,60.0,1.3333333333333333
2026-01-20T23:01:21+00:00,SAT-66123,218.46382581233715,53.7995743539442,847.3385751707558,-3.225752781965798,112979.50734518105,10.5,10500112979.507345,47.655,-122.3035,60.0,1.35
2026-01-20T23:01:22+00:00,SAT-66123,218.80533790322124,54.19997399421518,844.1214243962086,-3.1783894797558254,111320.6441552181,10.5,10500111320.644156,47.655,-122.3035,60.0,1.3666666666666667
2026-01-20T23:01:23+00:00,SAT-66123,219.15678842501129,54.60206662881939,840.9515106217322,-3.13048498316785,109642.82604888754,10.5,10500109642.82605,47.655,-122.3035,60.0,1.3833333333333333
2026-01-20T23:01:24+00:00,SAT-66123,219.51855958346567,55.0057754982915,837.8293735985194,-3.0820394396080926,107946.05818897876,10.5,10500107946.05819,47.655,-122.3035,60.0,1.4
2026-01-20T23:01:25+00:00,SAT-66123,219.89105141521577,55.411018766462455,834.7555529307504,-3.0330532881469234,106230.35595359339,10.5,10500106230.355953,47.655,-122.3035,60.0,1.4166666666666667
2026-01-20T23:01:26+00:00,SAT-66123,220.27468267313716,55.81770926878626,831.7305877847051,-2.983527321739573,104495.74711537779,10.5,10500104495.747116,47.655,-122.3035,60.0,1.4333333333333333
2026-01-20T23:01:27+00:00,SAT-66123,220.66989175442387,56.225754254367175,828.7550165358234,-2.933462645016446,102742.27036316131,10.5,10500102742.270363,47.655,-122.3035,60.0,1.45
2026-01-20T23:01:28+00:00,SAT-66123,221.07713765836243,56.63505510734973,825.8293764578605,-2.882860720786882,100969.97693071472,10.5,10500100969.97693,47.655,-122.3035,60.0,1.4666666666666666
2026-01-20T23:01:29+00:00,SAT-66123,221.49690098334207,57.045507058442,822.9542033656622,-2.8317233376956716,99178.92946394453,10.5,10500099178.929464,47.655,-122.3035,60.0,1.4833333333333334
2026-01-20T23:01:30+00:00,SAT-66123,221.92968495091725,57.456998875051,820.1300312902005,-2.780052709086152,97369.20548349683,10.5,10500097369.205484,47.655,-122.3035,60.0,1.5
2026-01-20T23:01:31+00:00,SAT-66123,222.37601647341083,57.86941254770323,817.3573920550052,-2.7278513633169856,95540.89354318696,10.5,10500095540.893543,47.655,-122.3035,60.0,1.5166666666666666
2026-01-20T23:01:32+00:00,SAT-66123,222.83644723088028,58.28262294223809,814.6368149619905,-2.675122242718263,93694.09669586072,10.5,10500093694.096695,47.655,-122.3035,60.0,1.5333333333333334
2026-01-20T23:01:33+00:00,SAT-66123,223.31155478351883,58.696497446547475,811.9688263785861,-2.621868653724343,91828.93074683555,10.5,10500091828.930746,47.655,-122.3035,60.0,1.55
2026-01-20T23:01:34+00:00,SAT-66123,223.80194369067345,59.110895589452355,809.353949374605,-2.5680943403723466,89945.52682812868,10.5,10500089945.526829,47.655,-122.3035,60.0,1.5666666666666667
2026-01-20T23:01:35+00:00,SAT-66123,224.30824664962344,59.52566864938118,806.792703285807,-2.513803416641581,88044.02902869758,10.5,10500088044.029028,47.655,-122.3035,60.0,1.5833333333333333
2026-01-20T23:01:36+00:00,SAT-66123,224.83112561957662,59.94065923031282,804.2856033449432,-2.4590004189536647,86124.59623321638,10.5,10500086124.596233,47.655,-122.3035,60.0,1.6
2026-01-20T23:01:37+00:00,SAT-66123,225.37127294017088,60.3557008225933,801.83316026044,-2.403690322264286,84187.4026856773,10.5,10500084187.402685,47.655,-122.3035,60.0,1.6166666666666667
2026-01-20T23:01:38+00:00,SAT-66123,225.9294124249257,60.770617342731455,799.4358797790351,-2.34787849965605,82232.63657416133,10.5,10500082232.636574,47.655,-122.3035,60.0,1.6333333333333333
2026-01-20T23:01:39+00:00,SAT-66123,226.5063003991363,61.185222641943255,797.0942622887114,-2.2915707724201035,80260.50178490843,10.5,10500080260.501785,47.655,-122.3035,60.0,1.65
2026-01-20T23:01:40+00:00,SAT-66123,227.10272668054654,61.59931999802301,794.8088023716845,-2.2347733908977756,78271.21723131089,10.5,10500078271.217232,47.655,-122.3035,60.0,1.6666666666666667
2026-01-20T23:01:41+00:00,SAT-66123,227.71951546267084,62.012701578862355,792.5799883764957,-2.1774930514814193,76265.0174493546,10.5,10500076265.017448,47.655,-122.3035,60.0,1.6833333333333333
2026-01-20T23:01:42+00:00,SAT-66123,228.35752607883683,62.4251478837613,790.4083019731517,-2.119736889222479,74242.15233872239,10.5,10500074242.152338,47.655,-122.3035,60.0,1.7
2026-01-20T23:01:43+00:00,SAT-66123,229.01765360544402,62.83642715874675,788.2942177156336,-2.0615124851849265,72202.88742034239,10.5,10500072202.88742,47.655,-122.3035,60.0,1.7166666666666666
2026-01-20T23:01:44+00:00,SAT-66123,229.70082926622277,63.246294789318384,786.238202597076,-2.0028278608943526,70147.50364197188,10.5,10500070147.503641,47.655,-122.3035,60.0,1.7333333333333334
2026-01-20T23:01:45+00:00,SAT-66123,230.40802058479238,63.65449266971394,784.2407156104773,-1.9436914991455079,68076.29810696516,10.5,10500068076.298107,47.655,-122.3035,60.0,1.75
2026-01-20T23:01:46+00:00,SAT-66123,231.1402312376231,64.06074855604949,782.3022072886629,-1.8841123283807626,65989.58352714132,10.5,10500065989.583527,47.655,-122.3035,60.0,1.7666666666666666
2026-01-20T23:01:47+00:00,SAT-66123,231.89850053054082,64.46477539943261,780.4231192598244,-1.8240997156219185,63887.68797522633,10.5,10500063887.687975,47.655,-122.3035,60.0,1.7833333333333334
2026-01-20T23:01:48+00:00,SAT-66123,232.6839024246116,64.86627066436749,778.6038838101108,-1.7636634880246973,61770.955639782376,10.5,10500061770.955639,47.655,-122.3035,60.0,1.8
2026-01-20T23:01:49+00:00,SAT-66123,233.49754403789996,65.26491564412207,776.8449234247208,-1.7028138993559283,59639.74565109722,10.5,10500059639.745651,47.655,-122.3035,60.0,1.8166666666666667
2026-01-20T23:01:50+00:00,SAT-66123,234.3405635034125,65.66037476805077,775.1466503624299,-1.6415616596969622,57494.43312152336,10.5,10500057494.43312,47.655,-122.3035,60.0,1.8333333333333333
2026-01-20T23:01:51+00:00,SAT-66123,235.2141271015861,66.0522949232969,773.509466200492,-1.5799179017542908,55335.40796553345,10.5,10500055335.407965,47.655,-122.3035,60.0,1.85
2026-01-20T23:01:52+00:00,SAT-66123,236.11942551791353,66.4403047874408,771.9337614131425,-1.517894198552837,53163.07551941413,10.5,10500053163.07552,47.655,-122.3035,60.0,1.8666666666666667
2026-01-20T23:01:53+00:00,SAT-66123,237.05766911759332,66.82401419686815,770.4199149324525,-1.4555025359709957,50977.855579327,10.5,10500050977.85558,47.655,-122.3035,60.0,1.8833333333333333
2026-01-20T23:01:54+00:00,SAT-66123,238.0300820692808,67.20301355588987,768.9682937365774,-1.3927553268173052,48780.18289433319,10.5,10500048780.182894,47.655,-122.3035,60.0,1.9
2026-01-20T23:01:55+00:00,SAT-66123,239.03789518800488,67.57687331556055,767.5792524239649,-1.3296653775748324,46570.5060016411,10.5,10500046570.506002,47.655,-122.3035,60.0,1.9166666666666667
2026-01-20T23:01:56+00:00,SAT-66123,240.08233730652955,67.94514353245096,766.2531328207303,-1.26624590307513,44349.28774055039,10.5,10500044349.28774,47.655,-122.3035,60.0,1.9333333333333333
2026-01-20T23:01:57+00:00,SAT-66123,241.1646250419889,68.30735354554757,764.9902635733968,-1.2025105035020538,42117.00444702837,10.5,10500042117.004448,47.655,-122.3035,60.0,1.95
2026-01-20T23:01:58+00:00,SAT-66123,242.28595077033117,68.66301179144254,763.7909597645707,-1.138473152431445,39874.14553480919,10.5,10500039874.145535,47.655,-122.3035,60.0,1.9666666666666666
2026-01-20T23:01:59+00:00,SAT-66123,243.44746866098325,69.01160579455036,762.6555225405457,-1.0741481742608372,37621.212704886624,10.5,10500037621.212706,47.655,-122.3035,60.0,1.9833333333333334
2026-01-20T23:02:00+00:00,SAT-66123,244.65027862338036,69.35260236702452,761.5842387614163,-1.0095502693344436,35358.72082549741,10.5,10500035358.720825,47.655,-122.3035,60.0,2.0
2026-01-20T23:02:01+00:00,SAT-66123,245.89540811176855,69.68544807540614,760.5773806261334,-0.9446944492231492,33087.19566535282,10.5,10500033087.195665,47.655,-122.3035,60.0,2.0166666666666666
2026-01-20T23:02:02+00:00,SAT-66123,247.18379163431376,70.00956999251956,759.6352053621082,-0.8795960510147597,30807.174394143618,10.5,10500030807.174395,47.655,-122.3035,60.0,2.033333333333333
2026-01-20T23:02:03+00:00,SAT-66123,248.51624804519804,70.32437680701281,758.7579549005627,-0.8142707213404013,28519.205023077044,10.5,10500028519.205023,47.655,-122.3035,60.0,2.05
2026-01-20T23:02:04+00:00,SAT-66123,249.89345567523816,70.62926033247544,757.9458555678126,-0.7487343821840354,26223.845207381342,10.5,10500026223.845207,47.655,-122.3035,60.0,2.066666666666667
2026-01-20T23:02:05+00:00,SAT-66123,251.3159254514819,70.92359746003989,757.1991178106477,-0.6830032292495485,23921.662189114373,10.5,10500023921.66219,47.655,-122.3035,60.0,2.0833333333333335
2026-01-20T23:02:06+00:00,SAT-66123,252.7839723570243,71.20675261437128,756.5179359233429,-0.6170937052752755,21613.23186252535,10.5,10500021613.231863,47.655,-122.3035,60.0,2.1
2026-01-20T23:02:07+00:00,SAT-66123,254.29768564265743,71.47808074845037,755.9024878012816,-0.5510224817980584,19299.138135355002,10.5,10500019299.138136,47.655,-122.3035,60.0,2.1166666666666667
2026-01-20T23:02:08+00:00,SAT-66123,255.85689840959435,71.73693091595224,755.3529347127684,-0.4848064414347989,16979.972308260632,10.5,10500016979.97231,47.655,-122.3035,60.0,2.1333333333333333
2026-01-20T23:02:09+00:00,SAT-66123,257.4611573495738,71.98265044607767,754.8694210885108,-0.41846265077795497,14656.332125501727,10.5,10500014656.332125,47.655,-122.3035,60.0,2.15
2026-01-20T23:02:10+00:00,SAT-66123,259.10969357162026,72.2145897246616,754.4520743381348,-0.35200834584368407,12328.821265272401,10.5,10500012328.821266,47.655,-122.3035,60.0,2.1666666666666665
2026-01-20T23:02:11+00:00,SAT-66123,260.80139567284346,72.4321075752231,754.1010046812135,-0.2854609087227022,9998.048521915694,10.5,10500009998.048521,47.655,-122.3035,60.0,2.183333333333333
2026-01-20T23:02:12+00:00,SAT-66123,262.5347862994689,72.63457719967018,753.8163050015806,-0.21883784119097274,7664.62688165829,10.5,10500007664.626883,47.655,-122.3035,60.0,2.2
2026-01-20T23:02:13+00:00,SAT-66123,264.3080035395601,72.82139261146035,753.5980507279661,-0.1521567452640745,5329.172841542205,10.5,10500005329.172842,47.655,-122.3035,60.0,2.216666666666667
2026-01-20T23:02:14+00:00,SAT-66123,266.11878856876064,72.99197546881082,753.4462997340228,-0.08543530068522572,2992.3056209601846,10.5,10500002992.30562,47.655,-122.3035,60.0,2.2333333333333334
2026-01-20T23:02:15+00:00,SAT-66123,267.9644808976284,73.1457821791102,753.3610922608061,-0.018691240418800104,654.6463033349595,10.5,10500000654.646303,47.655,-122.3035,60.0,2.25
2026-01-20T23:02:16+00:00,SAT-66123,269.8420224141845,73.28231111411463,753.342450863695,0.0480576730060331,-1683.1829924265392,10.5,10499998316.817007,47.655,-122.3035,60.0,2.2666666666666666
2026-01-20T23:02:17+00:00,SAT-66123,271.7479711870281,73.40110975031577,753.3903803829064,0.11479367052770181,-4020.5599186250006,10.5,10499995979.44008,47.655,-122.3035,60.0,2.283333333333333
2026-01-20T23:02:18+00:00,SAT-66123,273.678525612222,73.50178152567192,753.5048679369794,0.18149899979388348,-6356.862712789714,10.5,10499993643.137287,47.655,-122.3035,60.0,2.3
2026-01-20T23:02:19+00:00,SAT-66123,275.6295590942606,73.58399219515792,753.6858829394404,0.2481559495888342,-8691.47105322696,10.5,10499991308.528946,47.655,-122.3035,60.0,2.316666666666667
2026-01-20T23:02:20+00:00,SAT-66123,277.5966648675267,73.64747546162162,753.9333771398303,0.3147468721735862,-11023.766841468225,10.5,10499988976.233158,47.655,-122.3035,60.0,2.3333333333333335
2026-01-20T23:02:21+00:00,SAT-66123,279.57521003064267,73.69203767246702,754.2472846870115,0.38125420627730183,-13353.135007524668,10.5,10499986646.864992,47.655,-122.3035,60.0,2.35
2026-01-20T23:02:22+00:00,SAT-66123,281.56039735088945,73.71756139831517,754.6275222154054,0.4476605019708198,-15678.96438106394,10.5,10499984321.03562,47.655,-122.3035,60.0,2.3666666666666667
2026-01-20T23:02:23+00:00,SAT-66123,283.54733289097226,73.72400774557205,755.0739889560376,0.5139484409202292,-18000.648400776,10.5,10499981999.351599,47.655,-122.3035,60.0,2.3833333333333333
2026-01-20T23:02:24+00:00,SAT-66123,285.5310971102863,73.71141730309613,755.586566867782,0.580100860706837,-20317.58596616126,10.5,10499979682.414034,47.655,-122.3035,60.0,2.4
2026-01-20T23:02:25+00:00,SAT-66123,287.50681690930526,73.67990967936467,756.1651207928604,0.6461007714162244,-22629.182018549498,10.5,10499977370.817982,47.655,-122.3035,60.0,2.4166666666666665
2026-01-20T23:02:26+00:00,SAT-66123,289.4697359683467,73.62968164506744,756.8094986288862,0.7119313862697945,-24934.84861394626,10.5,10499975065.151386,47.655,-122.3035,60.0,2.433333333333333
2026-01-20T23:02:27+00:00,SAT-66123,291.4152809245719,73.56100395302872,757.5195315314592,0.7775761336143129,-27234.005342957244,10.5,10499972765.994658,47.655,-122.3035,60.0,2.45
2026-01-20T23:02:28+00:00,SAT-66123,293.3391210944309,73.47421696172812,758.2950341287172,0.8430186809488863,-29526.080172314763,10.5,10499970473.919828,47.655,-122.3035,60.0,2.466666666666667
2026-01-20T23:02:29+00:00,SAT-66123,295.2372199710828,73.36972523081229,759.1358047598503,0.9082429463489807,-31810.509844995155,10.5,10499968189.490154,47.655,-122.3035,60.0,2.4833333333333334
2026-01-20T23:02:30+00:00,SAT-66123,297.1058771555715,73.24799129071883,760.041625725009,0.9732331345371922,-34086.74114356979,10.5,10499965913.258856,47.655,-122.3035,60.0,2.5
2026-01-20T23:02:31+00:00,SAT-66123,298.94176001848723,73.10952880290812,761.0122635711874,1.0379737405344245,-36354.231018084705,10.5,10499963645.768982,47.655,-122.3035,60.0,2.5166666666666666
2026-01-20T23:02:32+00:00,SAT-66123,300.7419248078703,72.95489533983496,762.0474693817471,1.1024495597429704,-38612.44693921282,10.5,10499961387.55306,47.655,-122.3035,60.0,2.533333333333333
2026-01-20T23:02:33+00:00,SAT-66123,302.5038275225771,72.78468500282115,763.1469790759974,1.1666457291173937,-40860.868340232344,10.5,10499959139.13166,47.655,-122.3035,60.0,2.55
2026-01-20T23:02:34+00:00,SAT-66123,304.22532531776795,72.59952107404254,764.3105137498371,1.2305477124032875,-43098.986100025635,10.5,10499956901.0139,47.655,-122.3035,60.0,2.566666666666667
2026-01-20T23:02:35+00:00,SAT-66123,305.9046693873631,72.40004888739686,765.5377800016739,1.2941413400730546,-45326.30394179921,10.5,10499954673.696058,47.655,-122.3035,60.0,2.5833333333333335
2026-01-20T23:02:36+00:00,SAT-66123,307.5404906754651,72.18692905599583,766.8284702981734,1.3574128017436518,-47542.338167521026,10.5,10499952457.661833,47.655,-122.3035,60.0,2.6
2026-01-20T23:02:37+00:00,SAT-66123,309.1317797156298,71.96083117758799,768.1822633324459,1.4203486752351975,-49746.61867567587,10.5,10499950253.381325,47.655,-122.3035,60.0,2.6166666666666667
2026-01-20T23:02:38+00:00,SAT-66123,310.6778620459967,71.72242809325063,769.5988244112137,1.4829359281286656,-51938.68901582237,10.5,10499948061.310984,47.655,-122.3035,60.0,2.6333333333333333
2026-01-20T23:02:39+00:00,SAT-66123,312.1783705003239,71.47239075472051,771.0778058435341,1.5451619225769477,-54118.10655709675,10.5,10499945881.893442,47.655,-122.3035,60.0,2.65
2026-01-20T23:02:40+00:00,SAT-66123,313.63321561064447,71.2113837233231,772.6188473343175,1.607014442399955,-56284.4434371979,10.5,10499943715.556562,47.655,-122.3035,60.0,2.6666666666666665
2026-01-20T23:02:41+00:00,SAT-66123,315.0425552178064,70.94006129710026,774.221576404871,1.6684816835354228,-58437.2862279342,10.5,10499941562.713772,47.655,-122.3035,60.0,2.683333333333333
2026-01-20T23:02:42+00:00,SAT-66123,316.4067641586203,70.65906425393351,775.8856088039171,1.7295522761391018,-60576.23670926561,10.5,10499939423.76329,47.655,-122.3035,60.0,2.7
2026-01-20T23:02:43+00:00,SAT-66123,317.72640478997243,70.36901717277347,777.6105489406531,1.790215271715108,-62700.911418554206,10.5,10499937299.088581,47.655,-122.3035,60.0,2.716666666666667
2026-01-20T23:02:44+00:00,SAT-66123,319.00219887960145,70.07052629618383,779.3959903049771,1.850460163154012,-64810.94235238274,10.5,10499935189.057648,47.655,-122.3035,60.0,2.7333333333333334
2026-01-20T23:02:45+00:00,SAT-66123,320.23500129495835,69.76417787955438,781.241515907696,1.9102768892986854,-66905.97712646994,10.5,10499933094.022873,47.655,-122.3035,60.0,2.75
2026-01-20T23:02:46+00:00,SAT-66123,321.42577574106656,69.45053697733346,783.1466987252898,1.969655836106093,-68985.6790163613,10.5,10499931014.320984,47.655,-122.3035,60.0,2.7666666666666666
2026-01-20T23:02:47+00:00,SAT-66123,322.5755726952738,69.13014661373985,785.111102145833,2.0285878199601473,-71049.72637297481,10.5,10499928950.273626,47.655,-122.3035,60.0,2.783333333333333
2026-01-20T23:02:48+00:00,SAT-66123,323.685509584212,68.80352728891113,787.1342803982733,2.0870641304587325,-73097.81412118343,10.5,10499926902.185879,47.655,-122.3035,60.0,2.8
2026-01-20T23:02:49+00:00,SAT-66123,324.75675321728625,68.47117676142479,789.2157790243841,2.145076482048592,-75129.65206586423,10.5,10499924870.347935,47.655,-122.3035,60.0,2.816666666666667
2026-01-20T23:02:50+00:00,SAT-66123,325.7905043473926,68.13357007623395,791.3551353024806,2.2026170510666656,-77144.96618924278,10.5,10499922855.033812,47.655,-122.3035,60.0,2.8333333333333335
2026-01-20T23:02:51+00:00,SAT-66123,326.78798429170774,67.79115978235527,793.5518787080778,2.2596784551752376,-79143.49793062505,10.5,10499920856.50207,47.655,-122.3035,60.0,2.85
2026-01-20T23:02:52+00:00,SAT-66123,327.7504234377087,67.44437631227656,795.8055313540391,2.316253764462087,-81125.00457517151,10.5,10499918874.995424,47.655,-122.3035,60.0,2.8666666666666667
2026-01-20T23:02:53+00:00,SAT-66123,328.6790514930748,67.09362848501725,798.1156084417959,2.3723364772407147,-83089.25840631891,10.5,10499916910.741594,47.655,-122.3035,60.0,2.8833333333333333
2026-01-20T23:02:54+00:00,SAT-66123,329.57508929937677,66.73930410959662,800.4816186884308,2.4279205496569443,-85036.04774272845,10.5,10499914963.952257,47.655,-122.3035,60.0,2.9
2026-01-20T23:02:55+00:00,SAT-66123,330.4397420674273,66.3817706559706,802.9030647832885,2.4830003412874198,-86965.17503291529,10.5,10499913034.824966,47.655,-122.3035,60.0,2.9166666666666665
2026-01-20T23:02:56+00:00,SAT-66123,331.27419384163244,66.02137598513825,805.3794437903325,2.5375706728170897,-88876.45887535784,10.5,10499911123.541124,47.655,-122.3035,60.0,2.933333333333333
2026-01-20T23:02:57+00:00,SAT-66123,332.07960308384577,65.65844910406429,807.9102476080221,2.591626771855485,-90769.73212075466,10.5,10499909230.26788,47.655,-122.3035,60.0,2.95
2026-01-20T23:02:58+00:00,SAT-66123,332.8570991940467,65.29330094747324,810.4949633751527,2.6451642850272643,-92644.84229548654,10.5,10499907355.157705,47.655,-122.3035,60.0,2.966666666666667
2026-01-20T23:02:59+00:00,SAT-66123,333.607779862921,64.92622516464229,813.1330738887532,2.6981792550180863,-94501.65079766585,10.5,10499905498.349203,47.655,-122.3035,60.0,2.9833333333333334
2026-01-20T23:03:00+00:00,SAT-66123,334.33270912703114,64.5574989065794,815.8240579990912,2.750668161120261,-96340.03431721668,10.5,10499903659.965683,47.655,-122.3035,60.0,3.0
2026-01-20T23:03:01+00:00,SAT-66123,335.0329160386011,64.18738359714375,818.5673910451152,2.802627848385255,-98159.88235449599,10.5,10499901840.117645,47.655,-122.3035,60.0,3.0166666666666666
2026-01-20T23:03:02+00:00,SAT-66123,335.7093938248331,63.816125697497064,821.3625452192381,2.8540555529612504,-99961.098107722,10.5,10499900038.901892,47.655,-122.3035,60.0,3.033333333333333
2026-01-20T23:03:03+00:00,SAT-66123,336.3630994817153,63.44395744587766,824.2089899573914,2.9049489007938725,-101743.59842746831,10.5,10499898256.401573,47.655,-122.3035,60.0,3.05
2026-01-20T23:03:04+00:00,SAT-66123,336.99495372080867,63.0710975731917,827.1061923277832,2.9553058854224545,-103507.31303899504,10.5,10499896492.68696,47.655,-122.3035,60.0,3.066666666666667
2026-01-20T23:03:05+00:00,SAT-66123,337.6058412013148,62.69775199473385,830.0536173975112,3.0051248352738082,-105252.18339673839,10.5,10499894747.816603,47.655,-122.3035,60.0,3.0833333333333335
2026-01-20T23:03:06+00:00,SAT-66123,338.19661099186874,62.32411447752536,833.0507285665576,3.054404464222214,-106978.16445513531,10.5,10499893021.835545,47.655,-122.3035,60.0,3.1
2026-01-20T23:03:07+00:00,SAT-66123,338.76807723214665,61.95036727186583,836.0969879522085,3.103143814636402,-108685.22267388803,10.5,10499891314.777327,47.655,-122.3035,60.0,3.1166666666666667
2026-01-20T23:03:08+00:00,SAT-66123,339.3210199312983,61.57668172036817,839.1918567166725,3.151342249598334,-110373.33574543262,10.5,10499889626.664255,47.655,-122.3035,60.0,3.1333333333333333
2026-01-20T23:03:09+00:00,SAT-66123,339.8561858806175,61.2032188380251,842.3347953869386,3.198999471057953,-112042.49323079537,10.5,10499887957.50677,47.655,-122.3035,60.0,3.15
2026-01-20T23:03:10+00:00,SAT-66123,340.3742896555418,60.83012986065532,845.5252641927405,3.246115454177161,-113692.69426004101,10.5,10499886307.30574,47.655,-122.3035,60.0,3.1666666666666665
2026-01-20T23:03:11+00:00,SAT-66123,340.8760146685824,60.457556772227555,848.7627233390398,3.2926905386989676,-115323.95073240687,10.5,10499884676.049267,47.655,-122.3035,60.0,3.183333333333333
2026-01-20T23:03:12+00:00,SAT-66123,341.36201427868485,60.08563279348949,852.0466333696355,3.3387252838701844,-116936.28223508189,10.5,10499883063.717766,47.655,-122.3035,60.0,3.2
2026-01-20T23:03:13+00:00,SAT-66123,341.8329129025258,59.71448286020377,855.3764553860821,3.384220588499325,-118529.72024814218,10.5,10499881470.279753,47.655,-122.3035,60.0,3.216666666666667
2026-01-20T23:03:14+00:00,SAT-66123,342.28930715554986,59.34422406147858,858.7516513863454,3.4291775644864977,-120104.30371503285,10.5,10499879895.696285,47.655,-122.3035,60.0,3.2333333333333334
2026-01-20T23:03:15+00:00,SAT-66123,342.73176697433394,58.97496606723212,862.1716844773266,3.4735976294213,-121660.08228573798,10.5,10499878339.917715,47.655,-122.3035,60.0,3.25
2026-01-20T23:03:16+00:00,SAT-66123,343.1608367428105,58.60681152142013,865.6360191797362,3.517482429809233,-123197.11362784498,10.5,10499876802.886372,47.655,-122.3035,60.0,3.2666666666666666
2026-01-20T23:03:17+00:00,SAT-66123,343.5770363912543,58.239856420905475,869.1441216563992,3.5608338312432433,-124715.46308231028,10.5,10499875284.536919,47.655,-122.3035,60.0,3.283333333333333
2026-01-20T23:03:18+00:00,SAT-66123,343.98086247236637,57.87419047346523,872.6954599307592,3.603653965051562,-126215.20529726404,10.5,10499873784.794703,47.655,-122.3035,60.0,3.3
2026-01-20T23:03:19+00:00,SAT-66123,344.3727892161147,57.509897430370955,876.2895041519039,3.6459451496423103,-127696.42147316546,10.5,10499872303.578527,47.655,-122.3035,60.0,3.316666666666667
2026-01-20T23:03:20+00:00,SAT-66123,344.75326954516186,57.147055407629495,879.9257267811472,3.687709916310896,-129159.20026668718,10.5,10499870840.799734,47.655,-122.3035,60.0,3.3333333333333335
2026-01-20T23:03:21+00:00,SAT-66123,345.12273606114854,56.78573718597765,883.6036028043479,3.7289509955109694,-130603.63730986581,10.5,10499869396.36269,47.655,-122.3035,60.0,3.35
2026-01-20T23:03:22+00:00,SAT-66123,345.4816019952084,56.4260104948281,887.3226099305375,3.7696713083386912,-132029.8349118451,10.5,10499867970.165089,47.655,-122.3035,60.0,3.3666666666666667
2026-01-20T23:03:23+00:00,SAT-66123,345.8302621224176,56.06793828056857,891.0822287820539,3.8098739592660773,-133437.901804367,10.5,10499866562.098196,47.655,-122.3035,60.0,3.3833333333333333
2026-01-20T23:03:24+00:00,SAT-66123,346.1690936396837,55.71157896002297,894.8819430774286,3.849562198663608,-134827.95182915468,10.5,10499865172.04817,47.655,-122.3035,60.0,3.4
2026-01-20T23:03:25+00:00,SAT-66123,346.4984570044469,55.35698666273064,898.7212397768958,3.8887394473526964,-136200.10479784422,10.5,10499863799.895203,47.655,-122.3035,60.0,3.4166666666666665
2026-01-20T23:03:26+00:00,SAT-66123,346.81869674012654,55.004211456991015,902.599609252389,3.92740927578457,-137554.4857627405,10.5,10499862445.514236,47.655,-122.3035,60.0,3.433333333333333
2026-01-20T23:03:27+00:00,SAT-66123,347.1301422044848,54.653299564822525,906.5165454367714,3.9655753977023838,-138891.224794838,10.5,10499861108.775206,47.655,-122.3035,60.0,3.45
2026-01-20T23:03:28+00:00,SAT-66123,347.433108322971,54.30429356517812,910.4715459667465,4.0032416690954316,-140210.45694719255,10.5,10499859789.543053,47.655,-122.3035,60.0,3.466666666666667
2026-01-20T23:03:29+00:00,SAT-66123,347.72789628833465,53.95723258568399,914.4641123247244,4.04041202842564,-141512.32016140054,10.5,10499858487.679838,47.655,-122.3035,60.0,3.4833333333333334
2026-01-20T23:03:30+00:00,SAT-66123,348.0147942231393,53.61215248859488,918.4937499210743,4.077090572797644,-142796.957935397,10.5,10499857203.042065,47.655,-122.3035,60.0,3.5
2026-01-20T23:03:31+00:00,SAT-66123,348.2940778165521,53.269086039776475,922.5599682523444,4.11328148548728,-144064.51678519693,10.5,10499855935.483215,47.655,-122.3035,60.0,3.5166666666666666
2026-01-20T23:03:32+00:00,SAT-66123,348.5660109251877,52.92806307426076,926.6622809872038,4.148989049469637,-145315.1467187049,10.5,10499854684.853281,47.655,-122.3035,60.0,3.533333333333333
2026-01-20T23:03:33+00:00,SAT-66123,348.8308461458466,52.589110651387614,930.8002060658748,4.18421765877052,-146549.00163329145,10.5,10499853450.998367,47.655,-122.3035,60.0,3.55
2026-01-20T23:03:34+00:00,SAT-66123,349.0888253608256,52.252253200397405,934.9732658108886,4.218971743726897,-147766.23669809737,10.5,10499852233.763302,47.655,-122.3035,60.0,3.566666666666667
2026-01-20T23:03:35+00:00,SAT-66123,349.3401802516366,51.91751266388417,939.1809869632989,4.253255869913524,-148967.01181886301,10.5,10499851032.988182,47.655,-122.3035,60.0,3.5833333333333335
2026-01-20T23:03:36+00:00,SAT-66123,349.585132793265,51.584908625535654,943.4229008175594,4.2870746319971795,-150151.48792025444,10.5,10499849848.51208,47.655,-122.3035,60.0,3.6
2026-01-20T23:03:37+00:00,SAT-66123,349.82389571731284,51.254458439123965,947.6985432505378,4.320432700499748,-151319.82858370425,10.5,10499848680.171417,47.655,-122.3035,60.0,3.6166666666666667
2026-01-20T23:03:38+00:00,SAT-66123,350.05667295471443,50.92617734680899,952.0074547971695,4.353334815491083,-152472.1998265092,10.5,10499847527.800173,47.655,-122.3035,60.0,3.6333333333333333
2026-01-20T23:03:39+00:00,SAT-66123,350.2836600557446,50.60007859151325,956.3491807198194,4.385785752211368,-153608.76889777984,10.5,10499846391.231102,47.655,-122.3035,60.0,3.65
2026-01-20T23:03:40+00:00,SAT-66123,350.5050445869567,50.27617352574678,960.7232710433582,4.417790316506674,-154729.7041185742,10.5,10499845270.295881,47.655,-122.3035,60.0,3.6666666666666665
2026-01-20T23:03:41+00:00,SAT-66123,350.7210065079714,49.95447171486143,965.1292805856875,4.449353397217011,-155835.17671674918,10.5,10499844164.823284,47.655,-122.3035,60.0,3.683333333333333
2026-01-20T23:03:42+00:00,SAT-66123,350.9317185317353,49.634981030990986,969.5667690405119,4.4804798729614514,-156925.35756218134,10.5,10499843074.642437,47.655,-122.3035,60.0,3.7
2026-01-20T23:03:43+00:00,SAT-66123,351.1373464619871,49.31770774861146,974.0353009671455,4.511174683925829,-158000.41968107552,10.5,10499841999.580318,47.655,-122.3035,60.0,3.716666666666667
2026-01-20T23:03:44+00:00,SAT-66123,351.3380495171062,49.00265662994021,978.5344458519141,4.541442771633358,-159060.53614647727,10.5,10499840939.463854,47.655,-122.3035,60.0,3.7333333333333334
2026-01-20T23:03:45+00:00,SAT-66123,351.53398063478426,48.68983100998711,983.0637781094898,4.571289095972666,-160105.8806746666,10.5,10499839894.119326,47.655,-122.3035,60.0,3.75
2026-01-20T23:03:46+00:00,SAT-66123,351.7252867621224,48.37923287591021,987.6228771012065,4.600718649871234,-161136.62813908397,10.5,10499838863.37186,47.655,-122.3035,60.0,3.7666666666666666
2026-01-20T23:03:47+00:00,SAT-66123,351.91210913172125,48.070862941218145,992.2113271680115,4.629736424619569,-162152.9533558362,10.5,10499837847.046644,47.655,-122.3035,60.0,3.783333333333333
2026-01-20T23:03:48+00:00,SAT-66123,352.0945835223571,47.76472071837686,996.8287176288321,4.65834740913759,-163155.03105800177,10.5,10499836844.968943,47.655,-122.3035,60.0,3.8
2026-01-20T23:03:49+00:00,SAT-66123,352.27284050662956,47.460804587641576,1001.474642778212,4.686556605560957,-164143.03644153065,10.5,10499835856.963558,47.655,-122.3035,60.0,3.816666666666667
2026-01-20T23:03:50+00:00,SAT-66123,352.44700568678286,47.15911186128375,1006.1487018994914,4.714369014395095,-165117.1446452749,10.5,10499834882.855354,47.655,-122.3035,60.0,3.8333333333333335
2026-01-20T23:03:51+00:00,SAT-66123,352.61719991816244,46.859638845428734,1010.8504992631815,4.741789609564767,-166077.5298771194,10.5,10499833922.470123,47.655,-122.3035,60.0,3.85
2026-01-20T23:03:52+00:00,SAT-66123,352.7835395206531,46.56238090022386,1015.5796441004541,4.768823396186602,-167024.36743742006,10.5,10499832975.632563,47.655,-122.3035,60.0,3.8666666666666667
2026-01-20T23:03:53+00:00,SAT-66123,352.9461364816855,46.26733249331544,1020.3357506342508,4.795475326864908,-167957.83078732935,10.5,10499832042.169212,47.655,-122.3035,60.0,3.8833333333333333
2026-01-20T23:03:54+00:00,SAT-66123,353.10509864622014,45.9744872556861,1025.1184380269108,4.821750367141368,-168878.09384112112,10.5,10499831121.906158,47.655,-122.3035,60.0,3.9
2026-01-20T23:03:55+00:00,SAT-66123,353.26052989967195,45.68383803063441,1029.9273303930731,4.847653431397335,-169785.32872121828,10.5,10499830214.671278,47.655,-122.3035,60.0,3.9166666666666665
2026-01-20T23:03:56+00:00,SAT-66123,353.4125303396807,45.39537692405073,1034.7620567486533,4.873189445770689,-170679.7079618068,10.5,10499829320.292038,47.655,-122.3035,60.0,3.933333333333333
2026-01-20T23:03:57+00:00,SAT-66123,353.5611964415633,45.109095348392955,1039.6222510225687,4.898363308785818,-171561.4031299316,10.5,10499828438.59687,47.655,-122.3035,60.0,3.95
2026-01-20T23:03:58+00:00,SAT-66123,353.70662121436646,44.82498406670695,1044.5075520291978,4.923179876557954,-172430.5843072894,10.5,10499827569.415693,47.655,-122.3035,60.0,3.966666666666667
2026-01-20T23:03:59+00:00,SAT-66123,353.84889434897167,44.54303323522166,1049.417603426085,4.94764397684214,-173287.4205822832,10.5,10499826712.579418,47.655,-122.3035,60.0,3.9833333333333334
2026-01-20T23:04:00+00:00,SAT-66123,353.9881023594566,44.26323244294264,1054.3520536856554,4.971760432298388,-174132.0808648664,10.5,10499825867.919136,47.655,-122.3035,60.0,4.0
2026-01-20T23:04:01+00:00,SAT-66123,354.12432871832084,43.98557074792981,1059.3105560901345,4.995534003747796,-174964.73189913222,10.5,10499825035.2681,47.655,-122.3035,60.0,4.016666666666667
2026-01-20T23:04:02+00:00,SAT-66123,354.25765398361983,43.710036714840946,1064.292768669872,5.018969430869274,-175785.53968868483,10.5,10499824214.460312,47.655,-122.3035,60.0,4.033333333333333
2026-01-20T23:04:03+00:00,SAT-66123,354.38815592119744,43.436618448320615,1069.2983541822591,5.04207142970887,-176594.66940940567,10.5,10499823405.330591,47.655,-122.3035,60.0,4.05
2026-01-20T23:04:04+00:00,SAT-66123,354.51590962100283,43.16530362481951,1074.3269800881556,5.0648446629264345,-177392.2843673658,10.5,10499822607.715633,47.655,-122.3035,60.0,4.066666666666666
2026-01-20T23:04:05+00:00,SAT-66123,354.64098760716394,42.89607952436494,1079.3783184986473,5.087293736243289,-178178.545874408,10.5,10499821821.454126,47.655,-122.3035,60.0,4.083333333333333
2026-01-20T23:04:06+00:00,SAT-66123,354.7634599428112,42.628933060862174,1084.4520461182606,5.109423262843076,-178953.6155037372,10.5,10499821046.384497,47.655,-122.3035,60.0,4.1
2026-01-20T23:04:07+00:00,SAT-66123,354.88339433160394,42.36385080751075,1089.547844252403,5.131237784253875,-179717.6523188775,10.5,10499820282.347681,47.655,-122.3035,60.0,4.116666666666666
2026-01-20T23:04:08+00:00,SAT-66123,355.0008562125542,42.10081902498014,1094.6653987358989,5.1527417911768385,-180470.81360317877,10.5,10499819529.186398,47.655,-122.3035,60.0,4.133333333333334
2026-01-20T23:04:09+00:00,SAT-66123,355.1159088510179,41.83982368705738,1099.804399882299,5.173939764841934,-181213.25630827012,10.5,10499818786.743692,47.655,-122.3035,60.0,4.15
2026-01-20T23:04:10+00:00,SAT-66123,355.2286134264203,41.58085050291167,1104.9645424744347,5.1948360947995855,-181945.13417477516,10.5,10499818054.865826,47.655,-122.3035,60.0,4.166666666666667
2026-01-20T23:04:11+00:00,SAT-66123,355.33902911411684,41.32388494227236,1110.1455256729814,5.2154351725013415,-182666.60100990295,10.5,10499817333.39899,47.655,-122.3035,60.0,4.183333333333334
2026-01-20T23:04:12+00:00,SAT-66123,355.44721316557343,41.068912254721994,1115.3470530183563,5.235741300158534,-183377.80749529263,10.5,10499816622.192505,47.655,-122.3035,60.0,4.2
2026-01-20T23:04:13+00:00,SAT-66123,355.55322098296614,40.8159174923985,1120.5688323417144,5.255758785348028,-184078.9045005071,10.5,10499815921.095499,47.655,-122.3035,60.0,4.216666666666667
2026-01-20T23:04:14+00:00,SAT-66123,355.6571061923642,40.564885526997806,1125.8105757703015,5.2754918315805535,-184770.03925027297,10.5,10499815229.96075,47.655,-122.3035,60.0,4.233333333333333
2026-01-20T23:04:15+00:00,SAT-66123,355.7589207114136,40.31580107105503,1131.0719996236644,5.294944628981609,-185451.35850050935,10.5,10499814548.641499,47.655,-122.3035,60.0,4.25
2026-01-20T23:04:16+00:00,SAT-66123,355.858714815809,40.06864869387058,1136.352824400302,5.314121316144222,-186123.00720225033,10.5,10499813876.992798,47.655,-122.3035,60.0,4.266666666666667
2026-01-20T23:04:17+00:00,SAT-66123,355.9565372020596,39.823412838375845,1141.65277472627,5.333025963249956,-186785.12791047114,10.5,10499813214.87209,47.655,-122.3035,60.0,4.283333333333333
2026-01-20T23:04:18+00:00,SAT-66123,356.0524350471635,39.580077837861346,1146.971579286951,5.351662620079293,-187437.8624656147,10.5,10499812562.137535,47.655,-122.3035,60.0,4.3
2026-01-20T23:04:19+00:00,SAT-66123,356.1464540665471,39.338627929674615,1152.3089708067102,5.3700352676585785,-188081.35030006352,10.5,10499811918.6497,47.655,-122.3035,60.0,4.316666666666666
2026-01-20T23:04:20+00:00,SAT-66123,356.23863856859055,39.09904727033316,1157.6646859803218,5.388147851945097,-188715.72961793293,10.5,10499811284.270382,47.655,-122.3035,60.0,4.333333333333333
2026-01-20T23:04:21+00:00,SAT-66123,356.3290315073785,38.861319948355515,1163.038465437995,5.406004232478943,-189341.135596643,10.5,10499810658.864403,47.655,-122.3035,60.0,4.35
2026-01-20T23:04:22+00:00,SAT-66123,356.4176745322777,38.62542999862955,1168.4300536591875,5.423608278192117,-189957.70374255787,10.5,10499810042.296257,47.655,-122.3035,60.0,4.366666666666666
2026-01-20T23:04:23+00:00,SAT-66123,356.50460803703015,38.39136141189411,1173.839198981971,5.440963757981435,-190565.56605838652,10.5,10499809434.43394,47.655,-122.3035,60.0,4.383333333333334
2026-01-20T23:04:24+00:00,SAT-66123,356.5898712048684,38.15909814835901,1179.2656535032645,5.458074418653688,-191164.8537731517,10.5,10499808835.146227,47.655,-122.3035,60.0,4.4
2026-01-20T23:04:25+00:00,SAT-66123,356.6735020530383,37.9286241473057,1184.7091730568018,5.474943937884561,-191755.69569461248,10.5,10499808244.304306,47.655,-122.3035,60.0,4.416666666666667
2026-01-20T23:04:26+00:00,SAT-66123,356.7555374746503,37.69992333811219,1190.1695171441852,5.491575953899183,-192338.2192488025,10.5,10499807661.78075,47.655,-122.3035,60.0,4.433333333333334
2026-01-20T23:04:27+00:00,SAT-66123,356.83601327924583,37.47297964945769,1195.6464488955407,5.507974063668449,-192912.5504168578,10.5,10499807087.449583,47.655,-122.3035,60.0,4.45
2026-01-20T23:04:28+00:00,SAT-66123,356.914964231626,37.24777701808228,1201.1397350283726,5.52414181064009,-193478.81330530654,10.5,10499806521.186695,47.655,-122.3035,60.0,4.466666666666667
2026-01-20T23:04:29+00:00,SAT-66123,356.99242408887693,37.02429939755921,1206.6491457941845,5.540082661017772,-194037.12931526316,10.5,10499805962.870686,47.655,-122.3035,60.0,4.483333333333333
2026-01-20T23:04:30+00:00,SAT-66123,357.06842563551066,36.802530767504656,1212.1744549014395,5.55580007354093,-194587.61958641326,10.5,10499805412.380413,47.655,-122.3035,60.0,4.5
2026-01-20T23:04:31+00:00,SAT-66123,357.14300071818695,36.58245513952322,1217.7154395081177,5.57129743906355,-195130.40288080653,10.5,10499804869.597118,47.655,-122.3035,60.0,4.516666666666667
2026-01-20T23:04:32+00:00,SAT-66123,357.2161802781097,36.364056565161825,1223.2718801540104,5.586578091688746,-195665.59597283744,10.5,10499804334.404028,47.655,-122.3035,60.0,4.533333333333333
2026-01-20T23:04:33+00:00,SAT-66123,357.28799438229805,36.14731914297953,1228.8435607041213,5.601645325446505,-196193.31423336975,10.5,10499803806.685766,47.655,-122.3035,60.0,4.55
2026-01-20T23:04:34+00:00,SAT-66123,357.3584722537883,35.93222702455884,1234.4302683086999,5.616502401174724,-196713.67187074,10.5,10499803286.328129,47.655,-122.3035,60.0,4.566666666666666
2026-01-20T23:04:35+00:00,SAT-66123,357.4276423007224,35.718764419908915,1240.031793370138,5.631152508518609,-197226.78059981545,10.5,10499802773.2194,47.655,-122.3035,60.0,4.583333333333333
2026-01-20T23:04:36+00:00,SAT-66123,357.49553214375095,35.5069156039581,1245.6479294719675,5.64559878482653,-197732.75030380706,10.5,10499802267.249697,47.655,-122.3035,60.0,4.6
2026-01-20T23:04:37+00:00,SAT-66123,357.56216864261876,35.29666492195735,1251.278473326701,5.659844362921164,-198231.69070741674,10.5,10499801768.309292,47.655,-122.3035,60.0,4.616666666666666
2026-01-20T23:04:38+00:00,SAT-66123,357.62757792225824,35.087996792804624,1256.923224771321,5.673892287712313,-198723.70845626574,10.5,10499801276.291544,47.655,-122.3035,60.0,4.633333333333334
2026-01-20T23:04:39+00:00,SAT-66123,357.69178539683503,34.88089571517907,1262.5819866795996,5.687745570584812,-199208.9090217891,10.5,10499800791.090979,47.655,-122.3035,60.0,4.65
2026-01-20T23:04:40+00:00,SAT-66123,357.7548157935097,34.675346271335506,1268.2545649286628,5.701407169298936,-199687.395997263,10.5,10499800312.604002,47.655,-122.3035,60.0,4.666666666666667
2026-01-20T23:04:41+00:00,SAT-66123,357.8166931750435,34.471333131376454,1273.9407683455102,5.71488001451745,-200159.27202689412,10.5,10499799840.727974,47.655,-122.3035,60.0,4.683333333333334
2026-01-20T23:04:42+00:00,SAT-66123,357.8774409618008,34.268841056305334,1279.640408679989,5.728166987763346,-200624.6380338065,10.5,10499799375.361967,47.655,-122.3035,60.0,4.7
2026-01-20T23:04:43+00:00,SAT-66123,357.9370819526776,34.06785490164306,1285.353300555785,5.741270926027873,-201083.59338143413,10.5,10499798916.406618,47.655,-122.3035,60.0,4.716666666666667
2026-01-20T23:04:44+00:00,SAT-66123,357.99563834524673,33.86835962063594,1291.0792614260101,5.754194599377366,-201536.23508921743,10.5,10499798463.764912,47.655,-122.3035,60.0,4.733333333333333
2026-01-20T23:04:45+00:00,SAT-66123,358.0531317549128,33.670340268012126,1296.8181115064558,5.76694075697101,-201982.65944434,10.5,10499798017.340555,47.655,-122.3035,60.0,4.75
2026-01-20T23:04:46+00:00,SAT-66123,358.1095832338317,33.47378200191634,1302.5696737547414,5.779512116722133,-202422.96163962336,10.5,10499797577.03836,47.655,-122.3035,60.0,4.766666666666667
2026-01-20T23:04:47+00:00,SAT-66123,358.16501328897675,33.27867008605102,1308.3337738391524,5.791911328090418,-202857.23447035276,10.5,10499797142.76553,47.655,-122.3035,60.0,4.783333333333333
2026-01-20T23:04:48+00:00,SAT-66123,358.21944189915666,33.08498989286462,1314.110240070368,5.804140995796195,-203285.5691648522,10.5,10499796714.430836,47.655,-122.3035,60.0,4.8
2026-01-20T23:04:49+00:00,SAT-66123,358.2728885316504,32.89272690575328,1319.898903356842,5.816203725177543,-203708.05697308166,10.5,10499796291.943027,47.655,-122.3035,60.0,4.816666666666666
2026-01-20T23:04:50+00:00,SAT-66123,358.3253721586317,32.70186671959624,1325.6995972054192,5.828102043174805,-204124.78639918106,10.5,10499795875.2136,47.655,-122.3035,60.0,4.833333333333333
2026-01-20T23:04:51+00:00,SAT-66123,358.37691127225037,32.51239504376681,1331.5121576431454,5.839838420896578,-204535.84399182608,10.5,10499795464.156008,47.655,-122.3035,60.0,4.85
2026-01-20T23:04:52+00:00,SAT-66123,358.42752389935583,32.32429770419478,1337.3364231615863,5.851415343514152,-204941.31679222762,10.5,10499795058.683208,47.655,-122.3035,60.0,4.866666666666666
2026-01-20T23:04:53+00:00,SAT-66123,358.47722761634725,32.13756064305471,1343.1722347308512,5.8628352186137285,-205341.28912423857,10.5,10499794658.710876,47.655,-122.3035,60.0,4.883333333333334
2026-01-20T23:04:54+00:00,SAT-66123,358.52603956260765,31.95216992128694,1349.0194357222151,5.874100433746983,-205735.8446100179,10.5,10499794264.15539,47.655,-122.3035,60.0,4.9
2026-01-20T23:04:55+00:00,SAT-66123,358.57397645399243,31.768111719132015,1354.8778718881388,5.885213309131299,-206125.06451339292,10.5,10499793874.935486,47.655,-122.3035,60.0,4.916666666666667
2026-01-20T23:04:56+00:00,SAT-66123,358.6210545954238,31.585372338037345,1360.7473912951125,5.896176151510898,-206509.02962630376,10.5,10499793490.970373,47.655,-122.3035,60.0,4.933333333333334
2026-01-20T23:04:57+00:00,SAT-66123,358.6672898934678,31.403938200757146,1366.6278443102192,5.906991231093067,-206887.8194610126,10.5,10499793112.180538,47.655,-122.3035,60.0,4.95
2026-01-20T23:04:58+00:00,SAT-66123,358.7126978682901,31.223795852089943,1372.519083564696,5.917660795736381,-207261.51274703516,10.5,10499792738.487253,47.655,-122.3035,60.0,4.966666666666667
2026-01-20T23:04:59+00:00,SAT-66123,358.75729366527287,31.04493195908501,1378.4209639316439,5.928186993018255,-207630.18470161676,10.5,10499792369.815298,47.655,-122.3035,60.0,4.983333333333333
2026-01-20T23:05:00+00:00,SAT-66123,358.8010920656217,30.8673333134919,1384.333342426014,5.938572024193515,-207993.91242201265,10.5,10499792006.087578,47.655,-122.3035,60.0,5.0
2026-01-20T23:05:01+00:00,SAT-66123,358.8441074978006,30.690986829496637,1390.2560782581431,5.948817980821302,-208352.76916347136,10.5,10499791647.230837,47.655,-122.3035,60.0,5.016666666666667
2026-01-20T23:05:02+00:00,SAT-66123,358.8863540473034,30.515879546271048,1396.1890327243489,5.958926954380464,-208706.82817842893,10.5,10499791293.171822,47.655,-122.3035,60.0,5.033333333333333
2026-01-20T23:05:03+00:00,SAT-66123,358.9278454669102,30.34199862716444,1402.132069206851,5.968901003012916,-209056.16155172128,10.5,10499790943.838448,47.655,-122.3035,60.0,5.05
2026-01-20T23:05:04+00:00,SAT-66123,358.9685951863568,30.169331359832505,1408.0850531405224,5.978742155380014,-209400.8403356503,10.5,10499790599.159664,47.655,-122.3035,60.0,5.066666666666666
