satellites_20260121_005943/SAT-56469.csv

timestamp,satellite,azimuth_deg,elevation_deg,distance_km,relative_velocity_kms,doppler_shift_hz,tx_freq_ghz,rx_freq_hz,ue_lat,ue_lon,ue_alt_m,time_minutes
2026-01-20T23:11:21+00:00,SAT-56469,245.5032639897529,30.006890734443793,3396.0688521384086,-4.308559337478772,150903.9731864339,10.5,10500150903.973186,47.655,-122.3035,60.0,11.35
2026-01-20T23:11:22+00:00,SAT-56469,245.5839624365991,30.07727860427084,3391.7717822924965,-4.30173722989198,150665.03412125795,10.5,10500150665.03412,47.655,-122.3035,60.0,11.366666666666667
2026-01-20T23:11:23+00:00,SAT-56469,245.66504313193298,30.1476801749009,3387.481516361884,-4.294884419230421,150425.01970452978,10.5,10500150425.019705,47.655,-122.3035,60.0,11.383333333333333
2026-01-20T23:11:24+00:00,SAT-56469,245.7465078822409,30.21809468247509,3383.1980849677716,-4.288000792541741,150183.9259801802,10.5,10500150183.92598,47.655,-122.3035,60.0,11.4
2026-01-20T23:11:25+00:00,SAT-56469,245.8283585001663,30.288521353316508,3378.9215188440103,-4.281086275582153,149941.75034787768,10.5,10500149941.750347,47.655,-122.3035,60.0,11.416666666666666
2026-01-20T23:11:26+00:00,SAT-56469,245.91059680521252,30.358959404462418,3374.6518487984963,-4.274140740554709,149698.48833163257,10.5,10500149698.48833,47.655,-122.3035,60.0,11.433333333333334
2026-01-20T23:11:27+00:00,SAT-56469,245.99322462266292,30.42940804272388,3370.389105766583,-4.267164104946881,149454.13704150706,10.5,10500149454.137041,47.655,-122.3035,60.0,11.45
2026-01-20T23:11:28+00:00,SAT-56469,246.0762437844037,30.499866465330214,3366.133320765916,-4.260156252937926,149208.69242096887,10.5,10500149208.692421,47.655,-122.3035,60.0,11.466666666666667
2026-01-20T23:11:29+00:00,SAT-56469,246.15965612822924,30.570333859302846,3361.8845249296523,-4.25311709059765,148962.1511801852,10.5,10500148962.15118,47.655,-122.3035,60.0,11.483333333333333
2026-01-20T23:11:30+00:00,SAT-56469,246.24346349820635,30.640809401728383,3357.64274948463,-4.246046528025532,148714.5101704596,10.5,10500148714.51017,47.655,-122.3035,60.0,11.5
2026-01-20T23:11:31+00:00,SAT-56469,246.3276677447174,30.71129225973702,3353.4080257473456,-4.2389444417363675,148465.76506681787,10.5,10500148465.765066,47.655,-122.3035,60.0,11.516666666666667
2026-01-20T23:11:32+00:00,SAT-56469,246.4122707237123,30.781781589870487,3349.1803851574537,-4.2318107457520755,148215.91285794385,10.5,10500148215.912857,47.655,-122.3035,60.0,11.533333333333333
2026-01-20T23:11:33+00:00,SAT-56469,246.497274297412,30.852276538604347,3344.959859240357,-4.22464533131566,147964.94973470757,10.5,10500147964.949736,47.655,-122.3035,60.0,11.55
2026-01-20T23:11:34+00:00,SAT-56469,246.58268033378266,30.922776241893335,3340.746479629925,-4.217448112457681,147712.87268609556,10.5,10500147712.872686,47.655,-122.3035,60.0,11.566666666666666
2026-01-20T23:11:35+00:00,SAT-56469,246.6684907069341,30.99327982545399,3336.5402780457675,-4.210218962005796,147459.67725799445,10.5,10500147459.677258,47.655,-122.3035,60.0,11.583333333333334
2026-01-20T23:11:36+00:00,SAT-56469,246.75470729621304,31.06378640400453,3332.341286334327,-4.202957805415856,147205.36083955286,10.5,10500147205.36084,47.655,-122.3035,60.0,11.6
2026-01-20T23:11:37+00:00,SAT-56469,246.8413319872096,31.1342950820357,3328.149536416392,-4.195664530152758,146949.91948931536,10.5,10500146949.919489,47.655,-122.3035,60.0,11.616666666666667
2026-01-20T23:11:38+00:00,SAT-56469,246.9283666709069,31.20480495310576,3323.9650603249866,-4.188339028886583,146693.3494481343,10.5,10500146693.349447,47.655,-122.3035,60.0,11.633333333333333
2026-01-20T23:11:39+00:00,SAT-56469,247.0158132437063,31.27531509982754,3319.7878902001767,-4.180981214958241,146435.64768084168,10.5,10500146435.64768,47.655,-122.3035,60.0,11.65
2026-01-20T23:11:40+00:00,SAT-56469,247.10367360778883,31.345824594130196,3315.6180582684588,-4.17359097352988,146176.81016533024,10.5,10500146176.810165,47.655,-122.3035,60.0,11.666666666666666
2026-01-20T23:11:41+00:00,SAT-56469,247.19194967044302,31.416332496697077,3311.4555968708582,-4.166168214781792,145916.83375573382,10.5,10500145916.833755,47.655,-122.3035,60.0,11.683333333333334
2026-01-20T23:11:42+00:00,SAT-56469,247.2806433445101,31.486837857294585,3307.300538437982,-4.158712834888742,145655.71481565354,10.5,10500145655.714815,47.655,-122.3035,60.0,11.7
2026-01-20T23:11:43+00:00,SAT-56469,247.3697565480008,31.557339714447487,3303.1529155039866,-4.151224733240496,145393.44982129338,10.5,10500145393.449821,47.655,-122.3035,60.0,11.716666666666667
2026-01-20T23:11:44+00:00,SAT-56469,247.45929120408158,31.627837095404733,3299.0127607033683,-4.143703806612535,145130.0351572941,10.5,10500145130.035158,47.655,-122.3035,60.0,11.733333333333333
2026-01-20T23:11:45+00:00,SAT-56469,247.54924924091955,31.698329015999967,3294.880106773573,-4.136149972301243,144865.46792702522,10.5,10500144865.467928,47.655,-122.3035,60.0,11.75
2026-01-20T23:11:46+00:00,SAT-56469,247.63963259204945,31.768814480912322,3290.7549865345313,-4.128563094755258,144599.7433829046,10.5,10500144599.743383,47.655,-122.3035,60.0,11.766666666666667
2026-01-20T23:11:47+00:00,SAT-56469,247.73044319510876,31.839292482682236,3286.6374329413625,-4.120943113553855,144332.85940874292,10.5,10500144332.85941,47.655,-122.3035,60.0,11.783333333333333
2026-01-20T23:11:48+00:00,SAT-56469,247.82168299339753,31.909762002885127,3282.5274790094445,-4.113289893383014,144064.8112652709,10.5,10500144064.811266,47.655,-122.3035,60.0,11.8
2026-01-20T23:11:49+00:00,SAT-56469,247.91335393411833,31.98022201077826,3278.4251578891103,-4.105603373825568,143795.59683642365,10.5,10500143795.596836,47.655,-122.3035,60.0,11.816666666666666
2026-01-20T23:11:50+00:00,SAT-56469,248.0054579699459,32.05067146447395,3274.3305027909482,-4.097883423580401,143525.21152348074,10.5,10500143525.211523,47.655,-122.3035,60.0,11.833333333333334
2026-01-20T23:11:51+00:00,SAT-56469,248.0979970573287,32.12110930964865,3270.2435470564974,-4.090129947010715,143253.65197683696,10.5,10500143253.651978,47.655,-122.3035,60.0,11.85
2026-01-20T23:11:52+00:00,SAT-56469,248.19097315717158,32.191534480053924,3266.164324122679,-4.082342862933485,142980.91535311937,10.5,10500142980.915354,47.655,-122.3035,60.0,11.866666666666667
2026-01-20T23:11:53+00:00,SAT-56469,248.28438823506656,32.261945897669435,3262.09286750738,-4.074522061713001,142706.99781242164,10.5,10500142706.997812,47.655,-122.3035,60.0,11.883333333333333
2026-01-20T23:11:54+00:00,SAT-56469,248.37824426052214,32.332342472129476,3258.029210837831,-4.066667437880956,142431.89566079757,10.5,10500142431.89566,47.655,-122.3035,60.0,11.9
2026-01-20T23:11:55+00:00,SAT-56469,248.47254320693452,32.40272310069737,3253.9733878464517,-4.05877890340962,142155.60581514364,10.5,10500142155.605816,47.655,-122.3035,60.0,11.916666666666666
2026-01-20T23:11:56+00:00,SAT-56469,248.5672870518669,32.47308666847304,3249.925432353451,-4.05085635677752,141878.12471974848,10.5,10500141878.12472,47.655,-122.3035,60.0,11.933333333333334
2026-01-20T23:11:57+00:00,SAT-56469,248.6624777766204,32.5434320480675,3245.885378280291,-4.042899703278919,141599.44905761656,10.5,10500141599.449059,47.655,-122.3035,60.0,11.95
2026-01-20T23:11:58+00:00,SAT-56469,248.75811736625207,32.6137580996289,3241.8532596428877,-4.034908827843205,141319.5747984883,10.5,10500141319.574799,47.655,-122.3035,60.0,11.966666666666667
2026-01-20T23:11:59+00:00,SAT-56469,248.8542078089627,32.68406367039748,3237.829110571919,-4.026883667751486,141038.49974568273,10.5,10500141038.499746,47.655,-122.3035,60.0,11.983333333333333
2026-01-20T23:12:00+00:00,SAT-56469,248.9507510972183,32.754347595513764,3233.8129652606153,-4.018824090945903,140756.21927397512,10.5,10500140756.219275,47.655,-122.3035,60.0,12.0
2026-01-20T23:12:01+00:00,SAT-56469,249.0477492259315,32.82460869673159,3229.8048580339114,-4.010730017681183,140472.73059034868,10.5,10500140472.73059,47.655,-122.3035,60.0,12.016666666666667
2026-01-20T23:12:02+00:00,SAT-56469,249.14520419358954,32.894845783226344,3225.8048232962774,-4.002601347842609,140188.0301883625,10.5,10500140188.030188,47.655,-122.3035,60.0,12.033333333333333
2026-01-20T23:12:03+00:00,SAT-56469,249.2431180016137,32.965057651149856,3221.812895552029,-3.994437977923598,139902.11444277823,10.5,10500139902.114443,47.655,-122.3035,60.0,12.05
2026-01-20T23:12:04+00:00,SAT-56469,249.34149265410974,33.035243083478406,3217.8291094087135,-3.9862398396514336,139614.9809623965,10.5,10500139614.980963,47.655,-122.3035,60.0,12.066666666666666
2026-01-20T23:12:05+00:00,SAT-56469,249.44033015861254,33.105400850529975,3213.8534995419677,-3.9780067951095,139326.6249167941,10.5,10500139326.624916,47.655,-122.3035,60.0,12.083333333333334
2026-01-20T23:12:06+00:00,SAT-56469,249.5396325241681,33.17552970866544,3209.886100764979,-3.96973877692971,139037.04394645564,10.5,10500139037.043947,47.655,-122.3035,60.0,12.1
2026-01-20T23:12:07+00:00,SAT-56469,249.63940176294807,33.24562840141464,3205.9269479581208,-3.961435682424734,138746.23445483643,10.5,10500138746.234455,47.655,-122.3035,60.0,12.116666666666667
2026-01-20T23:12:08+00:00,SAT-56469,249.7396398891912,33.31569565877579,3201.976076104182,-3.953097416843093,138454.19312333895,10.5,10500138454.193123,47.655,-122.3035,60.0,12.133333333333333
2026-01-20T23:12:09+00:00,SAT-56469,249.84034891924153,33.38573019725689,3198.0335202804504,-3.9447238888307625,138160.91675235875,10.5,10500138160.916752,47.655,-122.3035,60.0,12.15
2026-01-20T23:12:10+00:00,SAT-56469,249.94153087145378,33.455730719843835,3194.0993156553236,-3.9363149906766597,137866.40156939815,10.5,10500137866.40157,47.655,-122.3035,60.0,12.166666666666666
2026-01-20T23:12:11+00:00,SAT-56469,250.04318776558728,33.5256959156191,3190.173497504622,-3.9278706485964228,137570.64499021665,10.5,10500137570.64499,47.655,-122.3035,60.0,12.183333333333334
2026-01-20T23:12:12+00:00,SAT-56469,250.14532162351748,33.59562446026742,3186.256101177755,-3.919390758971154,137273.6433856422,10.5,10500137273.643385,47.655,-122.3035,60.0,12.2
2026-01-20T23:12:13+00:00,SAT-56469,250.24793446826794,33.66551501545744,3182.347162127475,-3.910875218232782,136975.3931282828,10.5,10500136975.393127,47.655,-122.3035,60.0,12.216666666666667
2026-01-20T23:12:14+00:00,SAT-56469,250.3510283238042,33.73536622875152,3178.446715909824,-3.9023239505976073,136675.89156387275,10.5,10500136675.891563,47.655,-122.3035,60.0,12.233333333333333
2026-01-20T23:12:15+00:00,SAT-56469,250.45460521559474,33.805176734002046,3174.5547981564278,-3.893736866986392,136375.13557248033,10.5,10500136375.135572,47.655,-122.3035,60.0,12.25
2026-01-20T23:12:16+00:00,SAT-56469,250.5586671700451,33.874945151027234,3170.6714445877533,-3.885113845046245,136073.12086878973,10.5,10500136073.120869,47.655,-122.3035,60.0,12.266666666666667
2026-01-20T23:12:17+00:00,SAT-56469,250.6632162134021,33.944670084929655,3166.7966910462937,-3.876454826701877,135769.8454187587,10.5,10500135769.845419,47.655,-122.3035,60.0,12.283333333333333
2026-01-20T23:12:18+00:00,SAT-56469,250.76825437328193,34.014350127144844,3162.930573432463,-3.8677597040053744,135465.30544159462,10.5,10500135465.30544,47.655,-122.3035,60.0,12.3
2026-01-20T23:12:19+00:00,SAT-56469,250.87378367710227,34.08398385446591,3159.0731277543355,-3.8590283893589636,135159.49786925298,10.5,10500135159.49787,47.655,-122.3035,60.0,12.316666666666666
2026-01-20T23:12:20+00:00,SAT-56469,250.97980615242074,34.15356982931585,3155.224390107348,-3.850260789541416,134852.41943673202,10.5,10500134852.419437,47.655,-122.3035,60.0,12.333333333333334
2026-01-20T23:12:21+00:00,SAT-56469,251.08632382655168,34.22310659955354,3151.384396679912,-3.841456824127462,134544.06732719857,10.5,10500134544.067327,47.655,-122.3035,60.0,12.35
2026-01-20T23:12:22+00:00,SAT-56469,251.1933387267022,34.29259269861918,3147.553183740649,-3.8326163976139664,134234.4381957289,10.5,10500134234.438196,47.655,-122.3035,60.0,12.366666666666667
2026-01-20T23:12:23+00:00,SAT-56469,251.30085287931607,34.362026645169756,3143.7307876534287,-3.823739410729348,133923.52856541227,10.5,10500133923.528566,47.655,-122.3035,60.0,12.383333333333333
2026-01-20T23:12:24+00:00,SAT-56469,251.40886830971982,34.43140694292763,3139.9172448811273,-3.814825795169883,133611.33604396335,10.5,10500133611.336044,47.655,-122.3035,60.0,12.4
2026-01-20T23:12:25+00:00,SAT-56469,251.5173870427759,34.50073208114496,3136.112591954745,-3.805875446318027,133297.85696723324,10.5,10500133297.856968,47.655,-122.3035,60.0,12.416666666666666
2026-01-20T23:12:26+00:00,SAT-56469,251.62641110158137,34.57000053386649,3132.316865509617,-3.7968882966928645,132983.08897175486,10.5,10500132983.088972,47.655,-122.3035,60.0,12.433333333333334
2026-01-20T23:12:27+00:00,SAT-56469,251.73594250830376,34.63921076050929,3128.5301022483823,-3.7878642262889715,132667.02785443055,10.5,10500132667.027855,47.655,-122.3035,60.0,12.45
2026-01-20T23:12:28+00:00,SAT-56469,251.84598328238116,34.70836120483265,3124.752338993363,-3.7788031788443863,132349.67164472849,10.5,10500132349.671644,47.655,-122.3035,60.0,12.466666666666667
2026-01-20T23:12:29+00:00,SAT-56469,251.9565354421203,34.777450295996836,3120.9836126229957,-3.7697050646933867,132031.01720217578,10.5,10500132031.017202,47.655,-122.3035,60.0,12.483333333333333
2026-01-20T23:12:30+00:00,SAT-56469,252.06760100347014,34.84647644788373,3117.2239601051415,-3.760569782580809,131711.06098038828,10.5,10500131711.06098,47.655,-122.3035,60.0,12.5
2026-01-20T23:12:31+00:00,SAT-56469,252.1791819793866,34.91543805879647,3113.4734185086477,-3.751397260826826,131389.80046883525,10.5,10500131389.800468,47.655,-122.3035,60.0,12.516666666666667
2026-01-20T23:12:32+00:00,SAT-56469,252.29128038042933,34.984333511914166,3109.7320249738495,-3.7421874122463388,131067.23261392572,10.5,10500131067.232615,47.655,-122.3035,60.0,12.533333333333333
2026-01-20T23:12:33+00:00,SAT-56469,252.4038982140312,35.05316117492782,3105.999816728036,-3.7329401532173727,130743.35448686442,10.5,10500130743.354486,47.655,-122.3035,60.0,12.55
2026-01-20T23:12:34+00:00,SAT-56469,252.51703748429833,35.12191940002431,3102.2768310818938,-3.723655404236063,130418.16330308969,10.5,10500130418.163303,47.655,-122.3035,60.0,12.566666666666666
2026-01-20T23:12:35+00:00,SAT-56469,252.6307001918579,35.19060652387968,3098.5631054254027,-3.7143330669659465,130091.65561844267,10.5,10500130091.655619,47.655,-122.3035,60.0,12.583333333333334
2026-01-20T23:12:36+00:00,SAT-56469,252.74488833295783,35.25922086723626,3094.8586772466147,-3.7049730920309343,129763.82970356384,10.5,10500129763.829704,47.655,-122.3035,60.0,12.6
2026-01-20T23:12:37+00:00,SAT-56469,252.85960390069317,35.327760735717405,3091.16358408283,-3.6955753662296473,129434.68159366203,10.5,10500129434.681593,47.655,-122.3035,60.0,12.616666666666667
2026-01-20T23:12:38+00:00,SAT-56469,252.97484888269958,35.3962244185848,3087.477863584243,-3.686139825551803,129104.20904682645,10.5,10500129104.209047,47.655,-122.3035,60.0,12.633333333333333
2026-01-20T23:12:39+00:00,SAT-56469,253.0906252623754,35.46461018955851,3083.801553464893,-3.6766663870559393,128772.40915809617,10.5,10500128772.409159,47.655,-122.3035,60.0,12.65
2026-01-20T23:12:40+00:00,SAT-56469,253.2069350179556,35.53291630639725,3080.134691521536,-3.66715496869302,128439.27905376696,10.5,10500128439.279055,47.655,-122.3035,60.0,12.666666666666666
2026-01-20T23:12:41+00:00,SAT-56469,253.3237801222238,35.60114101083901,3076.477315632759,-3.6576055050419485,128104.81644251525,10.5,10500128104.816442,47.655,-122.3035,60.0,12.683333333333334
2026-01-20T23:12:42+00:00,SAT-56469,253.44116254269352,35.669282528832575,3072.8294637423974,-3.6480178995846773,127769.01794387073,10.5,10500127769.017944,47.655,-122.3035,60.0,12.7
2026-01-20T23:12:43+00:00,SAT-56469,253.55908424027876,35.737339069894134,3069.191173890545,-3.638392088170655,127431.88131100975,10.5,10500127431.881311,47.655,-122.3035,60.0,12.716666666666667
2026-01-20T23:12:44+00:00,SAT-56469,253.67754716997788,35.80530882763201,3065.562484181276,-3.6287279886400596,127093.40366634782,10.5,10500127093.403666,47.655,-122.3035,60.0,12.733333333333333
2026-01-20T23:12:45+00:00,SAT-56469,253.79655327994655,35.87318997934414,3061.943432800606,-3.6190255350168163,126753.58269912371,10.5,10500126753.582699,47.655,-122.3035,60.0,12.75
2026-01-20T23:12:46+00:00,SAT-56469,253.91610451166483,35.94098068624972,3058.334058000349,-3.60928464667745,126412.41558556228,10.5,10500126412.415586,47.655,-122.3035,60.0,12.766666666666667
2026-01-20T23:12:47+00:00,SAT-56469,254.03620279908648,36.00867909315091,3054.734398112729,-3.599505243495015,126069.89951927896,10.5,10500126069.899519,47.655,-122.3035,60.0,12.783333333333333
2026-01-20T23:12:48+00:00,SAT-56469,254.15685006827763,36.0762833283764,3051.1444915498837,-3.5896872592845592,125726.03218219678,10.5,10500125726.032183,47.655,-122.3035,60.0,12.8
2026-01-20T23:12:49+00:00,SAT-56469,254.27804823750432,36.14379150397312,3047.5643767899574,-3.579830627611086,125380.8112474811,10.5,10500125380.811247,47.655,-122.3035,60.0,12.816666666666666
2026-01-20T23:12:50+00:00,SAT-56469,254.39979921684792,36.21120171564503,3043.994092377353,-3.5699352653699914,125034.2338044572,10.5,10500125034.233805,47.655,-122.3035,60.0,12.833333333333334
2026-01-20T23:12:51+00:00,SAT-56469,254.52210490723763,36.27851204237525,3040.4336769393576,-3.560001114000127,124686.2978020659,10.5,10500124686.297802,47.655,-122.3035,60.0,12.85
2026-01-20T23:12:52+00:00,SAT-56469,254.64496720089778,36.34572054682986,3036.883169161661,-3.550028092041488,124337.0003872333,10.5,10500124337.000387,47.655,-122.3035,60.0,12.866666666666667
2026-01-20T23:12:53+00:00,SAT-56469,254.76838798014737,36.412825274867714,3033.3426078111984,-3.5400161458799384,123986.33968216556,10.5,10500123986.339682,47.655,-122.3035,60.0,12.883333333333333
2026-01-20T23:12:54+00:00,SAT-56469,254.89236911796442,36.47982425600884,3029.812031708374,-3.529965192701574,123634.31278636944,10.5,10500123634.312786,47.655,-122.3035,60.0,12.9
2026-01-20T23:12:55+00:00,SAT-56469,255.01691247653235,36.54671550283009,3026.2914797561866,-3.519875162337508,123280.91724223374,10.5,10500123280.917242,47.655,-122.3035,60.0,12.916666666666666
2026-01-20T23:12:56+00:00,SAT-56469,255.14201990725996,36.613497011152,3022.780990927615,-3.5097460163841148,122926.151704701,10.5,10500122926.151705,47.655,-122.3035,60.0,12.933333333333334
2026-01-20T23:12:57+00:00,SAT-56469,255.26769325150158,36.68016676058357,3019.2806042339416,-3.499577659230008,122570.01282505608,10.5,10500122570.012825,47.655,-122.3035,60.0,12.95
2026-01-20T23:12:58+00:00,SAT-56469,255.39393433804165,36.74672271339912,3015.7903587818028,-3.4893700421089613,122212.4988952994,10.5,10500122212.498896,47.655,-122.3035,60.0,12.966666666666667
2026-01-20T23:12:59+00:00,SAT-56469,255.5207449843574,36.81316281537147,3012.3102937264725,-3.4791230956367776,121853.60748530293,10.5,10500121853.607485,47.655,-122.3035,60.0,12.983333333333333
2026-01-20T23:13:00+00:00,SAT-56469,255.64812699540215,36.879484995340675,3008.8404482924243,-3.4688367699870826,121493.33684993626,10.5,10500121493.33685,47.655,-122.3035,60.0,13.0
2026-01-20T23:13:01+00:00,SAT-56469,255.7760821638822,36.94568716553857,3005.380861753824,-3.458510988665687,121131.68431004928,10.5,10500121131.68431,47.655,-122.3035,60.0,13.016666666666667
2026-01-20T23:13:02+00:00,SAT-56469,255.9046122687869,37.01176722104671,3001.9315734611278,-3.4481456885943853,120768.64765637649,10.5,10500120768.647655,47.655,-122.3035,60.0,13.033333333333333
2026-01-20T23:13:03+00:00,SAT-56469,256.0337190754194,37.07772304000974,2998.492622827703,-3.43774083155556,120404.2255503752,10.5,10500120404.22555,47.655,-122.3035,60.0,13.05
2026-01-20T23:13:04+00:00,SAT-56469,256.16340433585185,37.14355248407108,2995.064049305032,-3.4272963475033125,120038.41553874174,10.5,10500120038.415539,47.655,-122.3035,60.0,13.066666666666666
2026-01-20T23:13:05+00:00,SAT-56469,256.29366978723993,37.20925339773621,2991.6458924144554,-3.416812176288309,119671.21551479204,10.5,10500119671.215515,47.655,-122.3035,60.0,13.083333333333334
2026-01-20T23:13:06+00:00,SAT-56469,256.42451715169796,37.274823608529324,2988.2381917373036,-3.4062882649703123,119302.62362433507,10.5,10500119302.623625,47.655,-122.3035,60.0,13.1
2026-01-20T23:13:07+00:00,SAT-56469,256.5559481360767,37.34026092710024,2984.840986907707,-3.3957245556102356,118932.6378380989,10.5,10500118932.637838,47.655,-122.3035,60.0,13.116666666666667
2026-01-20T23:13:08+00:00,SAT-56469,256.68796443125035,37.40556314710409,2981.454317617578,-3.385121006285032,118561.2566877611,10.5,10500118561.256687,47.655,-122.3035,60.0,13.133333333333333
2026-01-20T23:13:09+00:00,SAT-56469,256.820567712249,37.47072804548131,2978.078223600643,-3.3744775492215604,118188.47779961958,10.5,10500118188.4778,47.655,-122.3035,60.0,13.15
2026-01-20T23:13:10+00:00,SAT-56469,256.95375963670017,37.535753381946236,2974.712744658219,-3.363794130452981,117814.29928352733,10.5,10500117814.299284,47.655,-122.3035,60.0,13.166666666666666
2026-01-20T23:13:11+00:00,SAT-56469,257.08754184484184,37.600636899227844,2971.3579206454474,-3.353070725282354,117438.7202744931,10.5,10500117438.720274,47.655,-122.3035,60.0,13.183333333333334
2026-01-20T23:13:12+00:00,SAT-56469,257.22191596017547,37.66537632361774,2968.0137914420993,-3.3423072526471014,117061.73793336244,10.5,10500117061.737934,47.655,-122.3035,60.0,13.2
2026-01-20T23:13:13+00:00,SAT-56469,257.3568835866358,37.729969363876165,2964.6803970087926,-3.3315036875702555,116683.35138533631,10.5,10500116683.351385,47.655,-122.3035,60.0,13.216666666666667
2026-01-20T23:13:14+00:00,SAT-56469,257.49244631031786,37.794413712296695,2961.3577773310562,-3.320659971720383,116303.55858740123,10.5,10500116303.558588,47.655,-122.3035,60.0,13.233333333333333
2026-01-20T23:13:15+00:00,SAT-56469,257.62860569756106,37.85870704405923,2958.0459724525936,-3.309776059099021,115922.35792849639,10.5,10500115922.35793,47.655,-122.3035,60.0,13.25
2026-01-20T23:13:16+00:00,SAT-56469,257.7653632948775,37.92284701746405,2954.7450224629856,-3.2988519168731405,115539.74825867025,10.5,10500115539.748259,47.655,-122.3035,60.0,13.266666666666667
2026-01-20T23:13:17+00:00,SAT-56469,257.9027206289465,37.98683127418166,2951.454967484557,-3.2878874816235206,115155.72735671345,10.5,10500115155.727356,47.655,-122.3035,60.0,13.283333333333333
2026-01-20T23:13:18+00:00,SAT-56469,258.0406792047292,38.05065743866791,2948.1758477028848,-3.2768827315444837,114770.29445889889,10.5,10500114770.294458,47.655,-122.3035,60.0,13.3
2026-01-20T23:13:19+00:00,SAT-56469,258.1792405066549,38.11432311896882,2944.907703325291,-3.2658376143219203,114383.4477329652,10.5,10500114383.447733,47.655,-122.3035,60.0,13.316666666666666
2026-01-20T23:13:20+00:00,SAT-56469,258.31840599672,38.17782590614289,2941.650574611274,-3.254752090615554,113995.18580104948,10.5,10500113995.1858,47.655,-122.3035,60.0,13.333333333333334
2026-01-20T23:13:21+00:00,SAT-56469,258.45817711444727,38.24116337452195,2938.4045018595666,-3.243626130650822,113605.50762032057,10.5,10500113605.50762,47.655,-122.3035,60.0,13.35
2026-01-20T23:13:22+00:00,SAT-56469,258.598555276687,38.304333081911466,2935.1695253985977,-3.2324596892596924,113214.41160880294,10.5,10500113214.41161,47.655,-122.3035,60.0,13.366666666666667
2026-01-20T23:13:23+00:00,SAT-56469,258.73954187633706,38.3673325693114,2931.945685601843,-3.221252736491757,112821.89671750666,10.5,10500112821.896717,47.655,-122.3035,60.0,13.383333333333333
2026-01-20T23:13:24+00:00,SAT-56469,258.8811382823753,38.430159361232995,2928.7330228726482,-3.2100052271063095,112427.96136191074,10.5,10500112427.961363,47.655,-122.3035,60.0,13.4
2026-01-20T23:13:25+00:00,SAT-56469,259.02334583856396,38.49281096542795,2925.5315776594807,-3.1987171450461456,112032.60497962403,10.5,10500112032.60498,47.655,-122.3035,60.0,13.416666666666666
2026-01-20T23:13:26+00:00,SAT-56469,259.1661658640999,38.55528487348312,2922.3413904268214,-3.187388450587284,111635.82617934464,10.5,10500111635.82618,47.655,-122.3035,60.0,13.433333333333334
2026-01-20T23:13:27+00:00,SAT-56469,259.3095996519336,38.617578560395536,2919.162501678769,-3.176019102744341,111237.6235255911,10.5,10500111237.623526,47.655,-122.3035,60.0,13.45
2026-01-20T23:13:28+00:00,SAT-56469,259.4536484680237,38.67968948458407,2915.9949519602987,-3.1646090977559824,110837.99688662554,10.5,10500110837.996887,47.655,-122.3035,60.0,13.466666666666667
2026-01-20T23:13:29+00:00,SAT-56469,259.59831355241056,38.74161508865286,2912.838781820137,-3.1531583891917583,110436.9446362572,10.5,10500110436.944635,47.655,-122.3035,60.0,13.483333333333333
2026-01-20T23:13:30+00:00,SAT-56469,259.7435961165787,38.803352798607925,2909.6940318533157,-3.1416669597051117,110034.46616693631,10.5,10500110034.466167,47.655,-122.3035,60.0,13.5
2026-01-20T23:13:31+00:00,SAT-56469,259.88949734412927,38.86490002446989,2906.56074267217,-3.1301347767984375,109630.56034045924,10.5,10500109630.56034,47.655,-122.3035,60.0,13.516666666666667
2026-01-20T23:13:32+00:00,SAT-56469,260.0360183893938,38.92625416003326,2903.438954921443,-3.11856181819748,109225.22637668737,10.5,10500109225.226377,47.655,-122.3035,60.0,13.533333333333333
2026-01-20T23:13:33+00:00,SAT-56469,260.1831603772229,38.98741258311983,2900.3287092680944,-3.106948086453502,108818.4643649767,10.5,10500108818.464365,47.655,-122.3035,60.0,13.55
2026-01-20T23:13:34+00:00,SAT-56469,260.3309244034971,39.04837265612712,2897.230046376538,-3.0952935324999187,108410.27258680786,10.5,10500108410.272587,47.655,-122.3035,60.0,13.566666666666666
2026-01-20T23:13:35+00:00,SAT-56469,260.4793115319565,39.10913172508495,2894.1430069601247,-3.0835981436225945,108000.65059687808,10.5,10500108000.650597,47.655,-122.3035,60.0,13.583333333333334
2026-01-20T23:13:36+00:00,SAT-56469,260.6283227952145,39.16968712043405,2891.067631744885,-3.0718619139322803,107589.5981889209,10.5,10500107589.598188,47.655,-122.3035,60.0,13.6
2026-01-20T23:13:37+00:00,SAT-56469,260.7779591944146,39.230036157234075,2888.0039614627235,-3.06008482559961,107177.11473847652,10.5,10500107177.114738,47.655,-122.3035,60.0,13.616666666666667
2026-01-20T23:13:38+00:00,SAT-56469,260.92822169791805,39.29017613500904,2884.9520368633252,-3.048266859982065,106763.19959260509,10.5,10500106763.199593,47.655,-122.3035,60.0,13.633333333333333
2026-01-20T23:13:39+00:00,SAT-56469,261.0791112405417,39.350104337814,2881.91189871497,-3.036408002684321,106347.85224712147,10.5,10500106347.852247,47.655,-122.3035,60.0,13.65
2026-01-20T23:13:40+00:00,SAT-56469,261.23062872303456,39.409818034405696,2878.883587800293,-3.024508261690002,105931.07298164594,10.5,10500105931.07298,47.655,-122.3035,60.0,13.666666666666666
2026-01-20T23:13:41+00:00,SAT-56469,261.38277501247495,39.46931447877317,2875.867144893967,-3.0125676076077434,105512.86076676854,10.5,10500105512.860767,47.655,-122.3035,60.0,13.683333333333334
2026-01-20T23:13:42+00:00,SAT-56469,261.5355509396447,39.52859090950273,2872.86261079998,-3.0005860361070034,105093.21545081543,10.5,10500105093.21545,47.655,-122.3035,60.0,13.7
2026-01-20T23:13:43+00:00,SAT-56469,261.68895729952976,39.58764455037134,2869.870026326636,-2.9885635523904286,104672.13721600529,10.5,10500104672.137217,47.655,-122.3035,60.0,13.716666666666667
2026-01-20T23:13:44+00:00,SAT-56469,261.8429948510895,39.64647261063825,2866.8894322770516,-2.9765001502277517,104249.62584412779,10.5,10500104249.625845,47.655,-122.3035,60.0,13.733333333333333
2026-01-20T23:13:45+00:00,SAT-56469,261.9976643158998,39.70507228493471,2863.920869460558,-2.964395825126312,103825.68117783095,10.5,10500103825.681177,47.655,-122.3035,60.0,13.75
2026-01-20T23:13:46+00:00,SAT-56469,262.15296637748366,39.763440753413526,2860.964378690965,-2.9522505667992305,103400.30285682478,10.5,10500103400.302856,47.655,-122.3035,60.0,13.766666666666667
2026-01-20T23:13:47+00:00,SAT-56469,262.30890168021847,39.82157518175771,2858.020000792344,-2.940064397280378,102973.49165282858,10.5,10500102973.491653,47.655,-122.3035,60.0,13.783333333333333
2026-01-20T23:13:48+00:00,SAT-56469,262.46547083030316,39.87947272194018,2855.08777656679,-2.927837312108599,102545.24740959391,10.5,10500102545.24741,47.655,-122.3035,60.0,13.8
2026-01-20T23:13:49+00:00,SAT-56469,262.6226743935585,39.93713051183713,2852.1677468208472,-2.915569306442593,102115.56995755786,10.5,10500102115.569958,47.655,-122.3035,60.0,13.816666666666666
2026-01-20T23:13:50+00:00,SAT-56469,262.7805128946203,39.99454567535742,2849.2599523658882,-2.9032603946593896,101684.45980026486,10.5,10500101684.4598,47.655,-122.3035,60.0,13.833333333333334
2026-01-20T23:13:51+00:00,SAT-56469,262.93898681718235,40.05171532296209,2846.364433998948,-2.8909105906069605,101251.91742272943,10.5,10500101251.917423,47.655,-122.3035,60.0,13.85
2026-01-20T23:13:52+00:00,SAT-56469,263.09809660320684,40.108636551802014,2843.4812325032494,-2.878519894653256,100817.94283783881,10.5,10500100817.942839,47.655,-122.3035,60.0,13.866666666666667
2026-01-20T23:13:53+00:00,SAT-56469,263.25784265135746,40.16530644560677,2840.6103886616484,-2.8660883316685206,100382.53691665408,10.5,10500100382.536917,47.655,-122.3035,60.0,13.883333333333333
2026-01-20T23:13:54+00:00,SAT-56469,263.418225317591,40.22172207532421,2837.7519432321974,-2.8536158984967077,99945.69954863719,10.5,10500099945.699549,47.655,-122.3035,60.0,13.9
2026-01-20T23:13:55+00:00,SAT-56469,263.5792449127523,40.277880498735314,2834.9059369760967,-2.8411026285334473,99507.43190344435,10.5,10500099507.431904,47.655,-122.3035,60.0,13.916666666666666
2026-01-20T23:13:56+00:00,SAT-56469,263.7409017038591,40.33377876134025,2832.072410621239,-2.8285485298197925,99067.73426270725,10.5,10500099067.734262,47.655,-122.3035,60.0,13.933333333333334
2026-01-20T23:13:57+00:00,SAT-56469,263.9031959118321,40.38941389603828,2829.251404887499,-2.8159536247484147,98626.60741071196,10.5,10500098626.60741,47.655,-122.3035,60.0,13.95
2026-01-20T23:13:58+00:00,SAT-56469,264.06612771151896,40.444782923588704,2826.4429604724164,-2.8033179350106416,98184.05210718056,10.5,10500098184.052107,47.655,-122.3035,60.0,13.966666666666667
2026-01-20T23:13:59+00:00,SAT-56469,264.22969723082326,40.49988285278592,2823.6471180518997,-2.7906414796250734,97740.06901822484,10.5,10500097740.069017,47.655,-122.3035,60.0,13.983333333333333
2026-01-20T23:14:00+00:00,SAT-56469,264.3939045497378,40.554710680598575,2820.863918282887,-2.777924300872037,97294.65962468072,10.5,10500097294.659624,47.655,-122.3035,60.0,14.0
2026-01-20T23:14:01+00:00,SAT-56469,264.5587497009042,40.609263392825284,2818.0934017801505,-2.7651664049431743,96847.82414340567,10.5,10500096847.824142,47.655,-122.3035,60.0,14.016666666666667
2026-01-20T23:14:02+00:00,SAT-56469,264.72423266663446,40.663537963591324,2815.3356091522874,-2.752367830880436,96399.56394181396,10.5,10500096399.563942,47.655,-122.3035,60.0,14.033333333333333
2026-01-20T23:14:03+00:00,SAT-56469,264.89035338004516,40.71753135620367,2812.5905809689557,-2.7395286128788814,95949.88021756122,10.5,10500095949.880219,47.655,-122.3035,60.0,14.05
2026-01-20T23:14:04+00:00,SAT-56469,265.05711172395,40.77124052327108,2809.858357765711,-2.7266487841608353,95498.7741342338,10.5,10500095498.774134,47.655,-122.3035,60.0,14.066666666666666
2026-01-20T23:14:05+00:00,SAT-56469,265.2245075299794,40.82466240690971,2807.1389800449747,-2.713728375952339,95046.24678549972,10.5,10500095046.246786,47.655,-122.3035,60.0,14.083333333333334
2026-01-20T23:14:06+00:00,SAT-56469,265.39254057761707,40.877793938930836,2804.4324882780247,-2.7007674257229093,94592.29948369997,10.5,10500094592.299484,47.655,-122.3035,60.0,14.1
2026-01-20T23:14:07+00:00,SAT-56469,265.56121059374476,40.93063204119909,2801.738922898771,-2.6877659802582423,94136.93386746757,10.5,10500094136.933868,47.655,-122.3035,60.0,14.116666666666667
2026-01-20T23:14:08+00:00,SAT-56469,265.73051725242397,40.983173626054786,2799.0583242944595,-2.6747240766060347,93680.1512343695,10.5,10500093680.151234,47.655,-122.3035,60.0,14.133333333333333
2026-01-20T23:14:09+00:00,SAT-56469,265.9004601734259,41.03541559637106,2796.3907328153914,-2.661641751868362,93221.95288387743,10.5,10500093221.952885,47.655,-122.3035,60.0,14.15
2026-01-20T23:14:10+00:00,SAT-56469,266.0710389214055,41.087354845808136,2793.7361887748616,-2.6485190634242537,92762.34082564767,10.5,10500092762.340826,47.655,-122.3035,60.0,14.166666666666666
2026-01-20T23:14:11+00:00,SAT-56469,266.2422530063702,41.13898825946878,2791.0947324289396,-2.6353560593629877,92301.31674397016,10.5,10500092301.316744,47.655,-122.3035,60.0,14.183333333333334
2026-01-20T23:14:12+00:00,SAT-56469,266.41410188227337,41.190312713981925,2788.4664039857344,-2.622152773899952,91838.88183721251,10.5,10500091838.881838,47.655,-122.3035,60.0,14.2
2026-01-20T23:14:13+00:00,SAT-56469,266.58658494523326,41.24132507750651,2785.851243619232,-2.608909282186112,91375.03873747944,10.5,10500091375.038738,47.655,-122.3035,60.0,14.216666666666667
2026-01-20T23:14:14+00:00,SAT-56469,266.759701535443,41.29202221080422,2783.249291428465,-2.595625620492096,90909.78871512174,10.5,10500090909.788715,47.655,-122.3035,60.0,14.233333333333333
2026-01-20T23:14:15+00:00,SAT-56469,266.9334509337291,41.342400966770406,2780.660587476294,-2.5823018590340556,90443.13422940609,10.5,10500090443.13423,47.655,-122.3035,60.0,14.25
2026-01-20T23:14:16+00:00,SAT-56469,267.10783236303024,41.392458191382445,2778.085171755551,-2.5689380433713525,89975.076876014,10.5,10500089975.076876,47.655,-122.3035,60.0,14.266666666666667
2026-01-20T23:14:17+00:00,SAT-56469,267.2828449858703,41.44219072352093,2775.5230842136284,-2.5555342412573037,89505.61902795329,10.5,10500089505.619028,47.655,-122.3035,60.0,14.283333333333333
2026-01-20T23:14:18+00:00,SAT-56469,267.458487905074,41.491595395702234,2772.974364730348,-2.5420905179778215,89034.76297181274,10.5,10500089034.762972,47.655,-122.3035,60.0,14.3
2026-01-20T23:14:19+00:00,SAT-56469,267.63476016277053,41.5406690343419,2770.439053120418,-2.528606937038524,88562.51093182771,10.5,10500088562.510931,47.655,-122.3035,60.0,14.316666666666666
2026-01-20T23:14:20+00:00,SAT-56469,267.81166073946764,41.58940846003549,2767.9171891352116,-2.515083570344376,88088.86542641425,10.5,10500088088.865427,47.655,-122.3035,60.0,14.333333333333334
2026-01-20T23:14:21+00:00,SAT-56469,267.9891885538255,41.63781048804474,2765.408812454388,-2.501520475013181,87613.82845607944,10.5,10500087613.828457,47.655,-122.3035,60.0,14.35
2026-01-20T23:14:22+00:00,SAT-56469,268.16734246078255,41.685871928341996,2762.9139627006416,-2.4879177384353617,87137.40308160553,10.5,10500087137.403082,47.655,-122.3035,60.0,14.366666666666667
2026-01-20T23:14:23+00:00,SAT-56469,268.34612125293205,41.733589586528645,2760.4326794095086,-2.4742754264792484,86659.5916099801,10.5,10500086659.59161,47.655,-122.3035,60.0,14.383333333333333
2026-01-20T23:14:24+00:00,SAT-56469,268.5255236581758,41.78096026376319,2757.9650020508334,-2.4605936159952946,86180.39673283105,10.5,10500086180.396732,47.655,-122.3035,60.0,14.4
2026-01-20T23:14:25+00:00,SAT-56469,268.70554833970454,41.82798075732117,2755.510970017814,-2.4468723924848677,85699.82144477802,10.5,10500085699.821445,47.655,-122.3035,60.0,14.416666666666666
2026-01-20T23:14:26+00:00,SAT-56469,268.8861938958795,41.87464786111558,2753.0706226183756,-2.4331118289379847,85217.86830224008,10.5,10500085217.868301,47.655,-122.3035,60.0,14.433333333333334
2026-01-20T23:14:27+00:00,SAT-56469,269.0674588584885,41.92095836581857,2750.6439990876484,-2.4193120175121674,84734.5405329635,10.5,10500084734.540533,47.655,-122.3035,60.0,14.45
2026-01-20T23:14:28+00:00,SAT-56469,269.2493416934349,41.96690905959548,2748.23113856885,-2.405473040120246,84249.84100588209,10.5,10500084249.841005,47.655,-122.3035,60.0,14.466666666666667
2026-01-20T23:14:29+00:00,SAT-56469,269.4318407991727,42.01249672828253,2745.832080123503,-2.3915949749838497,83763.77246064816,10.5,10500083763.77246,47.655,-122.3035,60.0,14.483333333333333
2026-01-20T23:14:30+00:00,SAT-56469,269.6149545056527,42.057718155699504,2743.4468627351193,-2.377677937498851,83276.33893891331,10.5,10500083276.33894,47.655,-122.3035,60.0,14.5
2026-01-20T23:14:31+00:00,SAT-56469,269.7986810764582,42.102570124737866,2741.07552527212,-2.3637220003986132,82787.54298810758,10.5,10500082787.542988,47.655,-122.3035,60.0,14.516666666666667
2026-01-20T23:14:32+00:00,SAT-56469,269.9830187047384,42.14704941694786,2738.7181065303894,-2.3497272633531643,82297.38809909696,10.5,10500082297.3881,47.655,-122.3035,60.0,14.533333333333333
2026-01-20T23:14:33+00:00,SAT-56469,270.1679655145485,42.19115281344565,2736.374645206405,-2.3356938323990026,81805.87798572813,10.5,10500081805.877985,47.655,-122.3035,60.0,14.55
2026-01-20T23:14:34+00:00,SAT-56469,270.35351956066893,42.23487709543843,2734.0451798908925,-2.321621793810498,81313.0156696945,10.5,10500081313.015669,47.655,-122.3035,60.0,14.566666666666666
2026-01-20T23:14:35+00:00,SAT-56469,270.53967882626023,42.27821904426434,2731.729749088532,-2.3075112645127582,80818.80524620789,10.5,10500080818.805246,47.655,-122.3035,60.0,14.583333333333334
2026-01-20T23:14:36+00:00,SAT-56469,270.726441224658,42.32117544238303,2729.4283911873918,-2.29336233760097,80323.24997585558,10.5,10500080323.249975,47.655,-122.3035,60.0,14.6
2026-01-20T23:14:37+00:00,SAT-56469,270.91380459670205,42.3637430733552,2727.141144482691,-2.2791751346636646,79826.35411718223,10.5,10500079826.354116,47.655,-122.3035,60.0,14.616666666666667
2026-01-20T23:14:38+00:00,SAT-56469,271.1017667124235,42.405918722800045,2724.868047148386,-2.2649497557845613,79328.12117554301,10.5,10500079328.121176,47.655,-122.3035,60.0,14.633333333333333
2026-01-20T23:14:39+00:00,SAT-56469,271.2903252685595,42.44769917843162,2722.609137258617,-2.250686309785201,78828.55496232866,10.5,10500078828.554962,47.655,-122.3035,60.0,14.65
2026-01-20T23:14:40+00:00,SAT-56469,271.4794778885993,42.489081230662755,2720.364452778991,-2.236384921290727,78327.65984243884,10.5,10500078327.659842,47.655,-122.3035,60.0,14.666666666666666
2026-01-20T23:14:41+00:00,SAT-56469,271.66922212348027,42.53006167334227,2718.134031550824,-2.222045705838806,77825.43986249136,10.5,10500077825.439863,47.655,-122.3035,60.0,14.683333333333334
2026-01-20T23:14:42+00:00,SAT-56469,271.859555450183,42.570637304038854,2715.917911300201,-2.2076687775918598,77321.8990209371,10.5,10500077321.899021,47.655,-122.3035,60.0,14.7
2026-01-20T23:14:43+00:00,SAT-56469,272.0504752709467,42.61080492447454,2713.716129639349,-2.193254268460363,76817.0419378389,10.5,10500076817.041939,47.655,-122.3035,60.0,14.716666666666667
2026-01-20T23:14:44+00:00,SAT-56469,272.24197891423273,42.65056134131196,2711.5287240489383,-2.1788022883514135,76310.87246260825,10.5,10500076310.872463,47.655,-122.3035,60.0,14.733333333333333
2026-01-20T23:14:45+00:00,SAT-56469,272.43406363213376,42.689903366222154,2709.3557319000224,-2.1643129851854255,75803.39577604373,10.5,10500075803.395777,47.655,-122.3035,60.0,14.75
2026-01-20T23:14:46+00:00,SAT-56469,272.62672660321516,42.728827817048575,2707.1971904161305,-2.149786468434969,75294.6157123378,10.5,10500075294.615713,47.655,-122.3035,60.0,14.766666666666667
2026-01-20T23:14:47+00:00,SAT-56469,272.81996492844377,42.76733151758951,2705.0531367116114,-2.1352228817885113,74784.53730406842,10.5,10500074784.537304,47.655,-122.3035,60.0,14.783333333333333
2026-01-20T23:14:48+00:00,SAT-56469,273.0137756337363,42.805411298701365,2702.923607757508,-2.12062236720708,74273.16552331127,10.5,10500074273.165524,47.655,-122.3035,60.0,14.8
2026-01-20T23:14:49+00:00,SAT-56469,273.2081556692855,42.84306399875273,2700.80864038328,-2.1059850423613398,73760.50449139073,10.5,10500073760.504492,47.655,-122.3035,60.0,14.816666666666666
2026-01-20T23:14:50+00:00,SAT-56469,273.40310190674495,42.88028646368689,2698.708271301032,-2.091311058137673,73246.5594929862,10.5,10500073246.559492,47.655,-122.3035,60.0,14.833333333333334
2026-01-20T23:14:51+00:00,SAT-56469,273.5986111417973,42.91707554811307,2696.6225370723823,-2.0766005623995736,72731.33570690267,10.5,10500072731.335707,47.655,-122.3035,60.0,14.85
2026-01-20T23:14:52+00:00,SAT-56469,273.7946800934268,42.95342811575391,2694.5514741114825,-2.061853693073311,72214.83796390155,10.5,10500072214.837963,47.655,-122.3035,60.0,14.866666666666667
2026-01-20T23:14:53+00:00,SAT-56469,273.99130540245426,42.98934103977772,2692.495118694924,-2.0470706030852637,71697.0716201115,10.5,10500071697.07162,47.655,-122.3035,60.0,14.883333333333333
2026-01-20T23:14:54+00:00,SAT-56469,274.1884836325421,43.02481120357456,2690.45350694678,-2.032251432150128,71178.04156893214,10.5,10500071178.041569,47.655,-122.3035,60.0,14.9
2026-01-20T23:14:55+00:00,SAT-56469,274.38621126841775,43.05983550104367,2688.4266748517825,-2.0173963435401117,70657.75352884685,10.5,10500070657.753529,47.655,-122.3035,60.0,14.916666666666666
2026-01-20T23:14:56+00:00,SAT-56469,274.584484717793,43.09441083752286,2686.414658231825,-2.002505490646105,70136.21287225345,10.5,10500070136.212872,47.655,-122.3035,60.0,14.933333333333334
2026-01-20T23:14:57+00:00,SAT-56469,274.7833003099694,43.12853413014097,2684.417492755821,-1.9875790280401011,69613.42501291698,10.5,10500069613.425013,47.655,-122.3035,60.0,14.95
2026-01-20T23:14:58+00:00,SAT-56469,274.9826542955641,43.16220230836783,2682.4352139385223,-1.9726171177537428,69089.39562587095,10.5,10500069089.395626,47.655,-122.3035,60.0,14.966666666666667
2026-01-20T23:14:59+00:00,SAT-56469,275.18254284688123,43.19541231467406,2680.4678571330824,-1.9576199195891135,68564.1303080603,10.5,10500068564.130308,47.655,-122.3035,60.0,14.983333333333333
