satellites_20260121_005943/SAT-64146.csv

timestamp,satellite,azimuth_deg,elevation_deg,distance_km,relative_velocity_kms,doppler_shift_hz,tx_freq_ghz,rx_freq_hz,ue_lat,ue_lon,ue_alt_m,time_minutes
2026-01-20T23:00:00+00:00,SAT-64146,304.514108578049,30.38276832620537,4149.24684146303,-1.701143927241818,59581.25616368605,10.5,10500059581.256165,47.655,-122.3035,60.0,0.0
2026-01-20T23:00:01+00:00,SAT-64146,304.3962284165434,30.41451052086986,4147.550233919595,-1.6903435109442237,59202.979899228645,10.5,10500059202.979898,47.655,-122.3035,60.0,0.016666666666666666
2026-01-20T23:00:02+00:00,SAT-64146,304.2781512473337,30.446071134133163,4145.864397991346,-1.679527699019148,58824.164414773404,10.5,10500058824.164415,47.655,-122.3035,60.0,0.03333333333333333
2026-01-20T23:00:03+00:00,SAT-64146,304.1598778410661,30.477449372522653,4144.1893490328575,-1.668696558452497,58444.81205645014,10.5,10500058444.812056,47.655,-122.3035,60.0,0.05
2026-01-20T23:00:04+00:00,SAT-64146,304.0414089789308,30.508644444368397,4142.525102331894,-1.6578501760578646,58064.92586483806,10.5,10500058064.925865,47.655,-122.3035,60.0,0.06666666666666667
2026-01-20T23:00:05+00:00,SAT-64146,303.922745451267,30.539655560236863,4140.871673089639,-1.6469886159812248,57684.50808660056,10.5,10500057684.508087,47.655,-122.3035,60.0,0.08333333333333333
2026-01-20T23:00:06+00:00,SAT-64146,303.80388805926765,30.570481932534015,4139.229076443301,-1.636111958409492,57303.56153022257,10.5,10500057303.561531,47.655,-122.3035,60.0,0.1
2026-01-20T23:00:07+00:00,SAT-64146,303.6848376138638,30.60112277586394,4137.597327450114,-1.625220284184169,56922.08902711547,10.5,10500056922.089027,47.655,-122.3035,60.0,0.11666666666666667
2026-01-20T23:00:08+00:00,SAT-64146,303.56559493571444,30.631577307085166,4135.976441086687,-1.6143136718353743,56540.09332773619,10.5,10500056540.093328,47.655,-122.3035,60.0,0.13333333333333333
2026-01-20T23:00:09+00:00,SAT-64146,303.4461608554227,30.66184474531403,4134.36643225131,-1.6033921891931675,56157.57680778034,10.5,10500056157.576807,47.655,-122.3035,60.0,0.15
2026-01-20T23:00:10+00:00,SAT-64146,303.32653621437726,30.691924311762936,4132.767315774621,-1.592455923641364,55774.54252779875,10.5,10500055774.542528,47.655,-122.3035,60.0,0.16666666666666666
2026-01-20T23:00:11+00:00,SAT-64146,303.2067218633506,30.72181523016546,4131.17910640011,-1.5815049517590263,55390.99316991415,10.5,10500055390.99317,47.655,-122.3035,60.0,0.18333333333333332
2026-01-20T23:00:12+00:00,SAT-64146,303.0867186633427,30.751516726613026,4129.6018187948885,-1.5705393542946522,55006.931562280486,10.5,10500055006.931562,47.655,-122.3035,60.0,0.2
2026-01-20T23:00:13+00:00,SAT-64146,302.96652748530636,30.781028029683792,4128.035467545539,-1.5595592102123803,54622.36047055591,10.5,10500054622.36047,47.655,-122.3035,60.0,0.21666666666666667
2026-01-20T23:00:14+00:00,SAT-64146,302.84614921033466,30.810348370453255,4126.480067159888,-1.5485645952125615,54237.28254608691,10.5,10500054237.282547,47.655,-122.3035,60.0,0.23333333333333334
2026-01-20T23:00:15+00:00,SAT-64146,302.72558472995945,30.839476982480132,4124.935632070262,-1.5375556041152827,53851.70110987405,10.5,10500053851.701109,47.655,-122.3035,60.0,0.25
2026-01-20T23:00:16+00:00,SAT-64146,302.6048349446926,30.868413102220874,4123.402176614424,-1.5265323026074407,53465.61846255027,10.5,10500053465.618462,47.655,-122.3035,60.0,0.26666666666666666
2026-01-20T23:00:17+00:00,SAT-64146,302.4839007663528,30.897155968517115,4121.879715064624,-1.5154947817340654,53079.03779289767,10.5,10500053079.037792,47.655,-122.3035,60.0,0.2833333333333333
2026-01-20T23:00:18+00:00,SAT-64146,302.36278311611596,30.925704823129156,4120.368261602308,-1.504443122972951,52691.96195461323,10.5,10500052691.961954,47.655,-122.3035,60.0,0.3
2026-01-20T23:00:19+00:00,SAT-64146,302.2414829253042,30.954058910602296,4118.867830327663,-1.4933774156767554,52304.39407720501,10.5,10500052304.394077,47.655,-122.3035,60.0,0.31666666666666665
2026-01-20T23:00:20+00:00,SAT-64146,302.12000113477615,30.982217478464303,4117.3784352517605,-1.4822977305591776,51916.33663736586,10.5,10500051916.336637,47.655,-122.3035,60.0,0.3333333333333333
2026-01-20T23:00:21+00:00,SAT-64146,301.99833869649154,31.010179776914946,4115.90009031515,-1.4712041629358181,51527.792973451295,10.5,10500051527.792973,47.655,-122.3035,60.0,0.35
2026-01-20T23:00:22+00:00,SAT-64146,301.8764965715498,31.03794505934594,4114.432809363316,-1.4600967893257704,51138.76576548363,10.5,10500051138.765766,47.655,-122.3035,60.0,0.36666666666666664
2026-01-20T23:00:23+00:00,SAT-64146,301.754475731744,31.065512582030536,4112.976606165428,-1.4489757080482144,50749.258457016454,10.5,10500050749.258457,47.655,-122.3035,60.0,0.38333333333333336
2026-01-20T23:00:24+00:00,SAT-64146,301.6322771577936,31.092881604589742,4111.5314943926005,-1.4378409923315199,50359.273612817036,10.5,10500050359.273613,47.655,-122.3035,60.0,0.4
2026-01-20T23:00:25+00:00,SAT-64146,301.50990184148264,31.120051389555798,4110.097487642915,-1.4266927311532793,49968.814349257016,10.5,10500049968.81435,47.655,-122.3035,60.0,0.4166666666666667
2026-01-20T23:00:26+00:00,SAT-64146,301.38735078436713,31.14702120272452,4108.674599425713,-1.4155310182332836,49577.883948799936,10.5,10500049577.88395,47.655,-122.3035,60.0,0.43333333333333335
2026-01-20T23:00:27+00:00,SAT-64146,301.2646249973915,31.17379031329762,4107.262843156861,-1.4043559299884745,49186.4850878903,10.5,10500049186.485088,47.655,-122.3035,60.0,0.45
2026-01-20T23:00:28+00:00,SAT-64146,301.1417255024138,31.20035799359282,4105.862232176019,-1.393167570037746,48794.62139570013,10.5,10500048794.621395,47.655,-122.3035,60.0,0.4666666666666667
2026-01-20T23:00:29+00:00,SAT-64146,301.0186533298622,31.22672351962236,4104.472779719501,-1.3819660125451017,48402.29546976651,10.5,10500048402.29547,47.655,-122.3035,60.0,0.48333333333333334
2026-01-20T23:00:30+00:00,SAT-64146,300.89540952134706,31.25288617056778,4103.094498949657,-1.3707513531722404,48009.510660566804,10.5,10500048009.51066,47.655,-122.3035,60.0,0.5
2026-01-20T23:00:31+00:00,SAT-64146,300.7719951277888,31.278845229248002,4101.727402933426,-1.3595236805735265,47616.270073151834,10.5,10500047616.270073,47.655,-122.3035,60.0,0.5166666666666667
2026-01-20T23:00:32+00:00,SAT-64146,300.6484112100806,31.30459998202848,4100.371504649334,-1.348283085836173,47222.57689778111,10.5,10500047222.576899,47.655,-122.3035,60.0,0.5333333333333333
2026-01-20T23:00:33+00:00,SAT-64146,300.52465883886794,31.330149718919504,4099.02681698506,-1.3370296542516535,46828.43412172284,10.5,10500046828.434122,47.655,-122.3035,60.0,0.55
2026-01-20T23:00:34+00:00,SAT-64146,300.4007390951313,31.35549373351172,4097.693352743219,-1.3257634887187173,46433.84534892646,10.5,10500046433.845348,47.655,-122.3035,60.0,0.5666666666666667
2026-01-20T23:00:35+00:00,SAT-64146,300.27665306856096,31.380631323364828,4096.3711246238045,-1.3144846679270634,46038.8133354381,10.5,10500046038.813335,47.655,-122.3035,60.0,0.5833333333333334
2026-01-20T23:00:36+00:00,SAT-64146,300.15240185982935,31.40556178958937,4095.060145248325,-1.3031932884923192,45643.341465145706,10.5,10500045643.341465,47.655,-122.3035,60.0,0.6
2026-01-20T23:00:37+00:00,SAT-64146,300.02798657896386,31.43028443723909,4093.760427141935,-1.2918894470296034,45247.43312191942,10.5,10500045247.433123,47.655,-122.3035,60.0,0.6166666666666667
2026-01-20T23:00:38+00:00,SAT-64146,299.90340834532793,31.454798575363046,4092.471982733431,-1.2805732335715734,44851.09145908374,10.5,10500044851.09146,47.655,-122.3035,60.0,0.6333333333333333
2026-01-20T23:00:39+00:00,SAT-64146,299.7786682882817,31.47910351692356,4091.194824361816,-1.269244740649802,44454.31971748576,10.5,10500044454.319717,47.655,-122.3035,60.0,0.65
2026-01-20T23:00:40+00:00,SAT-64146,299.65376754696234,31.503198578894793,4089.9289642738077,-1.2579040625029725,44057.12119776279,10.5,10500044057.121199,47.655,-122.3035,60.0,0.6666666666666666
2026-01-20T23:00:41+00:00,SAT-64146,299.52870727013675,31.527083082342102,4088.6744146221376,-1.2465512974340018,43659.4993428988,10.5,10500043659.499342,47.655,-122.3035,60.0,0.6833333333333333
2026-01-20T23:00:42+00:00,SAT-64146,299.4034886157946,31.550756352553858,4087.4311874614973,-1.235186533776568,43261.457246712875,10.5,10500043261.457247,47.655,-122.3035,60.0,0.7
2026-01-20T23:00:43+00:00,SAT-64146,299.27811275218437,31.574217718889976,4086.199294758477,-1.2238098758026292,42862.998561250024,10.5,10500042862.998562,47.655,-122.3035,60.0,0.7166666666666667
2026-01-20T23:00:44+00:00,SAT-64146,299.1525808562041,31.597466515144077,4084.9787483756772,-1.2124214079330795,42464.126243287064,10.5,10500042464.126244,47.655,-122.3035,60.0,0.7333333333333333
2026-01-20T23:00:45+00:00,SAT-64146,299.02689411544844,31.620502079202897,4083.7695600914985,-1.2010212380812713,42064.844072406086,10.5,10500042064.844072,47.655,-122.3035,60.0,0.75
2026-01-20T23:00:46+00:00,SAT-64146,298.90105372578637,31.64332375355393,4082.5717415767185,-1.1896094605438252,41665.15535127359,10.5,10500041665.155352,47.655,-122.3035,60.0,0.7666666666666667
2026-01-20T23:00:47+00:00,SAT-64146,298.7750608927807,31.665930885066345,4081.3853044080693,-1.1781861639883195,41265.06318540327,10.5,10500041265.063185,47.655,-122.3035,60.0,0.7833333333333333
2026-01-20T23:00:48+00:00,SAT-64146,298.6489168323192,31.688322824929337,4080.2102600738517,-1.1667514595019397,40864.571465538225,10.5,10500040864.571466,47.655,-122.3035,60.0,0.8
2026-01-20T23:00:49+00:00,SAT-64146,298.5226227682064,31.71049892913754,4079.046619951575,-1.1553054360917545,40463.68330908252,10.5,10500040463.68331,47.655,-122.3035,60.0,0.8166666666666667
2026-01-20T23:00:50+00:00,SAT-64146,298.39617993456176,31.732458558107073,4077.8943953299795,-1.143848195416456,40062.40227655356,10.5,10500040062.402277,47.655,-122.3035,60.0,0.8333333333333334
2026-01-20T23:00:51+00:00,SAT-64146,298.2695895744471,31.754201076969633,4076.7535973964177,-1.1323798357698134,39660.731810614925,10.5,10500039660.731812,47.655,-122.3035,60.0,0.85
2026-01-20T23:00:52+00:00,SAT-64146,298.14285294024705,31.775725855555,4075.62423724021,-1.120900457854049,39258.67543828442,10.5,10500039258.675438,47.655,-122.3035,60.0,0.8666666666666667
2026-01-20T23:00:53+00:00,SAT-64146,298.0159712933958,31.797032268484113,4074.5063258502437,-1.1094101643834269,38856.23675705005,10.5,10500038856.236757,47.655,-122.3035,60.0,0.8833333333333333
2026-01-20T23:00:54+00:00,SAT-64146,297.8889459041484,31.81811969525618,4073.399874112965,-1.0979090524624828,38453.4191679234,10.5,10500038453.419168,47.655,-122.3035,60.0,0.9
2026-01-20T23:00:55+00:00,SAT-64146,297.7617780522223,31.838987520184922,4072.304892817976,-1.0863972222476104,38050.22617880504,10.5,10500038050.22618,47.655,-122.3035,60.0,0.9166666666666666
2026-01-20T23:00:56+00:00,SAT-64146,297.6344690264527,31.859635132505822,4071.2213926549875,-1.0748747779523227,37646.66143969301,10.5,10500037646.66144,47.655,-122.3035,60.0,0.9333333333333333
2026-01-20T23:00:57+00:00,SAT-64146,297.5070201243285,31.88006192650023,4070.149384209776,-1.063341820478572,37242.72848460053,10.5,10500037242.728485,47.655,-122.3035,60.0,0.95
2026-01-20T23:00:58+00:00,SAT-64146,297.37943265235515,31.90026730147937,4069.0888779674856,-1.0517984523556316,36838.4309045364,10.5,10500036838.430904,47.655,-122.3035,60.0,0.9666666666666667
2026-01-20T23:00:59+00:00,SAT-64146,297.25170792587824,31.920250661858713,4068.0398843110033,-1.0402447762001872,36433.77229357106,10.5,10500036433.772293,47.655,-122.3035,60.0,0.9833333333333333
2026-01-20T23:01:00+00:00,SAT-64146,297.1238472690525,31.940011417209316,4067.002413520873,-1.0286808962303262,36028.756301862755,10.5,10500036028.756302,47.655,-122.3035,60.0,1.0
2026-01-20T23:01:01+00:00,SAT-64146,296.99585201465527,31.959548982330485,4065.976475773699,-1.0171069142404348,35623.38649468148,10.5,10500035623.386496,47.655,-122.3035,60.0,1.0166666666666666
2026-01-20T23:01:02+00:00,SAT-64146,296.86772350435973,31.97886277725234,4064.9620811445634,-1.0055229328919228,35217.66646766407,10.5,10500035217.666468,47.655,-122.3035,60.0,1.0333333333333334
2026-01-20T23:01:03+00:00,SAT-64146,296.7394630886557,31.99795222729402,4063.9592396061594,-0.993929063749702,34811.60012828565,10.5,10500034811.600128,47.655,-122.3035,60.0,1.05
2026-01-20T23:01:04+00:00,SAT-64146,296.61107212567134,32.01681676328432,4062.9679610199128,-0.9823254037633002,34405.190872128784,10.5,10500034405.190872,47.655,-122.3035,60.0,1.0666666666666667
2026-01-20T23:01:05+00:00,SAT-64146,296.48255198305117,32.0354558213205,4061.9882551505593,-0.9707120637129377,33998.44257918539,10.5,10500033998.44258,47.655,-122.3035,60.0,1.0833333333333333
2026-01-20T23:01:06+00:00,SAT-64146,296.3539040361584,32.053868843082626,4061.0201316523494,-0.9590891439710024,33591.358764921046,10.5,10500033591.358765,47.655,-122.3035,60.0,1.1
2026-01-20T23:01:07+00:00,SAT-64146,296.22512966942827,32.072055275674074,4060.0636000794293,-0.9474567566004607,33183.94335425489,10.5,10500033183.943354,47.655,-122.3035,60.0,1.1166666666666667
2026-01-20T23:01:08+00:00,SAT-64146,296.09623027478654,32.09001457189538,4059.1186698741794,-0.9358150014568424,32776.19984454994,10.5,10500032776.199844,47.655,-122.3035,60.0,1.1333333333333333
2026-01-20T23:01:09+00:00,SAT-64146,295.9672072533003,32.10774619004692,4058.1853503793936,-0.9241639935538373,32368.132264072137,10.5,10500032368.132263,47.655,-122.3035,60.0,1.15
2026-01-20T23:01:10+00:00,SAT-64146,295.8380620130771,32.12524959426945,4057.263650823156,-0.9125038328054196,31959.74411223149,10.5,10500031959.744112,47.655,-122.3035,60.0,1.1666666666666667
2026-01-20T23:01:11+00:00,SAT-64146,295.7087959713329,32.14252425429187,4056.3535803339046,-0.9008346305254405,31551.039287709915,10.5,10500031551.039288,47.655,-122.3035,60.0,1.1833333333333333
2026-01-20T23:01:12+00:00,SAT-64146,295.5794105527957,32.15956964569706,4055.4551479290603,-0.8891564940865065,31142.02155115029,10.5,10500031142.021551,47.655,-122.3035,60.0,1.2
2026-01-20T23:01:13+00:00,SAT-64146,295.44990719023576,32.17638524988578,4054.568362518958,-0.8774695318298917,30732.69469712231,10.5,10500030732.694696,47.655,-122.3035,60.0,1.2166666666666666
2026-01-20T23:01:14+00:00,SAT-64146,295.3202873242956,32.19297055413939,4053.69323290588,-0.865773852638124,30323.062539152677,10.5,10500030323.06254,47.655,-122.3035,60.0,1.2333333333333334
2026-01-20T23:01:15+00:00,SAT-64146,295.19055240340947,32.20932505167015,4052.8297677835158,-0.8540695662836238,29913.12892193589,10.5,10500029913.128922,47.655,-122.3035,60.0,1.25
2026-01-20T23:01:16+00:00,SAT-64146,295.0607038836321,32.22544824168121,4051.977975736075,-0.8423567816763629,29502.897659959846,10.5,10500029502.89766,47.655,-122.3035,60.0,1.2666666666666666
2026-01-20T23:01:17+00:00,SAT-64146,294.9307432287496,32.24133962938967,4051.13786523915,-0.8306356060202195,29092.372507957836,10.5,10500029092.372507,47.655,-122.3035,60.0,1.2833333333333334
2026-01-20T23:01:18+00:00,SAT-64146,294.80067191053536,32.25699872603537,4050.3094446614123,-0.8189061542897511,28681.557492825214,10.5,10500028681.557493,47.655,-122.3035,60.0,1.3
2026-01-20T23:01:19+00:00,SAT-64146,294.67049140750424,32.27242504907043,4049.4927222568676,-0.8071685375833246,28270.456505696715,10.5,10500028270.456505,47.655,-122.3035,60.0,1.3166666666666667
2026-01-20T23:01:20+00:00,SAT-64146,294.54020320547306,32.28761812212455,4048.687706168718,-0.7954228604463198,27859.07320819378,10.5,10500027859.073208,47.655,-122.3035,60.0,1.3333333333333333
2026-01-20T23:01:21+00:00,SAT-64146,294.40980879860643,32.302577474918216,4047.894404435899,-0.7836692387233672,27447.411657685385,10.5,10500027447.411657,47.655,-122.3035,60.0,1.35
2026-01-20T23:01:22+00:00,SAT-64146,294.2793096875731,32.31730264351911,4047.1128249818125,-0.771907784648704,27035.47578508927,10.5,10500027035.475784,47.655,-122.3035,60.0,1.3666666666666667
2026-01-20T23:01:23+00:00,SAT-64146,294.14870738007943,32.33179317031165,4046.342975617923,-0.7601386076979506,26623.269424704744,10.5,10500026623.269424,47.655,-122.3035,60.0,1.3833333333333333
2026-01-20T23:01:24+00:00,SAT-64146,294.0180033913118,32.34604860398202,4045.5848640465124,-0.7483618238295786,26210.796637887986,10.5,10500026210.796638,47.655,-122.3035,60.0,1.4
2026-01-20T23:01:25+00:00,SAT-64146,293.8871992427909,32.36006849968023,4044.8384978542126,-0.736577539107529,25798.061139446858,10.5,10500025798.06114,47.655,-122.3035,60.0,1.4166666666666667
2026-01-20T23:01:26+00:00,SAT-64146,293.7562964640767,32.373852418868715,4044.103884521876,-0.72478587533785,25385.067195544412,10.5,10500025385.067196,47.655,-122.3035,60.0,1.4333333333333333
2026-01-20T23:01:27+00:00,SAT-64146,293.6252965899435,32.38739992965965,4043.3810314088723,-0.7129869382017934,24971.818507585103,10.5,10500024971.818508,47.655,-122.3035,60.0,1.45
2026-01-20T23:01:28+00:00,SAT-64146,293.49420116323193,32.40071060654366,4042.6699457691725,-0.7011808442402504,24558.319157323927,10.5,10500024558.319157,47.655,-122.3035,60.0,1.4666666666666666
2026-01-20T23:01:29+00:00,SAT-64146,293.36301173285705,32.41378403063341,4041.970634740517,-0.6893677067928364,24144.573114393632,10.5,10500024144.573114,47.655,-122.3035,60.0,1.4833333333333334
2026-01-20T23:01:30+00:00,SAT-64146,293.2317298543622,32.42661978963812,4041.2831053476093,-0.6775476433391249,23730.58449342582,10.5,10500023730.584494,47.655,-122.3035,60.0,1.5
2026-01-20T23:01:31+00:00,SAT-64146,293.10035708907236,32.439217477977216,4040.607364497985,-0.6657207645043292,23316.357168983403,10.5,10500023316.357168,47.655,-122.3035,60.0,1.5166666666666666
2026-01-20T23:01:32+00:00,SAT-64146,292.968895005376,32.451576696684796,4039.9434189888534,-0.6538871841337429,22901.89512841014,10.5,10500022901.895128,47.655,-122.3035,60.0,1.5333333333333334
2026-01-20T23:01:33+00:00,SAT-64146,292.8373451780885,32.463697053505555,4039.291275503877,-0.6420470220223893,22487.20256743446,10.5,10500022487.202568,47.655,-122.3035,60.0,1.55
2026-01-20T23:01:34+00:00,SAT-64146,292.70570918722063,32.475578163040865,4038.650940607247,-0.6302003899211881,22072.28340004629,10.5,10500022072.2834,47.655,-122.3035,60.0,1.5666666666666667
2026-01-20T23:01:35+00:00,SAT-64146,292.57398861953436,32.48721964662904,4038.022420751699,-0.6183474049844523,21657.141729485233,10.5,10500021657.14173,47.655,-122.3035,60.0,1.5833333333333333
2026-01-20T23:01:36+00:00,SAT-64146,292.4421850674184,32.4986211324816,4037.4057222731276,-0.6064881812317952,21241.78154920044,10.5,10500021241.78155,47.655,-122.3035,60.0,1.6
2026-01-20T23:01:37+00:00,SAT-64146,292.31030012949907,32.50978225565517,4036.800851393712,-0.5946228382580006,20826.20704790714,10.5,10500020826.207048,47.655,-122.3035,60.0,1.6166666666666667
2026-01-20T23:01:38+00:00,SAT-64146,292.17833540940217,32.52070265818884,4036.2078142163564,-0.5827514891922809,20410.422187868884,10.5,10500020410.422188,47.655,-122.3035,60.0,1.6333333333333333
2026-01-20T23:01:39+00:00,SAT-64146,292.04629251710753,32.53138198901319,4035.626616731135,-0.570874252648048,19994.431123429076,10.5,10500019994.431124,47.655,-122.3035,60.0,1.65
2026-01-20T23:01:40+00:00,SAT-64146,291.914173067697,32.54181990408475,4035.0572648098278,-0.5589912447545353,19578.23792192471,10.5,10500019578.237923,47.655,-122.3035,60.0,1.6666666666666667
2026-01-20T23:01:41+00:00,SAT-64146,291.7819786818741,32.552016066368395,4034.499764208392,-0.5471025849240759,19161.8467656808,10.5,10500019161.846766,47.655,-122.3035,60.0,1.6833333333333333
2026-01-20T23:01:42+00:00,SAT-64146,291.6497109851307,32.56197014592912,4033.9541205636947,-0.5352083871564627,18745.261647452313,10.5,10500018745.261648,47.655,-122.3035,60.0,1.7
2026-01-20T23:01:43+00:00,SAT-64146,291.51737160899415,32.571681819859684,4033.420339398904,-0.5233087705682448,18328.48673920466,10.5,10500018328.48674,47.655,-122.3035,60.0,1.7166666666666666
2026-01-20T23:01:44+00:00,SAT-64146,291.384962189781,32.58115077240464,4032.8984261183905,-0.5114038544101415,17911.526217602463,10.5,10500017911.526218,47.655,-122.3035,60.0,1.7333333333333334
2026-01-20T23:01:45+00:00,SAT-64146,291.2524843684662,32.5903766949901,4032.388386007592,-0.4994937575542485,17494.384246049343,10.5,10500017494.384247,47.655,-122.3035,60.0,1.75
2026-01-20T23:01:46+00:00,SAT-64146,291.11993979070166,32.59935928624467,4031.8902242333916,-0.48757859451670993,17077.064835385067,10.5,10500017077.064835,47.655,-122.3035,60.0,1.7666666666666666
2026-01-20T23:01:47+00:00,SAT-64146,290.98733010794865,32.60809825194521,4031.4039458484604,-0.4756584864062962,16659.572227351066,10.5,10500016659.572227,47.655,-122.3035,60.0,1.7833333333333334
2026-01-20T23:01:48+00:00,SAT-64146,290.8546569757013,32.61659330516481,4030.929555784684,-0.4637335539460396,16241.910650178585,10.5,10500016241.91065,47.655,-122.3035,60.0,1.8
2026-01-20T23:01:49+00:00,SAT-64146,290.7219220534594,32.6248441662906,4030.467058853549,-0.45180391247184254,15824.0841434188,10.5,10500015824.084143,47.655,-122.3035,60.0,1.8166666666666667
2026-01-20T23:01:50+00:00,SAT-64146,290.58912700621886,32.632850562951276,4030.01645975151,-0.4398696846410214,15406.097003049772,10.5,10500015406.097004,47.655,-122.3035,60.0,1.8333333333333333
2026-01-20T23:01:51+00:00,SAT-64146,290.45627350232803,32.64061223017318,4029.577763052695,-0.4279309870457978,14987.953312624286,10.5,10500014987.953312,47.655,-122.3035,60.0,1.85
2026-01-20T23:01:52+00:00,SAT-64146,290.3233632151995,32.64812891029607,4029.150973214948,-0.4159879422174499,14569.657363706006,10.5,10500014569.657364,47.655,-122.3035,60.0,1.8666666666666667
2026-01-20T23:01:53+00:00,SAT-64146,290.19039782147144,32.65540035310195,4028.7360945739097,-0.4040406682931873,14151.21329395974,10.5,10500014151.213293,47.655,-122.3035,60.0,1.8833333333333333
2026-01-20T23:01:54+00:00,SAT-64146,290.05737900229576,32.662426315758886,4028.3331313473986,-0.3920892844845965,13732.625278679505,10.5,10500013732.625278,47.655,-122.3035,60.0,1.9
2026-01-20T23:01:55+00:00,SAT-64146,289.9243084429862,32.66920656286305,4027.9420876343393,-0.3801339135953613,13313.897618969768,10.5,10500013313.89762,47.655,-122.3035,60.0,1.9166666666666667
2026-01-20T23:01:56+00:00,SAT-64146,289.7911878317559,32.67574086652286,4027.56296741118,-0.36817467448639635,12895.03447784254,10.5,10500012895.034477,47.655,-122.3035,60.0,1.9333333333333333
2026-01-20T23:01:57+00:00,SAT-64146,289.65801886096153,32.68202900631032,4027.195774535826,-0.3562116883472794,12476.04009986947,10.5,10500012476.0401,47.655,-122.3035,60.0,1.95
2026-01-20T23:01:58+00:00,SAT-64146,289.52480322625206,32.68807076932194,4026.8405127453143,-0.34424507513972924,12056.918686617384,10.5,10500012056.918686,47.655,-122.3035,60.0,1.9666666666666666
2026-01-20T23:01:59+00:00,SAT-64146,289.391542626975,32.69386595017665,4026.4971856570414,-0.33227495666318735,11637.674504017934,10.5,10500011637.674503,47.655,-122.3035,60.0,1.9833333333333334
2026-01-20T23:02:00+00:00,SAT-64146,289.25823876542677,32.69941435106648,4026.1657967669294,-0.32030145398170123,11218.311792246164,10.5,10500011218.311792,47.655,-122.3035,60.0,2.0
2026-01-20T23:02:01+00:00,SAT-64146,289.1248933470366,32.704715781761855,4025.8463494501584,-0.3083246880622483,10798.834788077314,10.5,10500010798.834787,47.655,-122.3035,60.0,2.0166666666666666
2026-01-20T23:02:02+00:00,SAT-64146,288.9915080803727,32.70977005962734,4025.538846961264,-0.2963447796146469,10379.247719279823,10.5,10500010379.247719,47.655,-122.3035,60.0,2.033333333333333
2026-01-20T23:02:03+00:00,SAT-64146,288.8580846772102,32.714577009634674,4025.2432924343952,-0.28436185184814,9959.554901162557,10.5,10500009959.554901,47.655,-122.3035,60.0,2.05
2026-01-20T23:02:04+00:00,SAT-64146,288.7246248513689,32.71913646441983,4024.9596888808182,-0.2723760245755381,9539.760530076945,10.5,10500009539.76053,47.655,-122.3035,60.0,2.066666666666667
2026-01-20T23:02:05+00:00,SAT-64146,288.5911303201648,32.72344826424308,4024.6880391923087,-0.2603874213887738,9119.86893473526,10.5,10500009119.868935,47.655,-122.3035,60.0,2.0833333333333335
2026-01-20T23:02:06+00:00,SAT-64146,288.45760280260305,32.72751225706488,4024.428346137377,-0.2483961625031675,8699.884325586532,10.5,10500008699.884325,47.655,-122.3035,60.0,2.1
2026-01-20T23:02:07+00:00,SAT-64146,288.3240440209429,32.731328298506035,4024.1806123646406,-0.23640237160111496,8279.811034511438,10.5,10500008279.811035,47.655,-122.3035,60.0,2.1166666666666667
2026-01-20T23:02:08+00:00,SAT-64146,288.19045569888374,32.73489625191609,4023.9448403993633,-0.22440616980612524,7859.653303767618,10.5,10500007859.653303,47.655,-122.3035,60.0,2.1333333333333333
2026-01-20T23:02:09+00:00,SAT-64146,288.0568395628081,32.738215988345615,4023.7210326460104,-0.21240767892627962,7439.415399589326,10.5,10500007439.4154,47.655,-122.3035,60.0,2.15
2026-01-20T23:02:10+00:00,SAT-64146,287.9231973414661,32.74128738656999,4023.5091913875613,-0.20040702258603676,7019.101651828032,10.5,10500007019.101652,47.655,-122.3035,60.0,2.1666666666666665
2026-01-20T23:02:11+00:00,SAT-64146,287.78953076476034,32.74411033312761,4023.3093187837017,-0.18840432313574834,6598.716345710597,10.5,10500006598.716345,47.655,-122.3035,60.0,2.183333333333333
2026-01-20T23:02:12+00:00,SAT-64146,287.6558415643912,32.74668472231068,4023.1214168720944,-0.17639970218325696,6178.263740458067,10.5,10500006178.26374,47.655,-122.3035,60.0,2.2
2026-01-20T23:02:13+00:00,SAT-64146,287.52213147434657,32.74901045616599,4022.945487569117,-0.16439328262321765,5757.748140361107,10.5,10500005757.74814,47.655,-122.3035,60.0,2.216666666666667
2026-01-20T23:02:14+00:00,SAT-64146,287.38840223005195,32.75108744452248,4022.781532668581,-0.1523851879728548,5337.1738715153915,10.5,10500005337.173872,47.655,-122.3035,60.0,2.2333333333333334
2026-01-20T23:02:15+00:00,SAT-64146,287.25465556769365,32.752915605007104,4022.6295538411096,-0.14037553988422602,4916.545194690565,10.5,10500004916.545195,47.655,-122.3035,60.0,2.25
2026-01-20T23:02:16+00:00,SAT-64146,287.12089322570125,32.7544948630299,4022.489552635998,-0.12836446252761807,4495.866458855311,10.5,10500004495.866459,47.655,-122.3035,60.0,2.2666666666666666
2026-01-20T23:02:17+00:00,SAT-64146,286.9871169424827,32.755825151820744,4022.3615304787036,-0.1163520775139228,4075.141923337476,10.5,10500004075.141924,47.655,-122.3035,60.0,2.283333333333333
2026-01-20T23:02:18+00:00,SAT-64146,286.8533284587607,32.756906412407574,4022.2454886733967,-0.10433850913031753,3654.375941199742,10.5,10500003654.37594,47.655,-122.3035,60.0,2.3
2026-01-20T23:02:19+00:00,SAT-64146,286.71952951475726,32.75773859364973,4022.141428400291,-0.09232387920368755,3233.57277933496,10.5,10500003233.572779,47.655,-122.3035,60.0,2.316666666666667
2026-01-20T23:02:20+00:00,SAT-64146,286.5857218528682,32.758321652220474,4022.049350718098,-0.0803083115739767,2812.7367751418064,10.5,10500002812.736774,47.655,-122.3035,60.0,2.3333333333333335
2026-01-20T23:02:21+00:00,SAT-64146,286.4519072152683,32.75865555262855,4021.9692565620217,-0.06829192913279072,2391.872232804144,10.5,10500002391.872232,47.655,-122.3035,60.0,2.35
2026-01-20T23:02:22+00:00,SAT-64146,286.318087344979,32.75874026721469,4021.9011467447003,-0.056274855307398994,1970.9834752670445,10.5,10500001970.983475,47.655,-122.3035,60.0,2.3666666666666667
2026-01-20T23:02:23+00:00,SAT-64146,286.1842639848718,32.75857577615596,4021.8450219556735,-0.04425721291012499,1550.0748039375708,10.5,10500001550.074804,47.655,-122.3035,60.0,2.3833333333333333
2026-01-20T23:02:24+00:00,SAT-64146,286.0504388788305,32.75816206746816,4021.800882761998,-0.03223912526761056,1129.1505382363919,10.5,10500001129.150537,47.655,-122.3035,60.0,2.4
2026-01-20T23:02:25+00:00,SAT-64146,285.9166137709758,32.75749913701072,4021.7687296077306,-0.02022071592198277,708.2150051313803,10.5,10500000708.215006,47.655,-122.3035,60.0,2.4166666666666665
2026-01-20T23:02:26+00:00,SAT-64146,285.78279040437343,32.756586988479484,4021.748562813718,-0.008202107868524185,287.27251243760094,10.5,10500000287.272512,47.655,-122.3035,60.0,2.433333333333333
2026-01-20T23:02:27+00:00,SAT-64146,285.6489705227043,32.755425633413886,4021.740382578137,0.003816575568664417,-133.67262051327648,10.5,10499999866.32738,47.655,-122.3035,60.0,2.45
2026-01-20T23:02:28+00:00,SAT-64146,285.5151558693043,32.75401509119326,4021.744188976171,0.015835211103090538,-554.6160757067832,10.5,10499999445.383924,47.655,-122.3035,60.0,2.466666666666667
2026-01-20T23:02:29+00:00,SAT-64146,285.3813481874398,32.752355389040005,4021.759981960044,0.027853675494001442,-975.5535367304508,10.5,10499999024.446463,47.655,-122.3035,60.0,2.4833333333333334
2026-01-20T23:02:30+00:00,SAT-64146,285.2475492190313,32.75044656200214,4021.7877613590704,0.03987184533953874,-1396.4806815292088,10.5,10499998603.519318,47.655,-122.3035,60.0,2.5
2026-01-20T23:02:31+00:00,SAT-64146,285.11376070652693,32.74828865297645,4021.827526879489,0.05188959760223761,-1817.3932008105917,10.5,10499998182.6068,47.655,-122.3035,60.0,2.5166666666666666
2026-01-20T23:02:32+00:00,SAT-64146,284.9799843904506,32.74588171267074,4021.879278104831,0.06390680878215325,-2238.286769084128,10.5,10499997761.71323,47.655,-122.3035,60.0,2.533333333333333
2026-01-20T23:02:33+00:00,SAT-64146,284.84622201139314,32.743225799632796,4021.9430144954567,0.07592335593533328,-2659.1570803325526,10.5,10499997340.84292,47.655,-122.3035,60.0,2.55
2026-01-20T23:02:34+00:00,SAT-64146,284.71247530818556,32.74032098021423,4022.018735389109,0.08793911586879762,-3079.999819816598,10.5,10499996920.00018,47.655,-122.3035,60.0,2.566666666666667
2026-01-20T23:02:35+00:00,SAT-64146,284.57874601872663,32.73716732858061,4022.106440000669,0.09995396488439576,-3500.8106551037904,10.5,10499996499.189344,47.655,-122.3035,60.0,2.5833333333333335
2026-01-20T23:02:36+00:00,SAT-64146,284.44503588040203,32.73376492672071,4022.206127421647,0.11196778085234338,-3921.5853086924735,10.5,10499996078.414692,47.655,-122.3035,60.0,2.6
2026-01-20T23:02:37+00:00,SAT-64146,284.3113466278009,32.730113864383576,4022.3177966217504,0.12398044005009543,-4342.319447295776,10.5,10499995657.680553,47.655,-122.3035,60.0,2.6166666666666667
2026-01-20T23:02:38+00:00,SAT-64146,284.1776799949652,32.726214239128694,4022.441446447294,0.13599181932634583,-4763.008757634027,10.5,10499995236.991241,47.655,-122.3035,60.0,2.6333333333333333
2026-01-20T23:02:39+00:00,SAT-64146,284.04403771438115,32.72206615629681,4022.577075621769,0.14800179615998107,-5183.648948499569,10.5,10499994816.351051,47.655,-122.3035,60.0,2.65
2026-01-20T23:02:40+00:00,SAT-64146,283.91042151624106,32.71766972897899,4022.7246827464724,0.16001024753894735,-5604.235711489937,10.5,10499994395.764288,47.655,-122.3035,60.0,2.6666666666666665
2026-01-20T23:02:41+00:00,SAT-64146,283.7768331290411,32.713025078026426,4022.8842663000173,0.1720170507220719,-6024.7647476900665,10.5,10499993975.235252,47.655,-122.3035,60.0,2.683333333333333
2026-01-20T23:02:42+00:00,SAT-64146,283.64327427915345,32.708132332028775,4023.0558246386045,0.1840220828924573,-6445.231755532695,10.5,10499993554.768244,47.655,-122.3035,60.0,2.7
2026-01-20T23:02:43+00:00,SAT-64146,283.5097466909058,32.70299162730788,4023.2393559959423,0.196025220925225,-6865.632422663757,10.5,10499993134.367577,47.655,-122.3035,60.0,2.716666666666667
2026-01-20T23:02:44+00:00,SAT-64146,283.3762520866655,32.697603107913785,4023.4348584829454,0.20802634325166525,-7285.962491232802,10.5,10499992714.037508,47.655,-122.3035,60.0,2.7333333333333334
2026-01-20T23:02:45+00:00,SAT-64146,283.24279218566915,32.691966925567264,4023.6423300892816,0.2200253266782898,-7706.217646482764,10.5,10499992293.782354,47.655,-122.3035,60.0,2.75
2026-01-20T23:02:46+00:00,SAT-64146,283.10936870515263,32.68608323969461,4023.861768681755,0.23202204821540645,-8126.393580794376,10.5,10499991873.606419,47.655,-122.3035,60.0,2.7666666666666666
2026-01-20T23:02:47+00:00,SAT-64146,282.97598336003716,32.679952217407255,4024.0931720045087,0.24401638696261443,-8546.486059724197,10.5,10499991453.51394,47.655,-122.3035,60.0,2.783333333333333
2026-01-20T23:02:48+00:00,SAT-64146,282.84263786162,32.67357403342868,4024.3365376811066,0.2560082198468737,-8966.490772733761,10.5,10499991033.509228,47.655,-122.3035,60.0,2.8
2026-01-20T23:02:49+00:00,SAT-64146,282.7093339188459,32.6669488701411,4024.591863212367,0.2679974254331363,-9386.403466654025,10.5,10499990613.596533,47.655,-122.3035,60.0,2.816666666666667
2026-01-20T23:02:50+00:00,SAT-64146,282.57607323732594,32.66007691752501,4024.859145977999,0.2799838804715015,-9806.219824752116,10.5,10499990193.780176,47.655,-122.3035,60.0,2.8333333333333335
2026-01-20T23:02:51+00:00,SAT-64146,282.4428575201857,32.652958373190714,4025.138383234789,0.29196746392231654,-10225.935607707395,10.5,10499989774.064392,47.655,-122.3035,60.0,2.85
2026-01-20T23:02:52+00:00,SAT-64146,282.3096884668635,32.64559344230276,4025.4295721188078,0.30394805549758536,-10645.546602525426,10.5,10499989354.453398,47.655,-122.3035,60.0,2.8666666666666667
2026-01-20T23:02:53+00:00,SAT-64146,282.176567772801,32.63798233754307,4025.7327096461577,0.3159255311220585,-11065.048463566132,10.5,10499988934.951536,47.655,-122.3035,60.0,2.8833333333333333
2026-01-20T23:02:54+00:00,SAT-64146,282.0434971311061,32.63012527919275,4026.0477927091965,0.32789977044065505,-11484.43697548548,10.5,10499988515.563025,47.655,-122.3035,60.0,2.9
2026-01-20T23:02:55+00:00,SAT-64146,281.9104782307573,32.62202249501446,4026.374818080249,0.33987065299715824,-11903.707919397231,10.5,10499988096.29208,47.655,-122.3035,60.0,2.9166666666666665
2026-01-20T23:02:56+00:00,SAT-64146,281.7775127566814,32.61367422023749,4026.713782411505,0.3518380560590354,-12322.856996688928,10.5,10499987677.143003,47.655,-122.3035,60.0,2.933333333333333
2026-01-20T23:02:57+00:00,SAT-64146,281.64460239059997,32.60508069759477,4027.0646822327476,0.3638018599928775,-12741.880017292542,10.5,10499987258.119982,47.655,-122.3035,60.0,2.95
2026-01-20T23:02:58+00:00,SAT-64146,281.5117488097415,32.596242177224106,4027.4275139544475,0.3757619422303067,-13160.772688345014,10.5,10499986839.227312,47.655,-122.3035,60.0,2.966666666666667
2026-01-20T23:02:59+00:00,SAT-64146,281.3789536878998,32.58715891672,4027.802273864832,0.3877181853745892,-13579.530898116145,10.5,10499986420.4691,47.655,-122.3035,60.0,2.9833333333333334
2026-01-20T23:03:00+00:00,SAT-64146,281.2462186935008,32.577831180983026,4028.1889581350456,0.39967046533929484,-13998.150300574258,10.5,10499986001.849699,47.655,-122.3035,60.0,3.0
2026-01-20T23:03:01+00:00,SAT-64146,281.11354549194886,32.5682592423634,4028.5875628124772,0.4116186629814466,-14416.626722828329,10.5,10499985583.373278,47.655,-122.3035,60.0,3.0166666666666666
2026-01-20T23:03:02+00:00,SAT-64146,280.98093574379135,32.55844338051554,4028.9980838256906,0.4235626590899666,-14834.955989602146,10.5,10499985165.04401,47.655,-122.3035,60.0,3.033333333333333
2026-01-20T23:03:03+00:00,SAT-64146,280.8483911047379,32.54838388237483,4029.4205169843567,0.4355023338144359,-15253.13390322707,10.5,10499984746.866096,47.655,-122.3035,60.0,3.05
2026-01-20T23:03:04+00:00,SAT-64146,280.7159132258428,32.53808104215058,4029.854857978614,0.44743756639065696,-15671.156234030072,10.5,10499984328.843765,47.655,-122.3035,60.0,3.066666666666667
2026-01-20T23:03:05+00:00,SAT-64146,280.58350375373095,32.52753516132252,4030.3011023781605,0.45936823616674843,-16089.01875627191,10.5,10499983910.981243,47.655,-122.3035,60.0,3.0833333333333335
2026-01-20T23:03:06+00:00,SAT-64146,280.4511643304713,32.51674654861286,4030.7592456323646,0.47129422692911216,-16506.717399660793,10.5,10499983493.2826,47.655,-122.3035,60.0,3.1
2026-01-20T23:03:07+00:00,SAT-64146,280.3188965922105,32.505715519850774,4031.2292830746887,0.48321541745107066,-16924.24791832569,10.5,10499983075.75208,47.655,-122.3035,60.0,3.1166666666666667
2026-01-20T23:03:08+00:00,SAT-64146,280.1867021706415,32.49444239806935,4031.711209917693,0.4951316883431604,-17341.60613074257,10.5,10499982658.39387,47.655,-122.3035,60.0,3.1333333333333333
2026-01-20T23:03:09+00:00,SAT-64146,280.0545826923764,32.48292751343222,4032.2050212548675,0.5070429216313104,-17758.787904960434,10.5,10499982241.212095,47.655,-122.3035,60.0,3.15
2026-01-20T23:03:10+00:00,SAT-64146,279.9225397785073,32.47117120317235,4032.710712062041,0.5189489996041986,-18175.78911823087,10.5,10499981824.210882,47.655,-122.3035,60.0,3.1666666666666665
2026-01-20T23:03:11+00:00,SAT-64146,279.7905750445222,32.45917381155711,4033.228277197646,0.5308498028276385,-18592.605587463462,10.5,10499981407.394413,47.655,-122.3035,60.0,3.183333333333333
2026-01-20T23:03:12+00:00,SAT-64146,279.658690100704,32.44693568990076,4033.7577114009996,0.542745213630458,-19009.233191316005,10.5,10499980990.76681,47.655,-122.3035,60.0,3.2
2026-01-20T23:03:13+00:00,SAT-64146,279.5268865516265,32.434457196492666,4034.2990092940604,0.5546351146489574,-19425.667819215298,10.5,10499980574.33218,47.655,-122.3035,60.0,3.216666666666667
2026-01-20T23:03:14+00:00,SAT-64146,279.39516599603564,32.42173869655977,4034.852165381737,0.5665193869663183,-19841.905306191333,10.5,10499980158.094694,47.655,-122.3035,60.0,3.2333333333333334
2026-01-20T23:03:15+00:00,SAT-64146,279.2635300271766,32.40878056227261,4035.417174050338,0.5783979151002704,-20257.941607566525,10.5,10499979742.058392,47.655,-122.3035,60.0,3.25
2026-01-20T23:03:16+00:00,SAT-64146,279.1319802319505,32.39558317263439,4035.994029570998,0.5902705806030819,-20673.772574800267,10.5,10499979326.227425,47.655,-122.3035,60.0,3.2666666666666666
2026-01-20T23:03:17+00:00,SAT-64146,279.00051819156033,32.38214691351768,4036.5827260967194,0.6021372656927888,-21089.394082669958,10.5,10499978910.605917,47.655,-122.3035,60.0,3.283333333333333
2026-01-20T23:03:18+00:00,SAT-64146,278.8691454812898,32.368472177617264,4037.1832576630372,0.6139978585351226,-21504.802214266463,10.5,10499978495.197786,47.655,-122.3035,60.0,3.3
2026-01-20T23:03:19+00:00,SAT-64146,278.73786366916875,32.35455936427747,4037.7956181939494,0.6258522372157839,-21919.992699635328,10.5,10499978080.0073,47.655,-122.3035,60.0,3.316666666666667
2026-01-20T23:03:20+00:00,SAT-64146,278.6066743181593,32.3404088796965,4038.419801491866,0.6377002879870574,-22334.961554850393,10.5,10499977665.038445,47.655,-122.3035,60.0,3.3333333333333335
2026-01-20T23:03:21+00:00,SAT-64146,278.4755789843018,32.32602113669975,4039.055801245752,0.6495418956995572,-22749.7047468931,10.5,10499977250.295254,47.655,-122.3035,60.0,3.35
2026-01-20T23:03:22+00:00,SAT-64146,278.34457921701534,32.31139655474057,4039.7036110297295,0.6613769453954965,-23164.218249455473,10.5,10499976835.78175,47.655,-122.3035,60.0,3.3666666666666667
2026-01-20T23:03:23+00:00,SAT-64146,278.2136765590275,32.29653555985924,4040.3632243032707,0.6732053199048075,-23578.497958746106,10.5,10499976421.50204,47.655,-122.3035,60.0,3.3833333333333333
2026-01-20T23:03:24+00:00,SAT-64146,278.0828725467868,32.281438584701824,4041.034634408989,0.6850269042132909,-23992.539846481242,10.5,10499976007.460154,47.655,-122.3035,60.0,3.4
2026-01-20T23:03:25+00:00,SAT-64146,277.9521687099616,32.26610606843174,4041.717834574791,0.6968415870228504,-24406.34001453075,10.5,10499975593.659985,47.655,-122.3035,60.0,3.4166666666666665
2026-01-20T23:03:26+00:00,SAT-64146,277.8215665707202,32.25053845661014,4042.412817917582,0.7086492502196543,-24819.894326048623,10.5,10499975180.105675,47.655,-122.3035,60.0,3.433333333333333
2026-01-20T23:03:27+00:00,SAT-64146,277.69106764500543,32.234736201315805,4043.119577436468,0.7204497820349947,-25233.19886642193,10.5,10499974766.801134,47.655,-122.3035,60.0,3.45
2026-01-20T23:03:28+00:00,SAT-64146,277.56067344128394,32.218699760962615,4043.838106019084,0.7322430681997222,-25646.249633461703,10.5,10499974353.750366,47.655,-122.3035,60.0,3.466666666666667
2026-01-20T23:03:29+00:00,SAT-64146,277.43038546100183,32.20242960031892,4044.5683964391014,0.7440289959967912,-26059.04267934021,10.5,10499973940.957321,47.655,-122.3035,60.0,3.4833333333333334
2026-01-20T23:03:30+00:00,SAT-64146,277.3002051982682,32.1859261904358,4045.3104413577757,0.7558074511606099,-26471.57400199308,10.5,10499973528.425999,47.655,-122.3035,60.0,3.5
2026-01-20T23:03:31+00:00,SAT-64146,277.1701341401044,32.16919000864286,4046.0642333224,0.7675783210213967,-26883.83965524798,10.5,10499973116.160345,47.655,-122.3035,60.0,3.5166666666666666
2026-01-20T23:03:32+00:00,SAT-64146,277.0401737661345,32.15222153847506,4046.8297647678987,0.7793414936041064,-27295.835717265167,10.5,10499972704.164282,47.655,-122.3035,60.0,3.533333333333333
2026-01-20T23:03:33+00:00,SAT-64146,276.91032554841246,32.135021269614434,4047.60702801752,0.7910968601619061,-27707.558379270547,10.5,10499972292.44162,47.655,-122.3035,60.0,3.55
2026-01-20T23:03:34+00:00,SAT-64146,276.78059095091714,32.117589697782755,4048.3960152860545,0.8028443019893962,-28119.003483698914,10.5,10499971880.996517,47.655,-122.3035,60.0,3.566666666666667
2026-01-20T23:03:35+00:00,SAT-64146,276.6509714311433,32.0999273249232,4049.1967186699053,0.8145837121398579,-28530.167284823783,10.5,10499971469.832716,47.655,-122.3035,60.0,3.5833333333333335
2026-01-20T23:03:36+00:00,SAT-64146,276.5214684381387,32.082034658897065,4050.0091301588127,0.8263149807397348,-28941.045934408445,10.5,10499971058.954065,47.655,-122.3035,60.0,3.6
2026-01-20T23:03:37+00:00,SAT-64146,276.3920834129709,32.06391221350623,4050.8332416329376,0.8380379934212833,-29351.635426810753,10.5,10499970648.364573,47.655,-122.3035,60.0,3.6166666666666667
2026-01-20T23:03:38+00:00,SAT-64146,276.2628177894505,32.0455605085589,4051.669044858376,0.8497526415504946,-29761.931957208188,10.5,10499970238.068043,47.655,-122.3035,60.0,3.6333333333333333
2026-01-20T23:03:39+00:00,SAT-64146,276.13367299315394,32.02698006969331,4052.516531492882,0.8614588166133008,-30171.93172497908,10.5,10499969828.068275,47.655,-122.3035,60.0,3.65
2026-01-20T23:03:40+00:00,SAT-64146,276.00465044142857,32.00817142833802,4053.375693085985,0.8731564076155205,-30581.630842637693,10.5,10499969418.369158,47.655,-122.3035,60.0,3.6666666666666665
2026-01-20T23:03:41+00:00,SAT-64146,275.87575154375526,31.989135121724118,4054.2465210765135,0.8848453039410883,-30991.025435941512,10.5,10499969008.974564,47.655,-122.3035,60.0,3.683333333333333
2026-01-20T23:03:42+00:00,SAT-64146,275.74697770166017,31.969871692835806,4055.129006792977,0.8965253993847785,-31400.11178513428,10.5,10499968599.888214,47.655,-122.3035,60.0,3.7
2026-01-20T23:03:43+00:00,SAT-64146,275.6183303080378,31.950381690266656,4056.023141457964,0.9081965819791687,-31808.88596864325,10.5,10499968191.11403,47.655,-122.3035,60.0,3.716666666666667
2026-01-20T23:03:44+00:00,SAT-64146,275.4898107480012,31.930665668309345,4056.928916182391,0.9198587499745957,-32217.344422764818,10.5,10499967782.655577,47.655,-122.3035,60.0,3.7333333333333334
2026-01-20T23:03:45+00:00,SAT-64146,275.36142039738877,31.910724186681538,4057.8463219756986,0.9315117869440093,-32625.483069731185,10.5,10499967374.51693,47.655,-122.3035,60.0,3.75
2026-01-20T23:03:46+00:00,SAT-64146,275.2331606248358,31.890557810811245,4058.775349731211,0.9431555905527854,-33033.29832535095,10.5,10499966966.701675,47.655,-122.3035,60.0,3.7666666666666666
2026-01-20T23:03:47+00:00,SAT-64146,275.10503278978126,31.870167111479542,4059.7159902401886,0.954790053065956,-33440.786416289826,10.5,10499966559.213583,47.655,-122.3035,60.0,3.783333333333333
2026-01-20T23:03:48+00:00,SAT-64146,274.9770382432048,31.849552664895757,4060.6682341864466,0.9664150709860903,-33847.94371762997,10.5,10499966152.056282,47.655,-122.3035,60.0,3.8
2026-01-20T23:03:49+00:00,SAT-64146,274.84917832707345,31.828715052561154,4061.6320721505767,0.9780305328306073,-34254.76632477985,10.5,10499965745.233675,47.655,-122.3035,60.0,3.816666666666667
2026-01-20T23:03:50+00:00,SAT-64146,274.7214543753905,31.807654861400984,4062.6074946019867,0.9896363325736833,-34661.25052426661,10.5,10499965338.749475,47.655,-122.3035,60.0,3.8333333333333335
2026-01-20T23:03:51+00:00,SAT-64146,274.59386771342827,31.786372683597044,4063.5944919043404,1.0012323727296188,-35067.392901728694,10.5,10499964932.607098,47.655,-122.3035,60.0,3.85
2026-01-20T23:03:52+00:00,SAT-64146,274.4664196566477,31.764869116356266,4064.5930543240756,1.0128185365023958,-35473.18936647551,10.5,10499964526.810633,47.655,-122.3035,60.0,3.8666666666666667
2026-01-20T23:03:53+00:00,SAT-64146,274.3391115131946,31.743144762292644,4065.6031720111478,1.024394732824622,-35878.63672894176,10.5,10499964121.363272,47.655,-122.3035,60.0,3.8833333333333333
2026-01-20T23:03:54+00:00,SAT-64146,274.21194458057596,31.721200228812073,4066.6248350246847,1.0359608430523926,-36283.73083371605,10.5,10499963716.269167,47.655,-122.3035,60.0,3.9
2026-01-20T23:03:55+00:00,SAT-64146,274.0849201491809,31.69903612867701,4067.658033305489,1.0475167755973904,-36688.46847298807,10.5,10499963311.531527,47.655,-122.3035,60.0,3.9166666666666665
2026-01-20T23:03:56+00:00,SAT-64146,273.9580394988575,31.67665307936347,4068.702756703018,1.0590624197576608,-37092.84576950711,10.5,10499962907.15423,47.655,-122.3035,60.0,3.933333333333333
2026-01-20T23:03:57+00:00,SAT-64146,273.8313039013173,31.65405170343643,4069.758994956323,1.0705976759084068,-37496.85923399138,10.5,10499962503.140766,47.655,-122.3035,60.0,3.95
2026-01-20T23:03:58+00:00,SAT-64146,273.7047146187475,31.63123262825981,4070.8267377050956,1.0821224407808967,-37900.505249533046,10.5,10499962099.494751,47.655,-122.3035,60.0,3.966666666666667
2026-01-20T23:03:59+00:00,SAT-64146,273.5782729042869,31.608196486030977,4071.905974486034,1.0936366132109363,-38303.78027293412,10.5,10499961696.219727,47.655,-122.3035,60.0,3.9833333333333334
2026-01-20T23:04:00+00:00,SAT-64146,273.4519800017632,31.584943913688438,4072.9966947349435,1.1051400906885651,-38706.680713862166,10.5,10499961293.319286,47.655,-122.3035,60.0,4.0
2026-01-20T23:04:01+00:00,SAT-64146,273.3258371458567,31.561475552893373,4074.09888778539,1.1166327694769804,-39109.202939015544,10.5,10499960890.797062,47.655,-122.3035,60.0,4.016666666666667
2026-01-20T23:04:02+00:00,SAT-64146,273.19984556225086,31.537792050012097,4075.2125428674817,1.128114553119628,-39511.34357007772,10.5,10499960488.65643,47.655,-122.3035,60.0,4.033333333333333
2026-01-20T23:04:03+00:00,SAT-64146,273.07400646679343,31.513894055907244,4076.3376491151266,1.1395853424109927,-39913.099132451905,10.5,10499960086.900867,47.655,-122.3035,60.0,4.05
2026-01-20T23:04:04+00:00,SAT-64146,272.94832106584226,31.48978222595424,4077.4741955632912,1.151045030202084,-40314.465873327215,10.5,10499959685.534126,47.655,-122.3035,60.0,4.066666666666666
2026-01-20T23:04:05+00:00,SAT-64146,272.8227905571483,31.465457220164,4078.6221711400794,1.162493522595234,-40715.440504010134,10.5,10499959284.559496,47.655,-122.3035,60.0,4.083333333333333
2026-01-20T23:04:06+00:00,SAT-64146,272.6974161283874,31.440919702850614,4079.7815646799477,1.1739307224549067,-41116.01962240331,10.5,10499958883.980377,47.655,-122.3035,60.0,4.1
2026-01-20T23:04:07+00:00,SAT-64146,272.57219895754804,31.416170342651316,4080.952364920476,1.1853565249389217,-41516.1995564901,10.5,10499958483.800444,47.655,-122.3035,60.0,4.116666666666666
2026-01-20T23:04:08+00:00,SAT-64146,272.44714021377746,31.391209812649738,4082.134560494682,1.1967708403292097,-41915.97716396421,10.5,10499958084.022837,47.655,-122.3035,60.0,4.133333333333334
2026-01-20T23:04:09+00:00,SAT-64146,272.3222410557563,31.366038789996722,4083.3281399461034,1.2081735608511626,-42315.34867010299,10.5,10499957684.651329,47.655,-122.3035,60.0,4.15
2026-01-20T23:04:10+00:00,SAT-64146,272.1975026336547,31.340657956258312,4084.533091710792,1.2195645997308286,-42714.31103571558,10.5,10499957285.688965,47.655,-122.3035,60.0,4.166666666666667
2026-01-20T23:04:11+00:00,SAT-64146,272.0729260869169,31.315067996909406,4085.7494041382574,1.230943852835502,-43112.860613634155,10.5,10499956887.139387,47.655,-122.3035,60.0,4.183333333333334
2026-01-20T23:04:12+00:00,SAT-64146,271.94851254610415,31.289269601664603,4086.9770654741515,1.24231122974323,-43510.99423689943,10.5,10499956489.005764,47.655,-122.3035,60.0,4.2
2026-01-20T23:04:13+00:00,SAT-64146,271.82426313149483,31.263263464132173,4088.2160638739488,1.2536666280568765,-43908.70831913057,10.5,10499956091.291681,47.655,-122.3035,60.0,4.216666666666667
2026-01-20T23:04:14+00:00,SAT-64146,271.7001789543223,31.237050282027283,4089.4663873909976,1.2650099593594164,-44305.99976358935,10.5,10499955694.000237,47.655,-122.3035,60.0,4.233333333333333
2026-01-20T23:04:15+00:00,SAT-64146,271.57626111538286,31.210630756819064,4090.7280239904653,1.2763411251629402,-44702.86512081259,10.5,10499955297.13488,47.655,-122.3035,60.0,4.25
2026-01-20T23:04:16+00:00,SAT-64146,271.452510706076,31.184005593904406,4092.0009615392946,1.2876600320027836,-45099.301117272356,10.5,10499954900.698883,47.655,-122.3035,60.0,4.266666666666667
2026-01-20T23:04:17+00:00,SAT-64146,271.3289288079072,31.15717550244601,4093.285187811212,1.2989665874708707,-45495.30451644698,10.5,10499954504.695484,47.655,-122.3035,60.0,4.283333333333333
2026-01-20T23:04:18+00:00,SAT-64146,271.2055164924458,31.130141195309264,4094.580690487783,1.3102606939620698,-45890.87189979186,10.5,10499954109.1281,47.655,-122.3035,60.0,4.3
2026-01-20T23:04:19+00:00,SAT-64146,271.0822748218062,31.102903389118786,4095.8874571532283,1.3215422671866082,-46286.00031512262,10.5,10499953713.999685,47.655,-122.3035,60.0,4.316666666666666
2026-01-20T23:04:20+00:00,SAT-64146,270.9592048474391,31.075462803930552,4097.205475307702,1.3328112023231422,-46680.686091152405,10.5,10499953319.31391,47.655,-122.3035,60.0,4.333333333333333
2026-01-20T23:04:21+00:00,SAT-64146,270.83630761208667,31.04782016362052,4098.534732346819,1.344067423348093,-47074.926565213915,10.5,10499952925.073435,47.655,-122.3035,60.0,4.35
2026-01-20T23:04:22+00:00,SAT-64146,270.71358414709835,31.019976195221645,4099.875215590371,1.3553108242651126,-47468.71802486666,10.5,10499952531.281975,47.655,-122.3035,60.0,4.366666666666666
2026-01-20T23:04:23+00:00,SAT-64146,270.5910354752761,30.99193162951722,4101.2269122524385,1.3665413238540758,-47862.05762543831,10.5,10499952137.942375,47.655,-122.3035,60.0,4.383333333333334
2026-01-20T23:04:24+00:00,SAT-64146,270.4686626085848,30.963687200463067,4102.589809466096,1.377758825345872,-48254.94197766528,10.5,10499951745.058022,47.655,-122.3035,60.0,4.4
2026-01-20T23:04:25+00:00,SAT-64146,270.3464665496244,30.935243645471218,4103.963894267908,1.3889632467682111,-48647.368210531225,10.5,10499951352.63179,47.655,-122.3035,60.0,4.416666666666667
2026-01-20T23:04:26+00:00,SAT-64146,270.2244482903309,30.906601705049898,4105.349153612684,1.4001544911121029,-49039.33292637095,10.5,10499950960.667074,47.655,-122.3035,60.0,4.433333333333334
2026-01-20T23:04:27+00:00,SAT-64146,270.1026088133382,30.877762123071886,4106.745574358487,1.4113324763422377,-49430.83325196092,10.5,10499950569.166748,47.655,-122.3035,60.0,4.45
2026-01-20T23:04:28+00:00,SAT-64146,269.9809490906962,30.84872564641141,4108.153143281558,1.4224971064619996,-49821.865825093555,10.5,10499950178.134174,47.655,-122.3035,60.0,4.466666666666667
2026-01-20T23:04:29+00:00,SAT-64146,269.85947008513097,30.819493025192344,4109.571847062403,1.4336483014974173,-50212.427844742124,10.5,10499949787.572155,47.655,-122.3035,60.0,4.483333333333333
2026-01-20T23:04:30+00:00,SAT-64146,269.73817274866394,30.79006501239921,4111.001672301763,1.4447859732576231,-50602.51622208937,10.5,10499949397.483778,47.655,-122.3035,60.0,4.5
2026-01-20T23:04:31+00:00,SAT-64146,269.6170580233991,30.760442364006245,4112.442605512426,1.4559100249729993,-50992.12756785393,10.5,10499949007.872433,47.655,-122.3035,60.0,4.516666666666667
2026-01-20T23:04:32+00:00,SAT-64146,269.4961268422663,30.730625839113273,4113.894633110665,1.4670203839432157,-51381.259335762756,10.5,10499948618.740664,47.655,-122.3035,60.0,4.533333333333333
2026-01-20T23:04:33+00:00,SAT-64146,269.3753801270106,30.70061619938358,4115.357741440252,1.4781169578725133,-51769.90829322794,10.5,10499948230.091707,47.655,-122.3035,60.0,4.55
2026-01-20T23:04:34+00:00,SAT-64146,269.2548187899039,30.67041420941702,4116.831916752903,1.4891996627480986,-52158.071497766075,10.5,10499947841.928503,47.655,-122.3035,60.0,4.566666666666666
2026-01-20T23:04:35+00:00,SAT-64146,269.1344437330864,30.640020636524675,4118.317145216551,1.5002684127967048,-52545.74594523456,10.5,10499947454.254055,47.655,-122.3035,60.0,4.583333333333333
2026-01-20T23:04:36+00:00,SAT-64146,269.0142558487424,30.60943625071988,4119.81341291358,1.5113231311256978,-52932.92894252805,10.5,10499947067.071058,47.655,-122.3035,60.0,4.6
2026-01-20T23:04:37+00:00,SAT-64146,268.8942560184355,30.578661824485074,4121.320705849689,1.522363718928006,-53319.617029004985,10.5,10499946680.38297,47.655,-122.3035,60.0,4.616666666666666
2026-01-20T23:04:38+00:00,SAT-64146,268.77444511492365,30.547698133188142,4122.839009932033,1.5333901096375122,-53705.80787323836,10.5,10499946294.192127,47.655,-122.3035,60.0,4.633333333333334
2026-01-20T23:04:39+00:00,SAT-64146,268.65482399958654,30.516545954351997,4124.368311001379,1.544402210353169,-54091.498221440495,10.5,10499945908.501778,47.655,-122.3035,60.0,4.65
2026-01-20T23:04:40+00:00,SAT-64146,268.53539352460984,30.485206068170374,4125.908594805837,1.555399946186759,-54476.68545070926,10.5,10499945523.314548,47.655,-122.3035,60.0,4.666666666666667
2026-01-20T23:04:41+00:00,SAT-64146,268.416154531579,30.453679257074846,4127.459847018834,1.5663832273261935,-54861.366415445416,10.5,10499945138.633585,47.655,-122.3035,60.0,4.683333333333334
2026-01-20T23:04:42+00:00,SAT-64146,268.29710785269896,30.421966306007555,4129.022053224221,1.577351982769105,-55245.5386288457,10.5,10499944754.46137,47.655,-122.3035,60.0,4.7
2026-01-20T23:04:43+00:00,SAT-64146,268.1782543093938,30.390068001979316,4130.595198935036,1.5883061224391304,-55629.198936054854,10.5,10499944370.801064,47.655,-122.3035,60.0,4.716666666666667
2026-01-20T23:04:44+00:00,SAT-64146,268.0595947138181,30.357985134424716,4132.179269574482,1.5992455750462493,-56012.344840194804,10.5,10499943987.655159,47.655,-122.3035,60.0,4.733333333333333
2026-01-20T23:04:45+00:00,SAT-64146,267.94112986745085,30.32571849475951,4133.774250494661,1.610170257981372,-56394.97344794579,10.5,10499943605.026552,47.655,-122.3035,60.0,4.75
2026-01-20T23:04:46+00:00,SAT-64146,267.8228605620459,30.29326887657867,4135.380126965288,1.6210800884534644,-56777.08185961562,10.5,10499943222.91814,47.655,-122.3035,60.0,4.766666666666667
2026-01-20T23:04:47+00:00,SAT-64146,267.7047875796497,30.260637075607146,4136.996884173506,1.6319749988845447,-57158.667708337474,10.5,10499942841.332293,47.655,-122.3035,60.0,4.783333333333333
2026-01-20T23:04:48+00:00,SAT-64146,267.58691169155935,30.227823889346503,4138.62450723906,1.6428548972558328,-57539.72777122447,10.5,10499942460.272228,47.655,-122.3035,60.0,4.8
2026-01-20T23:04:49+00:00,SAT-64146,267.4692336601447,30.19483011752941,4140.262981189923,1.653719722312617,-57920.25990287747,10.5,10499942079.740097,47.655,-122.3035,60.0,4.816666666666666
2026-01-20T23:04:50+00:00,SAT-64146,267.35175423667556,30.16165656144433,4141.9122909929765,1.6645693831704644,-58300.26092013921,10.5,10499941699.73908,47.655,-122.3035,60.0,4.833333333333333
2026-01-20T23:04:51+00:00,SAT-64146,267.2344741635179,30.128304024500686,4143.572421524458,1.6754038157144011,-58679.7285774321,10.5,10499941320.271423,47.655,-122.3035,60.0,4.85
2026-01-20T23:04:52+00:00,SAT-64146,267.11739417225175,30.094773311631972,4145.243357596664,1.6862229328416585,-59058.65982404872,10.5,10499940941.340176,47.655,-122.3035,60.0,4.866666666666666
2026-01-20T23:04:53+00:00,SAT-64146,267.0005149853896,30.061065229728996,4146.925083935018,1.6970266740969533,-59437.05254258934,10.5,10499940562.947458,47.655,-122.3035,60.0,4.883333333333334
2026-01-20T23:04:54+00:00,SAT-64146,266.8838373145161,30.027180587040643,4148.617585204651,1.7078149480429097,-59814.90353053028,10.5,10499940185.09647,47.655,-122.3035,60.0,4.9
