satellites_20260121_005943/SAT-64121.csv

timestamp,satellite,azimuth_deg,elevation_deg,distance_km,relative_velocity_kms,doppler_shift_hz,tx_freq_ghz,rx_freq_hz,ue_lat,ue_lon,ue_alt_m,time_minutes
2026-01-20T23:06:58+00:00,SAT-64121,210.85162154890716,30.11874173060062,1490.7405336921804,-5.951868190096473,208459.60039466026,10.5,10500208459.600395,47.655,-122.3035,60.0,6.966666666666667
2026-01-20T23:06:59+00:00,SAT-64121,210.87666990981828,30.282659942156144,1484.804537150591,-5.942954926526971,208147.42020138877,10.5,10500208147.420202,47.655,-122.3035,60.0,6.983333333333333
2026-01-20T23:07:00+00:00,SAT-64121,210.90223501923063,30.44766564387345,1478.877430103868,-5.933927265460205,207831.23332386216,10.5,10500207831.233324,47.655,-122.3035,60.0,7.0
2026-01-20T23:07:01+00:00,SAT-64121,210.92832573287922,30.613769900597795,1472.959326644449,-5.924783521811203,207510.98074327686,10.5,10500207510.980743,47.655,-122.3035,60.0,7.016666666666667
2026-01-20T23:07:02+00:00,SAT-64121,210.95495110897483,30.780983889470107,1467.0503425453626,-5.915522030523932,207186.6041423273,10.5,10500207186.604143,47.655,-122.3035,60.0,7.033333333333333
2026-01-20T23:07:03+00:00,SAT-64121,210.98212041417796,30.949318901621435,1461.1505952402536,-5.906141124972467,206858.04514872388,10.5,10500206858.045149,47.655,-122.3035,60.0,7.05
2026-01-20T23:07:04+00:00,SAT-64121,211.00984312973134,31.118786343287013,1455.2602038249477,-5.896639056550464,206525.24251887575,10.5,10500206525.24252,47.655,-122.3035,60.0,7.066666666666666
2026-01-20T23:07:05+00:00,SAT-64121,211.03812895735692,31.289397734602403,1449.3792891392147,-5.887014074308176,206188.1349271163,10.5,10500206188.134928,47.655,-122.3035,60.0,7.083333333333333
2026-01-20T23:07:06+00:00,SAT-64121,211.06698782577985,31.461164710604216,1443.5079737691046,-5.877264404917413,205846.66026399113,10.5,10500205846.660263,47.655,-122.3035,60.0,7.1
2026-01-20T23:07:07+00:00,SAT-64121,211.09642989739152,31.63409902163653,1437.6463820692668,-5.867388231784729,205500.75490471363,10.5,10500205500.754904,47.655,-122.3035,60.0,7.116666666666666
2026-01-20T23:07:08+00:00,SAT-64121,211.1264655750037,31.80821253311043,1431.7946402061004,-5.8573837599930165,205150.35598369414,10.5,10500205150.355984,47.655,-122.3035,60.0,7.133333333333334
2026-01-20T23:07:09+00:00,SAT-64121,211.1571055092428,31.983517227131664,1425.952876136134,-5.847249065521333,204795.39611358067,10.5,10500204795.396114,47.655,-122.3035,60.0,7.15
2026-01-20T23:07:10+00:00,SAT-64121,211.18836060532314,32.16002519962124,1420.1212197347872,-5.83698229557625,204435.81040171004,10.5,10500204435.810402,47.655,-122.3035,60.0,7.166666666666667
2026-01-20T23:07:11+00:00,SAT-64121,211.2202420312178,32.3377486633113,1414.2998027253325,-5.826581522151872,204071.53132116038,10.5,10500204071.53132,47.655,-122.3035,60.0,7.183333333333334
2026-01-20T23:07:12+00:00,SAT-64121,211.25276122528814,32.51669994636038,1408.4887587539065,-5.816044787666208,203702.49030912973,10.5,10500203702.490309,47.655,-122.3035,60.0,7.2
2026-01-20T23:07:13+00:00,SAT-64121,211.2859299044473,32.6968914922488,1402.6882234190073,-5.805370104287004,203328.61774332408,10.5,10500203328.617743,47.655,-122.3035,60.0,7.216666666666667
2026-01-20T23:07:14+00:00,SAT-64121,211.3197600726008,32.87833585959062,1396.8983343016653,-5.794555462336435,202949.84323632508,10.5,10500202949.843237,47.655,-122.3035,60.0,7.233333333333333
2026-01-20T23:07:15+00:00,SAT-64121,211.35426402949108,33.06104572215137,1391.1192309872283,-5.7835988168278565,202566.0951640501,10.5,10500202566.095163,47.655,-122.3035,60.0,7.25
2026-01-20T23:07:16+00:00,SAT-64121,211.38945437973143,33.245033868374605,1385.3510551005786,-5.772498095911899,202177.30096157038,10.5,10500202177.300962,47.655,-122.3035,60.0,7.266666666666667
2026-01-20T23:07:17+00:00,SAT-64121,211.42534404227763,33.43031320110502,1379.5939503329223,-5.761251180388111,201783.38640552183,10.5,10500201783.386406,47.655,-122.3035,60.0,7.283333333333333
2026-01-20T23:07:18+00:00,SAT-64121,211.46194626007576,33.61689673657876,1373.8480624890155,-5.7498559291230515,201384.27650435435,10.5,10500201384.276505,47.655,-122.3035,60.0,7.3
2026-01-20T23:07:19+00:00,SAT-64121,211.49927461027428,33.80479760412981,1368.1135395090366,-5.738310196945725,200979.89612510568,10.5,10500200979.896126,47.655,-122.3035,60.0,7.316666666666666
2026-01-20T23:07:20+00:00,SAT-64121,211.53734301492668,33.99402904641975,1362.3905314726162,-5.7266117180093685,200570.1659082377,10.5,10500200570.165909,47.655,-122.3035,60.0,7.333333333333333
2026-01-20T23:07:21+00:00,SAT-64121,211.5761657512809,34.18460441574662,1356.6791907191882,-5.714758299253191,200155.00904348466,10.5,10500200155.009043,47.655,-122.3035,60.0,7.35
2026-01-20T23:07:22+00:00,SAT-64121,211.61575746385077,34.37653717659085,1350.9796717753998,-5.702747656488011,199734.34552887955,10.5,10500199734.34553,47.655,-122.3035,60.0,7.366666666666666
2026-01-20T23:07:23+00:00,SAT-64121,211.65613317575998,34.569840902691475,1345.2921314459954,-5.690577479114509,199308.0944374603,10.5,10500199308.094437,47.655,-122.3035,60.0,7.383333333333334
2026-01-20T23:07:24+00:00,SAT-64121,211.69730830099166,34.76452927613245,1339.6167288401589,-5.678245399325859,198876.17283861595,10.5,10500198876.172838,47.655,-122.3035,60.0,7.4
2026-01-20T23:07:25+00:00,SAT-64121,211.7392986568841,34.96061608524926,1333.9536254285645,-5.665749075292376,198438.49871156513,10.5,10500198438.49871,47.655,-122.3035,60.0,7.416666666666667
2026-01-20T23:07:26+00:00,SAT-64121,211.7821204777559,35.15811522527925,1328.3029850174728,-5.6530860492073565,197994.98597352052,10.5,10500197994.985973,47.655,-122.3035,60.0,7.433333333333334
2026-01-20T23:07:27+00:00,SAT-64121,211.82579042794862,35.35704069399726,1322.6649738643966,-5.640253926852554,197545.55076883163,10.5,10500197545.550768,47.655,-122.3035,60.0,7.45
2026-01-20T23:07:28+00:00,SAT-64121,211.8703256168348,35.55740659344013,1317.0397606146826,-5.627250163884653,197090.10398383287,10.5,10500197090.103983,47.655,-122.3035,60.0,7.466666666666667
2026-01-20T23:07:29+00:00,SAT-64121,211.91574361264765,35.75922712401468,1311.4275164512346,-5.614072269070317,196628.55836499506,10.5,10500196628.558365,47.655,-122.3035,60.0,7.483333333333333
2026-01-20T23:07:30+00:00,SAT-64121,211.9620624585811,35.96251658558705,1305.8284150415486,-5.600717662817632,196160.8235640976,10.5,10500196160.823565,47.655,-122.3035,60.0,7.5
2026-01-20T23:07:31+00:00,SAT-64121,212.00930068832096,36.167289373413226,1300.2426326258317,-5.587183765323517,195686.80922552405,10.5,10500195686.809225,47.655,-122.3035,60.0,7.516666666666667
2026-01-20T23:07:32+00:00,SAT-64121,212.05747734296884,36.373559977056495,1294.670348017216,-5.573467927014958,195206.4225500198,10.5,10500195206.42255,47.655,-122.3035,60.0,7.533333333333333
2026-01-20T23:07:33+00:00,SAT-64121,212.1066119880474,36.581342976599196,1289.1117426713395,-5.55956748269601,194719.57019114905,10.5,10500194719.57019,47.655,-122.3035,60.0,7.55
2026-01-20T23:07:34+00:00,SAT-64121,212.15672473167228,36.79065304064847,1283.5670007019307,-5.545479711133399,194226.15683981177,10.5,10500194226.15684,47.655,-122.3035,60.0,7.566666666666666
2026-01-20T23:07:35+00:00,SAT-64121,212.20783624311778,37.00150492264197,1278.0363089366938,-5.53120186149996,193726.08615040468,10.5,10500193726.086151,47.655,-122.3035,60.0,7.583333333333333
2026-01-20T23:07:36+00:00,SAT-64121,212.25996777236836,37.21391345792732,1272.5198569468243,-5.5167311582085725,193219.26091012606,10.5,10500193219.26091,47.655,-122.3035,60.0,7.6
2026-01-20T23:07:37+00:00,SAT-64121,212.3131411705787,37.42789356082671,1267.0178370717044,-5.502064767912935,192705.5818832034,10.5,10500192705.581882,47.655,-122.3035,60.0,7.616666666666666
2026-01-20T23:07:38+00:00,SAT-64121,212.36737891102138,37.64346022020888,1261.5304444765059,-5.487199804515317,192184.947986286,10.5,10500192184.947987,47.655,-122.3035,60.0,7.633333333333334
2026-01-20T23:07:39+00:00,SAT-64121,212.42270411097306,37.86062849496712,1256.0578772048025,-5.472133378636153,191657.25802107938,10.5,10500191657.25802,47.655,-122.3035,60.0,7.65
2026-01-20T23:07:40+00:00,SAT-64121,212.4791405550565,38.07941351119795,1250.600336181843,-5.456862538932968,191122.40861908594,10.5,10500191122.408619,47.655,-122.3035,60.0,7.666666666666667
2026-01-20T23:07:41+00:00,SAT-64121,212.53671271895104,38.29983045681355,1245.158025276347,-5.441384302328768,190580.2953003309,10.5,10500190580.2953,47.655,-122.3035,60.0,7.683333333333334
2026-01-20T23:07:42+00:00,SAT-64121,212.59544579443656,38.521894577059584,1239.7311513321579,-5.4256956378120345,190030.81190596987,10.5,10500190030.811907,47.655,-122.3035,60.0,7.7
2026-01-20T23:07:43+00:00,SAT-64121,212.6553657153559,38.745621169080714,1234.3199242160467,-5.409793467909804,189473.85064988173,10.5,10500189473.85065,47.655,-122.3035,60.0,7.716666666666667
2026-01-20T23:07:44+00:00,SAT-64121,212.71649918469367,38.97102557622173,1228.924556864051,-5.3936746948942575,188909.30303653504,10.5,10500188909.303036,47.655,-122.3035,60.0,7.733333333333333
2026-01-20T23:07:45+00:00,SAT-64121,212.77887370316878,39.198123183078785,1223.5452653016766,-5.37733618859817,188337.05943423294,10.5,10500188337.059435,47.655,-122.3035,60.0,7.75
2026-01-20T23:07:46+00:00,SAT-64121,212.84251759894062,39.42692940974744,1218.1822686762482,-5.360774728515708,187757.00704723844,10.5,10500187757.007048,47.655,-122.3035,60.0,7.766666666666667
2026-01-20T23:07:47+00:00,SAT-64121,212.90746005790515,39.657459703232945,1212.8357893470086,-5.343987098628875,187169.03323699752,10.5,10500187169.033237,47.655,-122.3035,60.0,7.783333333333333
2026-01-20T23:07:48+00:00,SAT-64121,212.97373115652536,39.88972953247531,1207.5060528806428,-5.3269700257797625,186573.02336367482,10.5,10500186573.023363,47.655,-122.3035,60.0,7.8
2026-01-20T23:07:49+00:00,SAT-64121,213.0413618953538,40.12375438037727,1202.193288108265,-5.3097202170257205,185968.8620944896,10.5,10500185968.862095,47.655,-122.3035,60.0,7.816666666666666
2026-01-20T23:07:50+00:00,SAT-64121,213.1103842345577,40.359549737042215,1196.8977271451513,-5.292234295418421,185356.4311544269,10.5,10500185356.431154,47.655,-122.3035,60.0,7.833333333333333
2026-01-20T23:07:51+00:00,SAT-64121,213.18083113019745,40.59713108973191,1191.6196054745208,-5.2745088879088495,184735.6124050423,10.5,10500184735.612406,47.655,-122.3035,60.0,7.85
2026-01-20T23:07:52+00:00,SAT-64121,213.2527365733395,40.83651391623951,1186.359161943646,-5.256540563605473,184106.28568200162,10.5,10500184106.285683,47.655,-122.3035,60.0,7.866666666666666
2026-01-20T23:07:53+00:00,SAT-64121,213.32613563015423,41.07771367506578,1181.1166388215436,-5.2383258468784195,183468.32925404483,10.5,10500183468.329254,47.655,-122.3035,60.0,7.883333333333334
2026-01-20T23:07:54+00:00,SAT-64121,213.40106448400445,41.32074579564872,1175.8922818435904,-5.219861218477319,182821.6198621376,10.5,10500182821.619862,47.655,-122.3035,60.0,7.9
2026-01-20T23:07:55+00:00,SAT-64121,213.47756047953905,41.56562566809141,1170.6863402550289,-5.201143145837967,182166.0337809387,10.5,10500182166.033781,47.655,-122.3035,60.0,7.916666666666667
2026-01-20T23:07:56+00:00,SAT-64121,213.5556621692992,41.812368633764734,1165.4990668242465,-5.182168026587089,181501.44484009815,10.5,10500181501.44484,47.655,-122.3035,60.0,7.933333333333334
2026-01-20T23:07:57+00:00,SAT-64121,213.63540936166416,42.06098997268772,1160.330717912397,-5.162932241580415,180827.7262818745,10.5,10500180827.726282,47.655,-122.3035,60.0,7.95
2026-01-20T23:07:58+00:00,SAT-64121,213.7168431718997,42.31150489277267,1155.1815534901275,-5.143432111197811,180144.74923040596,10.5,10500180144.749231,47.655,-122.3035,60.0,7.966666666666667
2026-01-20T23:07:59+00:00,SAT-64121,213.80000607495037,42.56392851635133,1150.0518371978928,-5.123663948878636,179452.38456674476,10.5,10500179452.384567,47.655,-122.3035,60.0,7.983333333333333
2026-01-20T23:08:00+00:00,SAT-64121,213.88494196164316,42.81827586860774,1144.9418363528778,-5.103624000199918,178750.50079511723,10.5,10500178750.500795,47.655,-122.3035,60.0,8.0
2026-01-20T23:08:01+00:00,SAT-64121,213.97169619661508,43.074561862345455,1139.8518220166786,-5.083308499846143,178038.9660382467,10.5,10500178038.966038,47.655,-122.3035,60.0,8.016666666666667
2026-01-20T23:08:02+00:00,SAT-64121,214.06031568001623,43.33280128480519,1134.7820690061653,-5.062713607784971,177317.6458019574,10.5,10500177317.645802,47.655,-122.3035,60.0,8.033333333333333
2026-01-20T23:08:03+00:00,SAT-64121,214.15084891113122,43.593008780501314,1129.732855968001,-5.041835505213293,176586.40633561095,10.5,10500176586.406336,47.655,-122.3035,60.0,8.05
2026-01-20T23:08:04+00:00,SAT-64121,214.24334605687915,43.85519883810537,1124.7044653574683,-5.0206702992487475,175845.1112940001,10.5,10500175845.111294,47.655,-122.3035,60.0,8.066666666666666
2026-01-20T23:08:05+00:00,SAT-64121,214.3378590219829,44.11938577164818,1119.697183512351,-4.999214055020742,175093.62286131227,10.5,10500175093.622862,47.655,-122.3035,60.0,8.083333333333334
2026-01-20T23:08:06+00:00,SAT-64121,214.4344415232103,44.3855837023898,1114.7113006948102,-4.977462831858626,174331.80301859218,10.5,10500174331.803019,47.655,-122.3035,60.0,8.1
2026-01-20T23:08:07+00:00,SAT-64121,214.53314916809686,44.65380654166088,1109.7471110971699,-4.955412672723512,173559.51317359987,10.5,10500173559.513174,47.655,-122.3035,60.0,8.116666666666667
2026-01-20T23:08:08+00:00,SAT-64121,214.63403953748852,44.92406797224834,1104.8049128582404,-4.933059531897887,172776.6116281945,10.5,10500172776.611628,47.655,-122.3035,60.0,8.133333333333333
2026-01-20T23:08:09+00:00,SAT-64121,214.7371722707857,45.196381424785834,1099.8850081517608,-4.910399380417061,171982.95727099024,10.5,10500171982.957272,47.655,-122.3035,60.0,8.15
2026-01-20T23:08:10+00:00,SAT-64121,214.84260915777247,45.47076005873984,1094.9877031696917,-4.8874281453898965,171178.40745211113,10.5,10500171178.407452,47.655,-122.3035,60.0,8.166666666666666
2026-01-20T23:08:11+00:00,SAT-64121,214.95041423395156,45.747216738982914,1090.1133081660225,-4.864141746540315,170362.81926302932,10.5,10500170362.819263,47.655,-122.3035,60.0,8.183333333333334
2026-01-20T23:08:12+00:00,SAT-64121,215.06065388165123,46.02576401320927,1085.2621374641399,-4.840536042816901,169536.04766660763,10.5,10500169536.047667,47.655,-122.3035,60.0,8.2
2026-01-20T23:08:13+00:00,SAT-64121,215.17339693522342,46.30641408504958,1080.4345095174372,-4.8166069013303785,168697.94791158146,10.5,10500168697.947912,47.655,-122.3035,60.0,8.216666666666667
2026-01-20T23:08:14+00:00,SAT-64121,215.28871479341655,46.58917878977807,1075.630746901177,-4.792350140059959,167848.37352589294,10.5,10500167848.373526,47.655,-122.3035,60.0,8.233333333333333
2026-01-20T23:08:15+00:00,SAT-64121,215.4066815363595,46.87406956533937,1070.8511763614906,-4.7677615963479,166987.17871565986,10.5,10500166987.178715,47.655,-122.3035,60.0,8.25
2026-01-20T23:08:16+00:00,SAT-64121,215.52737405055478,47.1610974259334,1066.096128796066,-4.7428370622454405,166114.216100717,10.5,10500166114.2161,47.655,-122.3035,60.0,8.266666666666667
2026-01-20T23:08:17+00:00,SAT-64121,215.65087215898177,47.450272930277606,1061.3659392993202,-4.717572284300357,165229.33670717545,10.5,10500165229.336708,47.655,-122.3035,60.0,8.283333333333333
2026-01-20T23:08:18+00:00,SAT-64121,215.77725875818558,47.74160614812168,1056.6609472077778,-4.691963072652068,164332.3937883945,10.5,10500164332.39379,47.655,-122.3035,60.0,8.3
2026-01-20T23:08:19+00:00,SAT-64121,215.9066199659274,48.035106631767405,1051.9814960366527,-4.666005148869475,163423.23749561937,10.5,10500163423.237495,47.655,-122.3035,60.0,8.316666666666666
2026-01-20T23:08:20+00:00,SAT-64121,216.0390452727103,48.33078337649293,1047.3279335681802,-4.639694281284566,162501.71961793627,10.5,10500162501.719618,47.655,-122.3035,60.0,8.333333333333334
2026-01-20T23:08:21+00:00,SAT-64121,216.174627705607,48.62864478744246,1042.7006118049792,-4.6130261878237055,161567.69017901347,10.5,10500161567.69018,47.655,-122.3035,60.0,8.35
2026-01-20T23:08:22+00:00,SAT-64121,216.31346399837057,48.928698638468816,1038.099887020323,-4.5859966028504875,160620.9997782203,10.5,10500160620.999779,47.655,-122.3035,60.0,8.366666666666667
2026-01-20T23:08:23+00:00,SAT-64121,216.45565477313508,49.23095203308651,1033.5261197417467,-4.558601285421887,159661.4998797929,10.5,10500159661.49988,47.655,-122.3035,60.0,8.383333333333333
2026-01-20T23:08:24+00:00,SAT-64121,216.60130473275902,49.535411363896785,1028.9796747264195,-4.5308359349009075,158689.03985723192,10.5,10500158689.039858,47.655,-122.3035,60.0,8.4
2026-01-20T23:08:25+00:00,SAT-64121,216.75052286136807,49.842082264081434,1024.4609210206781,-4.502696309283235,157703.4711376027,10.5,10500157703.471138,47.655,-122.3035,60.0,8.416666666666666
2026-01-20T23:08:26+00:00,SAT-64121,216.90342264031577,50.150969564293106,1019.970231901553,-4.47417815171221,156704.64462777847,10.5,10500156704.644629,47.655,-122.3035,60.0,8.433333333333334
2026-01-20T23:08:27+00:00,SAT-64121,217.06012227422522,50.46207724211624,1015.5079848915786,-4.4452772273205765,155692.41200479452,10.5,10500155692.412004,47.655,-122.3035,60.0,8.45
2026-01-20T23:08:28+00:00,SAT-64121,217.22074493142776,50.77540837129815,1011.0745617368643,-4.41598929438697,154666.62470562613,10.5,10500154666.624706,47.655,-122.3035,60.0,8.466666666666667
2026-01-20T23:08:29+00:00,SAT-64121,217.38541899746699,51.09096506609122,1006.670348413929,-4.3863101481025355,153627.1354600809,10.5,10500153627.13546,47.655,-122.3035,60.0,8.483333333333333
2026-01-20T23:08:30+00:00,SAT-64121,217.55427834514876,51.40874842561947,1002.2957350928881,-4.356235606189833,152573.79778711195,10.5,10500152573.797787,47.655,-122.3035,60.0,8.5
2026-01-20T23:08:31+00:00,SAT-64121,217.72746262015687,51.72875847407803,997.9511161149815,-4.325761530778273,151506.46676098788,10.5,10500151506.46676,47.655,-122.3035,60.0,8.516666666666667
2026-01-20T23:08:32+00:00,SAT-64121,217.90511754462855,52.05099409917788,993.6368899482853,-4.294883741802057,150424.99597812296,10.5,10500150424.995977,47.655,-122.3035,60.0,8.533333333333333
2026-01-20T23:08:33+00:00,SAT-64121,218.08739523528254,52.3754529805184,989.3534592297947,-4.263598188766659,149329.2435730652,10.5,10500149329.243572,47.655,-122.3035,60.0,8.55
2026-01-20T23:08:34+00:00,SAT-64121,218.27445454815492,52.70213152693091,985.1012306361981,-4.231900799303011,148219.06691422377,10.5,10500148219.066914,47.655,-122.3035,60.0,8.566666666666666
2026-01-20T23:08:35+00:00,SAT-64121,218.466461437759,53.03102479854087,980.8806149056932,-4.199787569968712,147094.32578411122,10.5,10500147094.325785,47.655,-122.3035,60.0,8.583333333333334
2026-01-20T23:08:36+00:00,SAT-64121,218.66358934222464,53.36212643134513,976.6920267692443,-4.167254525343458,145954.88094669252,10.5,10500145954.880947,47.655,-122.3035,60.0,8.6
2026-01-20T23:08:37+00:00,SAT-64121,218.8660195902621,53.69542855410651,972.5358849226352,-4.1342977898692075,144800.5966635314,10.5,10500144800.596664,47.655,-122.3035,60.0,8.616666666666667
2026-01-20T23:08:38+00:00,SAT-64121,219.07394183684158,54.03092170612907,968.4126119268723,-4.100913466560103,143631.336445699,10.5,10500143631.336445,47.655,-122.3035,60.0,8.633333333333333
2026-01-20T23:08:39+00:00,SAT-64121,219.2875545197957,54.368594740153206,964.3226342295563,-4.067097824550557,142446.96962250082,10.5,10500142446.969622,47.655,-122.3035,60.0,8.65
2026-01-20T23:08:40+00:00,SAT-64121,219.50706535475172,54.708434734970126,960.2663819992047,-4.032847119627607,141247.3650557609,10.5,10500141247.365055,47.655,-122.3035,60.0,8.666666666666666
2026-01-20T23:08:41+00:00,SAT-64121,219.7326918515829,55.050426887615366,956.2442891385626,-3.9981577145121756,140032.39535258035,10.5,10500140032.395353,47.655,-122.3035,60.0,8.683333333333334
2026-01-20T23:08:42+00:00,SAT-64121,219.9646618699043,55.394554409139,952.256793177956,-3.9630260652680054,138801.93638932056,10.5,10500138801.93639,47.655,-122.3035,60.0,8.7
2026-01-20T23:08:43+00:00,SAT-64121,220.2032142091493,55.74079841277199,948.3043351821951,-3.9274487041435244,137555.8667106529,10.5,10500137555.86671,47.655,-122.3035,60.0,8.716666666666667
2026-01-20T23:08:44+00:00,SAT-64121,220.4485992351009,56.08913779355567,944.3873596745962,-3.891422248708109,136294.06784954926,10.5,10500136294.06785,47.655,-122.3035,60.0,8.733333333333333
2026-01-20T23:08:45+00:00,SAT-64121,220.70107954686165,56.439549101124406,940.5063145518845,-3.8549434464977987,135016.42589096384,10.5,10500135016.425892,47.655,-122.3035,60.0,8.75
2026-01-20T23:08:46+00:00,SAT-64121,220.96093068940178,56.79200640841385,936.6616509545773,-3.8180091001374947,133722.8288492958,10.5,10500133722.82885,47.655,-122.3035,60.0,8.766666666666667
2026-01-20T23:08:47+00:00,SAT-64121,221.2284419066558,57.14648116492318,932.8538232120402,-3.780616197749009,132413.17123583073,10.5,10500132413.171236,47.655,-122.3035,60.0,8.783333333333333
2026-01-20T23:08:48+00:00,SAT-64121,221.50391695206127,57.50294205261465,929.0832886574852,-3.742761777392974,131087.34931092305,10.5,10500131087.349312,47.655,-122.3035,60.0,8.8
2026-01-20T23:08:49+00:00,SAT-64121,221.78767494140055,57.86135481936662,925.3505075781654,-3.7044430561804185,129745.26560602932,10.5,10500129745.265606,47.655,-122.3035,60.0,8.816666666666666
2026-01-20T23:08:50+00:00,SAT-64121,222.08005126992614,58.221682113742375,921.6559430368014,-3.6656573550172378,128386.82628794151,10.5,10500128386.826288,47.655,-122.3035,60.0,8.833333333333334
2026-01-20T23:08:51+00:00,SAT-64121,222.38139858260058,58.58388330120478,918.0000607680643,-3.626402162038664,127011.94338053017,10.5,10500127011.94338,47.655,-122.3035,60.0,8.85
2026-01-20T23:08:52+00:00,SAT-64121,222.69208781155734,58.94791427409373,914.3833290117909,-3.5866750937745335,125620.53340458819,10.5,10500125620.533405,47.655,-122.3035,60.0,8.866666666666667
2026-01-20T23:08:53+00:00,SAT-64121,223.01250927653928,59.31372724451895,910.8062183849332,-3.54647394235275,124212.51903109542,10.5,10500124212.519032,47.655,-122.3035,60.0,8.883333333333333
2026-01-20T23:08:54+00:00,SAT-64121,223.34307385939059,59.68127052765064,907.2692017064267,-3.505796638761337,122787.82779450055,10.5,10500122787.827795,47.655,-122.3035,60.0,8.9
2026-01-20T23:08:55+00:00,SAT-64121,223.6842142493389,60.0504883058397,903.772753858702,-3.464641322178517,121346.39452095366,10.5,10500121346.394522,47.655,-122.3035,60.0,8.916666666666666
2026-01-20T23:08:56+00:00,SAT-64121,224.036386273022,60.42132038330851,900.3173515800494,-3.423006294950659,119888.15975144353,10.5,10500119888.159752,47.655,-122.3035,60.0,8.933333333333334
2026-01-20T23:08:57+00:00,SAT-64121,224.4000703028294,60.79370191831909,896.9034733018851,-3.3808900364617283,118413.07022756439,10.5,10500118413.070227,47.655,-122.3035,60.0,8.95
2026-01-20T23:08:58+00:00,SAT-64121,224.7757727527308,61.16756313733889,893.5315989721873,-3.338291240883467,116921.08021368703,10.5,10500116921.080214,47.655,-122.3035,60.0,8.966666666666667
2026-01-20T23:08:59+00:00,SAT-64121,225.16402766867168,61.54282903245701,890.2022098412797,-3.2952088037248477,115412.15102586371,10.5,10500115412.151026,47.655,-122.3035,60.0,8.983333333333333
2026-01-20T23:09:00+00:00,SAT-64121,225.56539841193677,61.91941903489488,886.9157882610314,-3.251641820324953,113886.25097904234,10.5,10500113886.250978,47.655,-122.3035,60.0,9.0
2026-01-20T23:09:01+00:00,SAT-64121,225.98047943975075,62.29724666394231,883.6728174855607,-3.207589639363558,112343.35726123357,10.5,10500112343.357262,47.655,-122.3035,60.0,9.016666666666667
2026-01-20T23:09:02+00:00,SAT-64121,226.40989819319728,62.67621915584314,880.4737814185687,-3.163051792650062,110783.45347442213,10.5,10500110783.453474,47.655,-122.3035,60.0,9.033333333333333
2026-01-20T23:09:03+00:00,SAT-64121,226.85431707879602,63.05623705617034,877.3191644306991,-3.1180280874832835,109206.53286939752,10.5,10500109206.53287,47.655,-122.3035,60.0,9.05
2026-01-20T23:09:04+00:00,SAT-64121,227.31443556607988,63.437193792437114,874.2094510847824,-3.0725185705432083,107612.59708109031,10.5,10500107612.59708,47.655,-122.3035,60.0,9.066666666666666
2026-01-20T23:09:05+00:00,SAT-64121,227.79099238474902,63.81897520964324,871.1451258970939,-3.0265234976375557,106001.65506896886,10.5,10500106001.65507,47.655,-122.3035,60.0,9.083333333333334
2026-01-20T23:09:06+00:00,SAT-64121,228.2847678184374,64.20145906632972,868.1266731287835,-2.9800434720098496,104373.72796117314,10.5,10500104373.72796,47.655,-122.3035,60.0,9.1
2026-01-20T23:09:07+00:00,SAT-64121,228.79658611906686,64.58451450977977,865.1545764393657,-2.933079289763361,102728.84364060716,10.5,10500102728.843641,47.655,-122.3035,60.0,9.116666666666667
2026-01-20T23:09:08+00:00,SAT-64121,229.32731798829863,64.96800149079398,862.229318694375,-2.8856320458704126,101067.04045783344,10.5,10500101067.040459,47.655,-122.3035,60.0,9.133333333333333
2026-01-20T23:09:09+00:00,SAT-64121,229.87788315757365,65.35177014762607,859.3513816672935,-2.8377031339149683,99388.36722205723,10.5,10500099388.367222,47.655,-122.3035,60.0,9.15
2026-01-20T23:09:10+00:00,SAT-64121,230.44925303685235,65.73566014297243,856.5212457417357,-2.7892942268946297,97692.88252873131,10.5,10500097692.882528,47.655,-122.3035,60.0,9.166666666666666
2026-01-20T23:09:11+00:00,SAT-64121,231.04245340844466,66.11949994812558,853.7393896327794,-2.7404073011563908,95980.65559788732,10.5,10500095980.655598,47.655,-122.3035,60.0,9.183333333333334
2026-01-20T23:09:12+00:00,SAT-64121,231.658567148233,66.50310607678222,851.006290084426,-2.691044634315856,94251.7662012581,10.5,10500094251.766201,47.655,-122.3035,60.0,9.2
2026-01-20T23:09:13+00:00,SAT-64121,232.2987369359895,66.88628226188153,848.322421569135,-2.641208812125455,92506.3049028314,10.5,10500092506.304903,47.655,-122.3035,60.0,9.216666666666667
2026-01-20T23:09:14+00:00,SAT-64121,232.96416791338834,67.26881857361808,845.6882559805086,-2.5909027615262565,90744.37421646444,10.5,10500090744.374216,47.655,-122.3035,60.0,9.233333333333333
2026-01-20T23:09:15+00:00,SAT-64121,233.65613024281657,67.65049047975022,843.1042622930131,-2.540129707388049,88966.08709073832,10.5,10500088966.087091,47.655,-122.3035,60.0,9.25
2026-01-20T23:09:16+00:00,SAT-64121,234.3759614795273,68.03105783470393,840.5709062648448,-2.48889321274802,87171.56831828709,10.5,10500087171.568317,47.655,-122.3035,60.0,9.266666666666667
2026-01-20T23:09:17+00:00,SAT-64121,235.1250686934569,68.41026380769148,838.0886501006642,-2.4371971976743554,85360.9551964804,10.5,10500085360.955196,47.655,-122.3035,60.0,9.283333333333333
2026-01-20T23:09:18+00:00,SAT-64121,235.90493023407083,68.7878337460983,835.6579520955169,-2.38504588750481,83534.39571451962,10.5,10500083534.395714,47.655,-122.3035,60.0,9.3
2026-01-20T23:09:19+00:00,SAT-64121,236.71709698908936,69.1634739632944,833.2792663303787,-2.332443883141004,81692.05101544129,10.5,10500081692.051016,47.655,-122.3035,60.0,9.316666666666666
2026-01-20T23:09:20+00:00,SAT-64121,237.5631930223647,69.53687047129586,830.9530422975928,-2.2793961223465953,79834.09404061543,10.5,10500079834.09404,47.655,-122.3035,60.0,9.333333333333334
2026-01-20T23:09:21+00:00,SAT-64121,238.44491537377021,69.90768764514506,828.6797245649058,-2.2259078990929213,77960.71020731174,10.5,10500077960.710207,47.655,-122.3035,60.0,9.35
2026-01-20T23:09:22+00:00,SAT-64121,239.3640328215517,70.27556683416559,826.4597524202104,-2.171984865751074,76072.09748547537,10.5,10500076072.097485,47.655,-122.3035,60.0,9.366666666666667
2026-01-20T23:09:23+00:00,SAT-64121,240.32238334487784,70.64012492686953,824.2935595141014,-2.1176330324389703,74168.46637485853,10.5,10500074168.466375,47.655,-122.3035,60.0,9.383333333333333
2026-01-20T23:09:24+00:00,SAT-64121,241.32186998527033,71.0009528824689,822.1815735030823,-2.062858758768618,72250.03961597489,10.5,10500072250.039616,47.655,-122.3035,60.0,9.4
2026-01-20T23:09:25+00:00,SAT-64121,242.36445475567854,71.35761424603852,820.1242157010037,-2.007668804276135,70317.05395637211,10.5,10500070317.053957,47.655,-122.3035,60.0,9.416666666666666
2026-01-20T23:09:26+00:00,SAT-64121,243.45215023258885,71.7096436820537,818.1219006802055,-1.9520702473108889,68369.7573097864,10.5,10500068369.757309,47.655,-122.3035,60.0,9.433333333333334
2026-01-20T23:09:27+00:00,SAT-64121,244.5870083202725,72.05654553523095,816.1750359535542,-1.8960705555589896,66408.41122617364,10.5,10500066408.411226,47.655,-122.3035,60.0,9.45
2026-01-20T23:09:28+00:00,SAT-64121,245.7711057729303,72.3977924852441,814.2840215861432,-1.8396775678214576,64433.290253503656,10.5,10500064433.290253,47.655,-122.3035,60.0,9.466666666666667
2026-01-20T23:09:29+00:00,SAT-64121,247.00652590335756,72.7328243303941,812.4492498251694,-1.7828994596739367,62444.68073501814,10.5,10500062444.680735,47.655,-122.3035,60.0,9.483333333333333
2026-01-20T23:09:30+00:00,SAT-64121,248.2953359056291,73.06104695858782,810.6711047640547,-1.725744795945088,60442.882647246,10.5,10500060442.882647,47.655,-122.3035,60.0,9.5
2026-01-20T23:09:31+00:00,SAT-64121,249.63955928802505,73.38183159566395,808.9499619542321,-1.668222483925685,58428.20796118791,10.5,10500058428.207962,47.655,-122.3035,60.0,9.516666666666667
2026-01-20T23:09:32+00:00,SAT-64121,251.0411428135796,73.69451440078478,807.2861880635968,-1.6103417901457089,56400.98122992121,10.5,10500056400.98123,47.655,-122.3035,60.0,9.533333333333333
2026-01-20T23:09:33+00:00,SAT-64121,252.50191751967475,73.99839652225243,805.6801405182248,-1.5521123376819304,54361.53949429998,10.5,10500054361.539494,47.655,-122.3035,60.0,9.55
2026-01-20T23:09:34+00:00,SAT-64121,254.0235534578427,74.29274472582252,804.1321671467767,-1.4935440907222555,52310.23174233317,10.5,10500052310.231743,47.655,-122.3035,60.0,9.566666666666666
2026-01-20T23:09:35+00:00,SAT-64121,255.60750798550743,74.5767927208349,802.6426058402964,-1.434647363888893,50247.419235721325,10.5,10500050247.419235,47.655,-122.3035,60.0,9.583333333333334
2026-01-20T23:09:36+00:00,SAT-64121,257.2549677561526,74.84974332604777,801.2117842027112,-1.3754328052699112,48173.47491554997,10.5,10500048173.474916,47.655,-122.3035,60.0,9.6
2026-01-20T23:09:37+00:00,SAT-64121,258.9667848791927,75.11077161167613,799.8400192182553,-1.3159113861477352,46088.78304253811,10.5,10500046088.783043,47.655,-122.3035,60.0,9.616666666666667
2026-01-20T23:09:38+00:00,SAT-64121,260.7434082260178,75.35902915762323,798.5276169291374,-1.2560944115706272,43993.73956729621,10.5,10500043993.739567,47.655,-122.3035,60.0,9.633333333333333
2026-01-20T23:09:39+00:00,SAT-64121,262.5848114613759,75.59364955789354,797.2748721026642,-1.1959934915633068,41888.751122000285,10.5,10500041888.751122,47.655,-122.3035,60.0,9.65
2026-01-20T23:09:40+00:00,SAT-64121,264.490419958806,75.81375526434425,796.0820679270785,-1.135620544768091,39774.23514792008,10.5,10500039774.235147,47.655,-122.3035,60.0,9.666666666666666
2026-01-20T23:09:41+00:00,SAT-64121,266.4590395568603,76.01846583649429,794.949475703763,-1.0749877878665544,37650.61952492087,10.5,10500037650.619524,47.655,-122.3035,60.0,9.683333333333334
2026-01-20T23:09:42+00:00,SAT-64121,268.48879074943505,76.20690759825166,793.8773545499974,-1.0141077191973187,35518.3419976891,10.5,10500035518.341997,47.655,-122.3035,60.0,9.7
2026-01-20T23:09:43+00:00,SAT-64121,270.57705250918775,76.3782246304812,792.8659511180513,-0.9529931048448083,33377.84968850179,10.5,10500033377.849688,47.655,-122.3035,60.0,9.716666666666667
2026-01-20T23:09:44+00:00,SAT-64121,272.72042036430474,76.53159094122516,791.9154993281527,-0.8916569877791994,31229.599417346228,10.5,10500031229.599417,47.655,-122.3035,60.0,9.733333333333333
2026-01-20T23:09:45+00:00,SAT-64121,274.9146835111636,76.66622355877912,791.026220092341,-0.830112648059892,29074.056308077194,10.5,10500029074.056309,47.655,-122.3035,60.0,9.75
2026-01-20T23:09:46+00:00,SAT-64121,277.15482528207014,76.78139617756705,790.1983210780094,-0.7683736082687594,26911.693978712345,10.5,10500026911.69398,47.655,-122.3035,60.0,9.766666666666667
2026-01-20T23:09:47+00:00,SAT-64121,279.4350507044892,76.87645290542417,789.4319964660292,-0.7064536090776099,24742.993685701407,10.5,10500024742.993685,47.655,-122.3035,60.0,9.783333333333333
2026-01-20T23:09:48+00:00,SAT-64121,281.74884342119105,76.95082156929439,788.7274267332425,-0.6443666020897846,22568.4440732086,10.5,10500022568.444073,47.655,-122.3035,60.0,9.8
2026-01-20T23:09:49+00:00,SAT-64121,284.0890525883495,77.00402599466958,788.0847784420916,-0.582126737662576,20388.540746602266,10.5,10500020388.540747,47.655,-122.3035,60.0,9.816666666666666
2026-01-20T23:09:50+00:00,SAT-64121,286.4480082171698,77.03569666230644,787.5042040423962,-0.5197483337515785,18203.785181252206,10.5,10500018203.785181,47.655,-122.3035,60.0,9.833333333333334
2026-01-20T23:09:51+00:00,SAT-64121,288.8176611093241,77.04557918647565,786.9858417042012,-0.45724587634928043,16014.684737891052,10.5,10500016014.684738,47.655,-122.3035,60.0,9.85
2026-01-20T23:09:52+00:00,SAT-64121,291.18974163571494,77.03354015332833,786.5298151501888,-0.3946340003380128,13821.751992003528,10.5,10500013821.751991,47.655,-122.3035,60.0,9.866666666666667
2026-01-20T23:09:53+00:00,SAT-64121,293.5559297292682,76.99956998810029,786.1362335071851,-0.33192746543654233,11625.503891374394,10.5,10500011625.503891,47.655,-122.3035,60.0,9.883333333333333
2026-01-20T23:09:54+00:00,SAT-64121,295.90802743766244,76.94378269245166,785.8051911816565,-0.26914114309905496,9426.461297235426,10.5,10500009426.461298,47.655,-122.3035,60.0,9.9
2026-01-20T23:09:55+00:00,SAT-64121,298.2381252165384,76.86641247822133,785.5367677482723,-0.2062900039741983,7225.148545028048,10.5,10500007225.148544,47.655,-122.3035,60.0,9.916666666666666
2026-01-20T23:09:56+00:00,SAT-64121,300.53875373036,76.76780750294559,785.3310278509754,-0.14338909289812768,5022.092568554011,10.5,10500005022.09257,47.655,-122.3035,60.0,9.933333333333334
2026-01-20T23:09:57+00:00,SAT-64121,302.80301413101085,76.64842107763972,785.1880211289916,-0.08045351441176733,2817.822392728629,10.5,10500002817.822393,47.655,-122.3035,60.0,9.95
2026-01-20T23:09:58+00:00,SAT-64121,305.02468185974305,76.50880083566638,785.1077821572849,-0.017498415084927027,612.8685144965648,10.5,10500000612.868515,47.655,-122.3035,60.0,9.966666666666667
2026-01-20T23:09:59+00:00,SAT-64121,307.19828109917194,76.34957642981762,785.0903304046403,0.04546103489637318,-1592.2377420579353,10.5,10499998407.762259,47.655,-122.3035,60.0,9.983333333333333
2026-01-20T23:10:00+00:00,SAT-64121,309.31912932330766,76.17144634326019,785.1356702101102,0.10840966103424968,-3796.9649018309246,10.5,10499996203.035099,47.655,-122.3035,60.0,10.0
2026-01-20T23:10:01+00:00,SAT-64121,311.3833531567177,75.97516439529551,785.243790778715,0.1713323010372412,-6000.781917239,10.5,10499993999.218082,47.655,-122.3035,60.0,10.016666666666667
2026-01-20T23:10:02+00:00,SAT-64121,313.38787862216464,75.76152644535533,785.4146661936162,0.23421382390383422,-8203.158836605087,10.5,10499991796.841164,47.655,-122.3035,60.0,10.033333333333333
2026-01-20T23:10:03+00:00,SAT-64121,315.330399746942,75.53135772633152,785.648255447323,0.29703914862456904,-10403.567459185299,10.5,10499989596.43254,47.655,-122.3035,60.0,10.05
2026-01-20T23:10:04+00:00,SAT-64121,317.2093301350953,75.28550113693207,785.9445024915512,0.3597932614006529,-12601.481938237603,10.5,10499987398.518063,47.655,-122.3035,60.0,10.066666666666666
2026-01-20T23:10:05+00:00,SAT-64121,319.0237422306258,75.02480672168684,786.3033363042547,0.4224612313166949,-14796.379329947305,10.5,10499985203.62067,47.655,-122.3035,60.0,10.083333333333334
2026-01-20T23:10:06+00:00,SAT-64121,320.7732987490103,74.75012247227993,786.724670972288,0.48502823357460834,-16987.74040717658,10.5,10499983012.259592,47.655,-122.3035,60.0,10.1
2026-01-20T23:10:07+00:00,SAT-64121,322.4581802855346,74.46228649499477,787.2084057972397,0.5474795575519433,-19175.049941701353,10.5,10499980824.950058,47.655,-122.3035,60.0,10.116666666666667
2026-01-20T23:10:08+00:00,SAT-64121,324.07901236316445,74.16212053599942,787.7544254093048,0.6098006377071117,-21357.797786643026,10.5,10499978642.202213,47.655,-122.3035,60.0,10.133333333333333
2026-01-20T23:10:09+00:00,SAT-64121,325.63679462139845,73.8504247818592,788.362599911978,0.671977052953515,-23535.478854547793,10.5,10499976464.521145,47.655,-122.3035,60.0,10.15
2026-01-20T23:10:10+00:00,SAT-64121,327.13283397196903,73.52797384862194,789.0327850261237,0.7339945538769994,-25707.594070657018,10.5,10499974292.40593,47.655,-122.3035,60.0,10.166666666666666
2026-01-20T23:10:11+00:00,SAT-64121,328.5686831083996,73.19551381841076,789.7648222611904,0.7958390807955728,-27873.651005434946,10.5,10499972126.348995,47.655,-122.3035,60.0,10.183333333333334
2026-01-20T23:10:12+00:00,SAT-64121,329.94608509234257,72.85376019439717,790.5585391044372,0.8574967677109397,-30033.164012968155,10.5,10499969966.835987,47.655,-122.3035,60.0,10.2
2026-01-20T23:10:13+00:00,SAT-64121,331.2669243254533,72.50339664359258,791.4137492141009,0.9189539675497459,-32185.655115020712,10.5,10499967814.344885,47.655,-122.3035,60.0,10.216666666666667
2026-01-20T23:10:14+00:00,SAT-64121,332.5331839428002,72.14507438765574,792.3302526377371,0.9801972593500581,-34330.654252735105,10.5,10499965669.345747,47.655,-122.3035,60.0,10.233333333333333
2026-01-20T23:10:15+00:00,SAT-64121,333.7469093508123,71.77941212855762,793.307836037729,1.0412134617112747,-36467.69975770499,10.5,10499963532.300241,47.655,-122.3035,60.0,10.25
2026-01-20T23:10:16+00:00,SAT-64121,334.91017751552573,71.40699639793102,794.3462729302089,1.101989661728219,-38596.33936536956,10.5,10499961403.660635,47.655,-122.3035,60.0,10.266666666666667
2026-01-20T23:10:17+00:00,SAT-64121,336.02507151185006,71.02838222963486,795.4453239528392,1.1625131937643265,-40716.129471560715,10.5,10499959283.87053,47.655,-122.3035,60.0,10.283333333333333
2026-01-20T23:10:18+00:00,SAT-64121,337.093659728804,70.64409409122447,796.6047371114203,1.2227716821861905,-42826.63662924769,10.5,10499957173.36337,47.655,-122.3035,60.0,10.3
2026-01-20T23:10:19+00:00,SAT-64121,338.11797923887895,70.25462698292138,797.8242480691206,1.2827530449421949,-44927.43767387586,10.5,10499955072.562326,47.655,-122.3035,60.0,10.316666666666666
2026-01-20T23:10:20+00:00,SAT-64121,339.1000227383475,69.86044766117939,799.1035804392762,1.3424454899588516,-47018.11959715124,10.5,10499952981.880404,47.655,-122.3035,60.0,10.333333333333334
2026-01-20T23:10:21+00:00,SAT-64121,340.04172854476246,69.46199594164312,800.4424460745952,1.401837542267669,-49098.28049713821,10.5,10499950901.719503,47.655,-122.3035,60.0,10.35
2026-01-20T23:10:22+00:00,SAT-64121,340.9449732038725,69.05968603491831,801.8405453834168,1.4609180346323065,-51167.52924998272,10.5,10499948832.47075,47.655,-122.3035,60.0,10.366666666666667
2026-01-20T23:10:23+00:00,SAT-64121,341.81156625519964,68.65390789667829,803.2975676366234,1.5196761378513066,-53225.48657124229,10.5,10499946774.51343,47.655,-122.3035,60.0,10.383333333333333
2026-01-20T23:10:24+00:00,SAT-64121,342.64324680797546,68.2450285582382,804.8131913047738,1.578101346848881,-55271.78452872637,10.5,10499944728.215471,47.655,-122.3035,60.0,10.4
2026-01-20T23:10:25+00:00,SAT-64121,343.44168157311327,67.83339343293301,806.3870843813644,1.6361834940319442,-57306.067010316234,10.5,10499942693.93299,47.655,-122.3035,60.0,10.416666666666666
2026-01-20T23:10:26+00:00,SAT-64121,344.2084640878273,67.41932757809694,808.0189047194124,1.6939127691979703,-59327.9904212223,10.5,10499940672.009579,47.655,-122.3035,60.0,10.433333333333334
2026-01-20T23:10:27+00:00,SAT-64121,344.9451148935387,67.0031369027323,809.7083003878925,1.7512797013656272,-61337.22304761611,10.5,10499938662.776953,47.655,-122.3035,60.0,10.45
2026-01-20T23:10:28+00:00,SAT-64121,345.65308244674287,66.58510932465954,811.4549100100544,1.8082751696487758,-63333.445437483766,10.5,10499936666.554562,47.655,-122.3035,60.0,10.466666666666667
2026-01-20T23:10:29+00:00,SAT-64121,346.3337446084183,66.16551586605507,813.2583631125841,1.8648904231317995,-65316.35109674405,10.5,10499934683.648903,47.655,-122.3035,60.0,10.483333333333333
2026-01-20T23:10:30+00:00,SAT-64121,346.98841057208637,65.74461168426838,815.1182804945875,1.921117065082648,-67285.6459363224,10.5,10499932714.354063,47.655,-122.3035,60.0,10.5
2026-01-20T23:10:31+00:00,SAT-64121,347.6183231007466,65.32263704591475,817.03427458083,1.9769470561885454,-69241.04838547915,10.5,10499930758.951614,47.655,-122.3035,60.0,10.516666666666667
2026-01-20T23:10:32+00:00,SAT-64121,348.22466098619856,64.89981824046822,819.005949778202,2.0323727340620996,-71182.29007499597,10.5,10499928817.709925,47.655,-122.3035,60.0,10.533333333333333
2026-01-20T23:10:33+00:00,SAT-64121,348.8085416579417,64.47636843166516,821.0329028516398,2.087386783925533,-73109.11481041361,10.5,10499926890.88519,47.655,-122.3035,60.0,10.55
2026-01-20T23:10:34+00:00,SAT-64121,349.3710238649491,64.05248845924999,823.1147232708083,2.141982264959595,-75021.27949488226,10.5,10499924978.720505,47.655,-122.3035,60.0,10.566666666666666
2026-01-20T23:10:35+00:00,SAT-64121,349.9131103984052,63.628367581689844,825.2509935830614,2.196152605058348,-76918.553945452,10.5,10499923081.446054,47.655,-122.3035,60.0,10.583333333333334
2026-01-20T23:10:36+00:00,SAT-64121,350.4357508063549,63.2041841695805,827.4412897811728,2.249891584648468,-78800.7203263563,10.5,10499921199.279675,47.655,-122.3035,60.0,10.6
2026-01-20T23:10:37+00:00,SAT-64121,350.9398440691118,62.7801063542326,829.6851816549289,2.303193343164856,-80667.57337581516,10.5,10499919332.426624,47.655,-122.3035,60.0,10.616666666666667
2026-01-20T23:10:38+00:00,SAT-64121,351.42624121833285,62.35629262997646,831.9822331491788,2.356052402050373,-82518.92121158338,10.5,10499917481.078789,47.655,-122.3035,60.0,10.633333333333333
2026-01-20T23:10:39+00:00,SAT-64121,351.8957478854336,61.932892410276374,834.3320027448237,2.4084635965129846,-84354.5829407968,10.5,10499915645.417059,47.655,-122.3035,60.0,10.65
2026-01-20T23:10:40+00:00,SAT-64121,352.3491267488938,61.51004655683263,836.7340437717459,2.460422151632302,-86174.39132554554,10.5,10499913825.608675,47.655,-122.3035,60.0,10.666666666666666
2026-01-20T23:10:41+00:00,SAT-64121,352.7870999015718,61.08788785834226,839.1879047976405,2.511923631622481,-87978.19100584595,10.5,10499912021.808994,47.655,-122.3035,60.0,10.683333333333334
2026-01-20T23:10:42+00:00,SAT-64121,353.2103511067425,60.66654148443202,841.6931299662454,2.56296393126592,-89765.8381996126,10.5,10499910234.1618,47.655,-122.3035,60.0,10.7
2026-01-20T23:10:43+00:00,SAT-64121,353.61952794983597,60.24612540911302,844.249259327028,2.613539292954127,-91537.20129950145,10.5,10499908462.7987,47.655,-122.3035,60.0,10.716666666666667
2026-01-20T23:10:44+00:00,SAT-64121,354.0152438887691,59.826750802009144,846.8558291818675,2.663646292576234,-93292.16037866588,10.5,10499906707.83962,47.655,-122.3035,60.0,10.733333333333333
2026-01-20T23:10:45+00:00,SAT-64121,354.39808019801103,59.40852239473844,849.5123724176635,2.713281841766089,-95030.60726945952,10.5,10499904969.39273,47.655,-122.3035,60.0,10.75
2026-01-20T23:10:46+00:00,SAT-64121,354.76858781070194,58.991538821825976,852.218418841185,2.762443162755926,-96752.44468270519,10.5,10499903247.555317,47.655,-122.3035,60.0,10.766666666666667
2026-01-20T23:10:47+00:00,SAT-64121,355.1272890577421,58.575892942118664,854.9734954888402,2.8111277888965236,-98457.58622591333,10.5,10499901542.413774,47.655,-122.3035,60.0,10.783333333333333
2026-01-20T23:10:48+00:00,SAT-64121,355.47467931092314,58.16167213835847,857.7771269369663,2.859333601857882,-100145.95770620674,10.5,10499899854.042294,47.655,-122.3035,60.0,10.8
2026-01-20T23:10:49+00:00,SAT-64121,355.8112285375486,57.748958591442396,860.6288356492192,2.9070587230044826,-101817.49332582299,10.5,10499898182.506674,47.655,-122.3035,60.0,10.816666666666666
2026-01-20T23:10:50+00:00,SAT-64121,356.1373827531581,57.337829551859095,863.528142215629,2.9543016151605843,-103472.13924636535,10.5,10499896527.860754,47.655,-122.3035,60.0,10.833333333333334
2026-01-20T23:10:51+00:00,SAT-64121,356.4535654018385,56.92835757912704,866.4745656931491,3.0010610307827315,-105109.85177358492,10.5,10499894890.148226,47.655,-122.3035,60.0,10.85
2026-01-20T23:10:52+00:00,SAT-64121,356.7601786493161,56.52061077299951,869.4676238945165,3.047335975197678,-106730.59606981714,10.5,10499893269.40393,47.655,-122.3035,60.0,10.866666666666667
2026-01-20T23:10:53+00:00,SAT-64121,357.05760459608723,56.11465299470473,872.506833640447,3.0931257502414398,-108334.34768240606,10.5,10499891665.652317,47.655,-122.3035,60.0,10.883333333333333
2026-01-20T23:10:54+00:00,SAT-64121,357.34620642279185,55.71054406850136,875.5917110553545,3.138429907607132,-109921.09090974827,10.5,10499890078.90909,47.655,-122.3035,60.0,10.9
2026-01-20T23:10:55+00:00,SAT-64121,357.6263294626019,55.308339976699806,878.7217718165414,3.1832482728165576,-111490.81964087921,10.5,10499888509.180359,47.655,-122.3035,60.0,10.916666666666666
2026-01-20T23:10:56+00:00,SAT-64121,357.89830221152044,54.908093039686825,881.896531427297,3.2275809133652387,-113043.53623977762,10.5,10499886956.46376,47.655,-122.3035,60.0,10.933333333333334
2026-01-20T23:10:57+00:00,SAT-64121,358.16243727510437,54.50985208899906,885.1155054582265,3.2714281388793363,-114579.25155086131,10.5,10499885420.74845,47.655,-122.3035,60.0,10.95
2026-01-20T23:10:58+00:00,SAT-64121,358.4190322583416,54.11366263001711,888.3782097887356,3.3147904780523785,-116097.98409121412,10.5,10499883902.01591,47.655,-122.3035,60.0,10.966666666666667
2026-01-20T23:10:59+00:00,SAT-64121,358.6683706002517,53.71956699774873,891.6841608255132,3.357668716722231,-117599.7613842021,10.5,10499882400.238615,47.655,-122.3035,60.0,10.983333333333333
2026-01-20T23:11:00+00:00,SAT-64121,358.91072236110034,53.327604499160444,895.0328757589907,3.4000638414571798,-119084.61798361983,10.5,10499880915.382017,47.655,-122.3035,60.0,11.0
2026-01-20T23:11:01+00:00,SAT-64121,359.146344958107,52.93781155384377,898.4238727635375,3.441977036857408,-120552.59537917655,10.5,10499879447.404621,47.655,-122.3035,60.0,11.016666666666667
2026-01-20T23:11:02+00:00,SAT-64121,359.3754838570512,52.550221826953454,901.8566711949632,3.48340970527964,-122003.74268733678,10.5,10499877996.257313,47.655,-122.3035,60.0,11.033333333333333
2026-01-20T23:11:03+00:00,SAT-64121,359.59837322388125,52.164866352498315,905.3307918076954,3.5243634349271695,-123438.11553369791,10.5,10499876561.884466,47.655,-122.3035,60.0,11.05
2026-01-20T23:11:04+00:00,SAT-64121,359.81523653527825,51.781773653382444,908.8457569401295,3.5648400137260365,-124855.7765389928,10.5,10499875144.223461,47.655,-122.3035,60.0,11.066666666666666
2026-01-20T23:11:05+00:00,SAT-64121,0.026287153853082928,51.40096985337806,912.4010907138189,3.6048413801919885,-126256.79359824283,10.5,10499873743.206402,47.655,-122.3035,60.0,11.083333333333334
2026-01-20T23:11:06+00:00,SAT-64121,0.2317288663950856,51.02247878823207,915.9963191836637,3.644369663140619,-127641.24127157495,10.5,10499872358.758728,47.655,-122.3035,60.0,11.1
2026-01-20T23:11:07+00:00,SAT-64121,0.43175639272639593,50.64632210670971,919.6309705277026,3.6834271513688766,-129009.19972233992,10.5,10499870990.800278,47.655,-122.3035,60.0,11.116666666666667
2026-01-20T23:11:08+00:00,SAT-64121,0.6265558629075312,50.27251936948186,923.3045752066679,3.7220162738563514,-130360.75402367757,10.5,10499869639.245975,47.655,-122.3035,60.0,11.133333333333333
2026-01-20T23:11:09+00:00,SAT-64121,0.8163052656415569,49.901088144743035,927.0166661037939,3.7601396297804768,-131695.99520977613,10.5,10499868304.00479,47.655,-122.3035,60.0,11.15
2026-01-20T23:11:10+00:00,SAT-64121,1.0011748720518827,49.532044096035236,930.7667786945617,3.797799934514626,-133015.0183844971,10.5,10499866984.981615,47.655,-122.3035,60.0,11.166666666666666
2026-01-20T23:11:11+00:00,SAT-64121,1.1813276323436255,49.165401070758506,934.5544511625842,3.8350000486402127,-134317.92373750187,10.5,10499865682.076263,47.655,-122.3035,60.0,11.183333333333334
2026-01-20T23:11:12+00:00,SAT-64121,1.356919551050259,48.801171181453405,938.3792245444281,3.8717429611629957,-135604.8159564156,10.5,10499864395.184044,47.655,-122.3035,60.0,11.2
2026-01-20T23:11:13+00:00,SAT-64121,1.528100039977223,48.43936488460277,942.2406428576946,3.908031758795251,-136875.80315095896,10.5,10499863124.19685,47.655,-122.3035,60.0,11.216666666666667
2026-01-20T23:11:14+00:00,SAT-64121,1.6950122498069071,48.07999105830483,946.1382531984664,3.94386964898423,-138130.9976595022,10.5,10499861869.00234,47.655,-122.3035,60.0,11.233333333333333
2026-01-20T23:11:15+00:00,SAT-64121,1.8577933839325236,47.7230570740118,950.0716058617201,3.9792599780642472,-139370.51668482798,10.5,10499860629.483315,47.655,-122.3035,60.0,11.25
2026-01-20T23:11:16+00:00,SAT-64121,2.0165749953048873,47.36856886322656,954.0402544798427,4.014206132311623,-140594.47882865698,10.5,10499859405.521172,47.655,-122.3035,60.0,11.266666666666667
2026-01-20T23:11:17+00:00,SAT-64121,2.1714832627748875,47.016530989585995,958.0437560624682,4.04871161323719,-141803.00672870997,10.5,10499858196.99327,47.655,-122.3035,60.0,11.283333333333333
2026-01-20T23:11:18+00:00,SAT-64121,2.3226392551261803,46.666946710900305,962.0816711114035,4.082780035202238,-142996.22697520797,10.5,10499857003.773026,47.655,-122.3035,60.0,11.3
2026-01-20T23:11:19+00:00,SAT-64121,2.470159180312175,46.319818038487846,966.1535637331784,4.116415051104452,-144174.26750807968,10.5,10499855825.732492,47.655,-122.3035,60.0,11.316666666666666
2026-01-20T23:11:20+00:00,SAT-64121,2.6141546183366082,45.975145799905725,970.25900167748,4.149620396392798,-145337.2591585489,10.5,10499854662.74084,47.655,-122.3035,60.0,11.333333333333334
2026-01-20T23:11:21+00:00,SAT-64121,2.7547327431166466,45.632929694971985,974.3975564194825,4.182399903780614,-146485.336164449,10.5,10499853514.663836,47.655,-122.3035,60.0,11.35
2026-01-20T23:11:22+00:00,SAT-64121,2.891996532705307,45.293168348034854,978.5688032568529,4.214757435832541,-147618.63380913233,10.5,10499852381.36619,47.655,-122.3035,60.0,11.366666666666667
2026-01-20T23:11:23+00:00,SAT-64121,3.0260449660073374,44.95585936314848,982.7723213395233,4.246696916065668,-148737.28951076386,10.5,10499851262.71049,47.655,-122.3035,60.0,11.383333333333333
2026-01-20T23:11:24+00:00,SAT-64121,3.156973210037033,44.62099937416917,987.0076937304794,4.278222347909437,-149841.44348637713,10.5,10499850158.556513,47.655,-122.3035,60.0,11.4
2026-01-20T23:11:25+00:00,SAT-64121,3.2848727977660896,44.28858409105232,991.2745074854611,4.3093377287051915,-150931.23573977474,10.5,10499849068.76426,47.655,-122.3035,60.0,11.416666666666666
2026-01-20T23:11:26+00:00,SAT-64121,3.4098317940135088,43.95860835058324,995.5723536468897,4.340047154777323,-152006.80974156424,10.5,10499847993.190258,47.655,-122.3035,60.0,11.433333333333334
2026-01-20T23:11:27+00:00,SAT-64121,3.5319349557610895,43.63106615675731,999.9008273425876,4.37035473534185,-153068.30941387272,10.5,10499846931.690586,47.655,-122.3035,60.0,11.45
2026-01-20T23:11:28+00:00,SAT-64121,3.6512638815735468,43.30595072577258,1004.2595277986353,4.400264593910255,-154115.8791795145,10.5,10499845884.120821,47.655,-122.3035,60.0,11.466666666666667
2026-01-20T23:11:29+00:00,SAT-64121,3.7678971534374943,42.98325452875583,1008.6480583536284,4.429780915901788,-155149.66562957622,10.5,10499844850.33437,47.655,-122.3035,60.0,11.483333333333333
2026-01-20T23:11:30+00:00,SAT-64121,3.8819104725403246,42.662969329071935,1013.0660265204211,4.458907897168056,-156169.81572052956,10.5,10499843830.18428,47.655,-122.3035,60.0,11.5
2026-01-20T23:11:31+00:00,SAT-64121,3.9933767867679877,42.34508622161671,1017.5130439965301,4.487649749845556,-157176.47697921185,10.5,10499842823.523022,47.655,-122.3035,60.0,11.516666666666667
2026-01-20T23:11:32+00:00,SAT-64121,4.102366411904169,42.02959566982866,1021.9887266803761,4.516010699745703,-158169.79741141413,10.5,10499841830.202589,47.655,-122.3035,60.0,11.533333333333333
2026-01-20T23:11:33+00:00,SAT-64121,4.208947146672411,41.716487541182495,1026.4926946849225,4.543995008364439,-159149.92627275037,10.5,10499840850.073727,47.655,-122.3035,60.0,11.55
2026-01-20T23:11:34+00:00,SAT-64121,4.31318438252816,41.40575113953071,1031.0245723732646,4.57160692486588,-160117.0123869218,10.5,10499839882.987614,47.655,-122.3035,60.0,11.566666666666666
2026-01-20T23:11:35+00:00,SAT-64121,4.415141206857671,41.09737523920807,1035.583988346331,4.5988507034114665,-161071.20475265724,10.5,10499838928.795248,47.655,-122.3035,60.0,11.583333333333334
2026-01-20T23:11:36+00:00,SAT-64121,4.514878501540373,40.79134811634057,1040.1705754478664,4.625730631018793,-162012.65351944685,10.5,10499837987.346481,47.655,-122.3035,60.0,11.6
2026-01-20T23:11:37+00:00,SAT-64121,4.612455037189898,40.48765757696148,1044.7839707972025,4.652250945602403,-162941.50711698434,10.5,10499837058.492884,47.655,-122.3035,60.0,11.616666666666667
2026-01-20T23:11:38+00:00,SAT-64121,4.707927561145154,40.18629098902451,1049.4238157402833,4.678415944080267,-163857.91604151297,10.5,10499836142.083958,47.655,-122.3035,60.0,11.633333333333333
2026-01-20T23:11:39+00:00,SAT-64121,4.801350883364388,39.887235306127074,1054.0897559085126,4.70422985662077,-164762.02845142316,10.5,10499835237.971548,47.655,-122.3035,60.0,11.65
2026-01-20T23:11:40+00:00,SAT-64121,4.8927779557006685,39.590477097962356,1058.7814411521827,4.729696950661578,-165653.99381043325,10.5,10499834346.00619,47.655,-122.3035,60.0,11.666666666666666
2026-01-20T23:11:41+00:00,SAT-64121,4.982259949412577,39.29600257293805,1063.4985255776423,4.754821462625864,-166533.96049600275,10.5,10499833466.039503,47.655,-122.3035,60.0,11.683333333333334
2026-01-20T23:11:42+00:00,SAT-64121,5.0698463276756005,39.003797603904616,1068.240667516368,4.779607633221092,-167402.07703564534,10.5,10499832597.922964,47.655,-122.3035,60.0,11.7
2026-01-20T23:11:43+00:00,SAT-64121,5.1555849153199995,38.71384775056668,1073.0075295292338,4.804059646506015,-168258.48997279693,10.5,10499831741.510027,47.655,-122.3035,60.0,11.716666666666667
2026-01-20T23:11:44+00:00,SAT-64121,5.23952196424243,38.42613828442635,1077.7987783500157,4.828181711151573,-169103.34671291668,10.5,10499830896.653288,47.655,-122.3035,60.0,11.733333333333333
2026-01-20T23:11:45+00:00,SAT-64121,5.321702217162103,38.14065420780606,1082.6140849099377,4.851978029927263,-169936.79445477,10.5,10499830063.205545,47.655,-122.3035,60.0,11.75
2026-01-20T23:11:46+00:00,SAT-64121,5.402168967891861,37.85738027374505,1087.453124331785,4.87545272530195,-170758.97758465452,10.5,10499829241.022415,47.655,-122.3035,60.0,11.766666666666667
2026-01-20T23:11:47+00:00,SAT-64121,5.480964117607343,37.57630100922212,1092.3155758498194,4.898609943888499,-171570.04133449294,10.5,10499828429.958666,47.655,-122.3035,60.0,11.783333333333333
2026-01-20T23:11:48+00:00,SAT-64121,5.558128230251716,37.297400731330846,1097.2011228338577,4.921453799888816,-172370.12980103912,10.5,10499827629.8702,47.655,-122.3035,60.0,11.8
2026-01-20T23:11:49+00:00,SAT-64121,5.633700584511617,37.020663565884,1102.1094527569467,4.943988360092863,-173159.38542048,10.5,10499826840.61458,47.655,-122.3035,60.0,11.816666666666666
2026-01-20T23:11:50+00:00,SAT-64121,5.707719223217829,36.74607346591812,1107.0402571480793,4.9662177111837185,-173937.95132574363,10.5,10499826062.048674,47.655,-122.3035,60.0,11.833333333333334
2026-01-20T23:11:51+00:00,SAT-64121,5.780221001538559,36.47361422568275,1111.9932316120332,4.988145855922006,-174705.96771043877,10.5,10499825294.03229,47.655,-122.3035,60.0,11.85
2026-01-20T23:11:52+00:00,SAT-64121,5.851241631487503,36.203269499511535,1116.9680757456726,5.009776801407399,-175463.57492014588,10.5,10499824536.42508,47.655,-122.3035,60.0,11.866666666666667
2026-01-20T23:11:53+00:00,SAT-64121,5.9208157257509875,35.935022815092275,1121.9644931422765,5.0311145235513965,-176210.91220810387,10.5,10499823789.087791,47.655,-122.3035,60.0,11.883333333333333
2026-01-20T23:11:54+00:00,SAT-64121,5.988976839059745,35.668857587962975,1126.9821913604317,5.052162932252324,-176948.11651549087,10.5,10499823051.883484,47.655,-122.3035,60.0,11.9
2026-01-20T23:11:55+00:00,SAT-64121,6.05575750729311,35.404757137099836,1132.020881858198,5.072925964231963,-177675.325722956,10.5,10499822324.674276,47.655,-122.3035,60.0,11.916666666666666
2026-01-20T23:11:56+00:00,SAT-64121,6.121189286096476,35.14270469498206,1137.0802800198587,5.093407453546877,-178392.6741153782,10.5,10499821607.325884,47.655,-122.3035,60.0,11.933333333333334
2026-01-20T23:11:57+00:00,SAT-64121,6.185302786164078,34.88268342372127,1142.1601050535294,5.113611268432295,-179100.29717471777,10.5,10499820899.702826,47.655,-122.3035,60.0,11.95
2026-01-20T23:11:58+00:00,SAT-64121,6.248127708720562,34.62467642353697,1147.260080025246,5.133541185453307,-179798.327172259,10.5,10499820201.672829,47.655,-122.3035,60.0,11.966666666666667
2026-01-20T23:11:59+00:00,SAT-64121,6.309692877934637,34.36866674704035,1152.379931767538,5.153200965986473,-180486.8958473197,10.5,10499819513.104153,47.655,-122.3035,60.0,11.983333333333333
2026-01-20T23:12:00+00:00,SAT-64121,6.370026272894482,34.11463740903961,1157.5193908642818,5.172594330668061,-181166.13351232017,10.5,10499818833.866488,47.655,-122.3035,60.0,12.0
2026-01-20T23:12:01+00:00,SAT-64121,6.429155057911872,33.86257139710334,1162.678191610068,5.19172499753581,-181836.1703886694,10.5,10499818163.82961,47.655,-122.3035,60.0,12.016666666666667
2026-01-20T23:12:02+00:00,SAT-64121,6.487105611991519,33.61245167976773,1167.8560720076105,5.210596576086199,-182497.13289620212,10.5,10499817502.867104,47.655,-122.3035,60.0,12.033333333333333
2026-01-20T23:12:03+00:00,SAT-64121,6.543903555886059,33.364261219306655,1173.0527736594938,5.229212694635597,-183149.1481139054,10.5,10499816850.851887,47.655,-122.3035,60.0,12.05
2026-01-20T23:12:04+00:00,SAT-64121,6.599573779427405,33.11798297790255,1178.2680417869437,5.247576952450779,-183792.34210332666,10.5,10499816207.657896,47.655,-122.3035,60.0,12.066666666666666
2026-01-20T23:12:05+00:00,SAT-64121,6.654140467200895,32.873599925735796,1183.5016252008545,5.265692804745922,-184426.83588068179,10.5,10499815573.16412,47.655,-122.3035,60.0,12.083333333333334
2026-01-20T23:12:06+00:00,SAT-64121,6.707627121995228,32.631095053810576,1188.7532761581213,5.283563840105787,-185052.75513338883,10.5,10499814947.244867,47.655,-122.3035,60.0,12.1
2026-01-20T23:12:07+00:00,SAT-64121,6.760056590097277,32.39045137371578,1194.0227504946533,5.301193452284765,-185670.21872508223,10.5,10499814329.781275,47.655,-122.3035,60.0,12.116666666666667
2026-01-20T23:12:08+00:00,SAT-64121,6.811451082282616,32.15165193191408,1199.3098074310656,5.318585050089959,-186279.34604660593,10.5,10499813720.653954,47.655,-122.3035,60.0,12.133333333333333
2026-01-20T23:12:09+00:00,SAT-64121,6.861832196051594,31.914679814071732,1204.6142095876885,5.335742056290539,-186880.25697781448,10.5,10499813119.743023,47.655,-122.3035,60.0,12.15
2026-01-20T23:12:10+00:00,SAT-64121,6.911220936907381,31.679518149197456,1209.9357229984955,5.35266774921631,-187473.06633968506,10.5,10499812526.93366,47.655,-122.3035,60.0,12.166666666666666
2026-01-20T23:12:11+00:00,SAT-64121,6.959637737328993,31.4461501203552,1215.2741169670473,5.3693654386015,-188057.89005311055,10.5,10499811942.109947,47.655,-122.3035,60.0,12.183333333333334
2026-01-20T23:12:12+00:00,SAT-64121,7.0071024766285745,31.21455896729522,1220.6291640978125,5.385838404173018,-188634.84298800037,10.5,10499811365.157013,47.655,-122.3035,60.0,12.2
