satellites_20260121_005943/SAT-53538.csv

timestamp,satellite,azimuth_deg,elevation_deg,distance_km,relative_velocity_kms,doppler_shift_hz,tx_freq_ghz,rx_freq_hz,ue_lat,ue_lon,ue_alt_m,time_minutes
2026-01-20T23:02:39+00:00,SAT-53538,180.67832263775702,30.3153412021255,906.2598331651886,-4.894142042991324,171413.55654587183,10.5,10500171413.556545,47.655,-122.3035,60.0,2.65
2026-01-20T23:02:40+00:00,SAT-53538,180.63169332911573,30.658048882715185,901.3787421676453,-4.866287890245037,170437.98629374753,10.5,10500170437.986294,47.655,-122.3035,60.0,2.6666666666666665
2026-01-20T23:02:41+00:00,SAT-53538,180.5845948320145,31.00419394943041,896.5254310451076,-4.837973663486221,169446.30230359337,10.5,10500169446.302303,47.655,-122.3035,60.0,2.683333333333333
2026-01-20T23:02:42+00:00,SAT-53538,180.53701398783818,31.353812152256847,891.700358644724,-4.809192121546256,168438.2509590541,10.5,10500168438.25096,47.655,-122.3035,60.0,2.7
2026-01-20T23:02:43+00:00,SAT-53538,180.4889371469918,31.70693912600746,886.9039910355018,-4.779935941395399,167413.57577665176,10.5,10500167413.575777,47.655,-122.3035,60.0,2.716666666666667
2026-01-20T23:02:44+00:00,SAT-53538,180.44035014614585,32.06361035573145,882.1368015899502,-4.750197741018146,166372.01820697752,10.5,10500166372.018208,47.655,-122.3035,60.0,2.7333333333333334
2026-01-20T23:02:45+00:00,SAT-53538,180.3912382839996,32.4238611416152,877.399271042908,-4.719970119447985,165313.31903687798,10.5,10500165313.319036,47.655,-122.3035,60.0,2.75
2026-01-20T23:02:46+00:00,SAT-53538,180.34158629528847,32.78772656484239,872.6918875104453,-4.689245651024638,164237.21818831982,10.5,10500164237.21819,47.655,-122.3035,60.0,2.7666666666666666
2026-01-20T23:02:47+00:00,SAT-53538,180.29137832338117,33.155241450974046,868.01514651449,-4.658016857175927,163143.45373007093,10.5,10500163143.45373,47.655,-122.3035,60.0,2.783333333333333
2026-01-20T23:02:48+00:00,SAT-53538,180.2405978916729,33.52644032902733,863.3695510355999,-4.626276254662054,162031.7635674196,10.5,10500162031.763567,47.655,-122.3035,60.0,2.8
2026-01-20T23:02:49+00:00,SAT-53538,180.18922787276884,33.90135739189616,858.755611517617,-4.594016335492793,160901.88473878932,10.5,10500160901.884739,47.655,-122.3035,60.0,2.816666666666667
2026-01-20T23:02:50+00:00,SAT-53538,180.13725045619879,34.2800264529831,854.1738458923521,-4.561229608067498,159753.55485663595,10.5,10500159753.554857,47.655,-122.3035,60.0,2.8333333333333335
2026-01-20T23:02:51+00:00,SAT-53538,180.08464711368967,34.66248090364001,849.6247795632396,-4.5279085229078,158586.50950629284,10.5,10500158586.509506,47.655,-122.3035,60.0,2.85
2026-01-20T23:02:52+00:00,SAT-53538,180.03139856338979,35.0487536621251,845.1089454630595,-4.494045605005668,157400.48688135945,10.5,10500157400.486881,47.655,-122.3035,60.0,2.8666666666666667
2026-01-20T23:02:53+00:00,SAT-53538,179.97748473029006,35.43887713073857,840.6268839796672,-4.459633349435564,156195.2241275977,10.5,10500156195.224127,47.655,-122.3035,60.0,2.8833333333333333
2026-01-20T23:02:54+00:00,SAT-53538,179.92288470563383,35.832883141835005,836.1791429858301,-4.424664275317231,154970.45923293682,10.5,10500154970.459232,47.655,-122.3035,60.0,2.9
2026-01-20T23:02:55+00:00,SAT-53538,179.86757670319082,36.23080290541485,831.7662778152471,-4.389130975628464,153725.93277212753,10.5,10500153725.932772,47.655,-122.3035,60.0,2.9166666666666665
2026-01-20T23:02:56+00:00,SAT-53538,179.81153801219338,36.632666958405835,827.3888511888869,-4.353026012602554,152461.38424311802,10.5,10500152461.384243,47.655,-122.3035,60.0,2.933333333333333
2026-01-20T23:02:57+00:00,SAT-53538,179.75474494881928,37.03850510177941,823.0474332456513,-4.316342083732059,151176.557881208,10.5,10500151176.55788,47.655,-122.3035,60.0,2.95
2026-01-20T23:02:58+00:00,SAT-53538,179.6971728023574,37.448346349517216,818.7426014074758,-4.279071880861306,149871.1977238724,10.5,10500149871.197723,47.655,-122.3035,60.0,2.966666666666667
2026-01-20T23:02:59+00:00,SAT-53538,179.63879577998395,37.862218861872535,814.4749403849635,-4.2412082064908345,148545.05168423473,10.5,10500148545.051683,47.655,-122.3035,60.0,2.9833333333333334
2026-01-20T23:03:00+00:00,SAT-53538,179.5795869463659,38.28014988611707,810.2450420670233,-4.202743930381916,147197.87003117378,10.5,10500147197.870031,47.655,-122.3035,60.0,3.0
2026-01-20T23:03:01+00:00,SAT-53538,179.51951816001682,38.7021656900915,806.0535054537892,-4.1636720260354165,145829.40666696784,10.5,10500145829.406668,47.655,-122.3035,60.0,3.0166666666666666
2026-01-20T23:03:02+00:00,SAT-53538,179.45856000499435,39.12829149603303,801.9009365531565,-4.123985588507189,144439.419751265,10.5,10500144439.419752,47.655,-122.3035,60.0,3.033333333333333
2026-01-20T23:03:03+00:00,SAT-53538,179.39668171779886,39.55855141285383,797.7879482595519,-4.08367781725604,143027.67110034646,10.5,10500143027.6711,47.655,-122.3035,60.0,3.05
2026-01-20T23:03:04+00:00,SAT-53538,179.33385110970968,39.99296836340164,793.7151602498086,-4.042742045882971,141593.92722872033,10.5,10500141593.927229,47.655,-122.3035,60.0,3.066666666666667
2026-01-20T23:03:05+00:00,SAT-53538,179.27003448343217,40.431564011150314,789.6831988493813,-4.001171790667559,140137.96104907137,10.5,10500140137.961048,47.655,-122.3035,60.0,3.0833333333333335
2026-01-20T23:03:06+00:00,SAT-53538,179.20519654322192,40.87435868864573,785.6926968501555,-3.958960702981821,138659.55020559297,10.5,10500138659.550205,47.655,-122.3035,60.0,3.1
2026-01-20T23:03:07+00:00,SAT-53538,179.13930029961628,41.32137131740626,781.7442933757151,-3.916102625688249,137158.47904928488,10.5,10500137158.47905,47.655,-122.3035,60.0,3.1166666666666667
2026-01-20T23:03:08+00:00,SAT-53538,179.0723069665866,41.77261933028487,777.8386336903619,-3.8725915930009394,135634.53863308948,10.5,10500135634.538633,47.655,-122.3035,60.0,3.1333333333333333
2026-01-20T23:03:09+00:00,SAT-53538,179.00417585136964,42.22811859021188,773.9763690082757,-3.8284218698549606,134087.52809077367,10.5,10500134087.528091,47.655,-122.3035,60.0,3.15
2026-01-20T23:03:10+00:00,SAT-53538,178.9348642356737,42.68788330985802,770.158156263407,-3.7835879455936348,132517.25441583045,10.5,10500132517.254416,47.655,-122.3035,60.0,3.1666666666666665
2026-01-20T23:03:11+00:00,SAT-53538,178.8643272483717,43.151925967017775,766.3846578856682,-3.738084531392367,130923.53237125084,10.5,10500130923.532372,47.655,-122.3035,60.0,3.183333333333333
2026-01-20T23:03:12+00:00,SAT-53538,178.7925177289083,43.62025721591048,762.6565415796929,-3.6919066644476395,129306.18813866295,10.5,10500129306.188139,47.655,-122.3035,60.0,3.2
2026-01-20T23:03:13+00:00,SAT-53538,178.71938607834787,44.09288580741971,758.9744799996838,-3.6450495947161645,127665.05535145826,10.5,10500127665.055351,47.655,-122.3035,60.0,3.216666666666667
2026-01-20T23:03:14+00:00,SAT-53538,178.6448801015544,44.56981849199434,755.3391505372202,-3.5975089379187755,125999.98045363482,10.5,10500125999.980453,47.655,-122.3035,60.0,3.2333333333333334
2026-01-20T23:03:15+00:00,SAT-53538,178.56894483393017,45.05105993777677,751.7512349564693,-3.549280599380509,124310.820032355,10.5,10500124310.820032,47.655,-122.3035,60.0,3.25
2026-01-20T23:03:16+00:00,SAT-53538,178.49152235638624,45.536612635904454,748.2114191053538,-3.5003608191711977,122597.44239895981,10.5,10500122597.442398,47.655,-122.3035,60.0,3.2666666666666666
2026-01-20T23:03:17+00:00,SAT-53538,178.4125515946374,46.02647680769924,744.7203925817004,-3.4507462363890444,120859.72984045172,10.5,10500120859.729841,47.655,-122.3035,60.0,3.283333333333333
2026-01-20T23:03:18+00:00,SAT-53538,178.33196810086739,46.52065031723602,741.2788483352749,-3.400433842056782,119097.57696971887,10.5,10500119097.57697,47.655,-122.3035,60.0,3.3
2026-01-20T23:03:19+00:00,SAT-53538,178.24970381877384,47.01912857422091,737.887482316797,-3.349421033436768,117310.89262787945,10.5,10500117310.892628,47.655,-122.3035,60.0,3.316666666666667
2026-01-20T23:03:20+00:00,SAT-53538,178.1656868278582,47.52190444084946,734.5469930727828,-3.29770564702093,115499.60103972918,10.5,10500115499.60104,47.655,-122.3035,60.0,3.3333333333333335
2026-01-20T23:03:21+00:00,SAT-53538,178.07984106532703,48.02896814025222,731.2580813074873,-3.245285953871793,113663.64165056423,10.5,10500113663.641651,47.655,-122.3035,60.0,3.35
2026-01-20T23:03:22+00:00,SAT-53538,177.99208602445003,48.54030716132507,728.0214494494924,-3.192160688365218,111802.97013287368,10.5,10500111802.970133,47.655,-122.3035,60.0,3.3666666666666667
2026-01-20T23:03:23+00:00,SAT-53538,177.90233642595902,49.055906164615934,724.8378011896294,-3.1383290653775155,109917.55898830488,10.5,10500109917.558989,47.655,-122.3035,60.0,3.3833333333333333
2026-01-20T23:03:24+00:00,SAT-53538,177.81050186008153,49.575746887952,721.7078410017597,-3.083790834758342,108007.39945553463,10.5,10500108007.399456,47.655,-122.3035,60.0,3.4
2026-01-20T23:03:25+00:00,SAT-53538,177.71648639480247,50.09980805800342,718.6322736092274,-3.0285462404205328,106072.50007742221,10.5,10500106072.500078,47.655,-122.3035,60.0,3.4166666666666665
2026-01-20T23:03:26+00:00,SAT-53538,177.62018814988505,50.62806529275737,715.6118034921145,-2.9725960812496077,104112.88883431778,10.5,10500104112.888834,47.655,-122.3035,60.0,3.433333333333333
2026-01-20T23:03:27+00:00,SAT-53538,177.52149882951494,51.160491011120904,712.6471343337482,-2.915941755229569,102128.61468953457,10.5,10500102128.614689,47.655,-122.3035,60.0,3.45
2026-01-20T23:03:28+00:00,SAT-53538,177.42030320942325,51.69705434821216,709.7389684231994,-2.85858520699653,100119.74575245506,10.5,10500100119.745752,47.655,-122.3035,60.0,3.466666666666667
2026-01-20T23:03:29+00:00,SAT-53538,177.31647857688571,52.23772105934403,706.8880061100882,-2.8005290143687183,98086.37230917778,10.5,10500098086.372309,47.655,-122.3035,60.0,3.4833333333333334
2026-01-20T23:03:30+00:00,SAT-53538,177.20989411303944,52.782453437222834,704.094945173091,-2.7417763645260913,96028.60598822655,10.5,10500096028.605988,47.655,-122.3035,60.0,3.5
2026-01-20T23:03:31+00:00,SAT-53538,177.1004102149731,53.33121022313104,701.3604802122037,-2.682331115278893,93946.58190643469,10.5,10500093946.581907,47.655,-122.3035,60.0,3.5166666666666666
2026-01-20T23:03:32+00:00,SAT-53538,176.98787774697553,53.883946528207886,698.6853019798989,-2.622197758092765,91840.45737392778,10.5,10500091840.457375,47.655,-122.3035,60.0,3.533333333333333
2026-01-20T23:03:33+00:00,SAT-53538,176.8721372165305,54.440613746092865,696.070096749161,-2.5613814740237917,89710.41385320578,10.5,10500089710.413853,47.655,-122.3035,60.0,3.55
2026-01-20T23:03:34+00:00,SAT-53538,176.7530178619202,55.00115947528117,693.5155456257346,-2.499888141820668,87556.65724291507,10.5,10500087556.657244,47.655,-122.3035,60.0,3.566666666666667
2026-01-20T23:03:35+00:00,SAT-53538,176.6303366421554,55.56552744203229,691.0223238522922,-2.4377243409475913,85379.41798372296,10.5,10500085379.417984,47.655,-122.3035,60.0,3.5833333333333335
2026-01-20T23:03:36+00:00,SAT-53538,176.5038971174659,56.1336574231414,688.591100109587,-2.3748973871720955,83178.95230475413,10.5,10500083178.952305,47.655,-122.3035,60.0,3.6
2026-01-20T23:03:37+00:00,SAT-53538,176.3734882041048,56.705485175384915,686.2225357821142,-2.311415323936879,80955.54192139559,10.5,10500080955.541922,47.655,-122.3035,60.0,3.6166666666666667
2026-01-20T23:03:38+00:00,SAT-53538,176.23888278955533,57.28094236271392,683.9172842323744,-2.2472869170387395,78709.49384893052,10.5,10500078709.493849,47.655,-122.3035,60.0,3.6333333333333333
2026-01-20T23:03:39+00:00,SAT-53538,176.0998361891808,57.85995648047794,681.6759900804477,-2.18252172432228,76441.14284350656,10.5,10500076441.142843,47.655,-122.3035,60.0,3.65
2026-01-20T23:03:40+00:00,SAT-53538,175.95608441788133,58.44245079595584,679.499288414057,-2.1171300379871805,74150.84938149243,10.5,10500074150.849382,47.655,-122.3035,60.0,3.6666666666666665
2026-01-20T23:03:41+00:00,SAT-53538,175.80734225907992,59.028344273820984,677.3878040561713,-2.0511229371756015,71839.00150131133,10.5,10500071839.001501,47.655,-122.3035,60.0,3.683333333333333
2026-01-20T23:03:42+00:00,SAT-53538,175.65330109480794,59.617551513685754,675.3421507801614,-1.9845122498414727,69506.01346794209,10.5,10500069506.013468,47.655,-122.3035,60.0,3.7
2026-01-20T23:03:43+00:00,SAT-53538,175.49362646883137,60.209982675854654,673.3629305629862,-1.9173106124482737,67152.32786378794,10.5,10500067152.327864,47.655,-122.3035,60.0,3.716666666666667
2026-01-20T23:03:44+00:00,SAT-53538,175.32795533541503,60.80554342174953,671.4507327788376,-1.8495313999918745,64778.413137780415,10.5,10500064778.413137,47.655,-122.3035,60.0,3.7333333333333334
2026-01-20T23:03:45+00:00,SAT-53538,175.1558929572687,61.4041348316925,669.6061334625791,-1.7811887890756881,62384.76581453803,10.5,10500062384.765814,47.655,-122.3035,60.0,3.75
2026-01-20T23:03:46+00:00,SAT-53538,174.97700938662032,62.005653337402016,667.8296945102743,-1.712297711065769,59971.9088536596,10.5,10500059971.908854,47.655,-122.3035,60.0,3.7666666666666666
2026-01-20T23:03:47+00:00,SAT-53538,174.79083547409084,62.60999063596191,666.1219629264381,-1.6428738671014653,57540.39217546088,10.5,10500057540.392176,47.655,-122.3035,60.0,3.783333333333333
2026-01-20T23:03:48+00:00,SAT-53538,174.59685832316487,63.217033601951954,664.4834700563156,-1.5729337215966852,55090.792433361334,10.5,10500055090.792433,47.655,-122.3035,60.0,3.8
2026-01-20T23:03:49+00:00,SAT-53538,174.39451610106045,63.82666418995,662.9147308246431,-1.5024944654128949,52623.71172404676,10.5,10500052623.711723,47.655,-122.3035,60.0,3.816666666666667
2026-01-20T23:03:50+00:00,SAT-53538,174.1831921018845,64.43875931320702,661.416243011138,-1.4315740462380824,50139.77865146916,10.5,10500050139.778652,47.655,-122.3035,60.0,3.8333333333333335
2026-01-20T23:03:51+00:00,SAT-53538,173.9622079240464,65.05319072005261,659.9884864956898,-1.3601911161120501,47639.64648896046,10.5,10500047639.646488,47.655,-122.3035,60.0,3.85
2026-01-20T23:03:52+00:00,SAT-53538,173.73081561760765,65.66982483384908,658.6319225558875,-1.2883650415418944,45123.99353351941,10.5,10500045123.993534,47.655,-122.3035,60.0,3.8666666666666667
2026-01-20T23:03:53+00:00,SAT-53538,173.48818860595796,66.28852257496018,657.3469931544564,-1.216115845503202,42593.521074448174,10.5,10500042593.521074,47.655,-122.3035,60.0,3.8833333333333333
2026-01-20T23:03:54+00:00,SAT-53538,173.2334111676219,66.90913912987102,656.1341202845412,-1.143464246672203,40048.954767428244,10.5,10500040048.954767,47.655,-122.3035,60.0,3.9
2026-01-20T23:03:55+00:00,SAT-53538,172.96546618561564,67.53152370334968,654.9937052758601,-1.070431572708868,37491.04159732769,10.5,10500037491.041597,47.655,-122.3035,60.0,3.9166666666666665
2026-01-20T23:03:56+00:00,SAT-53538,172.68322085403997,68.15551918655859,653.9261281873451,-0.9970397777942999,34920.55049243483,10.5,10500034920.550493,47.655,-122.3035,60.0,3.933333333333333
2026-01-20T23:03:57+00:00,SAT-53538,172.38540991111404,68.78096177738757,652.9317471822916,-0.9233113853212053,32338.27031723612,10.5,10500032338.270317,47.655,-122.3035,60.0,3.95
2026-01-20T23:03:58+00:00,SAT-53538,172.07061591052823,69.40768050084667,652.0108979606646,-0.8492694817962747,29745.009658851675,10.5,10500029745.009659,47.655,-122.3035,60.0,3.966666666666667
2026-01-20T23:03:59+00:00,SAT-53538,171.73724589308026,70.03549663805957,651.1638931974865,-0.7749376669829326,27141.595080823525,10.5,10500027141.595081,47.655,-122.3035,60.0,3.9833333333333334
2026-01-20T23:04:00+00:00,SAT-53538,171.38350369346475,70.66422301495538,650.3910220309488,-0.7003400193758094,24528.86991388555,10.5,10500024528.869913,47.655,-122.3035,60.0,4.0
2026-01-20T23:04:01+00:00,SAT-53538,171.00735690779575,71.29366312666816,649.692549584958,-0.625501073711635,21907.693468299884,10.5,10500021907.693468,47.655,-122.3035,60.0,4.016666666666667
2026-01-20T23:04:02+00:00,SAT-53538,170.60649729215837,71.92361006962187,649.0687165141095,-0.5504457697070169,19278.939238437004,10.5,10500019278.939238,47.655,-122.3035,60.0,4.033333333333333
2026-01-20T23:04:03+00:00,SAT-53538,170.17829305790102,72.55384520965636,648.5197385997884,-0.47519941755616263,16643.493694360077,10.5,10500016643.493694,47.655,-122.3035,60.0,4.05
2026-01-20T23:04:04+00:00,SAT-53538,169.7197310880289,73.18413653413839,648.0458063806791,-0.39978765396415217,14002.254741924155,10.5,10500014002.254742,47.655,-122.3035,60.0,4.066666666666666
2026-01-20T23:04:05+00:00,SAT-53538,169.22734655945385,73.81423659527889,647.6470848271256,-0.32423640596321457,11356.13045546914,10.5,10500011356.130455,47.655,-122.3035,60.0,4.083333333333333
2026-01-20T23:04:06+00:00,SAT-53538,168.69713671306445,74.44387994676376,647.3237130515781,-0.24857183593491178,8706.037152264096,10.5,10500008706.037151,47.655,-122.3035,60.0,4.1
2026-01-20T23:04:07+00:00,SAT-53538,168.12445457848185,75.07277990323675,647.0758040738724,-0.17282031099993472,6052.898320408429,10.5,10500006052.898321,47.655,-122.3035,60.0,4.116666666666666
2026-01-20T23:04:08+00:00,SAT-53538,167.50387711841495,75.70062447002327,646.9034446170352,-0.09700834417260654,3397.6425578136746,10.5,10500003397.642557,47.655,-122.3035,60.0,4.133333333333334
2026-01-20T23:04:09+00:00,SAT-53538,166.82904060390476,76.32707114023209,646.8066949617803,-0.02116255861791374,741.2023203335365,10.5,10500000741.20232,47.655,-122.3035,60.0,4.15
2026-01-20T23:04:10+00:00,SAT-53538,166.0924336115753,76.95174026322925,646.7855888366521,0.05469036561729492,-1915.487943934856,10.5,10499998084.512056,47.655,-122.3035,60.0,4.166666666666667
2026-01-20T23:04:11+00:00,SAT-53538,165.28513496523038,77.5742064717023,646.8401333612944,0.13052373423302022,-4571.493287688752,10.5,10499995428.506712,47.655,-122.3035,60.0,4.183333333333334
2026-01-20T23:04:12+00:00,SAT-53538,164.39647956136315,78.19398756375905,646.9703090322361,0.20631088785742885,-7225.87998695752,10.5,10499992774.120012,47.655,-122.3035,60.0,4.2
2026-01-20T23:04:13+00:00,SAT-53538,163.41362924614944,78.81052992549634,647.1760697577259,0.28202524757534014,-9877.717135702831,10.5,10499990122.282864,47.655,-122.3035,60.0,4.216666666666667
2026-01-20T23:04:14+00:00,SAT-53538,162.321017963608,79.42318925567437,647.4573429379744,0.3576403615834362,-12526.07827988148,10.5,10499987473.92172,47.655,-122.3035,60.0,4.233333333333333
2026-01-20T23:04:15+00:00,SAT-53538,161.09962975892202,80.03120484112584,647.814029591927,0.43312995183213115,-15170.04305104092,10.5,10499984829.95695,47.655,-122.3035,60.0,4.25
2026-01-20T23:04:16+00:00,SAT-53538,159.72605426639743,80.63366487193332,648.2460045305542,0.5084679553292266,-17808.69861294803,10.5,10499982191.301388,47.655,-122.3035,60.0,4.266666666666667
2026-01-20T23:04:17+00:00,SAT-53538,158.1712466999882,81.22945920048072,648.7531165713359,0.5836285764796876,-20441.14149474941,10.5,10499979558.858505,47.655,-122.3035,60.0,4.283333333333333
2026-01-20T23:04:18+00:00,SAT-53538,156.39889905206013,81.81721438118838,649.335188804945,0.6585863191538008,-23066.47871413399,10.5,10499976933.521286,47.655,-122.3035,60.0,4.3
2026-01-20T23:04:19+00:00,SAT-53538,154.3633109597928,82.39520350396882,649.9920188939144,0.7333160392994835,-25683.829620038596,10.5,10499974316.17038,47.655,-122.3035,60.0,4.316666666666666
2026-01-20T23:04:20+00:00,SAT-53538,152.00664578529592,82.96122019144372,650.7233794237757,0.8077929799357547,-28292.32711826735,10.5,10499971707.672882,47.655,-122.3035,60.0,4.333333333333333
2026-01-20T23:04:21+00:00,SAT-53538,149.25550557305468,83.51240188622015,651.5290182890983,0.8819928062939736,-30891.11890228647,10.5,10499969108.881098,47.655,-122.3035,60.0,4.35
2026-01-20T23:04:22+00:00,SAT-53538,146.01694092002973,84.04498287283855,652.4086591145755,0.9558916565164444,-33479.3692289039,10.5,10499966520.630772,47.655,-122.3035,60.0,4.366666666666666
2026-01-20T23:04:23+00:00,SAT-53538,142.1745132069478,84.55395457189373,653.3620017266746,1.0294661614909644,-36056.25961295907,10.5,10499963943.740387,47.655,-122.3035,60.0,4.383333333333334
2026-01-20T23:04:24+00:00,SAT-53538,137.5862147670883,85.0326166263025,654.3887226450682,1.1026934892054505,-38620.99038080948,10.5,10499961379.009619,47.655,-122.3035,60.0,4.4
2026-01-20T23:04:25+00:00,SAT-53538,132.0885196020398,85.47203548960096,655.4884756183025,1.1755513755114966,-41172.78174780072,10.5,10499958827.218252,47.655,-122.3035,60.0,4.416666666666667
2026-01-20T23:04:26+00:00,SAT-53538,125.51504027796072,85.86052549464344,656.6608921901459,1.24801813846494,-43710.87432053367,10.5,10499956289.125679,47.655,-122.3035,60.0,4.433333333333334
2026-01-20T23:04:27+00:00,SAT-53538,117.74265171330362,86.18348438321692,657.9055822802417,1.3200727414546318,-46234.53130790113,10.5,10499953765.468693,47.655,-122.3035,60.0,4.45
2026-01-20T23:04:28+00:00,SAT-53538,108.77422664363466,86.42424324641688,659.2221348277191,1.391694776124857,-48743.03792295869,10.5,10499951256.962076,47.655,-122.3035,60.0,4.466666666666667
2026-01-20T23:04:29+00:00,SAT-53538,98.83801663015417,86.56672652975789,660.6101184177742,1.4628645103173565,-51235.70306205716,10.5,10499948764.296938,47.655,-122.3035,60.0,4.483333333333333
2026-01-20T23:04:30+00:00,SAT-53538,88.42795935130665,86.59990805894047,662.0690819560641,1.5335629096794323,-53711.860061649844,10.5,10499946288.139938,47.655,-122.3035,60.0,4.5
2026-01-20T23:04:31+00:00,SAT-53538,78.19740231730131,86.52204957247713,663.598555364651,1.6037716401645186,-56170.86678587306,10.5,10499943829.133215,47.655,-122.3035,60.0,4.516666666666667
2026-01-20T23:04:32+00:00,SAT-53538,68.73697300557382,86.34161972730841,665.1980502804417,1.6734731054330891,-58612.10693648416,10.5,10499941387.893063,47.655,-122.3035,60.0,4.533333333333333
2026-01-20T23:04:33+00:00,SAT-53538,60.4001837066472,86.07408350466893,666.867060790927,1.7426504355933028,-61034.98965851129,10.5,10499938965.010342,47.655,-122.3035,60.0,4.55
2026-01-20T23:04:34+00:00,SAT-53538,53.282850874251096,85.73710209715705,668.6050641586921,1.811287519841418,-63438.95068345879,10.5,10499936561.049316,47.655,-122.3035,60.0,4.566666666666666
2026-01-20T23:04:35+00:00,SAT-53538,47.307727576305545,85.34696787821485,670.4115215784806,1.8793690113084316,-65823.45249905696,10.5,10499934176.5475,47.655,-122.3035,60.0,4.583333333333333
2026-01-20T23:04:36+00:00,SAT-53538,42.32051353021501,84.91706846319367,672.2858789390922,1.9468803214746147,-68187.98415363555,10.5,10499931812.015846,47.655,-122.3035,60.0,4.6
2026-01-20T23:04:37+00:00,SAT-53538,38.15270889349428,84.4577492744058,674.2275675797096,2.0138076382078856,-70532.0618879038,10.5,10499929467.938112,47.655,-122.3035,60.0,4.616666666666666
2026-01-20T23:04:38+00:00,SAT-53538,34.65123285753848,83.97677661660585,676.2360050642155,2.0801379296309808,-72855.22927039511,10.5,10499927144.77073,47.655,-122.3035,60.0,4.633333333333334
2026-01-20T23:04:39+00:00,SAT-53538,31.6878604811077,83.47992445861726,678.3105959593676,2.145858930799108,-75157.05673086223,10.5,10499924842.94327,47.655,-122.3035,60.0,4.65
2026-01-20T23:04:40+00:00,SAT-53538,29.15922988125417,82.97149181278775,680.4507325996846,2.210959152254683,-77437.14185990019,10.5,10499922562.85814,47.655,-122.3035,60.0,4.666666666666667
2026-01-20T23:04:41+00:00,SAT-53538,26.983426704572853,82.45470412012561,682.6557958608665,2.275427880663876,-79695.10943124093,10.5,10499920304.89057,47.655,-122.3035,60.0,4.683333333333334
2026-01-20T23:04:42+00:00,SAT-53538,25.09589128225697,81.93200786042989,684.9251559338486,2.339255156865201,-81930.61063292198,10.5,10499918069.389366,47.655,-122.3035,60.0,4.7
2026-01-20T23:04:43+00:00,SAT-53538,23.44569826465466,81.4052817941631,687.2581730769621,2.4024318018182007,-84143.32397611921,10.5,10499915856.676023,47.655,-122.3035,60.0,4.716666666666667
2026-01-20T23:04:44+00:00,SAT-53538,21.992499810244254,80.87598733468737,689.6541983939755,2.4649493573550587,-86332.95322001768,10.5,10499913667.04678,47.655,-122.3035,60.0,4.733333333333333
2026-01-20T23:04:45+00:00,SAT-53538,20.704125566259965,80.34527577162936,692.1125745530443,2.526800139715455,-88499.22924682875,10.5,10499911500.770754,47.655,-122.3035,60.0,4.75
2026-01-20T23:04:46+00:00,SAT-53538,19.554737354253817,79.81406519278158,694.6326365590538,2.5879771548486903,-90641.90709531207,10.5,10499909358.092905,47.655,-122.3035,60.0,4.766666666666667
2026-01-20T23:04:47+00:00,SAT-53538,18.523422403811463,79.2830961850747,697.2137124414895,2.6484741647259487,-92760.76828331173,10.5,10499907239.231716,47.655,-122.3035,60.0,4.783333333333333
2026-01-20T23:04:48+00:00,SAT-53538,17.59312256483404,78.75297255868922,699.855124008443,2.7082855993635166,-94855.61772643702,10.5,10499905144.382273,47.655,-122.3035,60.0,4.8
2026-01-20T23:04:49+00:00,SAT-53538,16.74981739362318,78.22419146887547,702.5561875128749,2.7674066019670556,-96926.285319206,10.5,10499903073.714682,47.655,-122.3035,60.0,4.816666666666666
2026-01-20T23:04:50+00:00,SAT-53538,15.98189797904128,77.69716591981046,705.3162143639033,2.825832969135733,-98972.62384074119,10.5,10499901027.37616,47.655,-122.3035,60.0,4.833333333333333
2026-01-20T23:04:51+00:00,SAT-53538,15.279684135375277,77.17224177524099,708.1345117784547,2.883561158047056,-100994.50920641271,10.5,10499899005.490793,47.655,-122.3035,60.0,4.85
2026-01-20T23:04:52+00:00,SAT-53538,14.63504962931997,76.64971074320935,711.0103834400803,2.9405882722110874,-102991.83996889081,10.5,10499897008.16003,47.655,-122.3035,60.0,4.866666666666666
2026-01-20T23:04:53+00:00,SAT-53538,14.041129227631917,76.12982039156539,713.9431301435654,2.9969120060893553,-104964.53537846582,10.5,10499895035.46462,47.655,-122.3035,60.0,4.883333333333334
2026-01-20T23:04:54+00:00,SAT-53538,13.492088076487267,75.61278195637627,716.9320503843053,3.0525306927221623,-106912.53705115791,10.5,10499893087.46295,47.655,-122.3035,60.0,4.9
2026-01-20T23:04:55+00:00,SAT-53538,12.982938847469995,75.09877647167414,719.9764409951802,3.1074431988786566,-108835.80529642907,10.5,10499891164.194704,47.655,-122.3035,60.0,4.916666666666667
2026-01-20T23:04:56+00:00,SAT-53538,12.509395775144942,74.58795964768345,723.0755976788619,3.1616489834139236,-110734.32116109539,10.5,10499889265.678839,47.655,-122.3035,60.0,4.933333333333334
2026-01-20T23:04:57+00:00,SAT-53538,12.067757335172704,74.08046576421003,726.22881559832,3.215148039740801,-112608.08441444651,10.5,10499887391.915586,47.655,-122.3035,60.0,4.95
2026-01-20T23:04:58+00:00,SAT-53538,11.654811346682996,73.5764108197873,729.4353899099548,3.2679408658621876,-114457.11249865055,10.5,10499885542.8875,47.655,-122.3035,60.0,4.966666666666667
2026-01-20T23:04:59+00:00,SAT-53538,11.26775772974371,73.07589509686808,732.6946162668413,3.3200284767326007,-116281.44096170795,10.5,10499883718.559038,47.655,-122.3035,60.0,4.983333333333333
2026-01-20T23:05:00+00:00,SAT-53538,10.904145253100516,72.57900526184851,736.0057913343027,3.3714123215914067,-118081.12056211158,10.5,10499881918.879438,47.655,-122.3035,60.0,5.0
2026-01-20T23:05:01+00:00,SAT-53538,10.56181945135768,72.08581611072405,739.3682132230365,3.422094382199537,-119856.22070951211,10.5,10499880143.779291,47.655,-122.3035,60.0,5.016666666666667
2026-01-20T23:05:02+00:00,SAT-53538,10.238879488439608,71.59639200666032,742.7811820202169,3.472077001524704,-121606.82346454957,10.5,10499878393.176535,47.655,-122.3035,60.0,5.033333333333333
2026-01-20T23:05:03+00:00,SAT-53538,9.933642267523739,71.11078810751135,746.2440001497374,3.521362968111729,-123333.02649385914,10.5,10499876666.973507,47.655,-122.3035,60.0,5.05
2026-01-20T23:05:04+00:00,SAT-53538,9.644612400546562,70.62905138937253,749.7559728166009,3.5699554640807323,-125034.94124874778,10.5,10499874965.058752,47.655,-122.3035,60.0,5.066666666666666
2026-01-20T23:05:05+00:00,SAT-53538,9.370456971890299,70.15122152218021,753.3164083994441,3.617858039472708,-126712.69206666776,10.5,10499873287.307934,47.655,-122.3035,60.0,5.083333333333333
2026-01-20T23:05:06+00:00,SAT-53538,9.109984232912737,69.67733162093447,756.9246188174782,3.6650746064464137,-128366.41596796723,10.5,10499871633.584032,47.655,-122.3035,60.0,5.1
2026-01-20T23:05:07+00:00,SAT-53538,8.862125535711435,69.20740889219095,760.5799198916408,3.711609411578747,-129996.26168573208,10.5,10499870003.738314,47.655,-122.3035,60.0,5.116666666666666
2026-01-20T23:05:08+00:00,SAT-53538,8.625919951943311,68.74147519652126,764.2816316781219,3.757466980111506,-131602.38771307186,10.5,10499868397.612288,47.655,-122.3035,60.0,5.133333333333334
2026-01-20T23:05:09+00:00,SAT-53538,8.400501127176861,68.2795475446818,768.0290787462865,3.802652192871854,-133184.9649971997,10.5,10499866815.035004,47.655,-122.3035,60.0,5.15
2026-01-20T23:05:10+00:00,SAT-53538,8.18508599663281,67.82163852224764,771.8215905333107,3.8471701658792448,-134744.17272275765,10.5,10499865255.827278,47.655,-122.3035,60.0,5.166666666666667
2026-01-20T23:05:11+00:00,SAT-53538,7.978965073753081,67.36775667738257,775.6585015787476,3.8910262698413725,-136280.19899464722,10.5,10499863719.801004,47.655,-122.3035,60.0,5.183333333333334
2026-01-20T23:05:12+00:00,SAT-53538,7.781494056649199,66.91790686131445,779.539151778536,3.9342261450807103,-137793.2413608199,10.5,10499862206.758638,47.655,-122.3035,60.0,5.2
2026-01-20T23:05:13+00:00,SAT-53538,7.592086549854156,66.47209052913809,783.4628866538966,3.976775622712929,-139283.50405161214,10.5,10499860716.495949,47.655,-122.3035,60.0,5.216666666666667
2026-01-20T23:05:14+00:00,SAT-53538,7.410207737371567,66.03030601708545,787.4290575416155,4.0186807832539095,-140751.2000324106,10.5,10499859248.799967,47.655,-122.3035,60.0,5.233333333333333
2026-01-20T23:05:15+00:00,SAT-53538,7.235368860073425,65.59254878472294,791.4370218427807,4.059947833558524,-142196.5466935279,10.5,10499857803.453306,47.655,-122.3035,60.0,5.25
2026-01-20T23:05:16+00:00,SAT-53538,7.067122388476423,65.15881164620647,795.4861431487832,4.1005832299375,-143619.7701622759,10.5,10499856380.229837,47.655,-122.3035,60.0,5.266666666666667
2026-01-20T23:05:17+00:00,SAT-53538,6.90505778218061,64.72908496625092,799.5757914901076,4.140593529946697,-145021.10011199923,10.5,10499854978.899887,47.655,-122.3035,60.0,5.283333333333333
2026-01-20T23:05:18+00:00,SAT-53538,6.748797764449976,64.3033568533534,803.7053434373076,4.179985455906828,-146400.7719868046,10.5,10499853599.228014,47.655,-122.3035,60.0,5.3
2026-01-20T23:05:19+00:00,SAT-53538,6.597995033551143,63.88161332911193,807.8741822653321,4.218765861400965,-147759.02582816186,10.5,10499852240.974173,47.655,-122.3035,60.0,5.316666666666666
2026-01-20T23:05:20+00:00,SAT-53538,6.452329355777575,63.463838486162864,812.081698084436,4.256941723374398,-149096.10599820752,10.5,10499850903.894001,47.655,-122.3035,60.0,5.333333333333333
2026-01-20T23:05:21+00:00,SAT-53538,6.311504988706034,63.0500146336514,816.3272879632146,4.294520120571509,-150412.26042451288,10.5,10499849587.739576,47.655,-122.3035,60.0,5.35
2026-01-20T23:05:22+00:00,SAT-53538,6.1752483925857335,62.640122432788836,820.6103560301314,4.331508200249276,-151707.7394342502,10.5,10499848292.260565,47.655,-122.3035,60.0,5.366666666666666
2026-01-20T23:05:23+00:00,SAT-53538,6.043306193115754,62.23414102482456,824.9303135418467,4.367913222960841,-152982.79732270256,10.5,10499847017.202677,47.655,-122.3035,60.0,5.383333333333334
2026-01-20T23:05:24+00:00,SAT-53538,5.915443362342707,61.832048144806826,829.2865789962129,4.403742502569436,-154237.69025229808,10.5,10499845762.309748,47.655,-122.3035,60.0,5.4
2026-01-20T23:05:25+00:00,SAT-53538,5.791441593455636,61.433820232321125,833.6785781854421,4.439003402946235,-155472.67613695428,10.5,10499844527.323864,47.655,-122.3035,60.0,5.416666666666667
2026-01-20T23:05:26+00:00,SAT-53538,5.67109784464403,61.03943253424092,838.1057442459805,4.473703346233615,-156688.0149314929,10.5,10499843311.98507,47.655,-122.3035,60.0,5.433333333333334
2026-01-20T23:05:27+00:00,SAT-53538,5.554223031573462,60.64885919927485,842.5675177166241,4.50784978803146,-157883.967762559,10.5,10499842116.032238,47.655,-122.3035,60.0,5.45
2026-01-20T23:05:28+00:00,SAT-53538,5.440640851933299,60.26207336795094,847.0633465718876,4.541450219401068,-159060.79699880647,10.5,10499840939.203001,47.655,-122.3035,60.0,5.466666666666667
2026-01-20T23:05:29+00:00,SAT-53538,5.330186726202355,59.879047256110034,851.5926862573702,4.5745121197022325,-160218.76459905287,10.5,10499839781.235401,47.655,-122.3035,60.0,5.483333333333333
2026-01-20T23:05:30+00:00,SAT-53538,5.222706842555871,59.49975223656985,856.1549996780866,4.607043028948745,-161358.1346464754,10.5,10499838641.865353,47.655,-122.3035,60.0,5.5
2026-01-20T23:05:31+00:00,SAT-53538,5.118057291727276,59.12415890923604,860.7497572589582,4.639050443461723,-162479.16969394902,10.5,10499837520.830305,47.655,-122.3035,60.0,5.516666666666667
2026-01-20T23:05:32+00:00,SAT-53538,5.016103285673295,58.75223717501294,865.3764369012373,4.670541890053057,-163582.13336226455,10.5,10499836417.866638,47.655,-122.3035,60.0,5.533333333333333
2026-01-20T23:05:33+00:00,SAT-53538,4.91671844729521,58.38395629879712,870.0345240129169,4.701524859981365,-164667.28802698676,10.5,10499835332.711973,47.655,-122.3035,60.0,5.55
2026-01-20T23:05:34+00:00,SAT-53538,4.819784166455152,58.01928497355523,874.7235114732716,4.73200682549924,-165734.89539800904,10.5,10499834265.104603,47.655,-122.3035,60.0,5.566666666666666
2026-01-20T23:05:35+00:00,SAT-53538,4.725189013680878,57.65819137887285,879.4428996139029,4.761995259297741,-166785.21720058177,10.5,10499833214.782799,47.655,-122.3035,60.0,5.583333333333333
2026-01-20T23:05:36+00:00,SAT-53538,4.632828205688894,57.30064323420001,884.1921962191758,4.791497574304335,-167818.5130667814,10.5,10499832181.486933,47.655,-122.3035,60.0,5.6
2026-01-20T23:05:37+00:00,SAT-53538,4.5426031186599936,56.94660785321861,888.9709164666154,4.820521172647959,-168835.0422504744,10.5,10499831164.95775,47.655,-122.3035,60.0,5.616666666666666
2026-01-20T23:05:38+00:00,SAT-53538,4.454420842775518,56.596052191015076,893.7785829161362,4.8490733699389805,-169835.06097528074,10.5,10499830164.939024,47.655,-122.3035,60.0,5.633333333333334
2026-01-20T23:05:39+00:00,SAT-53538,4.368193775828362,56.24894289373758,898.6147254237553,4.877161518921224,-170818.82676539134,10.5,10499829181.173235,47.655,-122.3035,60.0,5.65
2026-01-20T23:05:40+00:00,SAT-53538,4.283839249067456,55.90524633621207,903.4788811786262,4.904792851486271,-171786.59291224016,10.5,10499828213.407087,47.655,-122.3035,60.0,5.666666666666667
2026-01-20T23:05:41+00:00,SAT-53538,4.201279186372411,55.564928668332946,908.3705945825085,4.931974537538007,-172738.6105361899,10.5,10499827261.389463,47.655,-122.3035,60.0,5.683333333333334
2026-01-20T23:05:42+00:00,SAT-53538,4.1204397904458565,55.22795585426126,913.2894171879464,4.958713763465188,-173675.13133497332,10.5,10499826324.868666,47.655,-122.3035,60.0,5.7
2026-01-20T23:05:43+00:00,SAT-53538,4.041251253085504,54.89429370384096,918.234907714709,4.9850175757070785,-174596.40210469978,10.5,10499825403.597895,47.655,-122.3035,60.0,5.716666666666667
2026-01-20T23:05:44+00:00,SAT-53538,3.963647490817211,54.563907912478314,923.2066319102142,5.010893009799848,-175502.66925960628,10.5,10499824497.33074,47.655,-122.3035,60.0,5.733333333333333
2026-01-20T23:05:45+00:00,SAT-53538,3.8875658993975457,54.23676408990614,928.2041625386545,5.036347001323767,-176394.17571305129,10.5,10499823605.824287,47.655,-122.3035,60.0,5.75
2026-01-20T23:05:46+00:00,SAT-53538,3.812947128648063,53.9128277928662,933.2270792813081,5.0613864316680095,-177271.162480392,10.5,10499822728.837519,47.655,-122.3035,60.0,5.766666666666667
2026-01-20T23:05:47+00:00,SAT-53538,3.7397348738254474,53.59206455275573,938.2749686824917,5.086018105979893,-178133.86790667317,10.5,10499821866.132093,47.655,-122.3035,60.0,5.783333333333333
2026-01-20T23:05:48+00:00,SAT-53538,3.667875683124942,53.27443990282932,943.3474240735223,5.110248759304551,-178982.52788166466,10.5,10499821017.472118,47.655,-122.3035,60.0,5.8
2026-01-20T23:05:49+00:00,SAT-53538,3.5973187794359878,52.95991940323806,948.444045502802,5.134085032733164,-179817.37500447134,10.5,10499820182.624996,47.655,-122.3035,60.0,5.816666666666666
2026-01-20T23:05:50+00:00,SAT-53538,3.5280158955673695,52.648468665863724,953.5644396421146,5.1575335192076635,-180638.64018780776,10.5,10499819361.359812,47.655,-122.3035,60.0,5.833333333333333
2026-01-20T23:05:51+00:00,SAT-53538,3.459921120893427,52.340053374728924,958.7082197386044,5.180600697757603,-181446.55035469515,10.5,10499818553.449646,47.655,-122.3035,60.0,5.85
2026-01-20T23:05:52+00:00,SAT-53538,3.3929907598754334,52.03463930893114,963.875005501168,5.203293009321969,-182241.331094062,10.5,10499817758.668905,47.655,-122.3035,60.0,5.866666666666666
2026-01-20T23:05:53+00:00,SAT-53538,3.32718319972663,51.73219235959283,969.064423062465,5.225616746888338,-183023.20281295254,10.5,10499816976.797188,47.655,-122.3035,60.0,5.883333333333334
2026-01-20T23:05:54+00:00,SAT-53538,3.2624587886523657,51.43267855196447,974.2761048313616,5.2475781906924155,-183792.38547178652,10.5,10499816207.614529,47.655,-122.3035,60.0,5.9
2026-01-20T23:05:55+00:00,SAT-53538,3.1987797210724174,51.136064058294465,979.5096894802123,5.2691835018066016,-184549.09485738067,10.5,10499815450.905142,47.655,-122.3035,60.0,5.916666666666667
2026-01-20T23:05:56+00:00,SAT-53538,3.1361099318962404,50.84231521577115,984.7648218260141,5.290438756063278,-185293.54377108585,10.5,10499814706.456228,47.655,-122.3035,60.0,5.933333333333334
2026-01-20T23:05:57+00:00,SAT-53538,3.074414997596043,50.55139854130582,990.0411527453945,5.311349940086122,-186025.94188978657,10.5,10499813974.05811,47.655,-122.3035,60.0,5.95
2026-01-20T23:05:58+00:00,SAT-53538,3.0136620440289117,50.26328074543827,995.3383390856404,5.331922971348016,-186746.49646841406,10.5,10499813253.503532,47.655,-122.3035,60.0,5.966666666666667
2026-01-20T23:05:59+00:00,SAT-53538,2.953819660116622,49.97792874416802,1000.6560435957315,5.35216369689605,-187455.41229529039,10.5,10499812544.587706,47.655,-122.3035,60.0,5.983333333333333
2026-01-20T23:06:00+00:00,SAT-53538,2.8948578173318786,49.6953096699281,1005.9939348561024,5.37207780323971,-188152.88853603165,10.5,10499811847.111464,47.655,-122.3035,60.0,6.0
2026-01-20T23:06:01+00:00,SAT-53538,2.836747795175115,49.41539088646347,1011.3516871185335,5.391670978083178,-188839.12439809734,10.5,10499811160.875603,47.655,-122.3035,60.0,6.016666666666667
2026-01-20T23:06:02+00:00,SAT-53538,2.7794621100259462,49.138139994183305,1016.7289803073418,5.410948771971271,-189514.31428504566,10.5,10499810485.685715,47.655,-122.3035,60.0,6.033333333333333
2026-01-20T23:06:03+00:00,SAT-53538,2.7229744497490156,48.86352484213087,1022.1254998825879,5.429916682742222,-190178.65075442736,10.5,10499809821.349245,47.655,-122.3035,60.0,6.05
2026-01-20T23:06:04+00:00,SAT-53538,2.6672596117257266,48.59151353472218,1027.5409367875095,5.448580074363714,-190832.32167508028,10.5,10499809167.678326,47.655,-122.3035,60.0,6.066666666666666
2026-01-20T23:06:05+00:00,SAT-53538,2.6122934453952587,48.32207444196128,1032.974987315008,5.466944278045741,-191475.51376852943,10.5,10499808524.48623,47.655,-122.3035,60.0,6.083333333333333
2026-01-20T23:06:06+00:00,SAT-53538,2.5580527975718663,48.05517620380325,1038.4273530749792,5.485014505711753,-192108.40957838044,10.5,10499807891.590422,47.655,-122.3035,60.0,6.1
2026-01-20T23:06:07+00:00,SAT-53538,2.5045154617534027,47.790787738314165,1043.8977408753424,5.502795890574788,-192731.1888914673,10.5,10499807268.811108,47.655,-122.3035,60.0,6.116666666666666
2026-01-20T23:06:08+00:00,SAT-53538,2.4516601302547207,47.528878247126684,1049.3858626435422,5.520293480172195,-193344.0284938991,10.5,10499806655.971506,47.655,-122.3035,60.0,6.133333333333334
2026-01-20T23:06:09+00:00,SAT-53538,2.3994663491888923,47.269417220727135,1054.8914353411008,5.537512272430941,-193947.10343421943,10.5,10499806052.896566,47.655,-122.3035,60.0,6.15
2026-01-20T23:06:10+00:00,SAT-53538,2.347914475913714,47.01237444150122,1060.4141809141383,5.554457130082263,-194540.5840258455,10.5,10499805459.415974,47.655,-122.3035,60.0,6.166666666666667
2026-01-20T23:06:11+00:00,SAT-53538,2.2969856396168904,46.75771999035673,1065.9538261585406,5.571132852214812,-195124.63835316207,10.5,10499804875.361647,47.655,-122.3035,60.0,6.183333333333334
2026-01-20T23:06:12+00:00,SAT-53538,2.246661703659076,46.5054242494473,1071.5101026564828,5.587544170369117,-195699.4321347328,10.5,10499804300.567865,47.655,-122.3035,60.0,6.2
2026-01-20T23:06:13+00:00,SAT-53538,2.1969252301198527,46.25545790470542,1077.0827467090642,5.6036957358145525,-196265.12827768605,10.5,10499803734.871723,47.655,-122.3035,60.0,6.216666666666667
2026-01-20T23:06:14+00:00,SAT-53538,2.1477594464936804,46.00779194857253,1082.67149925625,5.619592104952761,-196821.88636648087,10.5,10499803178.113634,47.655,-122.3035,60.0,6.233333333333333
2026-01-20T23:06:15+00:00,SAT-53538,2.0991482143504543,45.76239768299773,1088.2761057822563,5.635237740710684,-197369.862711697,10.5,10499802630.13729,47.655,-122.3035,60.0,6.25
2026-01-20T23:06:16+00:00,SAT-53538,2.05107599978787,45.5192467219631,1093.896316222325,5.650637066258246,-197909.21223145505,10.5,10499802090.78777,47.655,-122.3035,60.0,6.266666666666667
2026-01-20T23:06:17+00:00,SAT-53538,2.0035278451102925,45.27831099134204,1099.5318849230732,5.665794398086608,-198440.08610753441,10.5,10499801559.913893,47.655,-122.3035,60.0,6.283333333333333
2026-01-20T23:06:18+00:00,SAT-53538,1.9564893425809329,45.03956273139452,1105.1825705360982,5.680714010129126,-198962.63403115972,10.5,10499801037.365969,47.655,-122.3035,60.0,6.3
2026-01-20T23:06:19+00:00,SAT-53538,1.9099466091311033,44.80297449620749,1110.8481359755335,5.695400033239272,-199477.00068229318,10.5,10499800522.999317,47.655,-122.3035,60.0,6.316666666666666
2026-01-20T23:06:20+00:00,SAT-53538,1.863886263180033,44.56851915710724,1116.528348275351,5.7098566052042905,-199983.33098374694,10.5,10499800016.669016,47.655,-122.3035,60.0,6.333333333333333
2026-01-20T23:06:21+00:00,SAT-53538,1.8182954016280706,44.33616989952215,1122.2229785962747,5.72408773311001,-200481.7652806166,10.5,10499799518.23472,47.655,-122.3035,60.0,6.35
2026-01-20T23:06:22+00:00,SAT-53538,1.773161579064788,44.10590022537781,1127.9318020954297,5.738097374549782,-200972.44218456192,10.5,10499799027.557816,47.655,-122.3035,60.0,6.366666666666666
2026-01-20T23:06:23+00:00,SAT-53538,1.7284727874793315,43.877683951897914,1133.6545978769807,5.751889416783154,-201455.4978438554,10.5,10499798544.502155,47.655,-122.3035,60.0,6.383333333333334
2026-01-20T23:06:24+00:00,SAT-53538,1.6842174372357175,43.651495211073915,1139.3911489219859,5.765467659993715,-201931.0653570011,10.5,10499798068.934643,47.655,-122.3035,60.0,6.4
2026-01-20T23:06:25+00:00,SAT-53538,1.6403843390775126,43.42730844963101,1145.1412420015529,5.778835846368787,-202399.27579122843,10.5,10499797600.724209,47.655,-122.3035,60.0,6.416666666666667
2026-01-20T23:06:26+00:00,SAT-53538,1.5969626869539395,43.20509842763077,1150.9046676189978,5.791997672634044,-202860.25862150762,10.5,10499797139.741379,47.655,-122.3035,60.0,6.433333333333334
2026-01-20T23:06:27+00:00,SAT-53538,1.553942041570212,42.98484021650034,1156.6812199645049,5.804956695241796,-203314.1384098424,10.5,10499796685.86159,47.655,-122.3035,60.0,6.45
2026-01-20T23:06:28+00:00,SAT-53538,1.5113123154405417,42.766509200528965,1162.470696775226,5.8177165016259424,-203761.04080334265,10.5,10499796238.959196,47.655,-122.3035,60.0,6.466666666666667
2026-01-20T23:06:29+00:00,SAT-53538,1.469063757570146,42.55008107168541,1168.272899366181,5.830280556183425,-204201.0871398438,10.5,10499795798.91286,47.655,-122.3035,60.0,6.483333333333333
2026-01-20T23:06:30+00:00,SAT-53538,1.42718693990406,42.33553183021902,1174.087632507548,5.842652226995662,-204634.39538380396,10.5,10499795365.604616,47.655,-122.3035,60.0,6.5
2026-01-20T23:06:31+00:00,SAT-53538,1.3856727442379404,42.12283778405748,1179.914704328605,5.854834909703556,-205061.0844649312,10.5,10499794938.915535,47.655,-122.3035,60.0,6.516666666666667
2026-01-20T23:06:32+00:00,SAT-53538,1.344512349074278,41.91197554354426,1185.753926345216,5.866831852025825,-205481.26813207276,10.5,10499794518.731869,47.655,-122.3035,60.0,6.533333333333333
2026-01-20T23:06:33+00:00,SAT-53538,1.3036972181216084,41.702922022579216,1191.605113312303,5.878646326371259,-205895.06099882675,10.5,10499794104.939001,47.655,-122.3035,60.0,6.55
2026-01-20T23:06:34+00:00,SAT-53538,1.2632190883906849,41.495654433373424,1197.4680832484707,5.890281418149695,-206302.57112929705,10.5,10499793697.428871,47.655,-122.3035,60.0,6.566666666666666
2026-01-20T23:06:35+00:00,SAT-53538,1.2230699600276311,41.2901502887425,1203.3426572495055,5.901740290578147,-206703.90931272373,10.5,10499793296.090687,47.655,-122.3035,60.0,6.583333333333333
2026-01-20T23:06:36+00:00,SAT-53538,1.1832420851833816,41.08638739487804,1209.2286595659752,5.913025961603326,-207099.18125036664,10.5,10499792900.81875,47.655,-122.3035,60.0,6.6
2026-01-20T23:06:37+00:00,SAT-53538,1.143727958615487,40.8843438520224,1215.1259174583477,5.924141428337983,-207488.491913792,10.5,10499792511.508087,47.655,-122.3035,60.0,6.616666666666666
2026-01-20T23:06:38+00:00,SAT-53538,1.1045203080803132,40.68399805067384,1221.03426117621,5.935089610639367,-207871.94356875168,10.5,10499792128.05643,47.655,-122.3035,60.0,6.633333333333334
2026-01-20T23:06:39+00:00,SAT-53538,1.0656120854603852,40.48532866973256,1226.9535238812211,5.9458733837864814,-208249.6369196788,10.5,10499791750.363081,47.655,-122.3035,60.0,6.65
2026-01-20T23:06:40+00:00,SAT-53538,1.0269964581448494,40.2883146734759,1232.883541602651,5.956495578557337,-208621.67111239347,10.5,10499791378.328888,47.655,-122.3035,60.0,6.666666666666667
2026-01-20T23:06:41+00:00,SAT-53538,0.988666800782242,40.0929353085319,1238.8241531929987,5.966958962095493,-208988.1430639682,10.5,10499791011.856936,47.655,-122.3035,60.0,6.683333333333334
2026-01-20T23:06:42+00:00,SAT-53538,0.9506166875446831,39.899170101467696,1244.7752002645286,5.977266244922983,-209349.14770835004,10.5,10499790650.852291,47.655,-122.3035,60.0,6.7
2026-01-20T23:06:43+00:00,SAT-53538,0.9128398846776055,39.70699885611136,1250.7365271327985,5.987420085331841,-209704.7781501706,10.5,10499790295.22185,47.655,-122.3035,60.0,6.716666666666667
2026-01-20T23:06:44+00:00,SAT-53538,0.875330343390576,39.516401650718514,1256.7079807645696,5.9974231011722585,-210055.12607761705,10.5,10499789944.873922,47.655,-122.3035,60.0,6.733333333333333
2026-01-20T23:06:45+00:00,SAT-53538,0.8380821929686949,39.32735883475724,1262.689410737472,6.007277856856134,-210400.28130724156,10.5,10499789599.718693,47.655,-122.3035,60.0,6.75
2026-01-20T23:06:46+00:00,SAT-53538,0.8010897343089043,39.13985102610427,1268.6806691867098,6.0169868665182005,-210740.33189467728,10.5,10499789259.668106,47.655,-122.3035,60.0,6.766666666666667
2026-01-20T23:06:47+00:00,SAT-53538,0.7643474336712373,38.95385910815144,1274.681610754917,6.026552603338048,-211075.36446113497,10.5,10499788924.635538,47.655,-122.3035,60.0,6.783333333333333
2026-01-20T23:06:48+00:00,SAT-53538,0.7278499167031176,38.76936422661256,1280.692092551313,6.0359774719476,-211405.4632269962,10.5,10499788594.536774,47.655,-122.3035,60.0,6.8
2026-01-20T23:06:49+00:00,SAT-53538,0.6915919628333093,38.58634778719763,1286.7119740833355,6.045263867658285,-211730.7120861993,10.5,10499788269.287914,47.655,-122.3035,60.0,6.816666666666666
2026-01-20T23:06:50+00:00,SAT-53538,0.6555684996347916,38.40479145147237,1292.7411172473467,6.054414099013929,-212051.19189371422,10.5,10499787948.808105,47.655,-122.3035,60.0,6.833333333333333
2026-01-20T23:06:51+00:00,SAT-53538,0.6197745977876457,38.22467713510511,1298.7793862420965,6.063430477483675,-212366.98360696784,10.5,10499787633.016394,47.655,-122.3035,60.0,6.85
2026-01-20T23:06:52+00:00,SAT-53538,0.5842054658560926,38.045987003408094,1304.82664757164,6.0723152187684954,-212678.1648291806,10.5,10499787321.83517,47.655,-122.3035,60.0,6.866666666666666
2026-01-20T23:06:53+00:00,SAT-53538,0.5488564457221967,37.8687034698668,1310.8827699498252,6.081070532561184,-212984.8129531412,10.5,10499787015.187046,47.655,-122.3035,60.0,6.883333333333334
2026-01-20T23:06:54+00:00,SAT-53538,0.5137230078236252,37.69280919200023,1316.9476242942997,6.0896985713711755,-213287.00336883505,10.5,10499786712.996632,47.655,-122.3035,60.0,6.9
2026-01-20T23:06:55+00:00,SAT-53538,0.4788007468011693,37.51828706877285,1323.0210836694807,6.098201472803087,-213584.81094421798,10.5,10499786415.189056,47.655,-122.3035,60.0,6.916666666666667
2026-01-20T23:06:56+00:00,SAT-53538,0.4440853771492464,37.3451202368076,1329.1030232716894,6.106581271355686,-213878.30693604273,10.5,10499786121.693064,47.655,-122.3035,60.0,6.933333333333334
2026-01-20T23:06:57+00:00,SAT-53538,0.4095727294505657,37.17329206915225,1335.1933203263216,6.114840062128126,-214167.56472354394,10.5,10499785832.435276,47.655,-122.3035,60.0,6.95
2026-01-20T23:06:58+00:00,SAT-53538,0.3752587460130681,37.002786169400245,1341.291854148284,6.122979796314583,-214452.65264579514,10.5,10499785547.347355,47.655,-122.3035,60.0,6.966666666666667
2026-01-20T23:06:59+00:00,SAT-53538,0.34113947761154867,36.833586371663245,1347.398505998475,6.131002450516165,-214733.63993172816,10.5,10499785266.360067,47.655,-122.3035,60.0,6.983333333333333
2026-01-20T23:07:00+00:00,SAT-53538,0.30721107961671945,36.66567673576501,1353.5131591091233,6.138909948823944,-215010.59397115122,10.5,10499784989.406029,47.655,-122.3035,60.0,7.0
2026-01-20T23:07:01+00:00,SAT-53538,0.27346980859945763,36.499041544683685,1359.635698631417,6.146704178239876,-215283.58085485492,10.5,10499784716.419146,47.655,-122.3035,60.0,7.016666666666667
2026-01-20T23:07:02+00:00,SAT-53538,0.23991201903657478,36.33366530159461,1365.7660115985148,6.1543869958338115,-215552.66562528076,10.5,10499784447.334375,47.655,-122.3035,60.0,7.033333333333333
2026-01-20T23:07:03+00:00,SAT-53538,0.20653416008097,36.16953272674977,1371.903986895693,6.161960202418208,-215817.91135449838,10.5,10499784182.088646,47.655,-122.3035,60.0,7.05
2026-01-20T23:07:04+00:00,SAT-53538,0.17333277261511562,36.00662875510366,1378.0495152042383,6.169425601867295,-216079.38122181376,10.5,10499783920.618778,47.655,-122.3035,60.0,7.066666666666666
2026-01-20T23:07:05+00:00,SAT-53538,0.14030448612743882,35.84493853238603,1384.2024890045004,6.176784927175415,-216337.13592401933,10.5,10499783662.864077,47.655,-122.3035,60.0,7.083333333333333
2026-01-20T23:07:06+00:00,SAT-53538,0.10744601604826229,35.68444741319274,1390.3628025052035,6.184039894491204,-216591.23556789957,10.5,10499783408.764433,47.655,-122.3035,60.0,7.1
2026-01-20T23:07:07+00:00,SAT-53538,0.07475416096690488,35.52514095766624,1396.5303516266426,6.191192214128682,-216841.74005588616,10.5,10499783158.259945,47.655,-122.3035,60.0,7.116666666666666
2026-01-20T23:07:08+00:00,SAT-53538,0.04222579987562844,35.367004927959485,1402.705033994867,6.1982434905539225,-217088.70558316773,10.5,10499782911.294416,47.655,-122.3035,60.0,7.133333333333334
2026-01-20T23:07:09+00:00,SAT-53538,0.009857889995565106,35.2100252873075,1408.886748836113,6.2051953872705985,-217332.1904126797,10.5,10499782667.809587,47.655,-122.3035,60.0,7.15
2026-01-20T23:07:10+00:00,SAT-53538,359.97764746393545,35.054188194900085,1415.0753970356839,6.212049479481233,-217572.24971467743,10.5,10499782427.750286,47.655,-122.3035,60.0,7.166666666666667
2026-01-20T23:07:11+00:00,SAT-53538,359.9455916276189,34.89948000458099,1421.2708810498866,6.2188073119747,-217808.93759420177,10.5,10499782191.062407,47.655,-122.3035,60.0,7.183333333333334
2026-01-20T23:07:12+00:00,SAT-53538,359.9136875580283,34.74588726208705,1427.4731048756962,6.22547044882707,-218042.3088318127,10.5,10499781957.691168,47.655,-122.3035,60.0,7.2
2026-01-20T23:07:13+00:00,SAT-53538,359.8819325008359,34.59339670110712,1433.681974069993,6.232040377705598,-218272.41553191034,10.5,10499781727.584469,47.655,-122.3035,60.0,7.216666666666667
2026-01-20T23:07:14+00:00,SAT-53538,359.85032376850614,34.44199524176817,1439.8973956733578,6.238518573325056,-218499.30934524405,10.5,10499781500.690655,47.655,-122.3035,60.0,7.233333333333333
2026-01-20T23:07:15+00:00,SAT-53538,359.81885873823194,34.2916699875796,1446.1192781971542,6.244906473164729,-218723.04061841892,10.5,10499781276.959381,47.655,-122.3035,60.0,7.25
2026-01-20T23:07:16+00:00,SAT-53538,359.78753485001766,34.14240822301232,1452.3475315863905,6.2512055144081184,-218943.6596876805,10.5,10499781056.340313,47.655,-122.3035,60.0,7.266666666666667
2026-01-20T23:07:17+00:00,SAT-53538,359.75634960471365,33.994197410233426,1458.5820672194268,6.257417091369375,-219161.2153878082,10.5,10499780838.784613,47.655,-122.3035,60.0,7.283333333333333
2026-01-20T23:07:18+00:00,SAT-53538,359.7253005622584,33.847025186919474,1464.8227978652192,6.263542562378145,-219375.75529325195,10.5,10499780624.244707,47.655,-122.3035,60.0,7.3
2026-01-20T23:07:19+00:00,SAT-53538,359.6943853400012,33.70087936392645,1471.0696376474311,6.269583265293743,-219587.32626150423,10.5,10499780412.673738,47.655,-122.3035,60.0,7.316666666666666
2026-01-20T23:07:20+00:00,SAT-53538,359.6636016109826,33.555747922634296,1477.3225020240172,6.275540551468472,-219795.97562263877,10.5,10499780204.024378,47.655,-122.3035,60.0,7.333333333333333
2026-01-20T23:07:21+00:00,SAT-53538,359.63294710216604,33.41161901155499,1483.5813078006818,6.281415682198084,-220001.74755256812,10.5,10499779998.252447,47.655,-122.3035,60.0,7.35
2026-01-20T23:07:22+00:00,SAT-53538,359.60241959313527,33.268480945390735,1489.845973041061,6.287209945071849,-220204.68714811502,10.5,10499779795.31285,47.655,-122.3035,60.0,7.366666666666666
2026-01-20T23:07:23+00:00,SAT-53538,359.5720169143883,33.12632220142072,1496.1164170929458,6.2929245701508405,-220404.83749122143,10.5,10499779595.162508,47.655,-122.3035,60.0,7.383333333333334
2026-01-20T23:07:24+00:00,SAT-53538,359.5417369459983,32.98513141787485,1502.3925605309096,6.298560815061978,-220602.24262930182,10.5,10499779397.75737,47.655,-122.3035,60.0,7.4
2026-01-20T23:07:25+00:00,SAT-53538,359.5115776160243,32.84489739040638,1508.6743251837981,6.304119832092449,-220796.94292032762,10.5,10499779203.05708,47.655,-122.3035,60.0,7.416666666666667
2026-01-20T23:07:26+00:00,SAT-53538,359.48153689945684,32.70560907160583,1514.9616340296716,6.309602839913873,-220988.98104733395,10.5,10499779011.018953,47.655,-122.3035,60.0,7.433333333333334
2026-01-20T23:07:27+00:00,SAT-53538,359.4516128165723,32.567255566693085,1521.2544112620124,6.315010985128491,-221178.39716918144,10.5,10499778821.60283,47.655,-122.3035,60.0,7.45
2026-01-20T23:07:28+00:00,SAT-53538,359.4218034318444,32.42982613236219,1527.552582217847,6.32034540595368,-221365.23115105732,10.5,10499778634.768848,47.655,-122.3035,60.0,7.466666666666667
2026-01-20T23:07:29+00:00,SAT-53538,359.39210685267574,32.293310174231955,1533.856073369385,6.325607223517678,-221549.52225961475,10.5,10499778450.477741,47.655,-122.3035,60.0,7.483333333333333
2026-01-20T23:07:30+00:00,SAT-53538,359.362521228188,32.157697244541254,1540.164812306973,6.330797523903408,-221731.3085340719,10.5,10499778268.691465,47.655,-122.3035,60.0,7.5
2026-01-20T23:07:31+00:00,SAT-53538,359.3330447481407,32.022977040263264,1546.4787277041462,6.3359173884589675,-221910.62784781316,10.5,10499778089.372152,47.655,-122.3035,60.0,7.516666666666667
2026-01-20T23:07:32+00:00,SAT-53538,359.303675641744,31.889139400609398,1552.7977493129026,6.340967885826445,-222087.5176292049,10.5,10499777912.48237,47.655,-122.3035,60.0,7.533333333333333
2026-01-20T23:07:33+00:00,SAT-53538,359.2744121765801,31.756174304747724,1559.1218079510336,6.345950020454952,-222262.0130583038,10.5,10499777737.986942,47.655,-122.3035,60.0,7.55
2026-01-20T23:07:34+00:00,SAT-53538,359.2452526577123,31.62407187064284,1565.4508354381005,6.350864850149807,-222434.15118392665,10.5,10499777565.848816,47.655,-122.3035,60.0,7.566666666666666
2026-01-20T23:07:35+00:00,SAT-53538,359.21619542642463,31.492822351457338,1571.78476464865,6.355713348405216,-222603.96610195836,10.5,10499777396.033897,47.655,-122.3035,60.0,7.583333333333333
2026-01-20T23:07:36+00:00,SAT-53538,359.1872388594801,31.362416134885112,1578.123529428126,6.360496519786417,-222771.49299652287,10.5,10499777228.507004,47.655,-122.3035,60.0,7.6
2026-01-20T23:07:37+00:00,SAT-53538,359.1583813680081,31.232843740107885,1584.4670646238596,6.365215318752748,-222936.7652968236,10.5,10499777063.234703,47.655,-122.3035,60.0,7.616666666666666
2026-01-20T23:07:38+00:00,SAT-53538,359.1296213967029,31.104095816476104,1590.8153060350958,6.369870688492759,-223099.8160373133,10.5,10499776900.183962,47.655,-122.3035,60.0,7.633333333333334
2026-01-20T23:07:39+00:00,SAT-53538,359.1009574229226,30.976163141414084,1597.1681904017528,6.374463564876132,-223260.67799610685,10.5,10499776739.322004,47.655,-122.3035,60.0,7.65
2026-01-20T23:07:40+00:00,SAT-53538,359.0723879557928,30.849036618291912,1603.5256553971226,6.3789948630387,-223419.38322513222,10.5,10499776580.616776,47.655,-122.3035,60.0,7.666666666666667
2026-01-20T23:07:41+00:00,SAT-53538,359.0439115354006,30.72270727460137,1609.887639607193,6.383465491630145,-223575.9635491448,10.5,10499776424.036451,47.655,-122.3035,60.0,7.683333333333334
2026-01-20T23:07:42+00:00,SAT-53538,359.0155267319387,30.59716625988661,1616.2540825241788,6.387876295608016,-223730.44856213217,10.5,10499776269.551437,47.655,-122.3035,60.0,7.7
2026-01-20T23:07:43+00:00,SAT-53538,358.9872321451265,30.47240484482961,1622.6249244829987,6.392228190136351,-223882.87031701006,10.5,10499776117.129683,47.655,-122.3035,60.0,7.716666666666667
2026-01-20T23:07:44+00:00,SAT-53538,358.9590264031123,30.348414417739544,1629.0001067312946,6.396522011099709,-224033.25808999152,10.5,10499775966.74191,47.655,-122.3035,60.0,7.733333333333333
2026-01-20T23:07:45+00:00,SAT-53538,358.9309081620021,30.2251864840182,1635.3795713503648,6.400758572662089,-224181.64039654372,10.5,10499775818.359604,47.655,-122.3035,60.0,7.75
2026-01-20T23:07:46+00:00,SAT-53538,358.90287610515844,30.102712664509514,1641.7632612334996,6.404938718868023,-224328.04679867646,10.5,10499775671.953201,47.655,-122.3035,60.0,7.766666666666667
