satellites_20260121_005943/SAT-47649.csv

timestamp,satellite,azimuth_deg,elevation_deg,distance_km,relative_velocity_kms,doppler_shift_hz,tx_freq_ghz,rx_freq_hz,ue_lat,ue_lon,ue_alt_m,time_minutes
2026-01-20T23:07:45+00:00,SAT-47649,212.26885939292652,30.13728227113607,1440.7331493382676,-6.06708601688508,212495.01605972135,10.5,10500212495.01606,47.655,-122.3035,60.0,7.75
2026-01-20T23:07:46+00:00,SAT-47649,212.2974188135255,30.30175576793844,1434.6822422174273,-6.0583238906450045,212188.12933503668,10.5,10500212188.129335,47.655,-122.3035,60.0,7.766666666666667
2026-01-20T23:07:47+00:00,SAT-47649,212.3265587689075,30.46737757502664,1428.6400738571574,-6.04944308881149,211877.0860890725,10.5,10500211877.086088,47.655,-122.3035,60.0,7.783333333333333
2026-01-20T23:07:48+00:00,SAT-47649,212.3562895934877,30.634160149995424,1422.6067626165827,-6.040441708392203,211561.81967098766,10.5,10500211561.819672,47.655,-122.3035,60.0,7.8
2026-01-20T23:07:49+00:00,SAT-47649,212.38662186654804,30.80211608847204,1416.5824287527462,-6.031317966192123,211242.26762574958,10.5,10500211242.267626,47.655,-122.3035,60.0,7.816666666666666
2026-01-20T23:07:50+00:00,SAT-47649,212.4175664203013,30.971258129079366,1410.5671943011307,-6.022069972439495,210918.3637655578,10.5,10500210918.363766,47.655,-122.3035,60.0,7.833333333333333
2026-01-20T23:07:51+00:00,SAT-47649,212.44913434702437,31.141599152173423,1404.561183181951,-6.01269578875744,210590.04020025453,10.5,10500210590.040201,47.655,-122.3035,60.0,7.85
2026-01-20T23:07:52+00:00,SAT-47649,212.48133700672648,31.31315218010702,1398.5645212486302,-6.003193485159535,210257.22933355154,10.5,10500210257.229334,47.655,-122.3035,60.0,7.866666666666666
2026-01-20T23:07:53+00:00,SAT-47649,212.51418603546472,31.485930379062797,1392.5773362794312,-5.993561087739257,209919.86203089272,10.5,10500209919.86203,47.655,-122.3035,60.0,7.883333333333334
2026-01-20T23:07:54+00:00,SAT-47649,212.54769335362516,31.659947059394508,1386.5997580212593,-5.983796584094216,209577.8678094339,10.5,10500209577.86781,47.655,-122.3035,60.0,7.9
2026-01-20T23:07:55+00:00,SAT-47649,212.58187117457038,31.835215676068692,1380.6319182280558,-5.9738979116437045,209231.17442887404,10.5,10500209231.174429,47.655,-122.3035,60.0,7.916666666666667
2026-01-20T23:07:56+00:00,SAT-47649,212.61673201350243,32.01174982870814,1374.6739507108434,-5.9638630036571465,208879.7095035661,10.5,10500208879.709503,47.655,-122.3035,60.0,7.933333333333334
2026-01-20T23:07:57+00:00,SAT-47649,212.65228869695932,32.189563262931266,1368.7259913418625,-5.95368973236347,208523.39850996665,10.5,10500208523.39851,47.655,-122.3035,60.0,7.95
2026-01-20T23:07:58+00:00,SAT-47649,212.68855437230022,32.36866986997396,1362.788178115452,-5.943375968868689,208162.16688520307,10.5,10500208162.166885,47.655,-122.3035,60.0,7.966666666666667
2026-01-20T23:07:59+00:00,SAT-47649,212.72554251794546,32.549083688034244,1356.8606511491669,-5.932919472492068,207795.93615115798,10.5,10500207795.936152,47.655,-122.3035,60.0,7.983333333333333
2026-01-20T23:08:00+00:00,SAT-47649,212.7632669532349,32.73081890021762,1350.943552795268,-5.922318060800959,207424.62986980836,10.5,10500207424.62987,47.655,-122.3035,60.0,8.0
2026-01-20T23:08:01+00:00,SAT-47649,212.80174184985103,32.91388983754537,1345.0370275826294,-5.911569452799583,207048.1681510334,10.5,10500207048.168152,47.655,-122.3035,60.0,8.016666666666667
2026-01-20T23:08:02+00:00,SAT-47649,212.84098174256678,33.098310977160644,1339.1412223150373,-5.900671354465731,206666.47064847167,10.5,10500206666.470648,47.655,-122.3035,60.0,8.033333333333333
2026-01-20T23:08:03+00:00,SAT-47649,212.88100154103304,33.28409694304303,1333.2562860841836,-5.8896213932280155,206279.45426463717,10.5,10500206279.454264,47.655,-122.3035,60.0,8.05
2026-01-20T23:08:04+00:00,SAT-47649,212.92181654151247,33.47126250460069,1327.382370348004,-5.878417216025349,205887.0365853772,10.5,10500205887.036585,47.655,-122.3035,60.0,8.066666666666666
2026-01-20T23:08:05+00:00,SAT-47649,212.9634424398195,33.65982257824981,1321.5196289112214,-5.867056384725743,205489.13221699625,10.5,10500205489.132217,47.655,-122.3035,60.0,8.083333333333334
2026-01-20T23:08:06+00:00,SAT-47649,213.00589534397213,33.84979222561542,1315.6682180101884,-5.85553646132502,205085.65577027525,10.5,10500205085.65577,47.655,-122.3035,60.0,8.1
2026-01-20T23:08:07+00:00,SAT-47649,213.04919178799582,34.041186654326985,1309.8282963127601,-5.843854890724154,204676.51775483834,10.5,10500204676.517756,47.655,-122.3035,60.0,8.116666666666667
2026-01-20T23:08:08+00:00,SAT-47649,213.09334874533403,34.23402121492119,1304.000025035078,-5.832009180760533,204261.63088460884,10.5,10500204261.630884,47.655,-122.3035,60.0,8.133333333333333
2026-01-20T23:08:09+00:00,SAT-47649,213.13838364426041,34.42831140347303,1298.1835678787995,-5.819996697410888,203840.90290495005,10.5,10500203840.902905,47.655,-122.3035,60.0,8.15
2026-01-20T23:08:10+00:00,SAT-47649,213.18431438220605,34.62407285741686,1292.3790911725816,-5.807814838505129,203414.2426768583,10.5,10500203414.242678,47.655,-122.3035,60.0,8.166666666666666
2026-01-20T23:08:11+00:00,SAT-47649,213.23115934213246,34.821321356937865,1286.5867638403126,-5.795460921865913,202981.55625913737,10.5,10500202981.55626,47.655,-122.3035,60.0,8.183333333333334
2026-01-20T23:08:12+00:00,SAT-47649,213.2789374086016,35.020072822539824,1280.806757480905,-5.782932208524874,202542.74772152933,10.5,10500202542.74772,47.655,-122.3035,60.0,8.2
2026-01-20T23:08:13+00:00,SAT-47649,213.32766798470325,35.220343313179924,1275.0392464249362,-5.770225976200538,202097.72171822164,10.5,10500202097.721718,47.655,-122.3035,60.0,8.216666666666667
2026-01-20T23:08:14+00:00,SAT-47649,213.3773710103289,35.42214902680378,1269.2844077180055,-5.757339346928974,201646.3774507437,10.5,10500201646.37745,47.655,-122.3035,60.0,8.233333333333333
2026-01-20T23:08:15+00:00,SAT-47649,213.42806697962192,35.62550629472753,1263.5424212760017,-5.744269521500751,201188.61687894058,10.5,10500201188.616879,47.655,-122.3035,60.0,8.25
2026-01-20T23:08:16+00:00,SAT-47649,213.4797769613289,35.83043158399515,1257.8134698065583,-5.731013587904009,200724.33801183917,10.5,10500200724.338013,47.655,-122.3035,60.0,8.266666666666667
2026-01-20T23:08:17+00:00,SAT-47649,213.53252261820626,36.03694149288032,1252.0977389215552,-5.717568570820241,200253.43664119972,10.5,10500200253.436642,47.655,-122.3035,60.0,8.283333333333333
2026-01-20T23:08:18+00:00,SAT-47649,213.58632622767564,36.24505274786373,1246.3954172002573,-5.7039314872408085,199775.80828944166,10.5,10500199775.808289,47.655,-122.3035,60.0,8.3
2026-01-20T23:08:19+00:00,SAT-47649,213.6412107039315,36.45478220239057,1240.7066961969824,-5.690099305209162,199291.34676462138,10.5,10500199291.346766,47.655,-122.3035,60.0,8.316666666666666
2026-01-20T23:08:20+00:00,SAT-47649,213.69719962055066,36.666146833963126,1235.0317704899203,-5.676068891286408,198799.94232045452,10.5,10500198799.94232,47.655,-122.3035,60.0,8.333333333333334
2026-01-20T23:08:21+00:00,SAT-47649,213.75431723354237,36.87916373900862,1229.370837782344,-5.6618371539831305,198301.48667990463,10.5,10500198301.48668,47.655,-122.3035,60.0,8.35
2026-01-20T23:08:22+00:00,SAT-47649,213.81258850687703,37.093850132819306,1223.7240988607716,-5.6474008473652315,197795.86615662937,10.5,10500197795.866158,47.655,-122.3035,60.0,8.366666666666667
2026-01-20T23:08:23+00:00,SAT-47649,213.8720391370179,37.310223341892744,1218.0917577489995,-5.632756759981319,197282.96827201653,10.5,10500197282.968271,47.655,-122.3035,60.0,8.383333333333333
2026-01-20T23:08:24+00:00,SAT-47649,213.93269558058554,37.52830080307011,1212.4740216737111,-5.617901592548449,196762.6774712215,10.5,10500196762.677471,47.655,-122.3035,60.0,8.4
2026-01-20T23:08:25+00:00,SAT-47649,213.99458508187624,37.748100057773044,1206.8711011520763,-5.602831979780667,196234.87588769497,10.5,10500196234.875887,47.655,-122.3035,60.0,8.416666666666666
2026-01-20T23:08:26+00:00,SAT-47649,214.05773570180568,37.969638746697015,1201.283210057575,-5.587544552728769,195699.44552658516,10.5,10500195699.445526,47.655,-122.3035,60.0,8.433333333333334
2026-01-20T23:08:27+00:00,SAT-47649,214.12217634890703,38.19293460662376,1195.7105656236536,-5.57203584213774,195156.26487990658,10.5,10500195156.26488,47.655,-122.3035,60.0,8.45
2026-01-20T23:08:28+00:00,SAT-47649,214.1879368105181,38.418005463084825,1190.1533885437616,-5.55630235589462,194605.2116390917,10.5,10500194605.21164,47.655,-122.3035,60.0,8.466666666666667
2026-01-20T23:08:29+00:00,SAT-47649,214.25504778633854,38.64486922568916,1184.6119029941494,-5.540340515300284,194046.1604629593,10.5,10500194046.160463,47.655,-122.3035,60.0,8.483333333333333
2026-01-20T23:08:30+00:00,SAT-47649,214.32354092266482,38.873543880495,1179.086336720223,-5.5241467496356735,193478.98628982378,10.5,10500193478.98629,47.655,-122.3035,60.0,8.5
2026-01-20T23:08:31+00:00,SAT-47649,214.3934488494435,39.1040474858219,1173.5769210285866,-5.507717373513629,192903.5600418377,10.5,10500192903.560041,47.655,-122.3035,60.0,8.516666666666667
2026-01-20T23:08:32+00:00,SAT-47649,214.46480521737666,39.33639816259836,1168.0838909014024,-5.491048686124045,192319.75210097674,10.5,10500192319.752102,47.655,-122.3035,60.0,8.533333333333333
2026-01-20T23:08:33+00:00,SAT-47649,214.5376447380676,39.57061408831186,1162.6074850117745,-5.474136889377965,191727.42944209964,10.5,10500191727.429441,47.655,-122.3035,60.0,8.55
2026-01-20T23:08:34+00:00,SAT-47649,214.61200322489736,39.80671348703561,1157.1479458207684,-5.456978183408673,191126.45897780076,10.5,10500191126.458979,47.655,-122.3035,60.0,8.566666666666666
2026-01-20T23:08:35+00:00,SAT-47649,214.68791763714805,40.04471462297973,1151.705519579182,-5.439568694185455,190516.7050231373,10.5,10500190516.705023,47.655,-122.3035,60.0,8.583333333333334
2026-01-20T23:08:36+00:00,SAT-47649,214.76542612516772,40.28463579044486,1146.2804564015144,-5.421904484357482,189898.0296754282,10.5,10500189898.029675,47.655,-122.3035,60.0,8.6
2026-01-20T23:08:37+00:00,SAT-47649,214.84456807783107,40.526495303620884,1140.8730103291152,-5.403981538868134,189270.29231040698,10.5,10500189270.29231,47.655,-122.3035,60.0,8.616666666666667
2026-01-20T23:08:38+00:00,SAT-47649,214.92538417198045,40.77031148509452,1135.483439407684,-5.38579585680531,188633.35279920805,10.5,10500188633.352798,47.655,-122.3035,60.0,8.633333333333333
2026-01-20T23:08:39+00:00,SAT-47649,215.0079164257144,41.016102657847085,1130.1120056731636,-5.3673433090198515,187987.06652156153,10.5,10500187987.06652,47.655,-122.3035,60.0,8.65
2026-01-20T23:08:40+00:00,SAT-47649,215.09220825196078,41.26388713018658,1124.7589752796343,-5.348619775805702,187331.28918793504,10.5,10500187331.289188,47.655,-122.3035,60.0,8.666666666666666
2026-01-20T23:08:41+00:00,SAT-47649,215.17830451687956,41.51368318618676,1119.4246184898975,-5.32962101832145,186665.87233617206,10.5,10500186665.872335,47.655,-122.3035,60.0,8.683333333333334
2026-01-20T23:08:42+00:00,SAT-47649,215.26625159897984,41.76550906947817,1114.1092097942915,-5.310342794831883,185990.66740276292,10.5,10500185990.667402,47.655,-122.3035,60.0,8.7
2026-01-20T23:08:43+00:00,SAT-47649,215.35609745310165,42.01938297160426,1108.8130279135792,-5.290780793739993,185305.52337734235,10.5,10500185305.523376,47.655,-122.3035,60.0,8.716666666666667
2026-01-20T23:08:44+00:00,SAT-47649,215.44789167641278,42.275323016466494,1103.5363558686226,-5.270930615154862,184610.28615711888,10.5,10500184610.286158,47.655,-122.3035,60.0,8.733333333333333
2026-01-20T23:08:45+00:00,SAT-47649,215.54168557734386,42.53334724291745,1098.2794810684413,-5.250787876115007,183904.80223224152,10.5,10500183904.802233,47.655,-122.3035,60.0,8.75
2026-01-20T23:08:46+00:00,SAT-47649,215.63753224989264,42.79347359154309,1093.0426952933294,-5.230348074240768,183188.9139103295,10.5,10500183188.91391,47.655,-122.3035,60.0,8.766666666666667
2026-01-20T23:08:47+00:00,SAT-47649,215.73548664916498,43.05571988384225,1087.8262948139534,-5.209606706918451,182462.46349080515,10.5,10500182462.463491,47.655,-122.3035,60.0,8.783333333333333
2026-01-20T23:08:48+00:00,SAT-47649,215.83560567298557,43.320103806214625,1082.6305803915868,-5.188559145502591,181725.2888589252,10.5,10500181725.288858,47.655,-122.3035,60.0,8.8
2026-01-20T23:08:49+00:00,SAT-47649,215.9379482452175,43.58664288655367,1077.4558574038056,-5.167200809864415,180977.2295992061,10.5,10500180977.229599,47.655,-122.3035,60.0,8.816666666666666
2026-01-20T23:08:50+00:00,SAT-47649,216.0425754068899,43.855354478540725,1072.3024357961006,-5.145526991021875,180218.12078317755,10.5,10500180218.120783,47.655,-122.3035,60.0,8.833333333333334
2026-01-20T23:08:51+00:00,SAT-47649,216.14955040841042,44.12625573572158,1067.1706302103883,-5.123532960261795,179447.79679130172,10.5,10500179447.796791,47.655,-122.3035,60.0,8.85
2026-01-20T23:08:52+00:00,SAT-47649,216.2589388088471,44.39936358985591,1062.0607600046872,-5.101213944506214,178666.09045019821,10.5,10500178666.09045,47.655,-122.3035,60.0,8.866666666666667
2026-01-20T23:08:53+00:00,SAT-47649,216.37080857993266,44.67469472670507,1056.9731492973663,-5.078565083721778,177872.83154094114,10.5,10500177872.831541,47.655,-122.3035,60.0,8.883333333333333
2026-01-20T23:08:54+00:00,SAT-47649,216.48523021455125,44.952265558083084,1051.9081270538675,-5.055581549429615,177067.8509497759,10.5,10500177067.85095,47.655,-122.3035,60.0,8.9
2026-01-20T23:08:55+00:00,SAT-47649,216.60227684380038,45.23209219884967,1046.8660270552366,-5.0322583679951505,176250.9744789813,10.5,10500176250.97448,47.655,-122.3035,60.0,8.916666666666666
2026-01-20T23:08:56+00:00,SAT-47649,216.72202435609353,45.514190432700545,1041.8471880428895,-5.00859061235466,175422.02956194425,10.5,10500175422.029562,47.655,-122.3035,60.0,8.933333333333334
2026-01-20T23:08:57+00:00,SAT-47649,216.84455152735657,45.79857568682177,1036.8519536721676,-4.984573261203193,174580.84033132525,10.5,10500174580.840332,47.655,-122.3035,60.0,8.95
2026-01-20T23:08:58+00:00,SAT-47649,216.96994015481337,46.08526299704384,1031.8806726063276,-4.960201269851463,173727.23010076644,10.5,10500173727.2301,47.655,-122.3035,60.0,8.966666666666667
2026-01-20T23:08:59+00:00,SAT-47649,217.09827519986956,46.374266975081575,1026.9336985398625,-4.935469537235016,172861.02020941325,10.5,10500172861.02021,47.655,-122.3035,60.0,8.983333333333333
2026-01-20T23:09:00+00:00,SAT-47649,217.22964493798708,46.66560177194828,1022.0113902547267,-4.910372955441775,171982.03175657822,10.5,10500171982.031757,47.655,-122.3035,60.0,9.0
2026-01-20T23:09:01+00:00,SAT-47649,217.36414111823274,46.95928104222097,1017.1141116271662,-4.884906346825046,171090.08339917273,10.5,10500171090.083399,47.655,-122.3035,60.0,9.016666666666667
2026-01-20T23:09:02+00:00,SAT-47649,217.5018591299541,47.2553179024499,1012.242231697266,-4.859064531054483,170184.9937001153,10.5,10500170184.9937,47.655,-122.3035,60.0,9.033333333333333
2026-01-20T23:09:03+00:00,SAT-47649,217.64289818076102,47.55372489126517,1007.3961246716276,-4.832842284399295,169266.5797022572,10.5,10500169266.579702,47.655,-122.3035,60.0,9.05
2026-01-20T23:09:04+00:00,SAT-47649,217.78736148336432,47.854513924667515,1002.5761699666533,-4.806234339463084,168334.6569190956,10.5,10500168334.65692,47.655,-122.3035,60.0,9.066666666666666
2026-01-20T23:09:05+00:00,SAT-47649,217.93535645303285,48.15769624869425,997.7827522520955,-4.779235439672376,167389.04124319213,10.5,10500167389.041243,47.655,-122.3035,60.0,9.083333333333334
2026-01-20T23:09:06+00:00,SAT-47649,218.08699491805868,48.463282392825036,993.0162614402623,-4.751840290939576,166429.54725320527,10.5,10500166429.547253,47.655,-122.3035,60.0,9.1
2026-01-20T23:09:07+00:00,SAT-47649,218.24239334089467,48.77128211757611,988.2770927234319,-4.724043534813983,165455.98727352516,10.5,10500165455.987274,47.655,-122.3035,60.0,9.116666666666667
2026-01-20T23:09:08+00:00,SAT-47649,218.4016730510799,49.08170435723569,983.5656466380441,-4.695839893972525,164468.1764699748,10.5,10500164468.17647,47.655,-122.3035,60.0,9.133333333333333
2026-01-20T23:09:09+00:00,SAT-47649,218.56496049687647,49.39455716894161,978.8823289837889,-4.667223974655166,163465.9259302622,10.5,10500163465.92593,47.655,-122.3035,60.0,9.15
2026-01-20T23:09:10+00:00,SAT-47649,218.7323875047113,49.70984766548676,974.2275509397327,-4.638190454216302,162449.0492328235,10.5,10500162449.049232,47.655,-122.3035,60.0,9.166666666666666
2026-01-20T23:09:11+00:00,SAT-47649,218.9040915607518,50.02758195692855,969.6017289933943,-4.608733945863721,161417.35770940932,10.5,10500161417.35771,47.655,-122.3035,60.0,9.183333333333334
2026-01-20T23:09:12+00:00,SAT-47649,219.08021610419115,50.34776507941947,965.0052850047197,-4.578849124946891,160370.66486823477,10.5,10500160370.664867,47.655,-122.3035,60.0,9.2
2026-01-20T23:09:13+00:00,SAT-47649,219.26091084302655,50.67040092866938,960.438646144106,-4.548530612033256,159308.7822988168,10.5,10500159308.782299,47.655,-122.3035,60.0,9.216666666666667
2026-01-20T23:09:14+00:00,SAT-47649,219.44633208418273,50.995492181127254,955.902244947038,-4.5177730518539505,158231.52243698697,10.5,10500158231.522436,47.655,-122.3035,60.0,9.233333333333333
2026-01-20T23:09:15+00:00,SAT-47649,219.6366430868082,51.323040216097404,951.396519289989,-4.486571132631267,157138.6992418212,10.5,10500157138.699242,47.655,-122.3035,60.0,9.25
2026-01-20T23:09:16+00:00,SAT-47649,219.83201443802218,51.65304503461596,946.9219123470448,-4.4549195228083525,156030.1259796459,10.5,10500156030.12598,47.655,-122.3035,60.0,9.266666666666667
2026-01-20T23:09:17+00:00,SAT-47649,220.0326244489123,51.98550516871464,942.4788726096306,-4.422812933376889,154905.61740701742,10.5,10500154905.617407,47.655,-122.3035,60.0,9.283333333333333
2026-01-20T23:09:18+00:00,SAT-47649,220.23865957770386,52.32041758982722,938.067853844076,-4.390246096408245,153764.98901879173,10.5,10500153764.98902,47.655,-122.3035,60.0,9.3
2026-01-20T23:09:19+00:00,SAT-47649,220.45031487813043,52.657777609943686,933.6893150705915,-4.357213787125336,152608.0578211745,10.5,10500152608.057821,47.655,-122.3035,60.0,9.316666666666666
2026-01-20T23:09:20+00:00,SAT-47649,220.66779447681824,52.99757877838179,929.3437205202318,-4.3237108276074085,151434.64246147842,10.5,10500151434.642462,47.655,-122.3035,60.0,9.333333333333334
2026-01-20T23:09:21+00:00,SAT-47649,220.8913120806998,53.33981277244459,925.0315395881647,-4.289732058823225,150244.5622486069,10.5,10500150244.562248,47.655,-122.3035,60.0,9.35
2026-01-20T23:09:22+00:00,SAT-47649,221.12109151479834,53.68446927896988,920.7532468148318,-4.255272393525688,149037.63900564745,10.5,10500149037.639006,47.655,-122.3035,60.0,9.366666666666667
2026-01-20T23:09:23+00:00,SAT-47649,221.35736729665527,54.03153587268789,916.5093218143554,-4.220326823166032,147813.69731203624,10.5,10500147813.697311,47.655,-122.3035,60.0,9.383333333333333
2026-01-20T23:09:24+00:00,SAT-47649,221.60038524764693,54.38099788745885,912.3002491960511,-4.184890381404928,146572.56322556233,10.5,10500146572.563225,47.655,-122.3035,60.0,9.4
2026-01-20T23:09:25+00:00,SAT-47649,221.8504031409439,54.73283827619326,908.12651852233,-4.148958159916839,145314.0648359033,10.5,10500145314.064837,47.655,-122.3035,60.0,9.416666666666666
2026-01-20T23:09:26+00:00,SAT-47649,222.1076913914402,55.08703746301005,903.9886242508396,-4.112525400015822,144038.03547374808,10.5,10500144038.035473,47.655,-122.3035,60.0,9.433333333333334
2026-01-20T23:09:27+00:00,SAT-47649,222.37253379555045,55.44357319373368,899.8870655852238,-4.075587360315862,142744.30907570248,10.5,10500142744.309076,47.655,-122.3035,60.0,9.45
2026-01-20T23:09:28+00:00,SAT-47649,222.6452283097454,55.802420364944396,895.8223464578688,-4.03813944644482,141432.72472741996,10.5,10500141432.724728,47.655,-122.3035,60.0,9.466666666666667
2026-01-20T23:09:29+00:00,SAT-47649,222.92608788729066,56.16355085321425,891.7949753832811,-4.00017714170877,140103.1242351737,10.5,10500140103.124235,47.655,-122.3035,60.0,9.483333333333333
2026-01-20T23:09:30+00:00,SAT-47649,223.21544136380996,56.52693332666686,887.805465380617,-3.961696065060443,138755.35415615645,10.5,10500138755.354156,47.655,-122.3035,60.0,9.5
2026-01-20T23:09:31+00:00,SAT-47649,223.51363440343826,56.89253304911647,883.8543338383967,-3.9226919614626063,137389.26546096554,10.5,10500137389.265461,47.655,-122.3035,60.0,9.516666666666667
2026-01-20T23:09:32+00:00,SAT-47649,223.8210305047308,57.260311669996945,879.9421023888314,-3.8831606931811242,136004.71322864902,10.5,10500136004.713228,47.655,-122.3035,60.0,9.533333333333333
2026-01-20T23:09:33+00:00,SAT-47649,224.13801206968566,57.63022699897864,876.0692967908319,-3.843098283541533,134601.55817924577,10.5,10500134601.55818,47.655,-122.3035,60.0,9.55
2026-01-20T23:09:34+00:00,SAT-47649,224.46498154396608,58.002232769168145,872.2364467693799,-3.8025008902158675,133179.6657381775,10.5,10500133179.66574,47.655,-122.3035,60.0,9.566666666666666
2026-01-20T23:09:35+00:00,SAT-47649,224.80236262657291,58.376278381088476,868.444085881538,-3.761364867163595,131738.90820568192,10.5,10500131738.908205,47.655,-122.3035,60.0,9.583333333333334
2026-01-20T23:09:36+00:00,SAT-47649,225.15060156064945,58.752308634758016,864.6927513206867,-3.719686710275865,130279.16285304478,10.5,10500130279.162853,47.655,-122.3035,60.0,9.6
2026-01-20T23:09:37+00:00,SAT-47649,225.51016849914188,59.13026343714628,860.9829837749717,-3.6774631135163793,128800.31388889038,10.5,10500128800.313889,47.655,-122.3035,60.0,9.616666666666667
2026-01-20T23:09:38+00:00,SAT-47649,225.88155895921167,59.51007749435182,857.315327229758,-3.6346909723008043,127302.25257754298,10.5,10500127302.252577,47.655,-122.3035,60.0,9.633333333333333
2026-01-20T23:09:39+00:00,SAT-47649,226.2652953647724,59.89167998182517,853.6903287667167,-3.5913673819548313,125784.87718502153,10.5,10500125784.877186,47.655,-122.3035,60.0,9.65
2026-01-20T23:09:40+00:00,SAT-47649,226.66192868026602,60.2749941903259,850.1085383644471,-3.5474896464394186,124248.0932846346,10.5,10500124248.093285,47.655,-122.3035,60.0,9.666666666666666
2026-01-20T23:09:41+00:00,SAT-47649,227.072040139831,60.65993714672289,846.5705086903982,-3.50305531677831,122691.81510287446,10.5,10500122691.815104,47.655,-122.3035,60.0,9.683333333333334
2026-01-20T23:09:42+00:00,SAT-47649,227.49624307853108,61.04641921093356,843.0767948544645,-3.4580621688578455,121115.96474187277,10.5,10500121115.964743,47.655,-122.3035,60.0,9.7
2026-01-20T23:09:43+00:00,SAT-47649,227.93518486099927,61.434343640300355,839.6279541847236,-3.412508248018547,119520.47374118645,10.5,10500119520.473742,47.655,-122.3035,60.0,9.716666666666667
2026-01-20T23:09:44+00:00,SAT-47649,228.38954891689295,61.82360612639777,836.2245459586999,-3.3663918309334284,117905.28174261475,10.5,10500117905.281742,47.655,-122.3035,60.0,9.733333333333333
2026-01-20T23:09:45+00:00,SAT-47649,228.8600568728164,62.214094292497094,832.8671311726489,-3.3197115070935377,116270.33934416772,10.5,10500116270.339344,47.655,-122.3035,60.0,9.75
2026-01-20T23:09:46+00:00,SAT-47649,229.3474707954992,62.60568716268583,829.5562722295742,-3.272466132017434,114615.60646126413,10.5,10500114615.60646,47.655,-122.3035,60.0,9.766666666666667
2026-01-20T23:09:47+00:00,SAT-47649,229.852595525826,62.99825458521057,826.2925326739089,-3.224654855034416,112941.05329981772,10.5,10500112941.053299,47.655,-122.3035,60.0,9.783333333333333
2026-01-20T23:09:48+00:00,SAT-47649,230.3762811078132,63.39165661549908,823.0764768984878,-3.17627715202163,111246.66150282913,10.5,10500111246.661503,47.655,-122.3035,60.0,9.8
2026-01-20T23:09:49+00:00,SAT-47649,230.91942530535187,63.785742856601395,819.9086698188717,-3.1273328131348808,109532.42372066695,10.5,10500109532.423721,47.655,-122.3035,60.0,9.816666666666666
2026-01-20T23:09:50+00:00,SAT-47649,231.48297618712394,64.18035174840497,816.7896765599052,-3.0778219513741645,107798.34391106905,10.5,10500107798.34391,47.655,-122.3035,60.0,9.833333333333334
2026-01-20T23:09:51+00:00,SAT-47649,232.06793476481647,64.57530980464345,813.7200621337347,-3.0277450546445617,106044.43916253523,10.5,10500106044.439163,47.655,-122.3035,60.0,9.85
2026-01-20T23:09:52+00:00,SAT-47649,232.6753576702955,64.97043080009564,810.7003910659024,-2.97710292835904,104270.73768403447,10.5,10500104270.737684,47.655,-122.3035,60.0,9.866666666666667
2026-01-20T23:09:53+00:00,SAT-47649,233.30635982006544,65.36551489049911,807.7312270786857,-2.925896782463718,102477.28185299791,10.5,10500102477.281853,47.655,-122.3035,60.0,9.883333333333333
2026-01-20T23:09:54+00:00,SAT-47649,233.96211705619817,65.76034768067079,804.8131326876419,-2.87412819266197,100664.12685722296,10.5,10500100664.126858,47.655,-122.3035,60.0,9.9
2026-01-20T23:09:55+00:00,SAT-47649,234.64386868918848,66.15469922150417,801.946668836827,-2.8217990991034725,98831.3406489581,10.5,10500098831.340649,47.655,-122.3035,60.0,9.916666666666666
2026-01-20T23:09:56+00:00,SAT-47649,235.35291988585573,66.54832293771081,799.1323945353212,-2.7689118950815113,96979.00705145781,10.5,10500096979.007051,47.655,-122.3035,60.0,9.933333333333334
2026-01-20T23:09:57+00:00,SAT-47649,236.0906438480808,66.94095449694078,796.3708664052932,-2.715469344097616,95107.22285423527,10.5,10500095107.222855,47.655,-122.3035,60.0,9.95
2026-01-20T23:09:58+00:00,SAT-47649,236.8584836449628,67.3323105951888,793.6626383127798,-2.6614746378437175,93216.09984384275,10.5,10500093216.099844,47.655,-122.3035,60.0,9.966666666666667
2026-01-20T23:09:59+00:00,SAT-47649,237.65795361526773,67.72208767765667,791.0082609406371,-2.6069314095951386,91305.76527295077,10.5,10500091305.765272,47.655,-122.3035,60.0,9.983333333333333
2026-01-20T23:10:00+00:00,SAT-47649,238.490640189747,68.10996059040497,788.4082813481342,-2.551843724391783,89376.36151645189,10.5,10500089376.361517,47.655,-122.3035,60.0,10.0
2026-01-20T23:10:01+00:00,SAT-47649,239.35820195596347,68.49558116246487,785.8632425403407,-2.496216084596032,87428.04626612166,10.5,10500087428.046267,47.655,-122.3035,60.0,10.016666666666667
2026-01-20T23:10:02+00:00,SAT-47649,240.2623687666052,68.8785767261722,783.3736830319702,-2.440053478981689,85460.99424992118,10.5,10500085460.99425,47.655,-122.3035,60.0,10.033333333333333
2026-01-20T23:10:03+00:00,SAT-47649,241.20493966893787,69.25854859137257,780.9401363622659,-2.383361313438469,83475.39480497512,10.5,10500083475.394806,47.655,-122.3035,60.0,10.05
2026-01-20T23:10:04+00:00,SAT-47649,242.1877793319485,69.63507046801352,778.5631306789966,-2.3261455095422385,81471.45532991862,10.5,10500081471.45533,47.655,-122.3035,60.0,10.066666666666666
2026-01-20T23:10:05+00:00,SAT-47649,243.2128127099036,70.00768688084173,776.2431882241465,-2.2684124258575675,79449.3985285796,10.5,10500079449.39853,47.655,-122.3035,60.0,10.083333333333334
2026-01-20T23:10:06+00:00,SAT-47649,244.28201750227458,70.37591157222894,773.9808248980912,-2.210168928139266,77409.4648687336,10.5,10500077409.464869,47.655,-122.3035,60.0,10.1
2026-01-20T23:10:07+00:00,SAT-47649,245.39741405155894,70.73922594754148,771.7765497537604,-2.1514223421356706,75351.91092907527,10.5,10500075351.910929,47.655,-122.3035,60.0,10.116666666666667
2026-01-20T23:10:08+00:00,SAT-47649,246.56105216246314,71.0970775837735,769.6308645378703,-2.0921805034406784,73277.01114524744,10.5,10500073277.011145,47.655,-122.3035,60.0,10.133333333333333
2026-01-20T23:10:09+00:00,SAT-47649,247.7749943823141,71.44887886676648,767.5442631824388,-2.0324517320074205,71185.05691720208,10.5,10500071185.056917,47.655,-122.3035,60.0,10.15
2026-01-20T23:10:10+00:00,SAT-47649,249.04129517017583,71.79400580573093,765.5172313217168,-1.972244826105016,69076.35639754042,10.5,10500069076.356398,47.655,-122.3035,60.0,10.166666666666666
2026-01-20T23:10:11+00:00,SAT-47649,250.36197541080094,72.13179710191065,763.550245815148,-1.9115690907438163,66951.2354870851,10.5,10500066951.235487,47.655,-122.3035,60.0,10.183333333333334
2026-01-20T23:10:12+00:00,SAT-47649,251.7389917603755,72.4615535652967,761.6437742419796,-1.8504343271876498,64810.03746755472,10.5,10500064810.037468,47.655,-122.3035,60.0,10.2
2026-01-20T23:10:13+00:00,SAT-47649,253.17420031604985,72.78253797543135,759.798274406331,-1.7888508120398214,62653.122269066975,10.5,10500062653.122269,47.655,-122.3035,60.0,10.216666666666667
2026-01-20T23:10:14+00:00,SAT-47649,254.66931421066752,73.09397550172362,758.0141938631233,-1.7268293170466542,60480.867163742565,10.5,10500060480.867165,47.655,-122.3035,60.0,10.233333333333333
2026-01-20T23:10:15+00:00,SAT-47649,256.22585493866194,73.39505482141062,756.2919694242554,-1.664381103662081,58293.66657533409,10.5,10500058293.666574,47.655,-122.3035,60.0,10.25
2026-01-20T23:10:16+00:00,SAT-47649,257.8450974150667,73.68493007316395,754.6320266702032,-1.601517911731114,56091.931682873415,10.5,10500056091.931683,47.655,-122.3035,60.0,10.266666666666667
2026-01-20T23:10:17+00:00,SAT-47649,259.5280091083971,73.9627237943162,753.0347794729033,-1.5382519543546658,53876.09024081583,10.5,10500053876.09024,47.655,-122.3035,60.0,10.283333333333333
2026-01-20T23:10:18+00:00,SAT-47649,261.2751840295599,74.22753099214565,751.5006295237603,-1.4745959075865356,51646.58621818506,10.5,10500051646.586218,47.655,-122.3035,60.0,10.3
2026-01-20T23:10:19+00:00,SAT-47649,263.08677287635066,74.4784244884512,750.0299658719273,-1.4105629196831382,49403.88012253781,10.5,10500049403.880123,47.655,-122.3035,60.0,10.316666666666666
2026-01-20T23:10:20+00:00,SAT-47649,264.9624112814653,74.71446165962331,748.6231644533633,-1.3461665757556749,47148.44776193331,10.5,10500047148.447762,47.655,-122.3035,60.0,10.333333333333334
2026-01-20T23:10:21+00:00,SAT-47649,266.9011487078836,74.93469264711543,747.280587655143,-1.2814209117136492,44880.780733294225,10.5,10500044880.780733,47.655,-122.3035,60.0,10.35
2026-01-20T23:10:22+00:00,SAT-47649,268.90138134044184,75.13817007640317,746.0025838658606,-1.2163403848670244,42601.38539276981,10.5,10500042601.385393,47.655,-122.3035,60.0,10.366666666666667
2026-01-20T23:10:23+00:00,SAT-47649,270.9607928323106,75.32396023563037,744.7894870553532,-1.1509398679828446,40310.78264757371,10.5,10500040310.782648,47.655,-122.3035,60.0,10.383333333333333
2026-01-20T23:10:24+00:00,SAT-47649,273.07630733291467,75.4911555888535,743.6416163603517,-1.085234644261358,38009.50778002647,10.5,10500038009.50778,47.655,-122.3035,60.0,10.4
2026-01-20T23:10:25+00:00,SAT-47649,275.2440594271348,75.63888839324177,742.5592756751416,-1.0192403740466034,35698.10928161954,10.5,10500035698.109282,47.655,-122.3035,60.0,10.416666666666666
2026-01-20T23:10:26+00:00,SAT-47649,277.45938541951966,75.7663450771227,741.5427532754259,-0.9529730917894168,33377.148746646846,10.5,10500033377.148746,47.655,-122.3035,60.0,10.433333333333334
2026-01-20T23:10:27+00:00,SAT-47649,279.71683992214037,75.87278093811852,740.5923214452146,-0.8864491899720593,31047.2003091773,10.5,10500031047.20031,47.655,-122.3035,60.0,10.45
2026-01-20T23:10:28+00:00,SAT-47649,282.0102405572304,75.95753462104128,739.708236119749,-0.8196853886343429,28708.849575730823,10.5,10500028708.849575,47.655,-122.3035,60.0,10.466666666666667
2026-01-20T23:10:29+00:00,SAT-47649,284.3327420068783,76.02004177000697,738.8907365588178,-0.7526987300387202,26362.693438427203,10.5,10500026362.693438,47.655,-122.3035,60.0,10.483333333333333
2026-01-20T23:10:30+00:00,SAT-47649,286.67693880424827,76.05984722614387,738.1400450253924,-0.6855065505174515,24009.339088954803,10.5,10500024009.339088,47.655,-122.3035,60.0,10.5
2026-01-20T23:10:31+00:00,SAT-47649,289.0349939850767,76.0766151578678,737.456366492343,-0.6181264577711886,21649.403223470952,10.5,10500021649.403223,47.655,-122.3035,60.0,10.516666666666667
2026-01-20T23:10:32+00:00,SAT-47649,291.3987886510871,76.0701365879864,736.8398883717927,-0.5505763199564812,19283.511660400247,10.5,10500019283.51166,47.655,-122.3035,60.0,10.533333333333333
2026-01-20T23:10:33+00:00,SAT-47649,293.76008569802093,76.04033390419166,736.290780255356,-0.48287422758771625,16912.298006079327,10.5,10500016912.298006,47.655,-122.3035,60.0,10.55
2026-01-20T23:10:34+00:00,SAT-47649,296.1106995123816,75.98726210436861,735.8091936923752,-0.41503848486968486,14536.403351186676,10.5,10500014536.40335,47.655,-122.3035,60.0,10.566666666666666
2026-01-20T23:10:35+00:00,SAT-47649,298.44266309537164,75.91110671753746,735.3952619767985,-0.3470875738626244,12156.475015650849,10.5,10500012156.475016,47.655,-122.3035,60.0,10.583333333333334
2026-01-20T23:10:36+00:00,SAT-47649,300.7483840870211,75.81217853832757,735.0490999697995,-0.27904013780943443,9773.165964699023,10.5,10500009773.165964,47.655,-122.3035,60.0,10.6
2026-01-20T23:10:37+00:00,SAT-47649,303.02078239415516,75.69090549054542,734.7708039390242,-0.21091495152818993,7387.13377187759,10.5,10500007387.133772,47.655,-122.3035,60.0,10.616666666666667
2026-01-20T23:10:38+00:00,SAT-47649,305.25340362762364,75.5478220859119,734.5604514273667,-0.1427308977232561,4999.03978936718,10.5,10500004999.03979,47.655,-122.3035,60.0,10.633333333333333
2026-01-20T23:10:39+00:00,SAT-47649,307.4405046952106,75.38355704353205,734.4181011453708,-0.07450694055366741,2609.5482222354894,10.5,10500002609.548222,47.655,-122.3035,60.0,10.65
2026-01-20T23:10:40+00:00,SAT-47649,309.5771100314377,75.19881968681113,734.3437928899918,-0.006262099596901678,219.3252165385282,10.5,10500000219.325216,47.655,-122.3035,60.0,10.666666666666666
2026-01-20T23:10:41+00:00,SAT-47649,311.6590390077366,74.99438573360548,734.3375474893272,0.061984576473473156,-2170.962062599547,10.5,10499997829.037937,47.655,-122.3035,60.0,10.683333333333334
2026-01-20T23:10:42+00:00,SAT-47649,313.6829067870244,74.77108305116732,734.3993667735969,0.1302140371328258,-4560.646385222509,10.5,10499995439.353615,47.655,-122.3035,60.0,10.7
2026-01-20T23:10:43+00:00,SAT-47649,315.64610218007664,74.52977786741549,734.5292335732972,0.19840725494507608,-6949.061330032855,10.5,10499993050.93867,47.655,-122.3035,60.0,10.716666666666667
2026-01-20T23:10:44+00:00,SAT-47649,317.5467467663873,74.27136184016634,734.7271117422292,0.26654525269299084,-9335.542234609531,10.5,10499990664.457766,47.655,-122.3035,60.0,10.733333333333333
2026-01-20T23:10:45+00:00,SAT-47649,319.3836399589047,73.99674026732417,734.9929462075817,0.3346091318782592,-11719.42719360112,10.5,10499988280.572807,47.655,-122.3035,60.0,10.75
2026-01-20T23:10:46+00:00,SAT-47649,321.1561944999588,73.70682162706127,735.3266630484416,0.4025800926160093,-14100.057755515978,10.5,10499985899.942244,47.655,-122.3035,60.0,10.766666666666667
2026-01-20T23:10:47+00:00,SAT-47649,322.86436648658,73.40250854628586,735.728169594144,0.4704394687747753,-16476.780153472508,10.5,10499983523.219847,47.655,-122.3035,60.0,10.783333333333333
2026-01-20T23:10:48+00:00,SAT-47649,324.50858354800846,73.08469019894821,736.1973545576686,0.5381687399223295,-18848.94572359275,10.5,10499981151.054276,47.655,-122.3035,60.0,10.8
2026-01-20T23:10:49+00:00,SAT-47649,326.08967394519397,72.75423610357512,736.7340881809512,0.6057495732783351,-21215.912374361727,10.5,10499978784.087626,47.655,-122.3035,60.0,10.816666666666666
2026-01-20T23:10:50+00:00,SAT-47649,327.6087988884143,72.41199120711872,737.3382224220342,0.6731638295920351,-23577.04479248897,10.5,10499976422.955208,47.655,-122.3035,60.0,10.833333333333334
2026-01-20T23:10:51+00:00,SAT-47649,329.06738949634337,72.0587721560508,738.0095911480805,0.7403936008400883,-25931.71576324621,10.5,10499974068.284237,47.655,-122.3035,60.0,10.85
2026-01-20T23:10:52+00:00,SAT-47649,330.4670894667805,71.6953645980245,738.7480103659851,0.8074212278349875,-28279.30678718865,10.5,10499971720.693213,47.655,-122.3035,60.0,10.866666666666667
2026-01-20T23:10:53+00:00,SAT-47649,331.8097039062089,71.32252138330091,739.5532784705458,0.8742293172560109,-30619.20867665095,10.5,10499969380.791323,47.655,-122.3035,60.0,10.883333333333333
2026-01-20T23:10:54+00:00,SAT-47649,333.0971544643632,70.94096152494758,740.4251765096225,0.94080077746093,-32950.82281002468,10.5,10499967049.17719,47.655,-122.3035,60.0,10.9
2026-01-20T23:10:55+00:00,SAT-47649,334.33144066230943,70.5513697779357,741.3634684850102,1.007118815108506,-35273.5610134639,10.5,10499964726.438986,47.655,-122.3035,60.0,10.916666666666666
2026-01-20T23:10:56+00:00,SAT-47649,335.51460702701127,70.15439673348574,742.3679016499451,1.0731669812021856,-37586.84717353012,10.5,10499962413.152826,47.655,-122.3035,60.0,10.933333333333334
2026-01-20T23:10:57+00:00,SAT-47649,336.64871564780617,69.75065930115265,743.4382068525307,1.1389291736707137,-39890.117327576314,10.5,10499960109.882673,47.655,-122.3035,60.0,10.95
2026-01-20T23:10:58+00:00,SAT-47649,337.7358235737394,69.3407415038604,744.5740988817382,1.2043896537796934,-42182.8202385491,10.5,10499957817.179762,47.655,-122.3035,60.0,10.966666666666667
2026-01-20T23:10:59+00:00,SAT-47649,338.7779645278226,68.92519550025133,745.7752768297746,1.269533069448581,-44464.4182116486,10.5,10499955535.581789,47.655,-122.3035,60.0,10.983333333333333
2026-01-20T23:11:00+00:00,SAT-47649,339.77713439858053,68.50454276605771,747.0414244777047,1.3343444698997406,-46734.387607400306,10.5,10499953265.612392,47.655,-122.3035,60.0,11.0
2026-01-20T23:11:01+00:00,SAT-47649,340.73527998031483,68.07927538309134,748.3722106956847,1.3988093171189275,-48992.2192430496,10.5,10499951007.780758,47.655,-122.3035,60.0,11.016666666666667
2026-01-20T23:11:02+00:00,SAT-47649,341.6542904786435,67.64985739263943,749.7672898546246,1.4629134886102184,-51237.41848905116,10.5,10499948762.58151,47.655,-122.3035,60.0,11.033333333333333
2026-01-20T23:11:03+00:00,SAT-47649,342.53599134073454,67.21672618018852,751.2263022405984,1.5266433215113953,-53469.50681417626,10.5,10499946530.493185,47.655,-122.3035,60.0,11.05
2026-01-20T23:11:04+00:00,SAT-47649,343.38214004420496,66.78029385219072,752.7488745132525,1.5899855785141235,-55688.02059189326,10.5,10499944311.979408,47.655,-122.3035,60.0,11.066666666666666
2026-01-20T23:11:05+00:00,SAT-47649,344.1944234559188,66.34094860644704,754.3346201302239,1.6529274944729162,-57892.512732810705,10.5,10499942107.487267,47.655,-122.3035,60.0,11.083333333333334
2026-01-20T23:11:06+00:00,SAT-47649,344.9744565121189,65.89905605695962,755.983139818045,1.7154567725712486,-60082.55255039842,10.5,10499939917.447449,47.655,-122.3035,60.0,11.1
2026-01-20T23:11:07+00:00,SAT-47649,345.72378193482086,65.4549605166313,757.6940220392227,1.777561569216633,-62257.72523194912,10.5,10499937742.274769,47.655,-122.3035,60.0,11.116666666666667
2026-01-20T23:11:08+00:00,SAT-47649,346.44387076736143,65.008986231995,759.4668434442547,1.8392305490172929,-64417.63376409414,10.5,10499935582.366236,47.655,-122.3035,60.0,11.133333333333333
2026-01-20T23:11:09+00:00,SAT-47649,347.13612357659997,64.56143854716962,761.3011693784747,1.900452839272223,-66561.89733885281,10.5,10499933438.102661,47.655,-122.3035,60.0,11.15
2026-01-20T23:11:10+00:00,SAT-47649,347.8018721269293,64.11260501977829,763.1965543435088,1.9612180620176263,-68690.1524760342,10.5,10499931309.847525,47.655,-122.3035,60.0,11.166666666666666
2026-01-20T23:11:11+00:00,SAT-47649,348.4423814340069,63.66275646775535,765.1525424906945,2.0215163371881646,-70802.05313395751,10.5,10499929197.946867,47.655,-122.3035,60.0,11.183333333333334
2026-01-20T23:11:12+00:00,SAT-47649,349.0588520813385,63.212147954896686,767.1686681176501,2.081338256113172,-72897.26978117743,10.5,10499927102.730219,47.655,-122.3035,60.0,11.2
2026-01-20T23:11:13+00:00,SAT-47649,349.65242270802463,62.761019722343725,769.2444561384136,2.140674934152722,-74975.49124002173,10.5,10499925024.50876,47.655,-122.3035,60.0,11.216666666666667
2026-01-20T23:11:14+00:00,SAT-47649,350.2241726233509,62.30959805047032,771.3794226060753,2.1995179449379294,-77036.42238340851,10.5,10499922963.577616,47.655,-122.3035,60.0,11.233333333333333
2026-01-20T23:11:15+00:00,SAT-47649,350.7751244594617,61.85809607903823,773.5730751698267,2.2578593822254867,-79079.78630125381,10.5,10499920920.2137,47.655,-122.3035,60.0,11.25
2026-01-20T23:11:16+00:00,SAT-47649,351.306246855074,61.40671456097446,775.8249135936995,2.3156918032478044,-81105.32231635375,10.5,10499918894.677683,47.655,-122.3035,60.0,11.266666666666667
2026-01-20T23:11:17+00:00,SAT-47649,351.8184571051912,60.95564257716019,778.1344302188053,2.3730082800374928,-83112.78778198507,10.5,10499916887.212217,47.655,-122.3035,60.0,11.283333333333333
2026-01-20T23:11:18+00:00,SAT-47649,352.31262377759,60.50505819337226,780.5011104767627,2.429802320867001,-85101.95533038897,10.5,10499914898.04467,47.655,-122.3035,60.0,11.3
2026-01-20T23:11:19+00:00,SAT-47649,352.7895692477632,60.05512908727963,782.9244333247741,2.4860679590097097,-87072.61598156,10.5,10499912927.384018,47.655,-122.3035,60.0,11.316666666666666
2026-01-20T23:11:20+00:00,SAT-47649,353.2500721733843,59.606013116701845,785.4038717692265,2.5417996625276182,-89024.57598362929,10.5,10499910975.424017,47.655,-122.3035,60.0,11.333333333333334
2026-01-20T23:11:21+00:00,SAT-47649,353.69486986160035,59.15785886528232,787.9388932993207,2.59699238479055,-90957.65858226085,10.5,10499909042.341417,47.655,-122.3035,60.0,11.35
2026-01-20T23:11:22+00:00,SAT-47649,354.12466055052386,58.710806142232286,790.5289603710851,2.651641520304864,-92871.70247358616,10.5,10499907128.297527,47.655,-122.3035,60.0,11.366666666666667
2026-01-20T23:11:23+00:00,SAT-47649,354.5401055831843,58.264986455668335,793.1735308473358,2.7057429169615568,-94766.56223318448,10.5,10499905233.437767,47.655,-122.3035,60.0,11.383333333333333
2026-01-20T23:11:24+00:00,SAT-47649,354.9418314822782,57.82052345193934,795.8720584498521,2.759292878881016,-96642.10841571828,10.5,10499903357.891584,47.655,-122.3035,60.0,11.4
2026-01-20T23:11:25+00:00,SAT-47649,355.33043192320946,57.37753332506238,798.6239932143895,2.812288110706294,-98498.22560384787,10.5,10499901501.774397,47.655,-122.3035,60.0,11.416666666666666
2026-01-20T23:11:26+00:00,SAT-47649,355.7064695984041,56.93612520769962,801.4287818901339,2.8647257760558755,-100334.8144554947,10.5,10499899665.185545,47.655,-122.3035,60.0,11.433333333333334
2026-01-20T23:11:27+00:00,SAT-47649,356.0704779913716,56.496401527177596,804.2858683974537,2.9166034109279857,-102151.78867089395,10.5,10499897848.211329,47.655,-122.3035,60.0,11.45
2026-01-20T23:11:28+00:00,SAT-47649,356.42296304319757,56.05845835135954,807.1946941992858,2.967919003228975,-103949.07777801482,10.5,10499896050.922222,47.655,-122.3035,60.0,11.466666666666667
2026-01-20T23:11:29+00:00,SAT-47649,356.7644047365567,55.622385700362514,810.1546987518394,3.0186708804326186,-105726.62319791413,10.5,10499894273.376802,47.655,-122.3035,60.0,11.483333333333333
2026-01-20T23:11:30+00:00,SAT-47649,357.0952585772141,55.18826785451827,813.1653198432576,3.0688577866161855,-107484.3809428653,10.5,10499892515.619057,47.655,-122.3035,60.0,11.5
2026-01-20T23:11:31+00:00,SAT-47649,357.4159569996876,54.75618363185873,816.2259940091095,3.118478828610369,-109222.31973030114,10.5,10499890777.68027,47.655,-122.3035,60.0,11.516666666666667
2026-01-20T23:11:32+00:00,SAT-47649,357.7269106855151,54.32620665578524,819.336156894177,3.1675334676273796,-110940.42068959416,10.5,10499889059.57931,47.655,-122.3035,60.0,11.533333333333333
2026-01-20T23:11:33+00:00,SAT-47649,358.02850980384494,53.8984056072936,822.4952436058907,3.216021514410749,-112638.6771921823,10.5,10499887361.322807,47.655,-122.3035,60.0,11.55
2026-01-20T23:11:34+00:00,SAT-47649,358.3211251786834,53.47284446238128,825.7026890629296,3.263943113664622,-114317.09430621678,10.5,10499885682.905693,47.655,-122.3035,60.0,11.566666666666666
2026-01-20T23:11:35+00:00,SAT-47649,358.6051093856305,53.04958271720329,828.9579283282911,3.311298741853925,-115975.68871951477,10.5,10499884024.311281,47.655,-122.3035,60.0,11.583333333333334
2026-01-20T23:11:36+00:00,SAT-47649,358.88079778335026,52.62867560006047,832.2603969401669,3.358089192735603,-117614.48823280216,10.5,10499882385.511766,47.655,-122.3035,60.0,11.6
2026-01-20T23:11:37+00:00,SAT-47649,359.1485094822072,52.21017427284785,835.6095312283884,3.4043155160270455,-119233.5296116221,10.5,10499880766.470388,47.655,-122.3035,60.0,11.616666666666667
2026-01-20T23:11:38+00:00,SAT-47649,359.4085482506303,51.79412602808368,839.004768569706,3.449979120865008,-120832.86220990452,10.5,10499879167.13779,47.655,-122.3035,60.0,11.633333333333333
2026-01-20T23:11:39+00:00,SAT-47649,359.6612033750934,51.3805744623663,842.4455477462487,3.4950816495159347,-122412.54354676699,10.5,10499877587.456453,47.655,-122.3035,60.0,11.65
2026-01-20T23:11:40+00:00,SAT-47649,359.9067504593304,50.96955965490217,845.9313091780327,3.5396250101591717,-123972.64045472186,10.5,10499876027.359545,47.655,-122.3035,60.0,11.666666666666666
2026-01-20T23:11:41+00:00,SAT-47649,0.1454521784725244,50.56111833215709,849.4614951881648,3.5836113852443963,-125513.22937238857,10.5,10499874486.770628,47.655,-122.3035,60.0,11.683333333333334
2026-01-20T23:11:42+00:00,SAT-47649,0.3775589887764677,50.1552840224513,853.0355502763817,3.627043169638726,-127034.39417814382,10.5,10499872965.605822,47.655,-122.3035,60.0,11.7
2026-01-20T23:11:43+00:00,SAT-47649,0.6033097911725304,49.75208720898485,856.6529213309016,3.669923040919607,-128536.22865207595,10.5,10499871463.771347,47.655,-122.3035,60.0,11.716666666666667
2026-01-20T23:11:44+00:00,SAT-47649,0.8229325598511472,49.35155546689747,860.3130579103787,3.7122538197162847,-130018.83158455238,10.5,10499869981.168415,47.655,-122.3035,60.0,11.733333333333333
2026-01-20T23:11:45+00:00,SAT-47649,1.0366449253541605,48.95371360796338,864.0154123865757,3.7540386117065276,-131482.31174954554,10.5,10499868517.68825,47.655,-122.3035,60.0,11.75
2026-01-20T23:11:46+00:00,SAT-47649,1.244654731687863,48.55858380252055,867.7594402286511,3.795280671095076,-132926.78312307075,10.5,10499867073.216877,47.655,-122.3035,60.0,11.766666666666667
2026-01-20T23:11:47+00:00,SAT-47649,1.4471605529391416,48.16618570928414,871.5446001512898,3.8359834539490225,-134352.36675121673,10.5,10499865647.63325,47.655,-122.3035,60.0,11.783333333333333
2026-01-20T23:11:48+00:00,SAT-47649,1.6443521827873113,47.776536592801676,875.3703543160283,3.8761506028699033,-135759.19021329744,10.5,10499864240.809786,47.655,-122.3035,60.0,11.8
2026-01-20T23:11:49+00:00,SAT-47649,1.8364110946661465,47.38965143644496,879.2361685172906,3.915785902966235,-137147.38607982415,10.5,10499862852.61392,47.655,-122.3035,60.0,11.816666666666666
2026-01-20T23:11:50+00:00,SAT-47649,2.023510873153634,47.00554305385536,883.1415123245156,3.954893315279262,-138517.09308321643,10.5,10499861482.906918,47.655,-122.3035,60.0,11.833333333333334
2026-01-20T23:11:51+00:00,SAT-47649,2.2058176221565815,46.62422219148357,887.0858592576208,3.9934769503176595,-139868.45519087548,10.5,10499860131.54481,47.655,-122.3035,60.0,11.85
2026-01-20T23:11:52+00:00,SAT-47649,2.3834903483994623,46.245697628470886,891.0686869360709,4.031541027990252,-141201.6202018586,10.5,10499858798.379799,47.655,-122.3035,60.0,11.866666666666667
2026-01-20T23:11:53+00:00,SAT-47649,2.5566813213602924,45.86997627518073,895.0894771879865,4.069089915081761,-142516.74105943818,10.5,10499857483.25894,47.655,-122.3035,60.0,11.883333333333333
2026-01-20T23:11:54+00:00,SAT-47649,2.7255364144657457,45.497063263315596,899.147716196628,4.106128103954327,-143813.97510513902,10.5,10499856186.024895,47.655,-122.3035,60.0,11.9
2026-01-20T23:11:55+00:00,SAT-47649,2.89019542606798,45.12696203352866,903.2428946256385,4.142660167718842,-145093.48250864883,10.5,10499854906.517492,47.655,-122.3035,60.0,11.916666666666666
2026-01-20T23:11:56+00:00,SAT-47649,3.050792380712474,44.75967442258622,907.3745076995768,4.178690815567885,-146355.4282058116,10.5,10499853644.571795,47.655,-122.3035,60.0,11.933333333333334
2026-01-20T23:11:57+00:00,SAT-47649,3.207455815759864,44.39520074141349,911.5420553396365,4.214224824019306,-147599.97949048708,10.5,10499852400.02051,47.655,-122.3035,60.0,11.95
2026-01-20T23:11:58+00:00,SAT-47649,3.360309049520334,44.03353985518481,915.7450422307918,4.249267065040982,-148827.30699959875,10.5,10499851172.693,47.655,-122.3035,60.0,11.966666666666667
2026-01-20T23:11:59+00:00,SAT-47649,3.5094704356948165,43.67468925708839,919.9829779169926,4.283822472118375,-150037.58352467604,10.5,10499849962.416475,47.655,-122.3035,60.0,11.983333333333333
2026-01-20T23:12:00+00:00,SAT-47649,3.6550536027166043,43.318645141249405,924.2553768625186,4.317896073863494,-151230.9851889826,10.5,10499848769.01481,47.655,-122.3035,60.0,12.0
2026-01-20T23:12:01+00:00,SAT-47649,3.7971676811873825,42.965402469371966,928.5617585468518,4.351492934825202,-152407.68937444256,10.5,10499847592.310625,47.655,-122.3035,60.0,12.016666666666667
2026-01-20T23:12:02+00:00,SAT-47649,3.9359175170952443,42.61495503886079,932.9016475005176,4.384618185882664,-153567.87578614792,10.5,10499846432.124214,47.655,-122.3035,60.0,12.033333333333333
2026-01-20T23:12:03+00:00,SAT-47649,4.071403874567508,42.2672955451877,937.2745733712378,4.417277006029862,-154711.72581437507,10.5,10499845288.274185,47.655,-122.3035,60.0,12.05
2026-01-20T23:12:04+00:00,SAT-47649,4.20372362722099,41.92241564264424,941.6800709719183,4.449474635765919,-155839.42300357056,10.5,10499844160.576996,47.655,-122.3035,60.0,12.066666666666666
2026-01-20T23:12:05+00:00,SAT-47649,4.332969939740967,41.58030600113583,946.1176803419888,4.481216309064539,-156951.15066963312,10.5,10499843048.84933,47.655,-122.3035,60.0,12.083333333333334
2026-01-20T23:12:06+00:00,SAT-47649,4.459232437962211,41.24095636528203,950.5869467408959,4.512507321624496,-158047.09429033473,10.5,10499841952.90571,47.655,-122.3035,60.0,12.1
2026-01-20T23:12:07+00:00,SAT-47649,4.582597371960542,40.904355605585764,955.0874207096628,4.543352984496618,-159127.43988114098,10.5,10499840872.56012,47.655,-122.3035,60.0,12.116666666666667
2026-01-20T23:12:08+00:00,SAT-47649,4.703147769392454,40.57049177046638,959.6186580862006,4.573758625150782,-160192.37403258227,10.5,10499839807.625967,47.655,-122.3035,60.0,12.133333333333333
2026-01-20T23:12:09+00:00,SAT-47649,4.820963580928061,40.23935213571434,964.1802200216842,4.603729600124624,-161242.08435326465,10.5,10499838757.915648,47.655,-122.3035,60.0,12.15
2026-01-20T23:12:10+00:00,SAT-47649,4.936121818529908,39.91092325060609,968.7716730095419,4.633271244550075,-162276.75770207596,10.5,10499837723.242298,47.655,-122.3035,60.0,12.166666666666666
2026-01-20T23:12:11+00:00,SAT-47649,5.048696685423815,39.58519098529777,973.3925888641065,4.6623889443927276,-163296.58271831388,10.5,10499836703.417282,47.655,-122.3035,60.0,12.183333333333334
2026-01-20T23:12:12+00:00,SAT-47649,5.158759701244119,39.26214057089614,978.0425447713143,4.691088031490229,-164301.74614548642,10.5,10499835698.253855,47.655,-122.3035,60.0,12.2
2026-01-20T23:12:13+00:00,SAT-47649,5.266379818368041,38.94175664472687,982.7211232347206,4.719373876536171,-165292.4360880012,10.5,10499834707.563911,47.655,-122.3035,60.0,12.216666666666667
2026-01-20T23:12:14+00:00,SAT-47649,5.371623534592975,38.62402328709022,987.4279121142525,4.747251818963036,-166268.8395553696,10.5,10499833731.160444,47.655,-122.3035,60.0,12.233333333333333
2026-01-20T23:12:15+00:00,SAT-47649,5.4745549986233915,38.30892406088449,992.1625045950317,4.774727206616253,-167231.14385175979,10.5,10499832768.856148,47.655,-122.3035,60.0,12.25
2026-01-20T23:12:16+00:00,SAT-47649,5.5752361111815665,37.996442046668726,996.9244991957637,4.801805339814313,-168179.53461674572,10.5,10499831820.465384,47.655,-122.3035,60.0,12.266666666666667
2026-01-20T23:12:17+00:00,SAT-47649,5.67372662002148,37.68655987956443,1001.7134997213385,4.828491557070459,-169114.19882764303,10.5,10499830885.801172,47.655,-122.3035,60.0,12.283333333333333
2026-01-20T23:12:18+00:00,SAT-47649,5.7700842120141775,37.37925977891486,1006.5291153009234,4.85479108159735,-170035.31942345318,10.5,10499829964.680576,47.655,-122.3035,60.0,12.3
2026-01-20T23:12:19+00:00,SAT-47649,5.864364597740253,37.074523586022764,1011.3709602729698,4.880709218110852,-170943.08219776477,10.5,10499829056.917803,47.655,-122.3035,60.0,12.316666666666666
2026-01-20T23:12:20+00:00,SAT-47649,5.956621595830611,36.77233278787599,1016.2386542664991,4.906251187886672,-171837.67002173903,10.5,10499828162.329979,47.655,-122.3035,60.0,12.333333333333334
2026-01-20T23:12:21+00:00,SAT-47649,6.046907210066956,36.47266854977465,1021.1318221178848,4.931422167673731,-172719.26420702078,10.5,10499827280.735792,47.655,-122.3035,60.0,12.35
2026-01-20T23:12:22+00:00,SAT-47649,6.135271703643123,36.17551174386076,1026.0500938264445,4.9562273372071255,-173588.04616984335,10.5,10499826411.95383,47.655,-122.3035,60.0,12.366666666666667
2026-01-20T23:12:23+00:00,SAT-47649,6.2217636706937665,35.88084297349116,1030.9931045574192,4.980671835753425,-174444.19590906106,10.5,10499825555.80409,47.655,-122.3035,60.0,12.383333333333333
2026-01-20T23:12:24+00:00,SAT-47649,6.306430103718359,35.58864259885,1035.9604946016107,5.0047607503063825,-175287.89159271316,10.5,10499824712.108408,47.655,-122.3035,60.0,12.4
2026-01-20T23:12:25+00:00,SAT-47649,6.389316457647825,35.29889076197464,1040.9519093232495,5.028499128199426,-176119.3099997665,10.5,10499823880.69,47.655,-122.3035,60.0,12.416666666666666
2026-01-20T23:12:26+00:00,SAT-47649,6.470466711160233,35.01156740973096,1045.9669991204405,5.051891998170346,-176938.62725788995,10.5,10499823061.372742,47.655,-122.3035,60.0,12.433333333333334
2026-01-20T23:12:27+00:00,SAT-47649,6.549923425500598,34.72665231446765,1051.0054194066156,5.074944320405076,-177746.01709377658,10.5,10499822253.982906,47.655,-122.3035,60.0,12.45
2026-01-20T23:12:28+00:00,SAT-47649,6.62772779981382,34.444125096329806,1056.0668305421661,5.09766104708458,-178541.65295375139,10.5,10499821458.347046,47.655,-122.3035,60.0,12.466666666666667
2026-01-20T23:12:29+00:00,SAT-47649,6.703919724853138,34.163965241153704,1061.1508978264585,5.120047044686181,-179325.70528243543,10.5,10499820674.294718,47.655,-122.3035,60.0,12.483333333333333
2026-01-20T23:12:30+00:00,SAT-47649,6.778537833152931,33.88615212154397,1066.257291412359,5.142107156144047,-180098.34369986886,10.5,10499819901.6563,47.655,-122.3035,60.0,12.5
2026-01-20T23:12:31+00:00,SAT-47649,6.8516195478029855,33.610665013586,1071.3856862827533,5.163846176238781,-180859.73613955025,10.5,10499819140.26386,47.655,-122.3035,60.0,12.516666666666667
2026-01-20T23:12:32+00:00,SAT-47649,6.92320112869437,33.33748311394185,1076.5357622025222,5.185268829450847,-181610.04807277003,10.5,10499818389.951927,47.655,-122.3035,60.0,12.533333333333333
2026-01-20T23:12:33+00:00,SAT-47649,6.993317716427019,33.06658555717792,1081.7072036484278,5.206379833967044,-182349.44475038783,10.5,10499817650.55525,47.655,-122.3035,60.0,12.55
2026-01-20T23:12:34+00:00,SAT-47649,7.062003375104616,32.79795142889964,1086.8996998028376,5.227183814013231,-183078.08813235365,10.5,10499816921.911867,47.655,-122.3035,60.0,12.566666666666666
2026-01-20T23:12:35+00:00,SAT-47649,7.129291132109806,32.53155978260014,1092.1129444600135,5.2476853597279485,-183796.13898473544,10.5,10499816203.861015,47.655,-122.3035,60.0,12.583333333333334
2026-01-20T23:12:36+00:00,SAT-47649,7.195213016909246,32.267389652594275,1097.3466359921154,5.267889018348112,-184503.75657100478,10.5,10499815496.24343,47.655,-122.3035,60.0,12.6
2026-01-20T23:12:37+00:00,SAT-47649,7.259800098059875,32.005420066689375,1102.6004773064146,5.287799270815274,-185201.09783268924,10.5,10499814798.902166,47.655,-122.3035,60.0,12.616666666666667
2026-01-20T23:12:38+00:00,SAT-47649,7.323082518327148,31.745630059279783,1107.8741757791743,5.307420554517062,-185888.3181858736,10.5,10499814111.681814,47.655,-122.3035,60.0,12.633333333333333
2026-01-20T23:12:39+00:00,SAT-47649,7.385089528566878,31.48799868263456,1113.1674432122127,5.326757239212424,-186565.57067800037,10.5,10499813434.429321,47.655,-122.3035,60.0,12.65
2026-01-20T23:12:40+00:00,SAT-47649,7.445849519878893,31.23250501866567,1118.4799957654539,5.345813645307345,-187233.0066279623,10.5,10499812766.993372,47.655,-122.3035,60.0,12.666666666666666
2026-01-20T23:12:41+00:00,SAT-47649,7.505390054628058,30.979128189183342,1123.811553907707,5.364594071095032,-187890.77658016948,10.5,10499812109.22342,47.655,-122.3035,60.0,12.683333333333334
2026-01-20T23:12:42+00:00,SAT-47649,7.563737896402051,30.727847364315817,1129.1618423946124,5.383102701167362,-188539.02709673002,10.5,10499811460.972904,47.655,-122.3035,60.0,12.7
2026-01-20T23:12:43+00:00,SAT-47649,7.62091903777537,30.478641774596742,1134.5305901552433,5.401343710671574,-189177.9044089612,10.5,10499810822.09559,47.655,-122.3035,60.0,12.716666666666667
2026-01-20T23:12:44+00:00,SAT-47649,7.676958727992242,30.231490717650363,1139.9175302826866,5.419321211673913,-189807.552538817,10.5,10499810192.447462,47.655,-122.3035,60.0,12.733333333333333
