satellites_20260121_005943/SAT-46342.csv

timestamp,satellite,azimuth_deg,elevation_deg,distance_km,relative_velocity_kms,doppler_shift_hz,tx_freq_ghz,rx_freq_hz,ue_lat,ue_lon,ue_alt_m,time_minutes
2026-01-20T23:00:00+00:00,SAT-46342,212.05023084676907,31.97205399638585,1573.9990408479873,-6.303817383260327,220786.3498828694,10.5,10500220786.349882,47.655,-122.3035,60.0,0.0
2026-01-20T23:00:01+00:00,SAT-46342,212.0128251349743,32.1034544155573,1567.7120336444157,-6.298786403174012,220610.143679222,10.5,10500220610.143679,47.655,-122.3035,60.0,0.016666666666666666
2026-01-20T23:00:02+00:00,SAT-46342,211.97522556577357,32.23570070768765,1561.4300440049835,-6.293687346937917,220431.55316084746,10.5,10500220431.553162,47.655,-122.3035,60.0,0.03333333333333333
2026-01-20T23:00:03+00:00,SAT-46342,211.93742898377562,32.3688023856642,1555.153139824304,-6.288519204367168,220250.5429467984,10.5,10500220250.542946,47.655,-122.3035,60.0,0.05
2026-01-20T23:00:04+00:00,SAT-46342,211.89943216441827,32.502769092137946,1548.881390004482,-6.283280943425724,220067.07689080722,10.5,10500220067.07689,47.655,-122.3035,60.0,0.06666666666666667
2026-01-20T23:00:05+00:00,SAT-46342,211.86123181209194,32.63761060135831,1542.6148644769053,-6.277971473373589,219881.11679054543,10.5,10500219881.11679,47.655,-122.3035,60.0,0.08333333333333333
2026-01-20T23:00:06+00:00,SAT-46342,211.822824558376,32.77333682022799,1536.353634260794,-6.272589745319109,219692.62590939042,10.5,10500219692.62591,47.655,-122.3035,60.0,0.1
2026-01-20T23:00:07+00:00,SAT-46342,211.7842069596906,32.909957791563,1530.0977714214625,-6.267134679038876,219501.5664133492,10.5,10500219501.566414,47.655,-122.3035,60.0,0.11666666666666667
2026-01-20T23:00:08+00:00,SAT-46342,211.74537549523635,33.04748369582432,1523.8473491015677,-6.261605120849625,219307.89789555367,10.5,10500219307.897896,47.655,-122.3035,60.0,0.13333333333333333
2026-01-20T23:00:09+00:00,SAT-46342,211.70632656513166,33.18592485193431,1517.6024415943737,-6.25599994484636,219111.58092204836,10.5,10500219111.580921,47.655,-122.3035,60.0,0.15
2026-01-20T23:00:10+00:00,SAT-46342,211.66705648788326,33.32529172034167,1511.3631243160469,-6.250317994124972,218912.5749731576,10.5,10500218912.574974,47.655,-122.3035,60.0,0.16666666666666666
2026-01-20T23:00:11+00:00,SAT-46342,211.62756149813876,33.46559490484232,1505.1294738365727,-6.2445581277519,218710.84008856205,10.5,10500218710.840088,47.655,-122.3035,60.0,0.18333333333333332
2026-01-20T23:00:12+00:00,SAT-46342,211.58783774405836,33.60684515549086,1498.9015678638282,-6.238719070391057,218506.3316005972,10.5,10500218506.3316,47.655,-122.3035,60.0,0.2
2026-01-20T23:00:13+00:00,SAT-46342,211.54788128546156,33.74905336813071,1492.679485377625,-6.232799669836315,218299.00915413056,10.5,10500218299.009153,47.655,-122.3035,60.0,0.21666666666666667
2026-01-20T23:00:14+00:00,SAT-46342,211.50768809044305,33.89223058980068,1486.4633065069083,-6.226798654779223,218088.8282225627,10.5,10500218088.828222,47.655,-122.3035,60.0,0.23333333333333334
2026-01-20T23:00:15+00:00,SAT-46342,211.46725403325286,34.0363880186786,1480.253112648542,-6.2207147627058275,217875.74458731443,10.5,10500217875.744587,47.655,-122.3035,60.0,0.25
2026-01-20T23:00:16+00:00,SAT-46342,211.42657489134604,34.18153700695869,1474.0489864585365,-6.214546670993238,217659.71192453746,10.5,10500217659.711924,47.655,-122.3035,60.0,0.26666666666666666
2026-01-20T23:00:17+00:00,SAT-46342,211.38564634276145,34.32768906216867,1467.8510119119992,-6.208293112636104,217440.685858345,10.5,10500217440.685858,47.655,-122.3035,60.0,0.2833333333333333
2026-01-20T23:00:18+00:00,SAT-46342,211.344463962683,34.474855851239454,1461.6592742476635,-6.201952711344545,217218.61818524377,10.5,10500217218.618185,47.655,-122.3035,60.0,0.3
2026-01-20T23:00:19+00:00,SAT-46342,211.30302322089145,34.62304920072782,1455.4738600768824,-6.1955241456470445,216993.46262171134,10.5,10500216993.462622,47.655,-122.3035,60.0,0.31666666666666665
2026-01-20T23:00:20+00:00,SAT-46342,211.26131947810362,34.77228110096082,1449.2948573289573,-6.1890059731472915,216765.16864892765,10.5,10500216765.16865,47.655,-122.3035,60.0,0.3333333333333333
2026-01-20T23:00:21+00:00,SAT-46342,211.21934798326845,34.9225637060005,1443.1223553717384,-6.182396820675111,216533.68817266464,10.5,10500216533.688173,47.655,-122.3035,60.0,0.35
2026-01-20T23:00:22+00:00,SAT-46342,211.17710386958083,35.07390933822294,1436.956444942585,-6.175695231588029,216298.97017514132,10.5,10500216298.970175,47.655,-122.3035,60.0,0.36666666666666664
2026-01-20T23:00:23+00:00,SAT-46342,211.13458215129907,35.226330489246166,1430.7972182316144,-6.168899726353099,216060.9628368554,10.5,10500216060.962837,47.655,-122.3035,60.0,0.38333333333333336
2026-01-20T23:00:24+00:00,SAT-46342,211.0917777200535,35.379839822335136,1424.6447689045317,-6.162008820065998,215819.61415017647,10.5,10500215819.614151,47.655,-122.3035,60.0,0.4
2026-01-20T23:00:25+00:00,SAT-46342,211.04868534092407,35.53445017529102,1418.499192107986,-6.155020993999109,215574.87092283907,10.5,10500215574.870922,47.655,-122.3035,60.0,0.4166666666666667
2026-01-20T23:00:26+00:00,SAT-46342,211.00529964851788,35.690174562670435,1412.3605845033042,-6.147934701468152,215326.67898341725,10.5,10500215326.678984,47.655,-122.3035,60.0,0.43333333333333335
2026-01-20T23:00:27+00:00,SAT-46342,210.9616151428983,35.84702617818145,1406.2290442943731,-6.140748339585333,215074.9821920003,10.5,10500215074.982191,47.655,-122.3035,60.0,0.45
2026-01-20T23:00:28+00:00,SAT-46342,210.91762618548836,36.005018396373934,1400.1046712836935,-6.133460302854415,214819.72431731876,10.5,10500214819.724318,47.655,-122.3035,60.0,0.4666666666666667
2026-01-20T23:00:29+00:00,SAT-46342,210.87332699452202,36.16416477573007,1393.98756687498,-6.126068960483295,214560.8482421349,10.5,10500214560.848242,47.655,-122.3035,60.0,0.48333333333333334
2026-01-20T23:00:30+00:00,SAT-46342,210.82871164042274,36.32447906121771,1387.8778340983913,-6.118572635431859,214298.29522941005,10.5,10500214298.295229,47.655,-122.3035,60.0,0.5
2026-01-20T23:00:31+00:00,SAT-46342,210.78377404115994,36.485975186323074,1381.775577656654,-6.110969623467446,214032.0055897076,10.5,10500214032.00559,47.655,-122.3035,60.0,0.5166666666666667
2026-01-20T23:00:32+00:00,SAT-46342,210.73850795728578,36.64866727559589,1375.6809039521822,-6.103258184089562,213761.91836333787,10.5,10500213761.918364,47.655,-122.3035,60.0,0.5333333333333333
2026-01-20T23:00:33+00:00,SAT-46342,210.6929069868364,36.81256964698618,1369.5939211232503,-6.0954365647224105,213487.97216768313,10.5,10500213487.972168,47.655,-122.3035,60.0,0.55
2026-01-20T23:00:34+00:00,SAT-46342,210.64696455988118,36.977696814860394,1363.514739056034,-6.087502952638827,213210.1035133702,10.5,10500213210.103514,47.655,-122.3035,60.0,0.5666666666666667
2026-01-20T23:00:35+00:00,SAT-46342,210.60067393313986,37.14406349173949,1357.443469444602,-6.079455502530443,212928.2477698944,10.5,10500212928.24777,47.655,-122.3035,60.0,0.5833333333333334
2026-01-20T23:00:36+00:00,SAT-46342,210.55402818424653,37.31168459079708,1351.3802258234118,-6.071292358926271,212642.33995081304,10.5,10500212642.33995,47.655,-122.3035,60.0,0.6
2026-01-20T23:00:37+00:00,SAT-46342,210.50702020557264,37.480575228998894,1345.3251235774428,-6.06301161654648,212352.31332516723,10.5,10500212352.313326,47.655,-122.3035,60.0,0.6166666666666667
2026-01-20T23:00:38+00:00,SAT-46342,210.45964269810776,37.650750729184615,1339.2782799918734,-6.054611317584444,212058.09932228737,10.5,10500212058.099321,47.655,-122.3035,60.0,0.6333333333333333
2026-01-20T23:00:39+00:00,SAT-46342,210.41188816508594,37.82222662206063,1333.2398143044693,-6.046089499557406,211759.629207726,10.5,10500211759.629208,47.655,-122.3035,60.0,0.65
2026-01-20T23:00:40+00:00,SAT-46342,210.36374890502833,37.99501864956996,1327.209847710244,-6.037444140756962,211456.83217270297,10.5,10500211456.832172,47.655,-122.3035,60.0,0.6666666666666666
2026-01-20T23:00:41+00:00,SAT-46342,210.31521700485118,38.1691427667302,1321.1885034205293,-6.028673193212198,211149.63648861396,10.5,10500211149.636488,47.655,-122.3035,60.0,0.6833333333333333
2026-01-20T23:00:42+00:00,SAT-46342,210.26628433249445,38.344615144430506,1315.1759066891657,-6.019774547447445,210837.96827269808,10.5,10500210837.968273,47.655,-122.3035,60.0,0.7
2026-01-20T23:00:43+00:00,SAT-46342,210.21694252943442,38.52145217119211,1309.1721848738448,-6.010746086783271,210521.75338988798,10.5,10500210521.75339,47.655,-122.3035,60.0,0.7166666666666667
2026-01-20T23:00:44+00:00,SAT-46342,210.1671830025383,38.69967045654378,1303.1774674432927,-6.00158563782241,210200.91571861797,10.5,10500210200.915718,47.655,-122.3035,60.0,0.7333333333333333
2026-01-20T23:00:45+00:00,SAT-46342,210.11699691588555,38.87928683294843,1297.1918860338378,-5.992290976454893,209875.37736114886,10.5,10500209875.377361,47.655,-122.3035,60.0,0.75
2026-01-20T23:00:46+00:00,SAT-46342,210.06637518222595,39.06031835789075,1291.2155744999868,-5.982859846194088,209545.059285774,10.5,10500209545.059286,47.655,-122.3035,60.0,0.7666666666666667
2026-01-20T23:00:47+00:00,SAT-46342,210.0153084539053,39.24278231650849,1285.248668946716,-5.973289953461465,209209.88116167142,10.5,10500209209.88116,47.655,-122.3035,60.0,0.7833333333333333
2026-01-20T23:00:48+00:00,SAT-46342,209.96378711344627,39.42669622409338,1279.291307766464,-5.963578966302557,208869.76131393155,10.5,10500208869.761314,47.655,-122.3035,60.0,0.8
2026-01-20T23:00:49+00:00,SAT-46342,209.91180126370077,39.612077828551634,1273.3436316774048,-5.953724487479024,208524.61578112733,10.5,10500208524.615782,47.655,-122.3035,60.0,0.8166666666666667
2026-01-20T23:00:50+00:00,SAT-46342,209.85934071780432,39.79894511200515,1267.4057837885591,-5.943724079818647,208174.35920317846,10.5,10500208174.359203,47.655,-122.3035,60.0,0.8333333333333334
2026-01-20T23:00:51+00:00,SAT-46342,209.8063949884458,39.98731629315346,1261.4779096396198,-5.933575265745733,207818.90480490407,10.5,10500207818.904804,47.655,-122.3035,60.0,0.85
2026-01-20T23:00:52+00:00,SAT-46342,209.7529532767027,40.1772098296123,1255.5601572412495,-5.923275545811832,207458.1650450467,10.5,10500207458.165045,47.655,-122.3035,60.0,0.8666666666666667
2026-01-20T23:00:53+00:00,SAT-46342,209.69900446016598,40.36864442083743,1249.652677096893,-5.91282228660862,207092.04769050764,10.5,10500207092.047691,47.655,-122.3035,60.0,0.8833333333333333
2026-01-20T23:00:54+00:00,SAT-46342,209.64453708149304,40.56163900737024,1243.755622336382,-5.902212948571569,206720.46379499472,10.5,10500206720.463795,47.655,-122.3035,60.0,0.9
2026-01-20T23:00:55+00:00,SAT-46342,209.589539334508,40.75621277747687,1237.8691486223402,-5.8914447954208,206343.3175224121,10.5,10500206343.317522,47.655,-122.3035,60.0,0.9166666666666666
2026-01-20T23:00:56+00:00,SAT-46342,209.53399905210944,40.952385164238834,1231.9934143463736,-5.880515156814387,205960.5153460901,10.5,10500205960.515347,47.655,-122.3035,60.0,0.9333333333333333
2026-01-20T23:00:57+00:00,SAT-46342,209.47790369138295,41.15017585123797,1226.1285805633108,-5.869421215999917,205571.9586114442,10.5,10500205571.95861,47.655,-122.3035,60.0,0.95
2026-01-20T23:00:58+00:00,SAT-46342,209.4212403198495,41.34960477113489,1220.27481113722,-5.858160168613588,205177.54909779178,10.5,10500205177.549097,47.655,-122.3035,60.0,0.9666666666666667
2026-01-20T23:00:59+00:00,SAT-46342,209.36399559964937,41.55069210948894,1214.4322727290562,-5.846729148771098,204777.18642974176,10.5,10500204777.18643,47.655,-122.3035,60.0,0.9833333333333333
2026-01-20T23:01:00+00:00,SAT-46342,209.30615577167475,41.75345830607482,1208.6011348580153,-5.835125214672551,204370.7675730181,10.5,10500204370.767572,47.655,-122.3035,60.0,1.0
2026-01-20T23:01:01+00:00,SAT-46342,209.24770663899864,41.95792405557208,1202.7815699772486,-5.8233453617757895,203958.18729584516,10.5,10500203958.187296,47.655,-122.3035,60.0,1.0166666666666666
2026-01-20T23:01:02+00:00,SAT-46342,209.18863354946316,42.164110308623044,1196.9737535364375,-5.8113865933565965,203539.34064026477,10.5,10500203539.340641,47.655,-122.3035,60.0,1.0333333333333334
2026-01-20T23:01:03+00:00,SAT-46342,209.12892137669976,42.37203827531275,1191.1778639739964,-5.799245771853908,203114.11771561656,10.5,10500203114.117716,47.655,-122.3035,60.0,1.05
2026-01-20T23:01:04+00:00,SAT-46342,209.06855450163863,42.581729423267525,1185.3940828575342,-5.786919766733053,202682.40887733427,10.5,10500202682.408876,47.655,-122.3035,60.0,1.0666666666666667
2026-01-20T23:01:05+00:00,SAT-46342,209.00751679169773,42.79320548091546,1179.6225948768456,-5.774405354303952,202244.10121815503,10.5,10500202244.101217,47.655,-122.3035,60.0,1.0833333333333333
2026-01-20T23:01:06+00:00,SAT-46342,208.94579157989776,43.00648843703044,1173.8635879368198,-5.76169924600201,201799.07955863624,10.5,10500201799.07956,47.655,-122.3035,60.0,1.1
2026-01-20T23:01:07+00:00,SAT-46342,208.88336164262708,43.2216005411315,1168.1172532221406,-5.748798138965654,201347.22821859436,10.5,10500201347.228218,47.655,-122.3035,60.0,1.1166666666666667
2026-01-20T23:01:08+00:00,SAT-46342,208.8202091758377,43.43856430567117,1162.3837852115455,-5.735698612717787,200888.42739845297,10.5,10500200888.427399,47.655,-122.3035,60.0,1.1333333333333333
2026-01-20T23:01:09+00:00,SAT-46342,208.7563157709747,43.6574025041663,1156.6633817951283,-5.722397235421583,200422.55690076973,10.5,10500200422.5569,47.655,-122.3035,60.0,1.15
2026-01-20T23:01:10+00:00,SAT-46342,208.69166238867317,43.878138173198046,1150.9562442856677,-5.708890447146979,199949.4920417354,10.5,10500199949.492043,47.655,-122.3035,60.0,1.1666666666666667
2026-01-20T23:01:11+00:00,SAT-46342,208.62622933221812,44.10079460972779,1145.2625775463798,-5.695174718179235,199469.10919580894,10.5,10500199469.109196,47.655,-122.3035,60.0,1.1833333333333333
2026-01-20T23:01:12+00:00,SAT-46342,208.55999621802897,44.32539537439026,1139.5825899607826,-5.681246354704398,198981.27899000107,10.5,10500198981.27899,47.655,-122.3035,60.0,1.2
2026-01-20T23:01:13+00:00,SAT-46342,208.49294194657645,44.5519642869558,1133.9164935963572,-5.667101642321167,198485.87133026627,10.5,10500198485.87133,47.655,-122.3035,60.0,1.2166666666666666
2026-01-20T23:01:14+00:00,SAT-46342,208.42504467027524,44.78052542718031,1128.2645042250822,-5.6527368378908305,197982.7551160534,10.5,10500197982.755116,47.655,-122.3035,60.0,1.2333333333333334
2026-01-20T23:01:15+00:00,SAT-46342,208.3562817596909,45.011103135182594,1122.6268413520925,-5.6381480581283725,197471.7943382949,10.5,10500197471.794338,47.655,-122.3035,60.0,1.25
2026-01-20T23:01:16+00:00,SAT-46342,208.2866297691824,45.243722007014576,1117.0037283554525,-5.623331394402332,196952.85210018355,10.5,10500196952.8521,47.655,-122.3035,60.0,1.2666666666666666
2026-01-20T23:01:17+00:00,SAT-46342,208.2160643993525,45.478406894592865,1111.3953925114354,-5.608282859843867,196425.78876470804,10.5,10500196425.788765,47.655,-122.3035,60.0,1.2833333333333334
2026-01-20T23:01:18+00:00,SAT-46342,208.14456045807978,45.71518290319747,1105.802065072551,-5.592998391743895,195890.46203861106,10.5,10500195890.462038,47.655,-122.3035,60.0,1.3
2026-01-20T23:01:19+00:00,SAT-46342,208.07209181929971,45.95407538870916,1100.223981343185,-5.577473885724013,195346.72816919943,10.5,10500195346.728168,47.655,-122.3035,60.0,1.3166666666666667
2026-01-20T23:01:20+00:00,SAT-46342,207.99863137912996,46.1951099559903,1094.6613807211563,-5.561705093172795,194794.4383521294,10.5,10500194794.438353,47.655,-122.3035,60.0,1.3333333333333333
2026-01-20T23:01:21+00:00,SAT-46342,207.92415101070173,46.43831245242671,1089.1145068415653,-5.545687784333892,194233.44444344184,10.5,10500194233.444443,47.655,-122.3035,60.0,1.35
2026-01-20T23:01:22+00:00,SAT-46342,207.84862151446706,46.68370896816877,1083.5836075579896,-5.5294176076095924,193663.59403177755,10.5,10500193663.594032,47.655,-122.3035,60.0,1.3666666666666667
2026-01-20T23:01:23+00:00,SAT-46342,207.77201256734654,46.93132582983941,1078.0689350640002,-5.512890123616997,193084.7316311689,10.5,10500193084.73163,47.655,-122.3035,60.0,1.3833333333333333
2026-01-20T23:01:24+00:00,SAT-46342,207.69429266854462,47.18118959520154,1072.5707459807131,-5.496100836840968,192496.69978965973,10.5,10500192496.69979,47.655,-122.3035,60.0,1.4
2026-01-20T23:01:25+00:00,SAT-46342,207.61542908174366,47.43332704876076,1067.0893014127703,-5.479045195700204,191899.33909161965,10.5,10500191899.339092,47.655,-122.3035,60.0,1.4166666666666667
2026-01-20T23:01:26+00:00,SAT-46342,207.53538777391648,47.68776519692073,1061.6248670042585,-5.461718553271242,191292.4867821326,10.5,10500191292.486782,47.655,-122.3035,60.0,1.4333333333333333
2026-01-20T23:01:27+00:00,SAT-46342,207.45413335095728,47.944531260768635,1056.177713033796,-5.444116167158869,190675.97676245787,10.5,10500190675.976763,47.655,-122.3035,60.0,1.45
2026-01-20T23:01:28+00:00,SAT-46342,207.37162898949384,48.203652668199496,1050.7481145097497,-5.426233236969325,190049.64090250034,10.5,10500190049.640902,47.655,-122.3035,60.0,1.4666666666666666
2026-01-20T23:01:29+00:00,SAT-46342,207.28783636399586,48.465157047177215,1045.336351228079,-5.408064908246463,189413.30917867142,10.5,10500189413.30918,47.655,-122.3035,60.0,1.4833333333333334
2026-01-20T23:01:30+00:00,SAT-46342,207.20271556937786,48.729072218589735,1039.9427078262545,-5.38960621518382,188766.80766742342,10.5,10500188766.807667,47.655,-122.3035,60.0,1.5
2026-01-20T23:01:31+00:00,SAT-46342,207.11622503957835,48.99542618559071,1034.567473894311,-5.370852091225957,188109.95891655333,10.5,10500188109.958916,47.655,-122.3035,60.0,1.5166666666666666
2026-01-20T23:01:32+00:00,SAT-46342,207.028321460957,49.26424712260482,1029.2109440753284,-5.351797478956745,187442.5857939556,10.5,10500187442.585794,47.655,-122.3035,60.0,1.5333333333333334
2026-01-20T23:01:33+00:00,SAT-46342,206.9389596784987,49.53556336908691,1023.8734180563155,-5.332437149599537,186764.50516575415,10.5,10500186764.505165,47.655,-122.3035,60.0,1.55
2026-01-20T23:01:34+00:00,SAT-46342,206.84809259882303,49.80940341334284,1018.5552007391149,-5.312765850676089,186075.5330679431,10.5,10500186075.533068,47.655,-122.3035,60.0,1.5666666666666667
2026-01-20T23:01:35+00:00,SAT-46342,206.75567108460223,50.08579588286707,1013.2566022640406,-5.292778205309175,185375.48117953766,10.5,10500185375.48118,47.655,-122.3035,60.0,1.5833333333333333
2026-01-20T23:01:36+00:00,SAT-46342,206.6616438437493,50.36476952853895,1007.9779381339456,-5.272468812170352,184664.1603231683,10.5,10500184664.160324,47.655,-122.3035,60.0,1.6
2026-01-20T23:01:37+00:00,SAT-46342,206.56595730961516,50.64635321300035,1002.7195292386077,-5.251832154759938,183941.3772876813,10.5,10500183941.377287,47.655,-122.3035,60.0,1.6166666666666667
2026-01-20T23:01:38+00:00,SAT-46342,206.46855551476045,50.93057589317231,997.4817019695938,-5.230862651394112,183206.93657889878,10.5,10500183206.936579,47.655,-122.3035,60.0,1.6333333333333333
2026-01-20T23:01:39+00:00,SAT-46342,206.36937995535288,51.21746660421843,992.2647882852701,-5.209554620309652,182460.63919743887,10.5,10500182460.639198,47.655,-122.3035,60.0,1.65
2026-01-20T23:01:40+00:00,SAT-46342,206.26836944699173,51.50705444034493,987.0691258106145,-5.187902350458569,181702.28511824328,10.5,10500181702.285118,47.655,-122.3035,60.0,1.6666666666666667
2026-01-20T23:01:41+00:00,SAT-46342,206.16545996930387,51.79936853820359,981.8950578664238,-5.165900000500829,180931.6697528752,10.5,10500180931.669752,47.655,-122.3035,60.0,1.6833333333333333
2026-01-20T23:01:42+00:00,SAT-46342,206.06058450162425,52.09443805324606,976.7429335992578,-5.14354166571885,180148.5862931479,10.5,10500180148.586292,47.655,-122.3035,60.0,1.7
2026-01-20T23:01:43+00:00,SAT-46342,205.95367284585706,52.392292138235376,971.6131080446474,-5.12082139721004,179352.8263833289,10.5,10500179352.826384,47.655,-122.3035,60.0,1.7166666666666666
2026-01-20T23:01:44+00:00,SAT-46342,205.84465143640597,52.69295992136432,966.5059421711633,-5.097733135524356,178544.17779584613,10.5,10500178544.177795,47.655,-122.3035,60.0,1.7333333333333334
2026-01-20T23:01:45+00:00,SAT-46342,205.7334431376856,52.99647047877327,961.4218029906671,-5.074270783408585,177722.4269791008,10.5,10500177722.42698,47.655,-122.3035,60.0,1.75
2026-01-20T23:01:46+00:00,SAT-46342,205.6199670255131,53.3028528095417,956.3610635960142,-5.050428109272295,176887.3556764363,10.5,10500176887.355677,47.655,-122.3035,60.0,1.7666666666666666
2026-01-20T23:01:47+00:00,SAT-46342,205.50413815435527,53.612135802860784,951.3241032950333,-5.026198881618819,176038.7456344802,10.5,10500176038.745634,47.655,-122.3035,60.0,1.7833333333333334
2026-01-20T23:01:48+00:00,SAT-46342,205.38586730448893,53.92434821132823,946.3113076104321,-5.001576764250717,175176.3749327961,10.5,10500175176.374933,47.655,-122.3035,60.0,1.8
2026-01-20T23:01:49+00:00,SAT-46342,205.26506071229755,54.23951861564279,941.3230683842195,-4.97655534988408,174300.01916119867,10.5,10500174300.019161,47.655,-122.3035,60.0,1.8166666666666667
2026-01-20T23:01:50+00:00,SAT-46342,205.14161977934882,54.55767538893375,936.3597838486016,-4.951128169992859,173409.45176454377,10.5,10500173409.451765,47.655,-122.3035,60.0,1.8333333333333333
2026-01-20T23:01:51+00:00,SAT-46342,205.01544075876186,54.87884665916271,931.4218586870621,-4.925288723846263,172504.44505974115,10.5,10500172504.445059,47.655,-122.3035,60.0,1.85
2026-01-20T23:01:52+00:00,SAT-46342,204.8864144164374,55.203060270806716,926.5097040664795,-4.899030402071362,171584.76755859316,10.5,10500171584.76756,47.655,-122.3035,60.0,1.8666666666666667
2026-01-20T23:01:53+00:00,SAT-46342,204.75442566727804,55.53034373856778,921.6237377454803,-4.872346551564691,170650.18624127383,10.5,10500170650.186241,47.655,-122.3035,60.0,1.8833333333333333
2026-01-20T23:01:54+00:00,SAT-46342,204.6193531808094,55.86072420221523,916.7643841180532,-4.84523049318123,169700.46717587177,10.5,10500169700.467176,47.655,-122.3035,60.0,1.9
2026-01-20T23:01:55+00:00,SAT-46342,204.4810689542399,56.19422837938246,911.9320742395204,-4.81767546710216,168735.37360493798,10.5,10500168735.373606,47.655,-122.3035,60.0,1.9166666666666667
2026-01-20T23:01:56+00:00,SAT-46342,204.3394378519789,56.53088251109989,907.1272459069971,-4.789674677511461,167754.66751024916,10.5,10500167754.667511,47.655,-122.3035,60.0,1.9333333333333333
2026-01-20T23:01:57+00:00,SAT-46342,204.19431710558956,56.870712306509546,902.3503436952924,-4.761221272345255,166758.10890354414,10.5,10500166758.108904,47.655,-122.3035,60.0,1.95
2026-01-20T23:01:58+00:00,SAT-46342,204.04555577221944,57.21374288206923,897.6018190130068,-4.732308367022619,165745.45665767716,10.5,10500165745.456657,47.655,-122.3035,60.0,1.9666666666666666
2026-01-20T23:01:59+00:00,SAT-46342,203.8929941460484,57.55999869796765,892.8821301349628,-4.702929057354749,164716.46895875165,10.5,10500164716.468958,47.655,-122.3035,60.0,1.9833333333333334
2026-01-20T23:02:00+00:00,SAT-46342,203.73646311839983,57.90950349080481,888.191742221761,-4.673076367147627,163670.9014709439,10.5,10500163670.90147,47.655,-122.3035,60.0,2.0
2026-01-20T23:02:01+00:00,SAT-46342,203.57578348333445,58.26228019717092,883.5311273915925,-4.642743326645748,162608.510083934,10.5,10500162608.510084,47.655,-122.3035,60.0,2.0166666666666666
2026-01-20T23:02:02+00:00,SAT-46342,203.41076517901553,58.61835087748644,878.9007647138177,-4.611922960133458,161529.0504786525,10.5,10500161529.050478,47.655,-122.3035,60.0,2.033333333333333
2026-01-20T23:02:03+00:00,SAT-46342,203.24120646089835,58.977736633030304,874.3011402149114,-4.580608213312,160432.27558371733,10.5,10500160432.275583,47.655,-122.3035,60.0,2.05
2026-01-20T23:02:04+00:00,SAT-46342,203.066893001936,59.34045751067549,869.7327469568348,-4.5487920976706535,159317.94063192167,10.5,10500159317.940632,47.655,-122.3035,60.0,2.066666666666667
2026-01-20T23:02:05+00:00,SAT-46342,202.88759690407338,59.70653241184971,865.1960849714246,-4.516467558619961,158185.79854170178,10.5,10500158185.798542,47.655,-122.3035,60.0,2.0833333333333335
2026-01-20T23:02:06+00:00,SAT-46342,202.70307562156407,60.07597898332778,860.6916613262943,-4.483627584574753,157035.60373768612,10.5,10500157035.603737,47.655,-122.3035,60.0,2.1
2026-01-20T23:02:07+00:00,SAT-46342,202.51307077729024,60.4488135083123,856.2199900819451,-4.45026517102631,155867.1108923503,10.5,10500155867.110893,47.655,-122.3035,60.0,2.1166666666666667
2026-01-20T23:02:08+00:00,SAT-46342,202.31730686572587,60.82505078550456,851.7815922847082,-4.416373308640115,154680.07450914997,10.5,10500154680.074509,47.655,-122.3035,60.0,2.1333333333333333
2026-01-20T23:02:09+00:00,SAT-46342,202.1154898287905,61.204703996961996,847.3769959715578,-4.381945045559906,153474.2511046726,10.5,10500153474.251104,47.655,-122.3035,60.0,2.15
2026-01-20T23:02:10+00:00,SAT-46342,201.90730548683726,61.5877845702359,843.006736112786,-4.346973437965774,152249.39747697263,10.5,10500152249.397476,47.655,-122.3035,60.0,2.1666666666666665
2026-01-20T23:02:11+00:00,SAT-46342,201.69241781264228,61.97430202404801,838.6713546039881,-4.311451601404486,151005.27250337665,10.5,10500151005.272503,47.655,-122.3035,60.0,2.183333333333333
2026-01-20T23:02:12+00:00,SAT-46342,201.47046702537781,62.36426380502896,834.3714002068541,-4.275372700447212,149741.6367782532,10.5,10500149741.636778,47.655,-122.3035,60.0,2.2
2026-01-20T23:02:13+00:00,SAT-46342,201.2410674856094,62.75767510871073,830.1074285002748,-4.23872996287839,148458.25310996678,10.5,10500148458.25311,47.655,-122.3035,60.0,2.216666666666667
2026-01-20T23:02:14+00:00,SAT-46342,201.00380536600338,63.15453868537111,825.8800018172973,-4.2015166857882535,147154.8867342642,10.5,10500147154.886734,47.655,-122.3035,60.0,2.2333333333333334
2026-01-20T23:02:15+00:00,SAT-46342,200.7582360702336,63.55485462811002,821.6896891760045,-4.163726264717342,145831.30633503827,10.5,10500145831.306335,47.655,-122.3035,60.0,2.25
2026-01-20T23:02:16+00:00,SAT-46342,200.50388136716242,63.958620143386355,817.5370661813264,-4.125352171946999,144487.2832839694,10.5,10500144487.283283,47.655,-122.3035,60.0,2.2666666666666666
2026-01-20T23:02:17+00:00,SAT-46342,200.24022620680074,64.36582929666778,813.4227149485046,-4.086387987051508,143122.5927105906,10.5,10500143122.59271,47.655,-122.3035,60.0,2.283333333333333
2026-01-20T23:02:18+00:00,SAT-46342,199.9667151737927,64.7764727354837,809.3472239960852,-4.0468274253457,141737.0144986431,10.5,10500141737.014498,47.655,-122.3035,60.0,2.3
2026-01-20T23:02:19+00:00,SAT-46342,199.68274853047538,65.1905373866853,805.3111881105405,-4.006664316744916,140330.3325456627,10.5,10500140330.332546,47.655,-122.3035,60.0,2.316666666666667
2026-01-20T23:02:20+00:00,SAT-46342,199.38767779811667,65.60800611931502,801.3152082319735,-3.965892652259613,138902.33639141763,10.5,10500138902.336391,47.655,-122.3035,60.0,2.3333333333333335
2026-01-20T23:02:21+00:00,SAT-46342,199.08080080873157,66.02885737566346,797.3598912934533,-3.9245065639330177,137452.8205152402,10.5,10500137452.820515,47.655,-122.3035,60.0,2.35
2026-01-20T23:02:22+00:00,SAT-46342,198.76135615942945,66.45306475881466,793.4458500803574,-3.882500356103875,135981.5854309807,10.5,10500135981.58543,47.655,-122.3035,60.0,2.3666666666666667
2026-01-20T23:02:23+00:00,SAT-46342,198.42851698173698,66.88059657626205,789.5737030585365,-3.839868543121317,134488.43900794137,10.5,10500134488.439009,47.655,-122.3035,60.0,2.3833333333333333
2026-01-20T23:02:24+00:00,SAT-46342,198.08138392771025,67.31141533399314,785.7440741648636,-3.79660580066706,132973.19476597419,10.5,10500132973.194765,47.655,-122.3035,60.0,2.4
2026-01-20T23:02:25+00:00,SAT-46342,197.7189772673714,67.74547716341037,781.9575926463315,-3.752707058157262,131435.67511178434,10.5,10500131435.675112,47.655,-122.3035,60.0,2.4166666666666665
2026-01-20T23:02:26+00:00,SAT-46342,197.3402279548247,68.18273118797197,778.214892806996,-3.708167476567739,129875.71056227591,10.5,10500129875.710562,47.655,-122.3035,60.0,2.433333333333333
2026-01-20T23:02:27+00:00,SAT-46342,196.94396752000407,68.62311880592996,774.5166137770325,-3.662982437210452,128293.13935145675,10.5,10500128293.13935,47.655,-122.3035,60.0,2.45
2026-01-20T23:02:28+00:00,SAT-46342,196.52891660909734,69.0665728773393,770.8633992929879,-3.6171475967904696,126687.80935876623,10.5,10500126687.809359,47.655,-122.3035,60.0,2.466666666666667
2026-01-20T23:02:29+00:00,SAT-46342,196.09367196022004,69.51301680815554,767.2558974231222,-3.5706589227565995,125059.57934720391,10.5,10500125059.579348,47.655,-122.3035,60.0,2.4833333333333334
2026-01-20T23:02:30+00:00,SAT-46342,195.6366915741191,69.96236351177987,763.694760257493,-3.5235126442476288,123408.31724525939,10.5,10500123408.317245,47.655,-122.3035,60.0,2.5
2026-01-20T23:02:31+00:00,SAT-46342,195.15627780827253,70.41451421584621,760.1806436469634,-3.4757053183530044,121733.90246764162,10.5,10500121733.902468,47.655,-122.3035,60.0,2.5166666666666666
2026-01-20T23:02:32+00:00,SAT-46342,194.6505580525626,70.86935710339067,756.714206876126,-3.4272338550856083,120036.22678993108,10.5,10500120036.22679,47.655,-122.3035,60.0,2.533333333333333
2026-01-20T23:02:33+00:00,SAT-46342,194.1174626053065,71.32676575306354,753.2961123113206,-3.3780955115842395,118315.19414552623,10.5,10500118315.194145,47.655,-122.3035,60.0,2.55
2026-01-20T23:02:34+00:00,SAT-46342,193.5546993051938,71.78659733784791,749.9270250544339,-3.3282878935697924,116570.72067664498,10.5,10500116570.720676,47.655,-122.3035,60.0,2.566666666666667
2026-01-20T23:02:35+00:00,SAT-46342,192.9597243958748,72.248690538888,746.607612595247,-3.2778090267588995,114802.73723553261,10.5,10500114802.737236,47.655,-122.3035,60.0,2.5833333333333335
2026-01-20T23:02:36+00:00,SAT-46342,192.3297090024142,72.71286313146419,743.3385443925595,-3.226657327877238,113011.18836922508,10.5,10500113011.18837,47.655,-122.3035,60.0,2.6
2026-01-20T23:02:37+00:00,SAT-46342,191.66150052985708,73.17890916503355,740.1204914842232,-3.174831661120202,111196.03429704065,10.5,10500111196.034298,47.655,-122.3035,60.0,2.6166666666666667
2026-01-20T23:02:38+00:00,SAT-46342,190.95157815631967,73.6465956721244,736.9541260408661,-3.1223312968557275,109357.24946417811,10.5,10500109357.249464,47.655,-122.3035,60.0,2.6333333333333333
2026-01-20T23:02:39+00:00,SAT-46342,190.19600151087084,74.11565879746254,733.8401209608019,-3.0691560262417017,107494.82655610325,10.5,10500107494.826555,47.655,-122.3035,60.0,2.65
2026-01-20T23:02:40+00:00,SAT-46342,189.39035145345156,74.58579925693071,730.7791493506301,-3.0153060760818677,105608.77351644252,10.5,10500105608.773516,47.655,-122.3035,60.0,2.6666666666666665
2026-01-20T23:02:41+00:00,SAT-46342,188.5296618372846,75.05667695751224,727.7718840907512,-2.9607821972194763,103699.11664290268,10.5,10500103699.116642,47.655,-122.3035,60.0,2.683333333333333
2026-01-20T23:02:42+00:00,SAT-46342,187.6083409582988,75.52790463689747,724.8189973127243,-2.905585659766245,101765.90042016859,10.5,10500101765.90042,47.655,-122.3035,60.0,2.7
2026-01-20T23:02:43+00:00,SAT-46342,186.6200814124064,75.99904030511969,721.921159881384,-2.8497182739901885,99809.18825148356,10.5,10500099809.188251,47.655,-122.3035,60.0,2.716666666666667
2026-01-20T23:02:44+00:00,SAT-46342,185.5577571072538,76.46957824732182,719.0790408561245,-2.793182395727906,97829.06264821049,10.5,10500097829.062649,47.655,-122.3035,60.0,2.7333333333333334
2026-01-20T23:02:45+00:00,SAT-46342,184.41330640762277,76.93893829141793,716.2933069467852,-2.7359809577331036,95825.6263277897,10.5,10500095825.626328,47.655,-122.3035,60.0,2.75
2026-01-20T23:02:46+00:00,SAT-46342,183.17760088452886,77.40645299661979,713.5646219382727,-2.6781174746199183,93799.00238687507,10.5,10500093799.002386,47.655,-122.3035,60.0,2.7666666666666666
2026-01-20T23:02:47+00:00,SAT-46342,181.84030012628537,77.87135235177713,710.8936461102518,-2.619596085634059,91749.3357993603,10.5,10500091749.3358,47.655,-122.3035,60.0,2.783333333333333
2026-01-20T23:02:48+00:00,SAT-46342,180.38969474787567,78.33274552588328,708.2810356141795,-2.560421521982407,89676.79227212336,10.5,10500089676.792273,47.655,-122.3035,60.0,2.8
2026-01-20T23:02:49+00:00,SAT-46342,178.81254263892043,78.78959914741367,705.7274418829223,-2.500599174509211,87581.56061533315,10.5,10500087581.560616,47.655,-122.3035,60.0,2.816666666666667
2026-01-20T23:02:50+00:00,SAT-46342,177.09390798055122,79.24071160463708,703.2335109728784,-2.4401350629228755,85463.85166464125,10.5,10500085463.851665,47.655,-122.3035,60.0,2.8333333333333335
2026-01-20T23:02:51+00:00,SAT-46342,175.21701979220012,79.68468287110002,700.79988293679,-2.3790358599693033,83323.89912783491,10.5,10500083323.899128,47.655,-122.3035,60.0,2.85
2026-01-20T23:02:52+00:00,SAT-46342,173.16317743647267,80.11987955178024,698.4271911724472,-2.3173089368418407,81161.96117528522,10.5,10500081161.961176,47.655,-122.3035,60.0,2.8666666666666667
2026-01-20T23:02:53+00:00,SAT-46342,170.91174613355614,80.54439520679946,696.1160617261038,-2.254962304328032,78978.3183786576,10.5,10500078978.318378,47.655,-122.3035,60.0,2.8833333333333333
2026-01-20T23:02:54+00:00,SAT-46342,168.44030733588525,80.95600668251096,693.8671126545872,-2.1920047013600525,76773.27681232245,10.5,10500076773.276812,47.655,-122.3035,60.0,2.9
2026-01-20T23:02:55+00:00,SAT-46342,165.7250567013236,81.35212843406117,691.6809532990975,-2.1284455388857735,74547.16608748252,10.5,10500074547.166088,47.655,-122.3035,60.0,2.9166666666666665
2026-01-20T23:02:56+00:00,SAT-46342,162.7415752888488,81.72976870455106,689.5581836149821,-2.064294939035737,72300.3407239659,10.5,10500072300.340723,47.655,-122.3035,60.0,2.933333333333333
2026-01-20T23:02:57+00:00,SAT-46342,159.46612954763063,82.0854943512648,687.4993934624505,-1.9995637144699876,70033.17942686494,10.5,10500070033.179426,47.655,-122.3035,60.0,2.95
2026-01-20T23:02:58+00:00,SAT-46342,155.8776675764242,82.41541497491883,685.5051619178856,-1.9342634159949716,67746.0867542812,10.5,10500067746.086754,47.655,-122.3035,60.0,2.966666666666667
2026-01-20T23:02:59+00:00,SAT-46342,151.96064303072538,82.71520160094994,683.5760565376667,-1.8684062751978403,65439.491108136295,10.5,10500065439.491108,47.655,-122.3035,60.0,2.9833333333333334
2026-01-20T23:03:00+00:00,SAT-46342,147.70867226356705,82.98015919705483,681.7126326792027,-1.8020052484047964,63113.846273779054,10.5,10500063113.846273,47.655,-122.3035,60.0,3.0
2026-01-20T23:03:01+00:00,SAT-46342,143.12877084578562,83.20537344713382,679.9154327781271,-1.7350739938260686,60769.63061950584,10.5,10500060769.63062,47.655,-122.3035,60.0,3.0166666666666666
2026-01-20T23:03:02+00:00,SAT-46342,138.24551795097145,83.38594654796877,678.1849856482844,-1.6676268793882136,58407.34737088097,10.5,10500058407.34737,47.655,-122.3035,60.0,3.033333333333333
2026-01-20T23:03:03+00:00,SAT-46342,133.1040520704524,83.51732068151463,676.5218057739079,-1.5996789535955898,56027.52359018215,10.5,10500056027.52359,47.655,-122.3035,60.0,3.05
2026-01-20T23:03:04+00:00,SAT-46342,127.77054482788262,83.59566055494288,674.9263926308553,-1.5312459738702167,53630.71116898236,10.5,10500053630.711168,47.655,-122.3035,60.0,3.066666666666667
2026-01-20T23:03:05+00:00,SAT-46342,122.3290488517164,83.61823468929835,673.3992299795821,-1.4623443551766,51217.4850287738,10.5,10500051217.48503,47.655,-122.3035,60.0,3.0833333333333335
2026-01-20T23:03:06+00:00,SAT-46342,116.87454567678968,83.58371389835565,671.9407852093526,-1.3929911915101536,48788.44387358341,10.5,10500048788.443874,47.655,-122.3035,60.0,3.1
2026-01-20T23:03:07+00:00,SAT-46342,111.50337628402704,83.49231124101271,670.5515086610199,-1.323204226212082,46344.20915027442,10.5,10500046344.20915,47.655,-122.3035,60.0,3.1166666666666667
2026-01-20T23:03:08+00:00,SAT-46342,106.30333127608772,83.3457257423506,669.231832979411,-1.2530018330004598,43885.42438417456,10.5,10500043885.424385,47.655,-122.3035,60.0,3.1333333333333333
2026-01-20T23:03:09+00:00,SAT-46342,101.34582778772915,83.14690785088447,667.9821724846319,-1.1824030020094338,41412.75469010983,10.5,10500041412.75469,47.655,-122.3035,60.0,3.15
2026-01-20T23:03:10+00:00,SAT-46342,96.68170731263898,82.89971119818514,666.8029225572943,-1.111427328552103,38926.88637883306,10.5,10500038926.88638,47.655,-122.3035,60.0,3.1666666666666665
2026-01-20T23:03:11+00:00,SAT-46342,92.34082328498907,82.6085126042681,665.6944590349517,-1.0400949719271462,36428.525514257715,10.5,10500036428.525515,47.655,-122.3035,60.0,3.183333333333333
2026-01-20T23:03:12+00:00,SAT-46342,88.33449733399512,82.2778692985712,664.6571376496165,-0.9684266453673792,33918.39756141391,10.5,10500033918.397562,47.655,-122.3035,60.0,3.2
2026-01-20T23:03:13+00:00,SAT-46342,84.6594954861035,81.9122530108144,663.6912934753034,-0.8964435884299528,31397.246419436287,10.5,10500031397.24642,47.655,-122.3035,60.0,3.216666666666667
2026-01-20T23:03:14+00:00,SAT-46342,81.30232808675014,81.51587133189372,662.7972404031092,-0.8241675278560616,28865.83305070552,10.5,10500028865.83305,47.655,-122.3035,60.0,3.2333333333333334
2026-01-20T23:03:15+00:00,SAT-46342,78.24310063825554,81.0925669674855,661.9752706553274,-0.7516206674541945,26324.9351265169,10.5,10500026324.935127,47.655,-122.3035,60.0,3.25
2026-01-20T23:03:16+00:00,SAT-46342,75.45856761408706,80.64577661810372,661.2256543096531,-0.6788256320736062,23775.345064794343,10.5,10500023775.345064,47.655,-122.3035,60.0,3.2666666666666666
2026-01-20T23:03:17+00:00,SAT-46342,72.9243400261768,80.17853028315179,660.548638879265,-0.6058054605104586,21217.86978163345,10.5,10500021217.869781,47.655,-122.3035,60.0,3.283333333333333
2026-01-20T23:03:18+00:00,SAT-46342,70.61635516424717,79.69347482229185,659.9444488999826,-0.5325835490448582,18653.32871372972,10.5,10500018653.328714,47.655,-122.3035,60.0,3.3
2026-01-20T23:03:19+00:00,SAT-46342,68.51177273410129,79.1929099653743,659.4132855737353,-0.45918362807342006,16082.552999952088,10.5,10500016082.553,47.655,-122.3035,60.0,3.316666666666667
2026-01-20T23:03:20+00:00,SAT-46342,66.58945880406309,78.6788288968639,658.9553264353367,-0.38562972080637403,13506.384034740886,10.5,10500013506.384035,47.655,-122.3035,60.0,3.3333333333333335
2026-01-20T23:03:21+00:00,SAT-46342,64.83019186834478,78.15295867138181,658.5707250604524,-0.31194610470842266,10925.672117603564,10.5,10500010925.672117,47.655,-122.3035,60.0,3.35
2026-01-20T23:03:22+00:00,SAT-46342,63.21669232458285,77.61679787191102,658.2596108120233,-0.2381572735253222,8341.275123124957,10.5,10500008341.275124,47.655,-122.3035,60.0,3.3666666666666667
2026-01-20T23:03:23+00:00,SAT-46342,61.73354700862504,77.07165031808073,658.0220886245606,-0.1642878974376745,5754.057105384493,10.5,10500005754.057106,47.655,-122.3035,60.0,3.3833333333333333
2026-01-20T23:03:24+00:00,SAT-46342,60.36707702389928,76.51865447596708,657.8582388281828,-0.09036277902749532,3164.886755719188,10.5,10500003164.886755,47.655,-122.3035,60.0,3.4
2026-01-20T23:03:25+00:00,SAT-46342,59.10517999867996,75.95880870725821,657.7681170165661,-0.01640681650152621,574.6361146484387,10.5,10500000574.636114,47.655,-122.3035,60.0,3.4166666666666665
2026-01-20T23:03:26+00:00,SAT-46342,57.937165858788546,75.39299268009164,657.7517539515752,0.05755504184652722,-2015.821023051006,10.5,10499997984.178976,47.655,-122.3035,60.0,3.433333333333333
2026-01-20T23:03:27+00:00,SAT-46342,56.8535974182065,74.8219854332417,657.8091555133101,0.13149783724778766,-4605.610495717576,10.5,10499995394.389503,47.655,-122.3035,60.0,3.45
2026-01-20T23:03:28+00:00,SAT-46342,55.846141724609986,74.24648052045222,657.9403026896586,0.2053966437119011,-7193.859289732238,10.5,10499992806.14071,47.655,-122.3035,60.0,3.466666666666667
2026-01-20T23:03:29+00:00,SAT-46342,54.907434991079626,73.66709869127787,658.1451516089872,0.2792266085095367,-9779.696957386885,10.5,10499990220.303043,47.655,-122.3035,60.0,3.4833333333333334
2026-01-20T23:03:30+00:00,SAT-46342,54.03096192048753,73.08439849550747,658.4236336132075,0.3529629948343868,-12362.257111088036,10.5,10499987637.74289,47.655,-122.3035,60.0,3.5
2026-01-20T23:03:31+00:00,SAT-46342,53.210949099722946,72.49888514729132,658.7756553733889,0.4265812232125329,-14940.678873687995,10.5,10499985059.321127,47.655,-122.3035,60.0,3.5166666666666666
2026-01-20T23:03:32+00:00,SAT-46342,52.44227154420393,71.91101794141483,659.2010990466729,0.5000569108795669,-17514.108257638196,10.5,10499982485.891743,47.655,-122.3035,60.0,3.533333333333333
2026-01-20T23:03:33+00:00,SAT-46342,51.720371185798506,71.32121646774725,659.6998224724568,0.5733659121483609,-20081.699578839267,10.5,10499979918.30042,47.655,-122.3035,60.0,3.55
2026-01-20T23:03:34+00:00,SAT-46342,51.04118600070375,70.72986582292747,660.2716594088395,0.6464843554406262,-22642.616753642866,10.5,10499977357.383245,47.655,-122.3035,60.0,3.566666666666667
2026-01-20T23:03:35+00:00,SAT-46342,50.4010885086843,70.13732099327585,660.9164198059989,0.71938868594574,-25196.034792944225,10.5,10499974803.965206,47.655,-122.3035,60.0,3.5833333333333335
2026-01-20T23:03:36+00:00,SAT-46342,49.796832443550755,69.54391054098576,661.6338901221155,0.7920556945904124,-27741.14081682245,10.5,10499972258.859182,47.655,-122.3035,60.0,3.6
2026-01-20T23:03:37+00:00,SAT-46342,49.225506527789925,68.94993972197715,662.423833668187,0.8644625621281513,-30277.13559874007,10.5,10499969722.8644,47.655,-122.3035,60.0,3.6166666666666667
2026-01-20T23:03:38+00:00,SAT-46342,48.684494374007855,68.35569311592506,663.285990996816,0.9365868832257018,-32803.23440915204,10.5,10499967196.76559,47.655,-122.3035,60.0,3.6333333333333333
2026-01-20T23:03:39+00:00,SAT-46342,48.17143968557228,67.76143686326084,664.2200803150198,1.0084067085877313,-35318.668490890384,10.5,10499964681.331509,47.655,-122.3035,60.0,3.65
2026-01-20T23:03:40+00:00,SAT-46342,47.684216008573,67.16742055950046,665.2257979390514,1.0799005690488614,-37822.68590296906,10.5,10499962177.314096,47.655,-122.3035,60.0,3.6666666666666665
2026-01-20T23:03:41+00:00,SAT-46342,47.22090041272191,66.57387887343799,666.3028187732494,1.151047502647042,-40314.55246880807,10.5,10499959685.44753,47.655,-122.3035,60.0,3.683333333333333
2026-01-20T23:03:42+00:00,SAT-46342,46.77975055121619,65.98103292957424,667.4507968158895,1.2218270936590228,-42793.553143420766,10.5,10499957206.446857,47.655,-122.3035,60.0,3.7
2026-01-20T23:03:43+00:00,SAT-46342,46.35918462718718,65.3890914864695,668.6693657039654,1.2922194761811432,-45258.99213882827,10.5,10499954741.007862,47.655,-122.3035,60.0,3.716666666666667
2026-01-20T23:03:44+00:00,SAT-46342,45.95776387845668,64.79825195835413,669.9581392615432,1.3622053849959042,-47710.19470562196,10.5,10499952289.805294,47.655,-122.3035,60.0,3.7333333333333334
2026-01-20T23:03:45+00:00,SAT-46342,45.57417721961299,64.2087012830535,671.3167120988459,1.4317661549258962,-50146.50711033535,10.5,10499949853.49289,47.655,-122.3035,60.0,3.75
2026-01-20T23:03:46+00:00,SAT-46342,45.207227765195,63.620616681217186,672.744660210692,1.5008837457920876,-52567.29750958885,10.5,10499947432.70249,47.655,-122.3035,60.0,3.7666666666666666
2026-01-20T23:03:47+00:00,SAT-46342,44.855820972371546,63.034166311968264,674.2415415998287,1.5695407622613342,-54971.956645233586,10.5,10499945028.043354,47.655,-122.3035,60.0,3.783333333333333
2026-01-20T23:03:48+00:00,SAT-46342,44.518954189437935,62.449509842494585,675.8068969200573,1.6377204768443392,-57359.89864983715,10.5,10499942640.10135,47.655,-122.3035,60.0,3.8
2026-01-20T23:03:49+00:00,SAT-46342,44.19570742491633,61.86679894319779,677.4402501422967,1.705406826637836,-59730.56093258116,10.5,10499940269.439068,47.655,-122.3035,60.0,3.816666666666667
2026-01-20T23:03:50+00:00,SAT-46342,43.88523518358199,61.28617772791644,679.1411092173968,1.7725844225167615,-62083.40450120995,10.5,10499937916.595499,47.655,-122.3035,60.0,3.8333333333333335
2026-01-20T23:03:51+00:00,SAT-46342,43.58675922906769,60.707783142464365,680.9089667481203,1.8392385871563357,-64417.91529372471,10.5,10499935582.084705,47.655,-122.3035,60.0,3.85
2026-01-20T23:03:52+00:00,SAT-46342,43.29956215116556,60.13174530012601,682.7433006990441,1.905355338205286,-66733.6035890386,10.5,10499933266.396412,47.655,-122.3035,60.0,3.8666666666666667
2026-01-20T23:03:53+00:00,SAT-46342,43.02298164634734,59.558187788530866,684.6435750896809,1.9709213790058826,-69030.00368195308,10.5,10499930969.996319,47.655,-122.3035,60.0,3.8833333333333333
2026-01-20T23:03:54+00:00,SAT-46342,42.75640542093242,58.98722794870082,686.6092406783428,2.0359241594621476,-71306.67601502019,10.5,10499928693.323984,47.655,-122.3035,60.0,3.9
2026-01-20T23:03:55+00:00,SAT-46342,42.49926663162609,58.41897711132089,688.639735706713,2.1003517989651526,-73563.20447906032,10.5,10499926436.79552,47.655,-122.3035,60.0,3.9166666666666665
2026-01-20T23:03:56+00:00,SAT-46342,42.25103981714382,57.853540832864276,690.7344865675475,2.1641931512498647,-75799.19868472335,10.5,10499924200.801315,47.655,-122.3035,60.0,3.933333333333333
2026-01-20T23:03:57+00:00,SAT-46342,42.01123724390135,57.291019094571205,692.8929085370607,2.2274377665114304,-78014.29263564068,10.5,10499921985.707365,47.655,-122.3035,60.0,3.95
2026-01-20T23:03:58+00:00,SAT-46342,41.779405630175546,56.73150649539327,695.1144064695283,2.2900759002234183,-80208.1450372774,10.5,10499919791.854963,47.655,-122.3035,60.0,3.966666666666667
2026-01-20T23:03:59+00:00,SAT-46342,41.55512319919388,56.17509242810404,697.3983755006843,2.3520985168905213,-82380.43942836771,10.5,10499917619.560572,47.655,-122.3035,60.0,3.9833333333333334
2026-01-20T23:04:00+00:00,SAT-46342,41.33799702437069,55.62186124225118,699.7442017548632,2.413497263453031,-84530.88324942725,10.5,10499915469.11675,47.655,-122.3035,60.0,4.0
2026-01-20T23:04:01+00:00,SAT-46342,41.127660636658234,55.071892402432034,702.1512630256136,2.4742644656802533,-86659.20771643514,10.5,10499913340.792284,47.655,-122.3035,60.0,4.016666666666667
2026-01-20T23:04:02+00:00,SAT-46342,40.923771862468236,54.525260637219496,704.6189294527187,2.5343931393723156,-88765.1682131687,10.5,10499911234.831787,47.655,-122.3035,60.0,4.033333333333333
2026-01-20T23:04:03+00:00,SAT-46342,40.72601086579902,53.98203607711489,707.146564210386,2.5938769509214143,-90848.54290989152,10.5,10499909151.45709,47.655,-122.3035,60.0,4.05
2026-01-20T23:04:04+00:00,SAT-46342,40.53407837666395,53.44228439315468,709.733524156105,2.652710219028461,-92909.13282347763,10.5,10499907090.867176,47.655,-122.3035,60.0,4.066666666666666
2026-01-20T23:04:05+00:00,SAT-46342,40.34769408239338,52.906066927838744,712.379160481216,2.710887907810601,-94946.76157600773,10.5,10499905053.238424,47.655,-122.3035,60.0,4.083333333333333
2026-01-20T23:04:06+00:00,SAT-46342,40.166595165533444,52.37344082091175,715.0828193546058,2.7684056228219833,-96961.2752553996,10.5,10499903038.724745,47.655,-122.3035,60.0,4.1
2026-01-20T23:04:07+00:00,SAT-46342,39.99053497291083,51.84445913033067,717.8438425624337,2.8252595340575746,-98952.53971867608,10.5,10499901047.460281,47.655,-122.3035,60.0,4.116666666666666
2026-01-20T23:04:08+00:00,SAT-46342,39.819281807017916,51.31917096189414,720.6615680710671,2.8814464561263513,-100920.44339996934,10.5,10499899079.5566,47.655,-122.3035,60.0,4.133333333333334
2026-01-20T23:04:09+00:00,SAT-46342,39.65261781725627,50.79762157854895,723.5353306699772,2.9369637560602357,-102864.89408159986,10.5,10499897135.105919,47.655,-122.3035,60.0,4.15
2026-01-20T23:04:10+00:00,SAT-46342,39.490337991968325,50.27985252180194,726.4644625226879,2.991809379629971,-104785.81981576966,10.5,10499895214.180183,47.655,-122.3035,60.0,4.166666666666667
2026-01-20T23:04:11+00:00,SAT-46342,39.33224923393254,49.76590172347618,729.448293743972,3.045981805201428,-106683.16730841505,10.5,10499893316.832691,47.655,-122.3035,60.0,4.183333333333334
2026-01-20T23:04:12+00:00,SAT-46342,39.17816951546642,49.25580362080352,732.4861529310263,3.0994800366704687,-108556.9016717556,10.5,10499891443.098328,47.655,-122.3035,60.0,4.2
2026-01-20T23:04:13+00:00,SAT-46342,39.02792710318509,48.74958926805088,735.577367687599,3.1523036123118104,-110407.0067342188,10.5,10499889592.993265,47.655,-122.3035,60.0,4.216666666666667
2026-01-20T23:04:14+00:00,SAT-46342,38.881359845192364,48.2472864424884,738.7212651569446,3.204452538686315,-112233.48272559381,10.5,10499887766.517275,47.655,-122.3035,60.0,4.233333333333333
2026-01-20T23:04:15+00:00,SAT-46342,38.73831451844299,47.748919756741664,741.9171724888612,3.2559272976296496,-114036.34652180385,10.5,10499885963.653479,47.655,-122.3035,60.0,4.25
2026-01-20T23:04:16+00:00,SAT-46342,38.598646227119026,47.254510765480056,745.1644173136972,3.306728838294452,-115815.63136618916,10.5,10499884184.368633,47.655,-122.3035,60.0,4.266666666666667
2026-01-20T23:04:17+00:00,SAT-46342,38.462217848152626,46.76407806941388,748.4623282084227,3.3568585451376927,-117571.38574828915,10.5,10499882428.614252,47.655,-122.3035,60.0,4.283333333333333
2026-01-20T23:04:18+00:00,SAT-46342,38.3288995207865,46.27763741988859,751.8102351307734,3.4063182101881413,-119303.67243253159,10.5,10499880696.327568,47.655,-122.3035,60.0,4.3
2026-01-20T23:04:19+00:00,SAT-46342,38.19856817577192,45.7952018235223,755.2074698257344,3.4551100257508733,-121012.56820271366,10.5,10499878987.431797,47.655,-122.3035,60.0,4.316666666666666
2026-01-20T23:04:20+00:00,SAT-46342,38.07110710013204,45.316781643549156,758.6533662247499,3.503236568297968,-122698.16329778604,10.5,10499877301.836702,47.655,-122.3035,60.0,4.333333333333333
2026-01-20T23:04:21+00:00,SAT-46342,37.946405534561904,44.842384699564285,762.1472608288658,3.5507007852530212,-124360.56094899068,10.5,10499875639.43905,47.655,-122.3035,60.0,4.35
2026-01-20T23:04:22+00:00,SAT-46342,37.824358300701185,44.372016365096826,765.6884930786914,3.5975059399776264,-125999.87545305453,10.5,10499874000.124546,47.655,-122.3035,60.0,4.366666666666666
2026-01-20T23:04:23+00:00,SAT-46342,37.70486545715127,43.90567966842541,769.2764056694958,3.6436556715917567,-127616.23426735253,10.5,10499872383.765732,47.655,-122.3035,60.0,4.383333333333334
2026-01-20T23:04:24+00:00,SAT-46342,37.587831977827626,43.44337538177273,772.9103449259633,3.6891538643404562,-129209.77343457649,10.5,10499870790.226566,47.655,-122.3035,60.0,4.4
2026-01-20T23:04:25+00:00,SAT-46342,37.473167457275096,42.985102123205024,776.5896610466655,3.734004746092923,-130780.6410325896,10.5,10499869219.358967,47.655,-122.3035,60.0,4.416666666666667
2026-01-20T23:04:26+00:00,SAT-46342,37.360785833146196,42.530856442155034,780.3137084467689,3.778212773779233,-132328.99316193585,10.5,10499867671.006838,47.655,-122.3035,60.0,4.433333333333334
2026-01-20T23:04:27+00:00,SAT-46342,37.250605131262034,42.080632915293954,784.0818459864847,3.8217827025101276,-133854.9963667076,10.5,10499866145.003633,47.655,-122.3035,60.0,4.45
2026-01-20T23:04:28+00:00,SAT-46342,37.14254722582822,41.63442423015571,787.8934372684548,3.8647194983921755,-135358.8245809634,10.5,10499864641.175419,47.655,-122.3035,60.0,4.466666666666667
2026-01-20T23:04:29+00:00,SAT-46342,37.0365376182461,41.19222127536296,791.7478508481845,3.907028371788209,-136840.66029364953,10.5,10499863159.339706,47.655,-122.3035,60.0,4.483333333333333
2026-01-20T23:04:30+00:00,SAT-46342,36.93250522953655,40.75401322318895,795.6444604776481,3.948714728008824,-138300.69282160746,10.5,10499861699.307178,47.655,-122.3035,60.0,4.5
2026-01-20T23:04:31+00:00,SAT-46342,36.83038220773667,40.31978761400106,799.5826452997155,3.9897841509995504,-139739.1177382297,10.5,10499860260.882261,47.655,-122.3035,60.0,4.516666666666667
2026-01-20T23:04:32+00:00,SAT-46342,36.730103748095765,39.88953043865058,803.5617900263123,4.030242446341825,-141156.13837953575,10.5,10499858843.86162,47.655,-122.3035,60.0,4.533333333333333
2026-01-20T23:04:33+00:00,SAT-46342,36.63160792361143,39.463226212856455,807.581285159464,4.070095544707125,-142551.9624627275,10.5,10499857448.037537,47.655,-122.3035,60.0,4.55
2026-01-20T23:04:34+00:00,SAT-46342,36.53483552878863,39.04085805820509,811.6405271160519,4.109349541861611,-143926.8034873209,10.5,10499856073.196512,47.655,-122.3035,60.0,4.566666666666666
2026-01-20T23:04:35+00:00,SAT-46342,36.439729932084944,38.62240777541404,815.7389183924685,4.148010674501545,-145280.87988880032,10.5,10499854719.120111,47.655,-122.3035,60.0,4.583333333333333
2026-01-20T23:04:36+00:00,SAT-46342,36.346236938059015,38.20785591670611,819.8758677051715,4.186085311306847,-146614.414725276,10.5,10499853385.585276,47.655,-122.3035,60.0,4.6
2026-01-20T23:04:37+00:00,SAT-46342,36.25430465818542,37.797181855764464,824.0507901223148,4.223579903528289,-147927.63394683876,10.5,10499852072.366053,47.655,-122.3035,60.0,4.616666666666666
2026-01-20T23:04:38+00:00,SAT-46342,36.16388339058686,37.390363859113556,828.2631071461003,4.260501025609362,-149220.76781830948,10.5,10499850779.232182,47.655,-122.3035,60.0,4.633333333333334
2026-01-20T23:04:39+00:00,SAT-46342,36.07492550598532,36.98737915036641,832.5122468356413,4.296855347161906,-150494.04993770728,10.5,10499849505.950062,47.655,-122.3035,60.0,4.65
2026-01-20T23:04:40+00:00,SAT-46342,35.987385341128224,36.5882039740013,836.7976439018776,4.332649591130596,-151747.71577099268,10.5,10499848252.28423,47.655,-122.3035,60.0,4.666666666666667
2026-01-20T23:04:41+00:00,SAT-46342,35.90121909925422,36.192813659966134,841.1187397607652,4.367890581016597,-152982.00430603983,10.5,10499847017.995693,47.655,-122.3035,60.0,4.683333333333334
2026-01-20T23:04:42+00:00,SAT-46342,35.81638475540317,35.80118268088148,845.4749826335657,4.40258515264477,-154197.1549623509,10.5,10499845802.845037,47.655,-122.3035,60.0,4.7
2026-01-20T23:04:43+00:00,SAT-46342,35.73284196895323,35.41328471421812,849.8658275591366,4.436740239194297,-155393.4105691882,10.5,10499844606.589432,47.655,-122.3035,60.0,4.716666666666667
2026-01-20T23:04:44+00:00,SAT-46342,35.650551999420934,35.029092694081974,854.2907364910265,4.470362787388167,-156571.0144301754,10.5,10499843428.985569,47.655,-122.3035,60.0,4.733333333333333
2026-01-20T23:04:45+00:00,SAT-46342,35.5694776286404,34.648578867638875,858.7491783109816,4.503459764669485,-157730.2105746423,10.5,10499842269.789425,47.655,-122.3035,60.0,4.75
2026-01-20T23:04:46+00:00,SAT-46342,35.48958308720192,34.271714847946974,863.240628849612,4.536038193854065,-158871.24497130504,10.5,10499841128.755028,47.655,-122.3035,60.0,4.766666666666667
2026-01-20T23:04:47+00:00,SAT-46342,35.41083398422352,33.898471661467575,867.7645709416157,4.568105067011055,-159994.3625120018,10.5,10499840005.637487,47.655,-122.3035,60.0,4.783333333333333
2026-01-20T23:04:48+00:00,SAT-46342,35.333197242640594,33.528819799928876,872.3204943951148,4.599667420770314,-161099.80964927506,10.5,10499838900.190351,47.655,-122.3035,60.0,4.8
2026-01-20T23:04:49+00:00,SAT-46342,35.256641036565114,33.16272926370579,876.9078960360964,4.630732286348907,-162187.83264608853,10.5,10499837812.167355,47.655,-122.3035,60.0,4.816666666666666
2026-01-20T23:04:50+00:00,SAT-46342,35.18113473299679,32.80016960675653,881.526279703015,4.6613066696124985,-163258.67687749251,10.5,10499836741.323122,47.655,-122.3035,60.0,4.833333333333333
2026-01-20T23:04:51+00:00,SAT-46342,35.10664883692152,32.44110998081097,886.1751562215085,4.6913975751615435,-164312.58767422428,10.5,10499835687.412325,47.655,-122.3035,60.0,4.85
2026-01-20T23:04:52+00:00,SAT-46342,35.03315493891974,32.08551917533998,890.8540434031363,4.721012001312733,-165349.8101469374,10.5,10499834650.189854,47.655,-122.3035,60.0,4.866666666666666
2026-01-20T23:04:53+00:00,SAT-46342,34.960625665650085,31.733365655835684,895.5624660391123,4.75015689883258,-166370.58774087674,10.5,10499833629.41226,47.655,-122.3035,60.0,4.883333333333334
2026-01-20T23:04:54+00:00,SAT-46342,34.88903463350944,31.384617603052284,900.2999558528813,4.77883920475118,-167375.1634201798,10.5,10499832624.83658,47.655,-122.3035,60.0,4.9
2026-01-20T23:04:55+00:00,SAT-46342,34.81835640421548,31.039242947637657,905.0660514864197,4.807065814478977,-168363.77869128805,10.5,10499831636.22131,47.655,-122.3035,60.0,4.916666666666667
2026-01-20T23:04:56+00:00,SAT-46342,34.74856644307239,30.697209404900793,909.8602984587268,4.834843605744067,-169336.67444133203,10.5,10499830663.32556,47.655,-122.3035,60.0,4.933333333333334
2026-01-20T23:04:57+00:00,SAT-46342,34.67964107899329,30.35848450599356,914.6822491481888,4.862179363642203,-170294.088313066,10.5,10499829705.911688,47.655,-122.3035,60.0,4.95
2026-01-20T23:04:58+00:00,SAT-46342,34.611557467664746,30.023035632459813,919.5314627001947,4.889079902431942,-171236.25897064892,10.5,10499828763.74103,47.655,-122.3035,60.0,4.966666666666667
