satellites_20260121_005943/SAT-66122.csv

timestamp,satellite,azimuth_deg,elevation_deg,distance_km,relative_velocity_kms,doppler_shift_hz,tx_freq_ghz,rx_freq_hz,ue_lat,ue_lon,ue_alt_m,time_minutes
2026-01-20T23:07:55+00:00,SAT-66122,204.4673417323934,30.07141654425874,1233.899019651363,-5.5017571192183095,192694.80672456493,10.5,10500192694.806725,47.655,-122.3035,60.0,7.916666666666667
2026-01-20T23:07:56+00:00,SAT-66122,204.52144668803305,30.293651185018586,1228.4119338844625,-5.486036790836831,192144.21432772244,10.5,10500192144.214327,47.655,-122.3035,60.0,7.933333333333334
2026-01-20T23:07:57+00:00,SAT-66122,204.57657573601608,30.51759480648747,1222.9405265250682,-5.47009825575417,191585.97940919112,10.5,10500191585.979408,47.655,-122.3035,60.0,7.95
2026-01-20T23:07:58+00:00,SAT-66122,204.6327497456567,30.74326404930032,1217.4850151979958,-5.453938239401092,191019.9872797049,10.5,10500191019.98728,47.655,-122.3035,60.0,7.966666666666667
2026-01-20T23:07:59+00:00,SAT-66122,204.6899901511426,30.970675628739432,1212.0456207938998,-5.4375534693688055,190446.12332566569,10.5,10500190446.123325,47.655,-122.3035,60.0,7.983333333333333
2026-01-20T23:08:00+00:00,SAT-66122,204.7483189709732,31.199846331539334,1206.6225674671161,-5.420940545702379,189864.26846627003,10.5,10500189864.268467,47.655,-122.3035,60.0,8.0
2026-01-20T23:08:01+00:00,SAT-66122,204.8077588268177,31.430793007026764,1201.2160827628688,-5.404096106776059,189274.30496316426,10.5,10500189274.304964,47.655,-122.3035,60.0,8.016666666666667
2026-01-20T23:08:02+00:00,SAT-66122,204.86833296489758,31.663532564782784,1195.8263975790442,-5.387016727878259,188676.11286846222,10.5,10500188676.11287,47.655,-122.3035,60.0,8.033333333333333
2026-01-20T23:08:03+00:00,SAT-66122,204.9300652771689,31.89808196779596,1190.4537462291069,-5.369698898805937,188069.56924000516,10.5,10500188069.56924,47.655,-122.3035,60.0,8.05
2026-01-20T23:08:04+00:00,SAT-66122,204.99298032305168,32.134458224222946,1185.0983665273643,-5.352139091625277,187454.55051462774,10.5,10500187454.550514,47.655,-122.3035,60.0,8.066666666666666
2026-01-20T23:08:05+00:00,SAT-66122,205.05710335285863,32.37267838164716,1179.7604998066502,-5.334333751916847,186830.93220152622,10.5,10500186830.932201,47.655,-122.3035,60.0,8.083333333333334
2026-01-20T23:08:06+00:00,SAT-66122,205.12246033208936,32.61275952060973,1174.4403909447385,-5.316279254650682,186198.58733681738,10.5,10500186198.587337,47.655,-122.3035,60.0,8.1
2026-01-20T23:08:07+00:00,SAT-66122,205.189077966176,32.854718745765275,1169.138288434767,-5.297971933357849,185557.3875052501,10.5,10500185557.387505,47.655,-122.3035,60.0,8.116666666666667
2026-01-20T23:08:08+00:00,SAT-66122,205.25698372663604,33.09857317788643,1163.8544444265644,-5.279408092134089,184907.2032606235,10.5,10500184907.20326,47.655,-122.3035,60.0,8.133333333333333
2026-01-20T23:08:09+00:00,SAT-66122,205.32620587846205,33.344339945925476,1158.5891147560096,-5.260583972341001,184247.90295952177,10.5,10500184247.90296,47.655,-122.3035,60.0,8.15
2026-01-20T23:08:10+00:00,SAT-66122,205.39677350822421,33.59203617711211,1153.342559007595,-5.241495790749465,183579.3540972581,10.5,10500183579.354097,47.655,-122.3035,60.0,8.166666666666666
2026-01-20T23:08:11+00:00,SAT-66122,205.46871655387423,33.84167898825497,1148.1150405389542,-5.2221397009207795,182901.42195527875,10.5,10500182901.421955,47.655,-122.3035,60.0,8.183333333333334
2026-01-20T23:08:12+00:00,SAT-66122,205.5420658353033,34.093285474772806,1142.9068265439023,-5.202511833407863,182213.97100917916,10.5,10500182213.971008,47.655,-122.3035,60.0,8.2
2026-01-20T23:08:13+00:00,SAT-66122,205.6168530867312,34.34687270099167,1137.7181880753835,-5.182608252137168,181516.86340101412,10.5,10500181516.863401,47.655,-122.3035,60.0,8.216666666666667
2026-01-20T23:08:14+00:00,SAT-66122,205.69311098990735,34.60245768784805,1132.5494001119189,-5.162425024891772,180809.96140791377,10.5,10500180809.961409,47.655,-122.3035,60.0,8.233333333333333
2026-01-20T23:08:15+00:00,SAT-66122,205.7708732097326,34.860057403339766,1127.4007415537599,-5.141958096937323,180093.12301592954,10.5,10500180093.123016,47.655,-122.3035,60.0,8.25
2026-01-20T23:08:16+00:00,SAT-66122,205.8501744295932,35.119688746224064,1122.272495345081,-5.121203458351619,179366.20778062404,10.5,10500179366.20778,47.655,-122.3035,60.0,8.266666666666667
2026-01-20T23:08:17+00:00,SAT-66122,205.93105039071332,35.38136853718769,1117.164948429285,-5.100157017518039,178629.0723962756,10.5,10500178629.072395,47.655,-122.3035,60.0,8.283333333333333
2026-01-20T23:08:18+00:00,SAT-66122,206.01353793136005,35.64511350319965,1112.0783918304803,-5.078814644903588,177881.57222917085,10.5,10500177881.57223,47.655,-122.3035,60.0,8.3
2026-01-20T23:08:19+00:00,SAT-66122,206.09767502842072,35.91094026321333,1107.0131206912965,-5.057172176295117,177123.56143095077,10.5,10500177123.561432,47.655,-122.3035,60.0,8.316666666666666
2026-01-20T23:08:20+00:00,SAT-66122,206.18350084087945,36.178865313315534,1101.9694343074716,-5.035225405752984,176354.89269181792,10.5,10500176354.892693,47.655,-122.3035,60.0,8.333333333333334
2026-01-20T23:08:21+00:00,SAT-66122,206.2710557551493,36.448905010712735,1096.9476361694674,-5.012970099612886,175575.41773094007,10.5,10500175575.41773,47.655,-122.3035,60.0,8.35
2026-01-20T23:08:22+00:00,SAT-66122,206.3603814326469,36.72107555762995,1091.94803399012,-4.9904019936425,174784.98719686354,10.5,10500174784.987196,47.655,-122.3035,60.0,8.366666666666667
2026-01-20T23:08:23+00:00,SAT-66122,206.45152085949366,36.995392984216956,1086.9709397351273,-4.9675167584643685,173983.44945647655,10.5,10500173983.449457,47.655,-122.3035,60.0,8.383333333333333
2026-01-20T23:08:24+00:00,SAT-66122,206.54451839786222,37.271873128696825,1082.016669688019,-4.94431007555902,173170.6532569599,10.5,10500173170.653257,47.655,-122.3035,60.0,8.4
2026-01-20T23:08:25+00:00,SAT-66122,206.63941984103803,37.550531620657864,1077.0855444393278,-4.9207775646148315,172346.4451812718,10.5,10500172346.44518,47.655,-122.3035,60.0,8.416666666666666
2026-01-20T23:08:26+00:00,SAT-66122,206.73627246967507,37.831383859464886,1072.1778889482189,-4.8969148288024,171510.67123384803,10.5,10500171510.671234,47.655,-122.3035,60.0,8.433333333333334
2026-01-20T23:08:27+00:00,SAT-66122,206.83512511151915,38.114444994090974,1067.29403255896,-4.872717417227777,170663.1755255553,10.5,10500170663.175526,47.655,-122.3035,60.0,8.45
2026-01-20T23:08:28+00:00,SAT-66122,206.93602820314334,38.39972989978862,1062.4343090548448,-4.848180903769807,169803.80303490814,10.5,10500169803.803036,47.655,-122.3035,60.0,8.466666666666667
2026-01-20T23:08:29+00:00,SAT-66122,207.0390338561963,38.68725315813446,1057.599056633485,-4.8233007991760175,168932.39652929557,10.5,10500168932.39653,47.655,-122.3035,60.0,8.483333333333333
2026-01-20T23:08:30+00:00,SAT-66122,207.144195924958,38.977029030939185,1052.7886179697734,-4.798072579934972,168048.79757621256,10.5,10500168048.797577,47.655,-122.3035,60.0,8.5
2026-01-20T23:08:31+00:00,SAT-66122,207.25157007766512,39.269071434496084,1048.0033402500517,-4.772491759086526,167152.84902333506,10.5,10500167152.849024,47.655,-122.3035,60.0,8.516666666666667
2026-01-20T23:08:32+00:00,SAT-66122,207.3612138728152,39.56339391685541,1043.2435751356559,-4.746553754940527,166244.3904004934,10.5,10500166244.3904,47.655,-122.3035,60.0,8.533333333333333
2026-01-20T23:08:33+00:00,SAT-66122,207.47318683614282,39.860009625888644,1038.5096788573953,-4.7202540537241715,165323.26361627082,10.5,10500165323.263617,47.655,-122.3035,60.0,8.55
2026-01-20T23:08:34+00:00,SAT-66122,207.5875505451098,40.15893128587777,1033.8020121478144,-4.6935880371143215,164389.30691745545,10.5,10500164389.306917,47.655,-122.3035,60.0,8.566666666666666
2026-01-20T23:08:35+00:00,SAT-66122,207.70436871333362,40.4601711620435,1029.1209403454657,-4.666551155722004,163442.36096520163,10.5,10500163442.360966,47.655,-122.3035,60.0,8.583333333333334
2026-01-20T23:08:36+00:00,SAT-66122,207.8237072833662,40.76374103437354,1024.4668333261588,-4.6391388205069415,162482.26503190713,10.5,10500162482.265032,47.655,-122.3035,60.0,8.6
2026-01-20T23:08:37+00:00,SAT-66122,207.94563452137334,41.069652163163596,1019.8400655425066,-4.611346425565106,161508.85779933003,10.5,10500161508.8578,47.655,-122.3035,60.0,8.616666666666667
2026-01-20T23:08:38+00:00,SAT-66122,208.070221116976,41.37791525429874,1015.2410160407431,-4.583169372031696,160521.97819577172,10.5,10500160521.978195,47.655,-122.3035,60.0,8.633333333333333
2026-01-20T23:08:39+00:00,SAT-66122,208.19754028868365,41.688540424373016,1010.6700684537035,-4.554603081582501,159521.4658689521,10.5,10500159521.46587,47.655,-122.3035,60.0,8.65
2026-01-20T23:08:40+00:00,SAT-66122,208.32766789497921,42.001537165030165,1006.1276109803385,-4.525642962079007,158507.1599827557,10.5,10500158507.159983,47.655,-122.3035,60.0,8.666666666666666
2026-01-20T23:08:41+00:00,SAT-66122,208.46068255000336,42.31691430317246,1001.6140363994917,-4.496284417605484,157478.89956877296,10.5,10500157478.899569,47.655,-122.3035,60.0,8.683333333333334
2026-01-20T23:08:42+00:00,SAT-66122,208.59666574533577,42.63467995988012,997.1297420736665,-4.466522897636327,156436.52524834845,10.5,10500156436.525248,47.655,-122.3035,60.0,8.7
2026-01-20T23:08:43+00:00,SAT-66122,208.73570197936445,42.95484151070339,992.6751299037572,-4.4363538507244025,155379.8776105509,10.5,10500155379.877611,47.655,-122.3035,60.0,8.716666666666667
2026-01-20T23:08:44+00:00,SAT-66122,208.87787889193592,43.27740554078582,988.250606329968,-4.405772747505355,154308.79801788152,10.5,10500154308.798018,47.655,-122.3035,60.0,8.733333333333333
2026-01-20T23:08:45+00:00,SAT-66122,209.02328740654738,43.60237779933206,983.8565823097894,-4.374775068171784,153223.1281675663,10.5,10500153223.128168,47.655,-122.3035,60.0,8.75
2026-01-20T23:08:46+00:00,SAT-66122,209.17202187943266,43.92976315091735,979.4934733084662,-4.34335636058244,152122.71212678615,10.5,10500152122.712128,47.655,-122.3035,60.0,8.766666666666667
2026-01-20T23:08:47+00:00,SAT-66122,209.32418025834238,44.25956552869129,975.1616992315119,-4.311512161738597,151007.3935824472,10.5,10500151007.393583,47.655,-122.3035,60.0,8.783333333333333
2026-01-20T23:08:48+00:00,SAT-66122,209.4798642468784,44.59178787935333,970.8616844355379,-4.279238093160763,149877.01918167673,10.5,10500149877.019182,47.655,-122.3035,60.0,8.8
2026-01-20T23:08:49+00:00,SAT-66122,209.63917948077452,44.92643211264459,966.5938576439589,-4.246529775945591,148731.43555675674,10.5,10500148731.435556,47.655,-122.3035,60.0,8.816666666666666
2026-01-20T23:08:50+00:00,SAT-66122,209.8022357103761,45.263499041762586,962.3586519474159,-4.213382925560679,147570.49264523902,10.5,10500147570.492645,47.655,-122.3035,60.0,8.833333333333334
2026-01-20T23:08:51+00:00,SAT-66122,209.9691469962679,45.60298832822237,958.1565047096567,-4.179793265343794,146394.04066032186,10.5,10500146394.04066,47.655,-122.3035,60.0,8.85
2026-01-20T23:08:52+00:00,SAT-66122,210.14003191197074,45.94489841706358,953.9878575596871,-4.145756637391207,145201.93397462877,10.5,10500145201.933975,47.655,-122.3035,60.0,8.866666666666667
2026-01-20T23:08:53+00:00,SAT-66122,210.3150137618549,46.28922647778625,949.853156273329,-4.111268889716267,143994.02716802436,10.5,10500143994.027168,47.655,-122.3035,60.0,8.883333333333333
2026-01-20T23:08:54+00:00,SAT-66122,210.49422080609978,46.63596833304042,945.7528507673186,-4.076325980419586,142770.17867609483,10.5,10500142770.178677,47.655,-122.3035,60.0,8.9
2026-01-20T23:08:55+00:00,SAT-66122,210.6777865020635,46.98511839232678,941.6873949895135,-4.0409239591400326,141530.25014048335,10.5,10500141530.250141,47.655,-122.3035,60.0,8.916666666666666
2026-01-20T23:08:56+00:00,SAT-66122,210.86584975806466,47.33666958090299,937.6572468275979,-4.00505890051441,140274.10407836642,10.5,10500140274.104078,47.655,-122.3035,60.0,8.933333333333334
2026-01-20T23:08:57+00:00,SAT-66122,211.0585551977357,47.69061325919271,933.6628680841515,-3.9687270507047057,139001.60901445828,10.5,10500139001.609015,47.655,-122.3035,60.0,8.95
2026-01-20T23:08:58+00:00,SAT-66122,211.25605344565773,48.04693915095366,929.704724305582,-3.931924707706753,137712.63528891347,10.5,10500137712.635288,47.655,-122.3035,60.0,8.966666666666667
2026-01-20T23:08:59+00:00,SAT-66122,211.45850142293006,48.40563525715546,925.783284730429,-3.89464827623644,136407.05697967432,10.5,10500136407.05698,47.655,-122.3035,60.0,8.983333333333333
2026-01-20T23:09:00+00:00,SAT-66122,211.66606266151922,48.76668777028585,921.8990221829292,-3.8568942963880852,135084.75290620854,10.5,10500135084.752907,47.655,-122.3035,60.0,9.0
2026-01-20T23:09:01+00:00,SAT-66122,211.8789076373851,49.13008098684139,918.0524129379982,-3.8186594118890156,133745.60551765002,10.5,10500133745.605518,47.655,-122.3035,60.0,9.016666666666667
2026-01-20T23:09:02+00:00,SAT-66122,212.097214120344,49.495797212346325,914.2439366178742,-3.779940403723624,132389.50207045587,10.5,10500132389.502071,47.655,-122.3035,60.0,9.033333333333333
2026-01-20T23:09:03+00:00,SAT-66122,212.3211675450096,49.86381666448266,910.4740760552272,-3.740734208707923,131016.33527896555,10.5,10500131016.33528,47.655,-122.3035,60.0,9.05
2026-01-20T23:09:04+00:00,SAT-66122,212.55096140344446,50.2341173729813,906.7433171377426,-3.7010378517810705,129626.00094396385,10.5,10500129626.000944,47.655,-122.3035,60.0,9.066666666666666
2026-01-20T23:09:05+00:00,SAT-66122,212.7867976553869,50.60667506743674,903.0521487202329,-3.660848590455789,128218.40301194561,10.5,10500128218.403011,47.655,-122.3035,60.0,9.083333333333334
2026-01-20T23:09:06+00:00,SAT-66122,213.02888717017228,50.981463073562836,899.4010623926849,-3.620163772457748,126793.44858904472,10.5,10500126793.44859,47.655,-122.3035,60.0,9.1
2026-01-20T23:09:07+00:00,SAT-66122,213.27745018412134,51.35845218939544,895.7905523902871,-3.5789809706962843,125351.05266827955,10.5,10500125351.052668,47.655,-122.3035,60.0,9.116666666666667
2026-01-20T23:09:08+00:00,SAT-66122,213.53271679215797,51.737610568679166,892.221115368846,-3.537297888881384,123891.13482386048,10.5,10500123891.134825,47.655,-122.3035,60.0,9.133333333333333
2026-01-20T23:09:09+00:00,SAT-66122,213.79492746014304,52.118903587903944,888.6932502743349,-3.4951124547642194,122413.622476868,10.5,10500122413.622477,47.655,-122.3035,60.0,9.15
2026-01-20T23:09:10+00:00,SAT-66122,214.0643335721158,52.50229371594278,885.2074581194502,-3.4524227892405697,120918.44981312366,10.5,10500120918.449814,47.655,-122.3035,60.0,9.166666666666666
2026-01-20T23:09:11+00:00,SAT-66122,214.34119800561496,52.887740373110255,881.7642417909808,-3.4092271957271154,119405.55741110309,10.5,10500119405.557411,47.655,-122.3035,60.0,9.183333333333334
2026-01-20T23:09:12+00:00,SAT-66122,214.6257957375784,53.27519978106079,878.3641058677756,-3.365524214515291,117874.89414563777,10.5,10500117874.894146,47.655,-122.3035,60.0,9.2
2026-01-20T23:09:13+00:00,SAT-66122,214.9184144876755,53.664624810247396,875.007556384499,-3.3213125959878513,116326.41624984588,10.5,10500116326.41625,47.655,-122.3035,60.0,9.216666666666667
2026-01-20T23:09:14+00:00,SAT-66122,215.21935539437135,54.05596481560407,871.6951006221005,-3.2765913343345487,114760.08849599799,10.5,10500114760.088495,47.655,-122.3035,60.0,9.233333333333333
2026-01-20T23:09:15+00:00,SAT-66122,215.5289337303227,54.449165466648864,868.4272468646575,-3.231359657000857,113175.8838259667,10.5,10500113175.883825,47.655,-122.3035,60.0,9.25
2026-01-20T23:09:16+00:00,SAT-66122,215.8474796549615,54.84416856642247,865.2045041667421,-3.1856170428156623,111573.78398613502,10.5,10500111573.783987,47.655,-122.3035,60.0,9.266666666666667
2026-01-20T23:09:17+00:00,SAT-66122,216.17533900836685,55.24091186193313,862.0273821027072,-3.1393632363168353,109953.7800291386,10.5,10500109953.78003,47.655,-122.3035,60.0,9.283333333333333
2026-01-20T23:09:18+00:00,SAT-66122,216.51287414787325,55.63932884513101,858.8963905016872,-3.0925982532467367,108315.87250634149,10.5,10500108315.872507,47.655,-122.3035,60.0,9.3
2026-01-20T23:09:19+00:00,SAT-66122,216.86046482807035,56.03934854269925,855.8120391771158,-3.0453223699723546,106660.07109728466,10.5,10500106660.071096,47.655,-122.3035,60.0,9.316666666666666
2026-01-20T23:09:20+00:00,SAT-66122,217.21850912355117,56.44089529171363,852.7748376667968,-2.9975361754165966,104986.39642853945,10.5,10500104986.39643,47.655,-122.3035,60.0,9.333333333333334
2026-01-20T23:09:21+00:00,SAT-66122,217.58742440271388,56.84388850851866,849.7852949211813,-2.9492405343225134,103294.87878706539,10.5,10500103294.878788,47.655,-122.3035,60.0,9.35
2026-01-20T23:09:22+00:00,SAT-66122,217.96764834357413,57.24824243852662,846.8439190282836,-2.900436633419221,101585.55973713595,10.5,10500101585.559736,47.655,-122.3035,60.0,9.366666666666667
2026-01-20T23:09:23+00:00,SAT-66122,218.35964000184035,57.653865896891645,843.9512168925535,-2.851125943153967,99858.49078003374,10.5,10500099858.49078,47.655,-122.3035,60.0,9.383333333333333
2026-01-20T23:09:24+00:00,SAT-66122,218.7638809209361,58.06066198774786,841.1076939519146,-2.8013102948519646,98113.73605651423,10.5,10500098113.736057,47.655,-122.3035,60.0,9.4
2026-01-20T23:09:25+00:00,SAT-66122,219.1808762989448,58.46852781690357,838.3138538178489,-2.7509918243381715,96351.37037220196,10.5,10500096351.370373,47.655,-122.3035,60.0,9.416666666666666
2026-01-20T23:09:26+00:00,SAT-66122,219.61115619383474,58.87735417853516,835.5701979717089,-2.7001729986697813,94571.4801338755,10.5,10500094571.480133,47.655,-122.3035,60.0,9.433333333333334
2026-01-20T23:09:27+00:00,SAT-66122,220.05527677578604,59.28702522602661,832.8772254343689,-2.6488566622660596,92774.1649651294,10.5,10500092774.164965,47.655,-122.3035,60.0,9.45
2026-01-20T23:09:28+00:00,SAT-66122,220.51382162833508,59.697418129217155,830.2354323898688,-2.597045971678716,90959.53542175675,10.5,10500090959.535421,47.655,-122.3035,60.0,9.466666666666667
2026-01-20T23:09:29+00:00,SAT-66122,220.98740307637306,60.10840270019016,827.6453118741147,-2.544744468857632,89127.71555782479,10.5,10500089127.715557,47.655,-122.3035,60.0,9.483333333333333
2026-01-20T23:09:30+00:00,SAT-66122,221.47666355790813,60.519841006982965,825.1073533905075,-2.4919560551928974,87278.84201651739,10.5,10500087278.842016,47.655,-122.3035,60.0,9.5
2026-01-20T23:09:31+00:00,SAT-66122,221.98227701686292,60.93158695932916,822.6220425514616,-2.4386849939331774,85413.06411483628,10.5,10500085413.064116,47.655,-122.3035,60.0,9.516666666666667
2026-01-20T23:09:32+00:00,SAT-66122,222.50495031149705,61.34348586905532,820.1898607175124,-2.3849359518319044,83530.54530222704,10.5,10500083530.545301,47.655,-122.3035,60.0,9.533333333333333
2026-01-20T23:09:33+00:00,SAT-66122,223.04542463571462,61.75537399071281,817.8112845948853,-2.3307139365739946,81631.4609689979,10.5,10500081631.46097,47.655,-122.3035,60.0,9.55
2026-01-20T23:09:34+00:00,SAT-66122,223.60447691644455,62.16707802377664,815.4867858954755,-2.276024379532699,79716.00134481482,10.5,10500079716.001345,47.655,-122.3035,60.0,9.566666666666666
2026-01-20T23:09:35+00:00,SAT-66122,224.1829212002543,62.578414599747774,813.2168309142882,-2.2208730825897445,77784.3696361178,10.5,10500077784.369637,47.655,-122.3035,60.0,9.583333333333334
2026-01-20T23:09:36+00:00,SAT-66122,224.78160997753147,62.98918973027253,811.0018801599186,-2.1652662477461204,75836.7830632159,10.5,10500075836.783064,47.655,-122.3035,60.0,9.6
2026-01-20T23:09:37+00:00,SAT-66122,225.40143543538161,63.399198229561954,808.8423879554999,-2.10921048500317,73873.47313631648,10.5,10500073873.473137,47.655,-122.3035,60.0,9.616666666666667
2026-01-20T23:09:38+00:00,SAT-66122,226.0433306027217,63.80822310712726,806.73880203179,-2.0527127724782686,71894.6842586074,10.5,10500071894.68426,47.655,-122.3035,60.0,9.633333333333333
2026-01-20T23:09:39+00:00,SAT-66122,226.70827033355715,64.21603492144207,804.6915631600384,-1.9957805269675761,69900.67619766323,10.5,10500069900.676197,47.655,-122.3035,60.0,9.65
2026-01-20T23:09:40+00:00,SAT-66122,227.39727211445012,64.62239111583678,802.7011047144761,-1.9384215381309453,67891.72178032219,10.5,10500067891.72178,47.655,-122.3035,60.0,9.666666666666666
2026-01-20T23:09:41+00:00,SAT-66122,228.1113965998835,65.02703531145346,800.7678523004469,-1.8806440131996316,65868.10845853946,10.5,10500065868.10846,47.655,-122.3035,60.0,9.683333333333334
2026-01-20T23:09:42+00:00,SAT-66122,228.8517478439712,65.42969658012956,798.8922233379491,-1.8224565516210842,63830.137421340274,10.5,10500063830.13742,47.655,-122.3035,60.0,9.7
2026-01-20T23:09:43+00:00,SAT-66122,229.61947312963542,65.83008868604063,797.0746266704656,-1.763868156072064,61778.123980546145,10.5,10500061778.123981,47.655,-122.3035,60.0,9.716666666666667
2026-01-20T23:09:44+00:00,SAT-66122,230.41576231831837,66.2279093069415,795.3154621628098,-1.704888234841565,59712.39765423463,10.5,10500059712.397654,47.655,-122.3035,60.0,9.733333333333333
2026-01-20T23:09:45+00:00,SAT-66122,231.24184661581245,66.62283923859185,793.6151202965945,-1.6455265642914105,57633.30085195076,10.5,10500057633.300852,47.655,-122.3035,60.0,9.75
2026-01-20T23:09:46+00:00,SAT-66122,232.0989966165029,67.01454157974582,791.9739818031411,-1.5857933471959458,55541.19091800979,10.5,10500055541.190918,47.655,-122.3035,60.0,9.766666666666667
2026-01-20T23:09:47+00:00,SAT-66122,232.98851953776798,67.40266092833451,790.3924172382044,-1.5256991380595233,53436.43751579966,10.5,10500053436.437515,47.655,-122.3035,60.0,9.783333333333333
2026-01-20T23:09:48+00:00,SAT-66122,233.91175542893856,67.78682256929719,788.8707866311796,-1.46525490246247,51319.42470632779,10.5,10500051319.424706,47.655,-122.3035,60.0,9.8
2026-01-20T23:09:49+00:00,SAT-66122,234.8700722548964,68.16663169926966,787.4094390751237,-1.404471946143719,49190.54846439482,10.5,10500049190.548464,47.655,-122.3035,60.0,9.816666666666666
2026-01-20T23:09:50+00:00,SAT-66122,235.8648595966744,68.54167267375163,786.0087123875031,-1.3433619691466696,47050.21857501176,10.5,10500047050.218575,47.655,-122.3035,60.0,9.833333333333334
2026-01-20T23:09:51+00:00,SAT-66122,236.89752084239885,68.91150832849527,784.6689327169407,-1.2819370218849884,44898.85709463838,10.5,10500044898.857094,47.655,-122.3035,60.0,9.85
2026-01-20T23:09:52+00:00,SAT-66122,237.96946359560644,69.2756793756059,783.3904141937809,-1.2202094956338143,42736.89801814511,10.5,10500042736.898018,47.655,-122.3035,60.0,9.866666666666667
2026-01-20T23:09:53+00:00,SAT-66122,239.0820880958574,69.63370391219482,782.1734585901354,-1.1581921315416417,40564.78759444721,10.5,10500040564.787594,47.655,-122.3035,60.0,9.883333333333333
2026-01-20T23:09:54+00:00,SAT-66122,240.23677344328692,69.98507708158357,781.0183549709445,-1.0958979889207079,38382.98321590009,10.5,10500038382.983215,47.655,-122.3035,60.0,9.9
2026-01-20T23:09:55+00:00,SAT-66122,241.4348613748466,70.32927091582084,779.9253793766609,-1.0333404590194957,36191.95390067052,10.5,10500036191.953901,47.655,-122.3035,60.0,9.916666666666666
2026-01-20T23:09:56+00:00,SAT-66122,242.6776374342832,70.66573441832473,778.8947944921988,-0.970533221425482,33992.17876577656,10.5,10500033992.178766,47.655,-122.3035,60.0,9.933333333333334
2026-01-20T23:09:57+00:00,SAT-66122,243.96630931266708,70.99389392059045,777.9268493593638,-0.9074902573305629,31784.147491698775,10.5,10500031784.147491,47.655,-122.3035,60.0,9.95
2026-01-20T23:09:58+00:00,SAT-66122,245.30198230675754,71.31315378644527,777.0217790760528,-0.844225826346322,29568.35951035293,10.5,10500029568.35951,47.655,-122.3035,60.0,9.966666666666667
2026-01-20T23:09:59+00:00,SAT-66122,246.6856318259796,71.62289751364887,776.1798045185767,-0.7807544443830018,27345.32323031795,10.5,10500027345.32323,47.655,-122.3035,60.0,9.983333333333333
2026-01-20T23:10:00+00:00,SAT-66122,248.11807301327673,71.92248929598442,775.4011320860454,-0.7170908804549628,25115.555924949622,10.5,10500025115.555925,47.655,-122.3035,60.0,10.0
2026-01-20T23:10:01+00:00,SAT-66122,249.59992771645454,72.21127611724238,774.6859534479383,-0.6532501343016063,22879.582948570594,10.5,10500022879.582949,47.655,-122.3035,60.0,10.016666666666667
2026-01-20T23:10:02+00:00,SAT-66122,251.13158915731657,72.48859043333742,774.0344453139949,-0.5892474187587552,20637.93711904163,10.5,10500020637.937119,47.655,-122.3035,60.0,10.033333333333333
2026-01-20T23:10:03+00:00,SAT-66122,252.71318487609153,72.75375350158986,773.4467692216862,-0.5250981472780475,18391.158280637927,10.5,10500018391.158281,47.655,-122.3035,60.0,10.05
2026-01-20T23:10:04+00:00,SAT-66122,254.34453876365183,73.0060794071922,772.9230713361342,-0.46081790944637063,16139.792446636171,10.5,10500016139.792446,47.655,-122.3035,60.0,10.066666666666666
2026-01-20T23:10:05+00:00,SAT-66122,256.02513319746515,73.24487981487378,772.4634822744463,-0.3964224592622486,13884.391388704016,10.5,10500013884.391388,47.655,-122.3035,60.0,10.083333333333334
2026-01-20T23:10:06+00:00,SAT-66122,257.7540726084218,73.469469463407,772.0681169417421,-0.33192769386963916,11625.511892067714,10.5,10500011625.511892,47.655,-122.3035,60.0,10.1
2026-01-20T23:10:07+00:00,SAT-66122,259.53004999121697,73.67917238471468,771.7370743883895,-0.2673496313059128,9363.714976152218,10.5,10500009363.714975,47.655,-122.3035,60.0,10.116666666666667
2026-01-20T23:10:08+00:00,SAT-66122,261.3513180774824,73.87332879926929,771.4704376894337,-0.2027043942245902,7099.565324482569,10.5,10500007099.565325,47.655,-122.3035,60.0,10.133333333333333
2026-01-20T23:10:09+00:00,SAT-66122,263.2156670609081,74.0513026060707,771.2682738402603,-0.1380081909979518,4833.630622817383,10.5,10500004833.630623,47.655,-122.3035,60.0,10.15
2026-01-20T23:10:10+00:00,SAT-66122,265.1204107808693,74.21248934054474,771.130633671105,-0.07327729252366712,2566.4807468188696,10.5,10500002566.480747,47.655,-122.3035,60.0,10.166666666666666
2026-01-20T23:10:11+00:00,SAT-66122,267.0623831530224,74.3563244289917,771.0575517846947,-0.0085280130018896,298.687088785405,10.5,10500000298.687088,47.655,-122.3035,60.0,10.183333333333334
2026-01-20T23:10:12+00:00,SAT-66122,269.0379464384388,74.48229153247361,771.049046513061,0.05622330940491917,-1969.1781197232494,10.5,10499998030.82188,47.655,-122.3035,60.0,10.2
2026-01-20T23:10:13+00:00,SAT-66122,271.0430125682085,74.58993073828574,771.1051198936408,0.12096033458273377,-4236.54257879531,10.5,10499995763.45742,47.655,-122.3035,60.0,10.216666666666667
2026-01-20T23:10:14+00:00,SAT-66122,273.0730781182365,74.67884632674827,771.2257576673312,0.18566673991680593,-6502.8346014177,10.5,10499993497.165398,47.655,-122.3035,60.0,10.233333333333333
2026-01-20T23:10:15+00:00,SAT-66122,275.12327290615013,74.74871383433106,771.4109292959416,0.25032624168733564,-8767.483862842955,10.5,10499991232.516138,47.655,-122.3035,60.0,10.25
2026-01-20T23:10:16+00:00,SAT-66122,277.1884214303177,74.79928613782808,771.6605880009845,0.3149226133430212,-11029.922040606245,10.5,10499988970.07796,47.655,-122.3035,60.0,10.266666666666667
2026-01-20T23:10:17+00:00,SAT-66122,279.2631154955187,74.8303983037416,771.9746708206918,0.3794397098281416,-13289.58366656271,10.5,10499986710.416334,47.655,-122.3035,60.0,10.283333333333333
2026-01-20T23:10:18+00:00,SAT-66122,281.3417957553676,74.84197099219762,772.3530986912939,0.4438614834133489,-15545.906681348748,10.5,10499984454.093319,47.655,-122.3035,60.0,10.3
2026-01-20T23:10:19+00:00,SAT-66122,283.41883913130414,74.83401225736219,772.7957765440848,0.5081720038960057,-17798.333141883308,10.5,10499982201.666859,47.655,-122.3035,60.0,10.316666666666666
2026-01-20T23:10:20+00:00,SAT-66122,285.4886487744365,74.80661765946661,773.3025934226371,0.5723554810349117,-20046.310007126904,10.5,10499979953.689993,47.655,-122.3035,60.0,10.333333333333334
2026-01-20T23:10:21+00:00,SAT-66122,287.54574299591565,74.75996867766678,773.8734226223892,0.636396278355967,-22289.289621614345,10.5,10499977710.710379,47.655,-122.3035,60.0,10.35
2026-01-20T23:10:22+00:00,SAT-66122,289.58483963638616,74.6943294918998,774.5081218440029,0.700278941943203,-24526.730723838395,10.5,10499975473.269276,47.655,-122.3035,60.0,10.366666666666667
2026-01-20T23:10:23+00:00,SAT-66122,291.60093276670625,74.61004227248596,775.2065333754342,0.7639881967634635,-26758.09831752461,10.5,10499973241.901682,47.655,-122.3035,60.0,10.383333333333333
2026-01-20T23:10:24+00:00,SAT-66122,293.58935899611424,74.50752118197445,775.9684842703396,0.827508996080741,-28982.865402330368,10.5,10499971017.134598,47.655,-122.3035,60.0,10.4
2026-01-20T23:10:25+00:00,SAT-66122,295.54585163227836,74.38724532995349,776.7937865757642,0.8908265086912197,-31200.51252676212,10.5,10499968799.487473,47.655,-122.3035,60.0,10.416666666666666
2026-01-20T23:10:26+00:00,SAT-66122,297.46658136746356,74.24975096301513,777.6822375470989,0.9539261487066059,-33410.52883131357,10.5,10499966589.471169,47.655,-122.3035,60.0,10.433333333333334
2026-01-20T23:10:27+00:00,SAT-66122,299.3481832669505,74.09562316909047,778.6336198927422,1.0167935916123483,-35612.41261089249,10.5,10499964387.587389,47.655,-122.3035,60.0,10.45
2026-01-20T23:10:28+00:00,SAT-66122,301.1877703830169,73.92548737410316,779.647702034777,1.0794147899351647,-37805.67186356379,10.5,10499962194.328136,47.655,-122.3035,60.0,10.466666666666667
2026-01-20T23:10:29+00:00,SAT-66122,302.982934970634,73.74000088544834,780.7242383852723,1.1417759777283334,-39989.824447643376,10.5,10499960010.175552,47.655,-122.3035,60.0,10.483333333333333
2026-01-20T23:10:30+00:00,SAT-66122,304.7317387256394,73.5398447056713,781.8629696270601,1.2038636935535207,-42164.39888661898,10.5,10499957835.601114,47.655,-122.3035,60.0,10.5
2026-01-20T23:10:31+00:00,SAT-66122,306.4326938172195,73.32571579465211,783.0636230174308,1.2656647901116709,-44328.93470646465,10.5,10499955671.065294,47.655,-122.3035,60.0,10.516666666666667
2026-01-20T23:10:32+00:00,SAT-66122,308.08473657398326,73.09831992103196,784.3259127014355,1.3271664515119341,-46482.98304047165,10.5,10499953517.01696,47.655,-122.3035,60.0,10.533333333333333
2026-01-20T23:10:33+00:00,SAT-66122,309.6871957308135,72.85836519754824,785.64954004241,1.3883561846197312,-48626.10632622112,10.5,10499951373.893673,47.655,-122.3035,60.0,10.55
2026-01-20T23:10:34+00:00,SAT-66122,311.23975700338616,72.60655636135627,787.0341939438708,1.4492218568887623,-50757.879630621006,10.5,10499949242.120369,47.655,-122.3035,60.0,10.566666666666666
2026-01-20T23:10:35+00:00,SAT-66122,312.742425670991,72.34358981247286,788.4795512091412,1.5097516869660543,-52877.89032085514,10.5,10499947122.109678,47.655,-122.3035,60.0,10.583333333333334
2026-01-20T23:10:36+00:00,SAT-66122,314.19548850419625,72.07014941156217,789.9852768916086,1.569934256216609,-54985.738468025076,10.5,10499945014.261532,47.655,-122.3035,60.0,10.6
2026-01-20T23:10:37+00:00,SAT-66122,315.59947621501163,71.78690300323012,791.5510246564754,1.6297585192779809,-57081.03721681617,10.5,10499942918.962784,47.655,-122.3035,60.0,10.616666666666667
2026-01-20T23:10:38+00:00,SAT-66122,316.9551273269884,71.49449961818573,793.1764371530353,1.6892138077040888,-59163.41291311916,10.5,10499940836.587088,47.655,-122.3035,60.0,10.633333333333333
2026-01-20T23:10:39+00:00,SAT-66122,318.26335412277507,71.1935672976259,794.8611463905854,1.7482898402260445,-61232.50546340785,10.5,10499938767.494537,47.655,-122.3035,60.0,10.65
2026-01-20T23:10:40+00:00,SAT-66122,319.5252111288336,70.88471147428295,796.6047741245709,1.806976726466604,-63287.96846483489,10.5,10499936712.031536,47.655,-122.3035,60.0,10.666666666666666
2026-01-20T23:10:41+00:00,SAT-66122,320.7418664039644,70.56851384445616,798.4069322464336,1.8652649604589668,-65329.46897823278,10.5,10499934670.531021,47.655,-122.3035,60.0,10.683333333333334
2026-01-20T23:10:42+00:00,SAT-66122,321.91457575002596,70.24553166639633,800.2672231669981,1.923145439896239,-67356.68820231131,10.5,10499932643.311798,47.655,-122.3035,60.0,10.7
2026-01-20T23:10:43+00:00,SAT-66122,323.04465986885003,69.9162974168698,802.1852402190545,1.9806094668960457,-69369.32150043774,10.5,10499930630.6785,47.655,-122.3035,60.0,10.716666666666667
2026-01-20T23:10:44+00:00,SAT-66122,324.13348436845297,69.581318749842,804.1605680607056,2.0376487311929403,-71367.07781196374,10.5,10499928632.922188,47.655,-122.3035,60.0,10.733333333333333
2026-01-20T23:10:45+00:00,SAT-66122,325.1824424645039,69.2410787060812,806.1927830619486,2.0942553285764958,-73349.68029800538,10.5,10499926650.319702,47.655,-122.3035,60.0,10.75
2026-01-20T23:10:46+00:00,SAT-66122,326.19294021016606,68.89603611909705,808.2814537096489,2.150421763337744,-75316.86642712775,10.5,10499924683.133574,47.655,-122.3035,60.0,10.766666666666667
2026-01-20T23:10:47+00:00,SAT-66122,327.16638402993016,68.54662617765507,810.4261410149511,2.2061409397691976,-77268.3876776399,10.5,10499922731.612322,47.655,-122.3035,60.0,10.783333333333333
2026-01-20T23:10:48+00:00,SAT-66122,328.1041703286689,68.19326110968153,812.6263989122142,2.2614061448595932,-79204.00893149129,10.5,10499920795.991068,47.655,-122.3035,60.0,10.8
2026-01-20T23:10:49+00:00,SAT-66122,329.00767694891294,67.83633095721547,814.8817746406875,2.3162110892206944,-81123.50990770184,10.5,10499918876.490093,47.655,-122.3035,60.0,10.816666666666666
2026-01-20T23:10:50+00:00,SAT-66122,329.8782562816956,67.47620440647981,817.1918091670036,2.370549853780633,-83026.68329533709,10.5,10499916973.316704,47.655,-122.3035,60.0,10.833333333333334
2026-01-20T23:10:51+00:00,SAT-66122,330.71722978404097,67.11322966594736,819.5560375545075,2.42441693248339,-84913.33624902464,10.5,10499915086.663752,47.655,-122.3035,60.0,10.85
2026-01-20T23:10:52+00:00,SAT-66122,331.5258837501324,66.7477353589283,821.973989375171,2.4778071934333594,-86783.28902807245,10.5,10499913216.710972,47.655,-122.3035,60.0,10.866666666666667
2026-01-20T23:10:53+00:00,SAT-66122,332.30546612842784,66.3800314287203,824.4451890827552,2.5307158898335107,-88636.37537956962,10.5,10499911363.62462,47.655,-122.3035,60.0,10.883333333333333
2026-01-20T23:10:54+00:00,SAT-66122,333.0571842456167,66.01041003670791,826.9691563968825,2.583138657383683,-90472.44244726354,10.5,10499909527.557552,47.655,-122.3035,60.0,10.9
2026-01-20T23:10:55+00:00,SAT-66122,333.7822032901894,65.63914644637832,829.5454066845131,2.6350715071864728,-92291.3505230941,10.5,10499907708.649477,47.655,-122.3035,60.0,10.916666666666666
2026-01-20T23:10:56+00:00,SAT-66122,334.48164542958807,65.26649988681896,832.1734513343471,2.686510801702215,-94092.97220503545,10.5,10499905907.027796,47.655,-122.3035,60.0,10.933333333333334
2026-01-20T23:10:57+00:00,SAT-66122,335.15658944769893,64.89271439273189,834.8527981072448,2.7374532863733356,-95877.1935047146,10.5,10499904122.806496,47.655,-122.3035,60.0,10.95
2026-01-20T23:10:58+00:00,SAT-66122,335.80807082265954,64.51801960928262,837.5829515181878,2.7878960424416124,-97643.91219487226,10.5,10499902356.087805,47.655,-122.3035,60.0,10.966666666666667
2026-01-20T23:10:59+00:00,SAT-66122,336.4370821421148,64.14263157034169,840.3634131711829,2.837836514367012,-99393.03876968655,10.5,10499900606.961231,47.655,-122.3035,60.0,10.983333333333333
2026-01-20T23:11:00+00:00,SAT-66122,337.04457380528413,63.76675343804679,843.1936821215115,2.8872724547171003,-101124.49451456698,10.5,10499898875.505486,47.655,-122.3035,60.0,11.0
2026-01-20T23:11:01+00:00,SAT-66122,337.6314549327595,63.39057621408002,846.073255183016,2.9362019984157905,-102838.21410665975,10.5,10499897161.785892,47.655,-122.3035,60.0,11.016666666666667
2026-01-20T23:11:02+00:00,SAT-66122,338.1985944618363,63.0142794052616,849.0016273094361,2.9846235500639056,-104534.14166833712,10.5,10499895465.858332,47.655,-122.3035,60.0,11.033333333333333
2026-01-20T23:11:03+00:00,SAT-66122,338.7468223453453,62.638031668385956,851.9782918633665,3.032535872090278,-106212.23385462193,10.5,10499893787.766146,47.655,-122.3035,60.0,11.05
2026-01-20T23:11:04+00:00,SAT-66122,339.27693086025096,62.26199140865132,855.0027409731313,3.0799380032400343,-107872.45699830235,10.5,10499892127.543001,47.655,-122.3035,60.0,11.066666666666666
2026-01-20T23:11:05+00:00,SAT-66122,339.7896759625571,61.88630735458679,858.0744658083626,3.126829298435794,-109514.78850603985,10.5,10499890485.211494,47.655,-122.3035,60.0,11.083333333333334
2026-01-20T23:11:06+00:00,SAT-66122,340.2857786877803,61.51111909508632,861.1929568953359,3.173209399372836,-111139.21582848752,10.5,10499888860.784172,47.655,-122.3035,60.0,11.1
2026-01-20T23:11:07+00:00,SAT-66122,340.7659265640022,61.13655758862159,864.3577044029771,3.219078220936802,-112745.73598458043,10.5,10499887254.264015,47.655,-122.3035,60.0,11.116666666666667
2026-01-20T23:11:08+00:00,SAT-66122,341.2307750249859,60.762745643877295,867.5681984153247,3.264435959335716,-114334.3558463536,10.5,10499885665.644154,47.655,-122.3035,60.0,11.133333333333333
2026-01-20T23:11:09+00:00,SAT-66122,341.6809488135516,60.38979837069447,870.8239292121023,3.309283063266901,-115905.09112908524,10.5,10499884094.90887,47.655,-122.3035,60.0,11.15
2026-01-20T23:11:10+00:00,SAT-66122,342.1170433595412,60.01782360708575,874.1243875205338,3.35362025089533,-117457.96698595055,10.5,10499882542.033014,47.655,-122.3035,60.0,11.166666666666666
2026-01-20T23:11:11+00:00,SAT-66122,342.53962613097514,59.64692231847353,877.4690647840933,3.3974484539358594,-118993.01604954492,10.5,10499881006.98395,47.655,-122.3035,60.0,11.183333333333334
2026-01-20T23:11:12+00:00,SAT-66122,342.949237942665,59.27718897873547,880.8574533754854,3.440768872907385,-120510.2803671183,10.5,10499879489.719633,47.655,-122.3035,60.0,11.2
2026-01-20T23:11:13+00:00,SAT-66122,343.3463942322309,58.90871192203633,884.2890468647317,3.483582917297591,-122009.80930489153,10.5,10499877990.190695,47.655,-122.3035,60.0,11.216666666666667
2026-01-20T23:11:14+00:00,SAT-66122,343.73158628547804,58.541573679571975,887.7633402275831,3.525892222212102,-123491.66013118005,10.5,10499876508.339869,47.655,-122.3035,60.0,11.233333333333333
2026-01-20T23:11:15+00:00,SAT-66122,344.10528241875693,58.175851294008986,891.279830070536,3.56769861002079,-124955.8966730854,10.5,10499875044.103327,47.655,-122.3035,60.0,11.25
2026-01-20T23:11:16+00:00,SAT-66122,344.4679291107483,57.811616618696846,894.8380148175968,3.609004134379134,-126402.5908583094,10.5,10499873597.409142,47.655,-122.3035,60.0,11.266666666666667
2026-01-20T23:11:17+00:00,SAT-66122,344.8199520918717,57.44893659424777,898.4373949409509,3.6498110031718114,-127831.82001631283,10.5,10499872168.179983,47.655,-122.3035,60.0,11.283333333333333
2026-01-20T23:11:18+00:00,SAT-66122,345.1617573786623,57.08787351604813,902.0774731147809,3.690121644760925,-129243.66919860843,10.5,10499870756.330801,47.655,-122.3035,60.0,11.3
2026-01-20T23:11:19+00:00,SAT-66122,345.49373226816874,56.72848527912363,905.7577544351558,3.729938607999097,-130638.22767679674,10.5,10499869361.772324,47.655,-122.3035,60.0,11.316666666666666
2026-01-20T23:11:20+00:00,SAT-66122,345.8162462770257,56.37082561794446,909.4777465402002,3.769264673757922,-132015.592848764,10.5,10499867984.407152,47.655,-122.3035,60.0,11.333333333333334
2026-01-20T23:11:21+00:00,SAT-66122,346.1296520459563,56.01494432129699,913.2369598414948,3.8081027133253533,-133375.86527915992,10.5,10499866624.134722,47.655,-122.3035,60.0,11.35
2026-01-20T23:11:22+00:00,SAT-66122,346.4342861881097,55.660887447667,917.0349076142512,3.8464557858226693,-134719.15211135175,10.5,10499865280.847889,47.655,-122.3035,60.0,11.366666666666667
2026-01-20T23:11:23+00:00,SAT-66122,346.7304701039122,55.30869751885049,920.8711061846451,3.8843270711065108,-136045.56471736977,10.5,10499863954.435282,47.655,-122.3035,60.0,11.383333333333333
2026-01-20T23:11:24+00:00,SAT-66122,347.0185107496225,54.95841370832887,924.7450750502286,3.9217198892039513,-137355.2193786059,10.5,10499862644.78062,47.655,-122.3035,60.0,11.4
2026-01-20T23:11:25+00:00,SAT-66122,347.2987013685045,54.61007201687841,928.6563370197281,3.958637688688133,-138648.2368786789,10.5,10499861351.76312,47.655,-122.3035,60.0,11.416666666666666
2026-01-20T23:11:26+00:00,SAT-66122,347.5713221836775,54.26370543904115,932.6044183412463,3.9950840129080634,-139924.74132065946,10.5,10499860075.258678,47.655,-122.3035,60.0,11.433333333333334
2026-01-20T23:11:27+00:00,SAT-66122,347.83664105287005,53.91934412290358,936.5888487967866,4.031062531043902,-141184.86121475734,10.5,10499858815.138784,47.655,-122.3035,60.0,11.45
2026-01-20T23:11:28+00:00,SAT-66122,348.0949140913408,53.5770155180577,940.6091618277477,4.06657702440014,-142428.72899825076,10.5,10499857571.271002,47.655,-122.3035,60.0,11.466666666666667
2026-01-20T23:11:29+00:00,SAT-66122,348.3463862612137,53.23674451634084,944.6648946467495,4.101631337781555,-143656.4793324665,10.5,10499856343.520668,47.655,-122.3035,60.0,11.483333333333333
2026-01-20T23:11:30+00:00,SAT-66122,348.5912919268409,52.898553588622384,948.7555883009636,4.136229431471124,-144868.25092326637,10.5,10499855131.749077,47.655,-122.3035,60.0,11.5
2026-01-20T23:11:31+00:00,SAT-66122,348.8298553842198,52.56246290965326,952.8807877872841,4.170375332771146,-146064.18482381245,10.5,10499853935.815176,47.655,-122.3035,60.0,11.516666666666667
2026-01-20T23:11:32+00:00,SAT-66122,349.06229135946813,52.22849047986991,957.040042119168,4.204073140692842,-147244.42459881643,10.5,10499852755.575401,47.655,-122.3035,60.0,11.533333333333333
2026-01-20T23:11:33+00:00,SAT-66122,349.28880548134214,51.896652240053456,961.2329043981523,4.237327050535513,-148409.11718540595,10.5,10499851590.882814,47.655,-122.3035,60.0,11.55
2026-01-20T23:11:34+00:00,SAT-66122,349.5095947300134,51.56696217776588,965.4589319098864,4.2701412675029005,-149558.40986760397,10.5,10499850441.590132,47.655,-122.3035,60.0,11.566666666666666
2026-01-20T23:11:35+00:00,SAT-66122,349.7248478575409,51.2394324346041,969.7176861340092,4.302520117052434,-150692.45414122648,10.5,10499849307.545858,47.655,-122.3035,60.0,11.583333333333334
2026-01-20T23:11:36+00:00,SAT-66122,349.9347457918492,50.91407339921911,974.008732864083,4.33446791969962,-151811.40132900208,10.5,10499848188.598671,47.655,-122.3035,60.0,11.6
2026-01-20T23:11:37+00:00,SAT-66122,350.1394620129937,50.590893804709275,978.3316422026633,4.365989087396826,-152915.40595616543,10.5,10499847084.594044,47.655,-122.3035,60.0,11.616666666666667
2026-01-20T23:11:38+00:00,SAT-66122,350.3391629143327,50.26990081361716,982.6859886524937,4.397088034142771,-154004.6226196227,10.5,10499845995.37738,47.655,-122.3035,60.0,11.633333333333333
2026-01-20T23:11:39+00:00,SAT-66122,350.53400814043096,49.95110010491212,987.0713511185454,4.427769237592477,-155079.20814579335,10.5,10499844920.791855,47.655,-122.3035,60.0,11.65
2026-01-20T23:11:40+00:00,SAT-66122,350.72415091005007,49.634495951887494,991.4873129715043,4.458037192509933,-156139.31996032503,10.5,10499843860.68004,47.655,-122.3035,60.0,11.666666666666666
2026-01-20T23:11:41+00:00,SAT-66122,350.9097383201201,49.32009129925042,995.9334620648342,4.4878964154354515,-157185.1162515644,10.5,10499842814.883749,47.655,-122.3035,60.0,11.683333333333334
2026-01-20T23:11:42+00:00,SAT-66122,351.0909116340511,49.00788783579283,1000.4093907564952,4.517351471821815,-158216.75692097982,10.5,10499841783.243078,47.655,-122.3035,60.0,11.7
2026-01-20T23:11:43+00:00,SAT-66122,351.267806556114,48.69788606139931,1004.9146959577255,4.546406898539527,-159234.40086896726,10.5,10499840765.59913,47.655,-122.3035,60.0,11.716666666666667
2026-01-20T23:11:44+00:00,SAT-66122,351.4405534884695,48.39008535580208,1009.4489791045355,4.575067308290182,-160238.20965184824,10.5,10499839761.790348,47.655,-122.3035,60.0,11.733333333333333
2026-01-20T23:11:45+00:00,SAT-66122,351.6092777789761,48.084484036761495,1014.011846233337,4.603337256903419,-161228.3428340479,10.5,10499838771.657166,47.655,-122.3035,60.0,11.75
2026-01-20T23:11:46+00:00,SAT-66122,351.77409995114886,47.78107942400805,1018.602907924222,4.631221349568964,-162204.96170879027,10.5,10499837795.038292,47.655,-122.3035,60.0,11.766666666666667
2026-01-20T23:11:47+00:00,SAT-66122,351.93513592633013,47.47986789291903,1023.221779350192,4.65872418600403,-163168.22737762908,10.5,10499836831.772623,47.655,-122.3035,60.0,11.783333333333333
2026-01-20T23:11:48+00:00,SAT-66122,352.0924972324145,47.18084492898916,1027.8680802717001,4.685850357617071,-164118.30065110995,10.5,10499835881.699348,47.655,-122.3035,60.0,11.8
2026-01-20T23:11:49+00:00,SAT-66122,352.24629120191634,46.88400517967476,1032.5414350283636,4.712604447288872,-165055.34204110352,10.5,10499834944.657959,47.655,-122.3035,60.0,11.816666666666666
2026-01-20T23:11:50+00:00,SAT-66122,352.39662115997993,46.589342503577384,1037.2414725304595,4.738991059220541,-165979.51280620834,10.5,10499834020.487194,47.655,-122.3035,60.0,11.833333333333334
2026-01-20T23:11:51+00:00,SAT-66122,352.543586603878,46.296850015288975,1041.967826280189,4.7650147476756395,-166890.9724559989,10.5,10499833109.027544,47.655,-122.3035,60.0,11.85
2026-01-20T23:11:52+00:00,SAT-66122,352.68728337119853,46.00652013229564,1046.7201343218708,4.790680090450466,-167789.88132426568,10.5,10499832210.118675,47.655,-122.3035,60.0,11.866666666666667
2026-01-20T23:11:53+00:00,SAT-66122,352.8278038019491,45.718344615055805,1051.4980392654134,4.815991613635673,-168676.39793384852,10.5,10499831323.602066,47.655,-122.3035,60.0,11.883333333333333
2026-01-20T23:11:54+00:00,SAT-66122,352.96523689030374,45.43231460952537,1056.301188234746,4.840953858422902,-169550.68133648805,10.5,10499830449.318663,47.655,-122.3035,60.0,11.9
2026-01-20T23:11:55+00:00,SAT-66122,353.0996684308279,45.148420683594466,1061.12923288288,4.865571354268366,-170412.89017290037,10.5,10499829587.109827,47.655,-122.3035,60.0,11.916666666666666
2026-01-20T23:11:56+00:00,SAT-66122,353.2311811566524,44.86665286326208,1065.9818293802034,4.88984854324408,-171263.1800232374,10.5,10499828736.819977,47.655,-122.3035,60.0,11.933333333333334
2026-01-20T23:11:57+00:00,SAT-66122,353.3598548688721,44.587000671286056,1070.8586383273323,4.913789929201887,-172101.70863144202,10.5,10499827898.291368,47.655,-122.3035,60.0,11.95
2026-01-20T23:11:58+00:00,SAT-66122,353.4857665636494,44.3094531554372,1075.759324816723,4.937399920409314,-172928.63039368988,10.5,10499827071.369606,47.655,-122.3035,60.0,11.966666666666667
2026-01-20T23:11:59+00:00,SAT-66122,353.60899054897624,44.033998924143454,1080.6835583373445,4.96068295503906,-173744.1007535624,10.5,10499826255.899246,47.655,-122.3035,60.0,11.983333333333333
2026-01-20T23:12:00+00:00,SAT-66122,353.72959855905304,43.76062617339246,1085.6310128045034,4.983643375454992,-174548.27179901043,10.5,10499825451.7282,47.655,-122.3035,60.0,12.0
2026-01-20T23:12:01+00:00,SAT-66122,353.84765986002895,43.48932271912818,1090.6013664642905,5.00628555953805,-175341.29686194283,10.5,10499824658.703138,47.655,-122.3035,60.0,12.016666666666667
2026-01-20T23:12:02+00:00,SAT-66122,353.96324135392734,43.22007602093615,1095.594301929003,5.028613828295567,-176123.32728231428,10.5,10499823876.672718,47.655,-122.3035,60.0,12.033333333333333
2026-01-20T23:12:03+00:00,SAT-66122,354.0764076753756,42.95287320947362,1100.6095061204232,5.0506324344983655,-176894.51201014817,10.5,10499823105.48799,47.655,-122.3035,60.0,12.05
2026-01-20T23:12:04+00:00,SAT-66122,354.1872212835593,42.68770111307691,1105.646670201763,5.072345655870479,-177655.0008694349,10.5,10499822344.99913,47.655,-122.3035,60.0,12.066666666666666
2026-01-20T23:12:05+00:00,SAT-66122,354.29574255198406,42.42454627819956,1110.705489602551,5.093757673160495,-178404.94028767463,10.5,10499821595.059711,47.655,-122.3035,60.0,12.083333333333334
2026-01-20T23:12:06+00:00,SAT-66122,354.40202985130543,42.16339499506369,1115.7856639219165,5.114872695757981,-179144.47769549562,10.5,10499820855.522305,47.655,-122.3035,60.0,12.1
2026-01-20T23:12:07+00:00,SAT-66122,354.506139631062,41.904233315658786,1120.8868969571524,5.135694841837472,-179873.75732878994,10.5,10499820126.242672,47.655,-122.3035,60.0,12.116666666666667
2026-01-20T23:12:08+00:00,SAT-66122,354.60812649505846,41.64704707681983,1126.008896612745,5.156228191125407,-180592.9220768348,10.5,10499819407.077923,47.655,-122.3035,60.0,12.133333333333333
2026-01-20T23:12:09+00:00,SAT-66122,354.70804327445893,41.39182191950955,1131.1513748620273,5.176476835198514,-181302.11524395453,10.5,10499818697.884756,47.655,-122.3035,60.0,12.15
2026-01-20T23:12:10+00:00,SAT-66122,354.80594109848107,41.13854330467281,1136.3140477589989,5.196444764628782,-182001.47659686024,10.5,10499817998.523403,47.655,-122.3035,60.0,12.166666666666666
2026-01-20T23:12:11+00:00,SAT-66122,354.9018694596798,40.88719653373697,1141.4966353375887,5.21613597148071,-182691.14595453718,10.5,10499817308.854046,47.655,-122.3035,60.0,12.183333333333334
2026-01-20T23:12:12+00:00,SAT-66122,354.9958762782726,40.63776676315304,1146.6988616131453,5.235554367156574,-183371.26031083817,10.5,10499816628.739689,47.655,-122.3035,60.0,12.2
2026-01-20T23:12:13+00:00,SAT-66122,355.0880079620281,40.39023902207828,1151.9204545019895,5.254703864152971,-184041.956697944,10.5,10499815958.043303,47.655,-122.3035,60.0,12.216666666666667
2026-01-20T23:12:14+00:00,SAT-66122,355.1783094649648,40.14459822532584,1157.1611458225047,5.273588301573976,-184703.36957751866,10.5,10499815296.630423,47.655,-122.3035,60.0,12.233333333333333
2026-01-20T23:12:15+00:00,SAT-66122,355.26682434212563,39.90082918909344,1162.4206712219411,5.292211475064009,-185355.63188908537,10.5,10499814644.36811,47.655,-122.3035,60.0,12.25
2026-01-20T23:12:16+00:00,SAT-66122,355.3535948024477,39.65891664449425,1167.6987701330715,5.310577167953074,-185998.87614086436,10.5,10499814001.12386,47.655,-122.3035,60.0,12.266666666666667
2026-01-20T23:12:17+00:00,SAT-66122,355.4386617598563,39.41884524899406,1172.99518576191,5.32868907005086,-186633.23156559872,10.5,10499813366.768435,47.655,-122.3035,60.0,12.283333333333333
2026-01-20T23:12:18+00:00,SAT-66122,355.5220648807578,39.180599600858685,1178.309664994441,5.346550885903649,-187258.82791216954,10.5,10499812741.172089,47.655,-122.3035,60.0,12.3
2026-01-20T23:12:19+00:00,SAT-66122,355.6038426312423,38.94416424807868,1183.6419584113155,5.364166207559466,-187875.79098929296,10.5,10499812124.209011,47.655,-122.3035,60.0,12.316666666666666
2026-01-20T23:12:20+00:00,SAT-66122,355.6840323202277,38.709523702360464,1188.9918201756548,5.38153863773133,-188484.2469792184,10.5,10499811515.753021,47.655,-122.3035,60.0,12.333333333333334
2026-01-20T23:12:21+00:00,SAT-66122,355.7626701426776,38.47666244707165,1194.3590080436854,5.398671733231116,-189084.32045654304,10.5,10499810915.679543,47.655,-122.3035,60.0,12.35
2026-01-20T23:12:22+00:00,SAT-66122,355.8397912200721,38.245564947170976,1199.7432833189612,5.415568957984904,-189676.13274261053,10.5,10499810323.867258,47.655,-122.3035,60.0,12.366666666666667
2026-01-20T23:12:23+00:00,SAT-66122,355.9154296385032,38.01621566059345,1205.144410759725,5.432233774989233,-190259.80512620817,10.5,10499809740.194874,47.655,-122.3035,60.0,12.383333333333333
2026-01-20T23:12:24+00:00,SAT-66122,355.98961848649174,37.78859904516564,1210.5621585779809,5.44866959023211,-190835.45689944326,10.5,10499809164.5431,47.655,-122.3035,60.0,12.4
2026-01-20T23:12:25+00:00,SAT-66122,356.06238989041736,37.56269956748002,1215.996298382639,5.464879773643602,-191403.20609152157,10.5,10499808596.79391,47.655,-122.3035,60.0,12.416666666666666
2026-01-20T23:12:26+00:00,SAT-66122,356.1337750487365,37.33850171041412,1221.446605143553,5.480867623520201,-191963.16822273796,10.5,10499808036.831778,47.655,-122.3035,60.0,12.433333333333334
2026-01-20T23:12:27+00:00,SAT-66122,356.2038042643341,37.11598998167561,1226.9128571200772,5.496636416109789,-192515.4580411519,10.5,10499807484.54196,47.655,-122.3035,60.0,12.45
2026-01-20T23:12:28+00:00,SAT-66122,356.27250697618445,36.895148919885195,1232.3948358390771,5.512189398763895,-193060.18928275007,10.5,10499806939.810717,47.655,-122.3035,60.0,12.466666666666667
2026-01-20T23:12:29+00:00,SAT-66122,356.3399117896046,36.67596310060064,1237.892326066111,5.527529735888255,-193597.47277840684,10.5,10499806402.527222,47.655,-122.3035,60.0,12.483333333333333
2026-01-20T23:12:30+00:00,SAT-66122,356.40604650460637,36.458417144093595,1243.4051157227036,5.54266056792122,-194127.4185195573,10.5,10499805872.58148,47.655,-122.3035,60.0,12.5
2026-01-20T23:12:31+00:00,SAT-66122,356.47093814383425,36.24249572041527,1248.9329958624437,5.557584995799501,-194650.13511412204,10.5,10499805349.864885,47.655,-122.3035,60.0,12.516666666666667
2026-01-20T23:12:32+00:00,SAT-66122,356.5346129791645,36.02818355475439,1254.4757606315877,5.572306077546497,-195165.7296670159,10.5,10499804834.270332,47.655,-122.3035,60.0,12.533333333333333
2026-01-20T23:12:33+00:00,SAT-66122,356.59709655722,35.815465432615284,1260.0332072262609,5.586826827639558,-195674.30775798688,10.5,10499804325.692242,47.655,-122.3035,60.0,12.55
2026-01-20T23:12:34+00:00,SAT-66122,356.65841372382334,35.604326204706965,1265.6051358490267,5.601150175559075,-196175.97198983,10.5,10499803824.02801,47.655,-122.3035,60.0,12.566666666666666
2026-01-20T23:12:35+00:00,SAT-66122,356.7185886470535,35.39475079307859,1271.1913496241175,5.615279093248718,-196670.82645258386,10.5,10499803329.173548,47.655,-122.3035,60.0,12.583333333333334
2026-01-20T23:12:36+00:00,SAT-66122,356.77764484078597,35.18672419221037,1276.7916546397842,5.62921644437442,-197158.97144394278,10.5,10499802841.028557,47.655,-122.3035,60.0,12.6
2026-01-20T23:12:37+00:00,SAT-66122,356.8356051856457,34.9802314754959,1282.4058598403071,5.642965069346734,-197640.50644709915,10.5,10499802359.493553,47.655,-122.3035,60.0,12.616666666666667
2026-01-20T23:12:38+00:00,SAT-66122,356.89249195007835,34.775257798274154,1288.033777002802,5.656527767656392,-198115.52951206037,10.5,10499801884.470488,47.655,-122.3035,60.0,12.633333333333333
2026-01-20T23:12:39+00:00,SAT-66122,356.94832681041123,34.571788401294576,1293.6752206964115,5.669907287517291,-198584.13689290197,10.5,10499801415.863108,47.655,-122.3035,60.0,12.65
2026-01-20T23:12:40+00:00,SAT-66122,357.00313087002064,34.369808614318885,1299.330008231162,5.6831063702145155,-199046.4246010232,10.5,10499800953.5754,47.655,-122.3035,60.0,12.666666666666666
2026-01-20T23:12:41+00:00,SAT-66122,357.05692467823303,34.169303857940974,1304.997959651056,5.696127668810519,-199502.4855578937,10.5,10499800497.514442,47.655,-122.3035,60.0,12.683333333333334
2026-01-20T23:12:42+00:00,SAT-66122,357.1097282476544,33.97025964808026,1310.678897646083,5.708973825069009,-199952.4122892531,10.5,10499800047.587711,47.655,-122.3035,60.0,12.7
2026-01-20T23:12:43+00:00,SAT-66122,357.1615610716494,33.772661597553494,1316.372647540952,5.721647460335713,-200396.2966057171,10.5,10499799603.703394,47.655,-122.3035,60.0,12.716666666666667
2026-01-20T23:12:44+00:00,SAT-66122,357.21244214100756,33.57649541782625,1322.0790372747267,5.734151094514168,-200834.22676496673,10.5,10499799165.773235,47.655,-122.3035,60.0,12.733333333333333
2026-01-20T23:12:45+00:00,SAT-66122,357.26238995927343,33.38174692335181,1327.7978972996555,5.746487280728966,-201266.29218822494,10.5,10499798733.707811,47.655,-122.3035,60.0,12.75
2026-01-20T23:12:46+00:00,SAT-66122,357.311422558714,33.188402031142346,1333.5290606143026,5.758658466555076,-201692.5785999203,10.5,10499798307.4214,47.655,-122.3035,60.0,12.766666666666667
2026-01-20T23:12:47+00:00,SAT-66122,357.3595575144481,32.99644676489766,1339.2723626582801,5.770667128942062,-202113.17275330404,10.5,10499797886.827248,47.655,-122.3035,60.0,12.783333333333333
2026-01-20T23:12:48+00:00,SAT-66122,357.40681195924805,32.80586725444802,1345.027641341545,5.782515674821798,-202528.15894931176,10.5,10499797471.841051,47.655,-122.3035,60.0,12.8
2026-01-20T23:12:49+00:00,SAT-66122,357.4532025969143,32.6166497384074,1350.7947369745673,5.794206423119258,-202937.61840650512,10.5,10499797062.381594,47.655,-122.3035,60.0,12.816666666666666
2026-01-20T23:12:50+00:00,SAT-66122,357.4987457150368,32.42878056719317,1356.573492180558,5.8057417661097706,-203341.63491248534,10.5,10499796658.365088,47.655,-122.3035,60.0,12.833333333333334
2026-01-20T23:12:51+00:00,SAT-66122,357.5434571986258,32.242246200728076,1362.363751968625,5.817123959820017,-203740.28748284982,10.5,10499796259.712517,47.655,-122.3035,60.0,12.85
2026-01-20T23:12:52+00:00,SAT-66122,357.58735254151514,32.05703321278982,1368.1653635978855,5.828355295325552,-204133.65636075573,10.5,10499795866.34364,47.655,-122.3035,60.0,12.866666666666667
2026-01-20T23:12:53+00:00,SAT-66122,357.6304468587532,31.873128289753325,1373.9781766124236,5.839437982844162,-204521.81895737915,10.5,10499795478.181042,47.655,-122.3035,60.0,12.883333333333333
2026-01-20T23:12:54+00:00,SAT-66122,357.6727548976163,31.690518232915526,1379.8020427606466,5.850374193889142,-204904.8513283012,10.5,10499795095.148672,47.655,-122.3035,60.0,12.9
2026-01-20T23:12:55+00:00,SAT-66122,357.7142910485731,31.50918995936037,1385.6368159566855,5.861166124006736,-205282.8303708385,10.5,10499794717.16963,47.655,-122.3035,60.0,12.916666666666666
2026-01-20T23:12:56+00:00,SAT-66122,357.75506935632524,31.32913050081407,1391.4823523043615,5.871815866543753,-205655.82940285112,10.5,10499794344.170597,47.655,-122.3035,60.0,12.933333333333334
2026-01-20T23:12:57+00:00,SAT-66122,357.7951035295154,31.15032700630983,1397.3385099952611,5.882325515388254,-206023.92176115606,10.5,10499793976.07824,47.655,-122.3035,60.0,12.95
2026-01-20T23:12:58+00:00,SAT-66122,357.83440695084545,30.972766741589602,1403.2051493092752,5.892697152188843,-206387.18035389285,10.5,10499793612.819647,47.655,-122.3035,60.0,12.966666666666667
2026-01-20T23:12:59+00:00,SAT-66122,357.87299268675685,30.79643708886501,1409.0821326023915,5.902932760523973,-206745.67465436945,10.5,10499793254.325346,47.655,-122.3035,60.0,12.983333333333333
2026-01-20T23:13:00+00:00,SAT-66122,357.9108734961541,30.621325549045224,1414.9693242088872,5.913034362996513,-207099.4755026939,10.5,10499792900.524498,47.655,-122.3035,60.0,13.0
2026-01-20T23:13:01+00:00,SAT-66122,357.9480618397961,30.447419739820045,1420.8665904802492,5.923003909368228,-207448.6511877707,10.5,10499792551.348812,47.655,-122.3035,60.0,13.016666666666667
2026-01-20T23:13:02+00:00,SAT-66122,357.9845698885752,30.274707396996963,1426.7737997125257,5.932843323824975,-207793.26910272785,10.5,10499792206.730898,47.655,-122.3035,60.0,13.033333333333333
2026-01-20T23:13:03+00:00,SAT-66122,358.020409531864,30.103176374373994,1432.6908221208207,5.942554515178199,-208133.39610221644,10.5,10499791866.603897,47.655,-122.3035,60.0,13.05
