satellites_20260121_005943/SAT-56456.csv

timestamp,satellite,azimuth_deg,elevation_deg,distance_km,relative_velocity_kms,doppler_shift_hz,tx_freq_ghz,rx_freq_hz,ue_lat,ue_lon,ue_alt_m,time_minutes
2026-01-20T23:04:50+00:00,SAT-56456,237.57293282222415,30.05185400993096,2909.5250810334037,-2.988740734157713,104678.3428709737,10.5,10500104678.34287,47.655,-122.3035,60.0,4.833333333333333
2026-01-20T23:04:51+00:00,SAT-56456,237.68437681617047,30.140271607912602,2906.5443102745367,-2.9768436102715845,104261.65526769735,10.5,10500104261.655268,47.655,-122.3035,60.0,4.85
2026-01-20T23:04:52+00:00,SAT-56456,237.79633634042438,30.228647163701016,2903.5754049138927,-2.9649069070542295,103843.58142882104,10.5,10500103843.581429,47.655,-122.3035,60.0,4.866666666666666
2026-01-20T23:04:53+00:00,SAT-56456,237.9088133201784,30.31697879513757,2900.6184044252573,-2.95293061573784,103424.12104725903,10.5,10500103424.121048,47.655,-122.3035,60.0,4.883333333333334
2026-01-20T23:04:54+00:00,SAT-56456,238.02180967608749,30.405264602563456,2897.6733482911613,-2.9409147626619223,103003.27504553228,10.5,10500103003.275045,47.655,-122.3035,60.0,4.9
2026-01-20T23:04:55+00:00,SAT-56456,238.1353273252674,30.493502669750224,2894.7402759678666,-2.928859336671561,102581.04303294845,10.5,10500102581.043034,47.655,-122.3035,60.0,4.916666666666667
2026-01-20T23:04:56+00:00,SAT-56456,238.24936817955364,30.58169106272847,2891.8192269227593,-2.9167643386530897,102157.4250405507,10.5,10500102157.425041,47.655,-122.3035,60.0,4.933333333333334
2026-01-20T23:04:57+00:00,SAT-56456,238.36393414557728,30.669827830046668,2888.9102406223424,-2.904629789838916,101732.42181198775,10.5,10500101732.421812,47.655,-122.3035,60.0,4.95
2026-01-20T23:04:58+00:00,SAT-56456,238.47902712519078,30.757911003266923,2886.0133565119436,-2.892455696950754,101306.03358268244,10.5,10500101306.033583,47.655,-122.3035,60.0,4.966666666666667
2026-01-20T23:04:59+00:00,SAT-56456,238.59464901455948,30.845938596470415,2883.128614030184,-2.8802420663403336,100878.26057509927,10.5,10500100878.260574,47.655,-122.3035,60.0,4.983333333333333
2026-01-20T23:05:00+00:00,SAT-56456,238.71080170376212,30.933908606152716,2880.2560526093544,-2.867988911036886,100449.10324557697,10.5,10500100449.103245,47.655,-122.3035,60.0,5.0
2026-01-20T23:05:01+00:00,SAT-56456,238.82748707667588,31.021819011340238,2877.395711668747,-2.8556962510729083,100018.56229573839,10.5,10500100018.562296,47.655,-122.3035,60.0,5.016666666666667
2026-01-20T23:05:02+00:00,SAT-56456,238.94470701087565,31.109667773713454,2874.5476306076766,-2.8433641027749617,99586.63829740873,10.5,10500099586.638298,47.655,-122.3035,60.0,5.033333333333333
2026-01-20T23:05:03+00:00,SAT-56456,239.0624633770962,31.197452837424947,2871.711848809176,-2.8309924797216617,99153.33172616854,10.5,10500099153.331726,47.655,-122.3035,60.0,5.05
2026-01-20T23:05:04+00:00,SAT-56456,239.18075803872392,31.28517212893047,2868.8884056427332,-2.8185814016685278,98718.64327393967,10.5,10500098718.643274,47.655,-122.3035,60.0,5.066666666666666
2026-01-20T23:05:05+00:00,SAT-56456,239.29959285164475,31.372823557107967,2866.077340458136,-2.8061308960248676,98282.57390071204,10.5,10500098282.5739,47.655,-122.3035,60.0,5.083333333333333
2026-01-20T23:05:06+00:00,SAT-56456,239.41896966414112,31.46040501339779,2863.2786925778337,-2.7936409861515115,97845.12442468072,10.5,10500097845.124424,47.655,-122.3035,60.0,5.1
2026-01-20T23:05:07+00:00,SAT-56456,239.53889031632298,31.547914371625186,2860.492501300979,-2.7811116930663955,97406.29558198278,10.5,10500097406.295582,47.655,-122.3035,60.0,5.116666666666666
2026-01-20T23:05:08+00:00,SAT-56456,239.6593566395934,31.635349487843747,2857.7188059057607,-2.76854304135821,96966.08823381808,10.5,10500096966.088234,47.655,-122.3035,60.0,5.133333333333334
2026-01-20T23:05:09+00:00,SAT-56456,239.78037045638024,31.72270820038874,2854.9576456458462,-2.7559350730409737,96524.50385169536,10.5,10500096524.50385,47.655,-122.3035,60.0,5.15
2026-01-20T23:05:10+00:00,SAT-56456,239.90193358042256,31.809988330324984,2852.209059733,-2.743287814002385,96081.54334231131,10.5,10500096081.543343,47.655,-122.3035,60.0,5.166666666666667
2026-01-20T23:05:11+00:00,SAT-56456,240.02404781566798,31.897187680906935,2849.473087353168,-2.73060128778166,95637.2075301088,10.5,10500095637.207531,47.655,-122.3035,60.0,5.183333333333334
2026-01-20T23:05:12+00:00,SAT-56456,240.14671495569493,31.984304037432068,2846.7497676688204,-2.7178755364248355,95191.49788771795,10.5,10500095191.497889,47.655,-122.3035,60.0,5.2
2026-01-20T23:05:13+00:00,SAT-56456,240.26993678406518,32.07133516775479,2844.0391398004926,-2.705110597466483,94744.41572975818,10.5,10500094744.41573,47.655,-122.3035,60.0,5.216666666666667
2026-01-20T23:05:14+00:00,SAT-56456,240.3937150736504,32.15827882207511,2841.3412428312863,-2.6923065162535282,94295.96264447068,10.5,10500094295.962645,47.655,-122.3035,60.0,5.233333333333333
2026-01-20T23:05:15+00:00,SAT-56456,240.5180515865461,32.245132733148715,2838.656115799076,-2.6794633218281887,93846.13964903673,10.5,10500093846.139648,47.655,-122.3035,60.0,5.25
2026-01-20T23:05:16+00:00,SAT-56456,240.6429480728408,32.33189461571086,2835.9837977127727,-2.6665810592827723,93394.94832277972,10.5,10500093394.948322,47.655,-122.3035,60.0,5.266666666666667
2026-01-20T23:05:17+00:00,SAT-56456,240.7684062708472,32.41856216692714,2833.3243275363147,-2.6536597783013525,92942.39040584605,10.5,10500092942.390406,47.655,-122.3035,60.0,5.283333333333333
2026-01-20T23:05:18+00:00,SAT-56456,240.89442790682114,32.505133066484845,2830.677744184089,-2.6406995228352814,92488.46743759797,10.5,10500092488.467438,47.655,-122.3035,60.0,5.3
2026-01-20T23:05:19+00:00,SAT-56456,241.02101469422104,32.591604976377624,2828.044086526648,-2.627700349263921,92033.18139267924,10.5,10500092033.181393,47.655,-122.3035,60.0,5.316666666666666
2026-01-20T23:05:20+00:00,SAT-56456,241.14816833374766,32.67797554123413,2825.4233933783153,-2.6146622816951823,91576.53311545087,10.5,10500091576.533115,47.655,-122.3035,60.0,5.333333333333333
2026-01-20T23:05:21+00:00,SAT-56456,241.27589051135084,32.76424238728457,2822.8157035293716,-2.6015854111466523,91118.52579373379,10.5,10500091118.525793,47.655,-122.3035,60.0,5.35
2026-01-20T23:05:22+00:00,SAT-56456,241.40418290082565,32.850403124405965,2820.2210556793207,-2.5884697636869576,90659.16034056153,10.5,10500090659.160341,47.655,-122.3035,60.0,5.366666666666666
2026-01-20T23:05:23+00:00,SAT-56456,241.5330471602462,32.936455344059326,2817.6394885016707,-2.575315412897679,90198.43933307231,10.5,10500090198.439333,47.655,-122.3035,60.0,5.383333333333334
2026-01-20T23:05:24+00:00,SAT-56456,241.66248493367073,33.022396620741745,2815.0710405965406,-2.5621223990135595,89736.36418045705,10.5,10500089736.36418,47.655,-122.3035,60.0,5.4
2026-01-20T23:05:25+00:00,SAT-56456,241.79249784899156,33.1082245109054,2812.5157505239245,-2.5488908060301134,89272.93782459393,10.5,10500089272.937824,47.655,-122.3035,60.0,5.416666666666667
2026-01-20T23:05:26+00:00,SAT-56456,241.92308751953743,33.19393655432718,2809.973656760044,-2.5356206765076963,88808.16175612668,10.5,10500088808.161757,47.655,-122.3035,60.0,5.433333333333334
2026-01-20T23:05:27+00:00,SAT-56456,242.05425554145708,33.279530272751884,2807.444797738673,-2.522312093870076,88342.03889690846,10.5,10500088342.038897,47.655,-122.3035,60.0,5.45
2026-01-20T23:05:28+00:00,SAT-56456,242.1860034951972,33.36500317118878,2804.9292118103867,-2.508965109345296,87874.5710411621,10.5,10500087874.571041,47.655,-122.3035,60.0,5.466666666666667
2026-01-20T23:05:29+00:00,SAT-56456,242.3183329433209,33.450352736856246,2802.4269372746667,-2.4955798038881922,87405.76102426839,10.5,10500087405.761024,47.655,-122.3035,60.0,5.483333333333333
2026-01-20T23:05:30+00:00,SAT-56456,242.4512454314198,33.53557644012151,2799.9380123502556,-2.4821562376465733,86935.610952858,10.5,10500086935.610952,47.655,-122.3035,60.0,5.5
2026-01-20T23:05:31+00:00,SAT-56456,242.5847424864673,33.62067173381935,2797.4624751959095,-2.4686945022560223,86464.12403639664,10.5,10500086464.124037,47.655,-122.3035,60.0,5.516666666666667
2026-01-20T23:05:32+00:00,SAT-56456,242.71882561786555,33.70563605426839,2795.000363878992,-2.455194647114483,85991.30200500932,10.5,10500085991.302006,47.655,-122.3035,60.0,5.533333333333333
2026-01-20T23:05:33+00:00,SAT-56456,242.8534963146077,33.79046681987533,2792.5517164176035,-2.4416567789425168,85517.14859650147,10.5,10500085517.148596,47.655,-122.3035,60.0,5.55
2026-01-20T23:05:34+00:00,SAT-56456,242.98875604772007,33.8751614330263,2790.116570723405,-2.4280809599848485,85041.66599094668,10.5,10500085041.66599,47.655,-122.3035,60.0,5.566666666666666
2026-01-20T23:05:35+00:00,SAT-56456,243.12460626729055,33.959717278623586,2787.6949646459802,-2.4144672798543443,84564.85732696655,10.5,10500084564.857327,47.655,-122.3035,60.0,5.583333333333333
2026-01-20T23:05:36+00:00,SAT-56456,243.2610484032664,34.044131724978264,2785.286935945539,-2.400815816140409,84086.72532207028,10.5,10500084086.725323,47.655,-122.3035,60.0,5.6
2026-01-20T23:05:37+00:00,SAT-56456,243.39808386422078,34.128402123439194,2782.8925223049077,-2.3871266624210397,83607.27325375516,10.5,10500083607.273254,47.655,-122.3035,60.0,5.616666666666666
2026-01-20T23:05:38+00:00,SAT-56456,243.53571403756132,34.21252580892379,2780.511761313587,-2.373399907725667,83126.50424020842,10.5,10500083126.50424,47.655,-122.3035,60.0,5.633333333333334
2026-01-20T23:05:39+00:00,SAT-56456,243.673940288638,34.296500099787266,2778.1446904722816,-2.35963563721058,82644.42126396351,10.5,10500082644.421265,47.655,-122.3035,60.0,5.65
2026-01-20T23:05:40+00:00,SAT-56456,243.812763959874,34.38032229770335,2775.7913471967704,-2.3458339502794985,82161.02780655921,10.5,10500082161.027807,47.655,-122.3035,60.0,5.666666666666667
2026-01-20T23:05:41+00:00,SAT-56456,243.9521863709247,34.46398968818468,2773.4517688036913,-2.3319949412590275,81676.3271717122,10.5,10500081676.327171,47.655,-122.3035,60.0,5.683333333333334
2026-01-20T23:05:42+00:00,SAT-56456,244.09220881769096,34.54749954041357,2771.125992515609,-2.3181187075982765,81190.32277250252,10.5,10500081190.322773,47.655,-122.3035,60.0,5.7
2026-01-20T23:05:43+00:00,SAT-56456,244.2328325718624,34.63084910740356,2768.814055457898,-2.3042053502657738,80703.0181452751,10.5,10500080703.018145,47.655,-122.3035,60.0,5.716666666666667
2026-01-20T23:05:44+00:00,SAT-56456,244.3740588803975,34.71403562612842,2766.515994655233,-2.2902549732971553,80214.41693379801,10.5,10500080214.416933,47.655,-122.3035,60.0,5.733333333333333
2026-01-20T23:05:45+00:00,SAT-56456,244.515888965067,34.79705631769199,2764.2318470285313,-2.2762676741308563,79724.52255077742,10.5,10500079724.52255,47.655,-122.3035,60.0,5.75
2026-01-20T23:05:46+00:00,SAT-56456,244.65832402129968,34.87990838711213,2761.9616494015318,-2.262243571823456,79233.33916607832,10.5,10500079233.339167,47.655,-122.3035,60.0,5.766666666666667
2026-01-20T23:05:47+00:00,SAT-56456,244.8013652188268,34.962589024141714,2759.7054384792327,-2.248182767726683,78740.87032946697,10.5,10500078740.870329,47.655,-122.3035,60.0,5.783333333333333
2026-01-20T23:05:48+00:00,SAT-56456,244.94501369990002,35.04509540269402,2757.4632508655536,-2.2340853778396648,78247.12010372349,10.5,10500078247.120104,47.655,-122.3035,60.0,5.8
2026-01-20T23:05:49+00:00,SAT-56456,245.08927057943967,35.127424681405294,2755.2351230487216,-2.2199515104193113,77752.0922804628,10.5,10500077752.092281,47.655,-122.3035,60.0,5.816666666666666
2026-01-20T23:05:50+00:00,SAT-56456,245.23413694384868,35.20957400342109,2753.021091408996,-2.2057812857398966,77255.79107219873,10.5,10500077255.791073,47.655,-122.3035,60.0,5.833333333333333
2026-01-20T23:05:51+00:00,SAT-56456,245.37961385102972,35.291540496889475,2750.821192206685,-2.1915748270533544,76758.22079573537,10.5,10500076758.220797,47.655,-122.3035,60.0,5.85
2026-01-20T23:05:52+00:00,SAT-56456,245.52570232982646,35.37332127512083,2748.6354615791706,-2.1773322530056216,76259.38560655528,10.5,10500076259.385607,47.655,-122.3035,60.0,5.866666666666666
2026-01-20T23:05:53+00:00,SAT-56456,245.67240337902751,35.45491343651661,2746.4639355455065,-2.1630536738280433,75759.28936542645,10.5,10500075759.289366,47.655,-122.3035,60.0,5.883333333333334
2026-01-20T23:05:54+00:00,SAT-56456,245.81971796600826,35.53631406432202,2744.3066500148084,-2.1487392386104434,75257.93729410517,10.5,10500075257.937294,47.655,-122.3035,60.0,5.9
2026-01-20T23:05:55+00:00,SAT-56456,245.9676470285496,35.6175202281145,2742.163640747501,-2.1343890640177214,74755.33347868969,10.5,10500074755.333479,47.655,-122.3035,60.0,5.916666666666667
2026-01-20T23:05:56+00:00,SAT-56456,246.11619147194398,35.6985289827175,2740.034943387654,-2.1200032709914423,74251.48215506523,10.5,10500074251.482155,47.655,-122.3035,60.0,5.933333333333334
2026-01-20T23:05:57+00:00,SAT-56456,246.26535216847566,35.77933736844432,2737.9205934587185,-2.1055820083744385,73746.38853633737,10.5,10500073746.388536,47.655,-122.3035,60.0,5.95
2026-01-20T23:05:58+00:00,SAT-56456,246.41512995851787,35.859942412193305,2735.8206263356997,-2.0911254050177,73240.05713541285,10.5,10500073240.057135,47.655,-122.3035,60.0,5.966666666666667
2026-01-20T23:05:59+00:00,SAT-56456,246.56552564845478,35.94034112684937,2733.7350772650952,-2.0766336030072785,72732.49292874613,10.5,10500072732.49293,47.655,-122.3035,60.0,5.983333333333333
2026-01-20T23:06:00+00:00,SAT-56456,246.71654001074393,36.020530511841066,2731.6639813516963,-2.0621067328789113,72223.70048825101,10.5,10500072223.700489,47.655,-122.3035,60.0,6.0
2026-01-20T23:06:01+00:00,SAT-56456,246.8681737823378,36.100507552842586,2729.607373570105,-2.047544944879643,71713.68507621446,10.5,10500071713.685076,47.655,-122.3035,60.0,6.016666666666667
2026-01-20T23:06:02+00:00,SAT-56456,247.02042766525759,36.18026922260346,2727.5652887450783,-2.032948379959143,71202.45162929015,10.5,10500071202.45163,47.655,-122.3035,60.0,6.033333333333333
2026-01-20T23:06:03+00:00,SAT-56456,247.1733023251468,36.25981248073561,2725.537761560799,-2.018317195143598,70690.00564719936,10.5,10500070690.005648,47.655,-122.3035,60.0,6.05
2026-01-20T23:06:04+00:00,SAT-56456,247.32679839158897,36.339134274417724,2723.5248265448427,-2.0036515194949103,70176.35165023584,10.5,10500070176.35165,47.655,-122.3035,60.0,6.066666666666666
2026-01-20T23:06:05+00:00,SAT-56456,247.4809164552961,36.418231537502336,2721.526518096066,-1.988951529416161,69661.49581678167,10.5,10500069661.495817,47.655,-122.3035,60.0,6.083333333333333
2026-01-20T23:06:06+00:00,SAT-56456,247.63565707071047,36.49710119239871,2719.5428704373953,-1.9742173626252526,69145.44297030031,10.5,10500069145.44297,47.655,-122.3035,60.0,6.1
2026-01-20T23:06:07+00:00,SAT-56456,247.79102075237358,36.575740148783474,2717.5739176544034,-1.9594491891811576,68628.19906697638,10.5,10500068628.199066,47.655,-122.3035,60.0,6.116666666666666
2026-01-20T23:06:08+00:00,SAT-56456,247.94700797646493,36.6541453049413,2715.6196936630604,-1.9446471503201825,68109.76905350274,10.5,10500068109.769054,47.655,-122.3035,60.0,6.133333333333334
2026-01-20T23:06:09+00:00,SAT-56456,248.10361917780995,36.73231354683997,2713.680232238474,-1.9298114239924316,67590.15916244475,10.5,10500067590.159163,47.655,-122.3035,60.0,6.15
2026-01-20T23:06:10+00:00,SAT-56456,248.26085475183288,36.81024174967144,2711.755566978279,-1.9149421726076614,67069.3750820791,10.5,10500067069.375082,47.655,-122.3035,60.0,6.166666666666667
2026-01-20T23:06:11+00:00,SAT-56456,248.41871505252934,36.88792677742418,2709.845731318132,-1.9000395541835966,66547.42234685492,10.5,10500066547.422346,47.655,-122.3035,60.0,6.183333333333334
2026-01-20T23:06:12+00:00,SAT-56456,248.57720039125897,36.96536548287631,2707.9507585360925,-1.885103742914595,66024.30705779545,10.5,10500066024.307058,47.655,-122.3035,60.0,6.2
2026-01-20T23:06:13+00:00,SAT-56456,248.73631103717474,37.04255470839308,2706.0706817364926,-1.8701349121513706,65500.03528637598,10.5,10500065500.035286,47.655,-122.3035,60.0,6.216666666666667
2026-01-20T23:06:14+00:00,SAT-56456,248.89604721630073,37.119491286066854,2704.205533850774,-1.855133235604456,64974.61311667417,10.5,10500064974.613117,47.655,-122.3035,60.0,6.233333333333333
2026-01-20T23:06:15+00:00,SAT-56456,249.05640911071276,37.19617203791998,2702.3553476371308,-1.8400988896403414,64448.0467257905,10.5,10500064448.046726,47.655,-122.3035,60.0,6.25
2026-01-20T23:06:16+00:00,SAT-56456,249.21739685789515,37.27259377619073,2700.520155677863,-1.8250320399396882,63920.34191656258,10.5,10500063920.341917,47.655,-122.3035,60.0,6.266666666666667
2026-01-20T23:06:17+00:00,SAT-56456,249.37901054892922,37.348753303097354,2698.6999903900296,-1.809932894017267,63391.505957035464,10.5,10500063391.505957,47.655,-122.3035,60.0,6.283333333333333
2026-01-20T23:06:18+00:00,SAT-56456,249.54125023121458,37.4246474127035,2696.89488398373,-1.794801610657705,62861.54440851845,10.5,10500062861.544409,47.655,-122.3035,60.0,6.3
2026-01-20T23:06:19+00:00,SAT-56456,249.70411590342457,37.500272889183464,2695.1048685107003,-1.7796383941155427,62330.464424869555,10.5,10500062330.464424,47.655,-122.3035,60.0,6.316666666666666
2026-01-20T23:06:20+00:00,SAT-56456,249.86760751853052,37.57562650883603,2693.329975818969,-1.7644434114253398,61798.271856345586,10.5,10500061798.271856,47.655,-122.3035,60.0,6.333333333333333
2026-01-20T23:06:21+00:00,SAT-56456,250.0317249797009,37.65070503882063,2691.5702375899746,-1.7492168779396318,61264.97424550331,10.5,10500061264.974245,47.655,-122.3035,60.0,6.35
2026-01-20T23:06:22+00:00,SAT-56456,250.19646814365046,37.725505239306884,2689.8256852903755,-1.73395897524026,60730.57795210689,10.5,10500060730.577951,47.655,-122.3035,60.0,6.366666666666666
2026-01-20T23:06:23+00:00,SAT-56456,250.36183681681302,37.800023862355935,2688.096350205736,-1.7186698932550504,60195.08962823216,10.5,10500060195.089628,47.655,-122.3035,60.0,6.383333333333334
2026-01-20T23:06:24+00:00,SAT-56456,250.52783075512582,37.87425765246361,2686.3822634321964,-1.7033498419209494,59658.51662675907,10.5,10500059658.516626,47.655,-122.3035,60.0,6.4
2026-01-20T23:06:25+00:00,SAT-56456,250.69444966505682,37.94820334764598,2684.6834558565206,-1.6879990098616915,59120.865554088625,10.5,10500059120.865555,47.655,-122.3035,60.0,6.416666666666667
2026-01-20T23:06:26+00:00,SAT-56456,250.86169320067438,38.0218576787757,2682.999958177352,-1.672617608653232,58582.14382050578,10.5,10500058582.14382,47.655,-122.3035,60.0,6.433333333333334
2026-01-20T23:06:27+00:00,SAT-56456,251.02956096497005,38.095217370805116,2681.3318008823217,-1.6572058424393201,58042.35857598813,10.5,10500058042.358576,47.655,-122.3035,60.0,6.45
2026-01-20T23:06:28+00:00,SAT-56456,251.19805250822918,38.168279142688185,2679.6790142554623,-1.6417639152386834,57501.516966134535,10.5,10500057501.516966,47.655,-122.3035,60.0,6.466666666666667
2026-01-20T23:06:29+00:00,SAT-56456,251.36716732718742,38.241039707661066,2678.041628377331,-1.6262920376982513,56959.6263686915,10.5,10500056959.62637,47.655,-122.3035,60.0,6.483333333333333
2026-01-20T23:06:30+00:00,SAT-56456,251.53690486469804,38.3134957737529,2676.4196731183997,-1.610790427606966,56416.69441154901,10.5,10500056416.694412,47.655,-122.3035,60.0,6.5
2026-01-20T23:06:31+00:00,SAT-56456,251.70726450965014,38.385644044387895,2674.8131781319335,-1.595259286713845,55872.72816081108,10.5,10500055872.72816,47.655,-122.3035,60.0,6.516666666666667
2026-01-20T23:06:32+00:00,SAT-56456,251.8782455944136,38.457481217962965,2673.222172869984,-1.5796988522406303,55327.73592498653,10.5,10500055327.735926,47.655,-122.3035,60.0,6.533333333333333
2026-01-20T23:06:33+00:00,SAT-56456,252.04984739758942,38.52900398965262,2671.646686548016,-1.5641093236183485,54781.72468899354,10.5,10500054781.72469,47.655,-122.3035,60.0,6.55
2026-01-20T23:06:34+00:00,SAT-56456,252.2220691392319,38.60020905006912,2670.086748182594,-1.54849093666453,54234.70271215951,10.5,10500054234.702713,47.655,-122.3035,60.0,6.566666666666666
2026-01-20T23:06:35+00:00,SAT-56456,252.39490998375868,38.67109308713109,2668.542386555094,-1.5328439031807801,53686.67741267257,10.5,10500053686.677412,47.655,-122.3035,60.0,6.583333333333333
2026-01-20T23:06:36+00:00,SAT-56456,252.56836903650768,38.74165278530771,2667.0136302356545,-1.5171684631677853,53137.65719637198,10.5,10500053137.657196,47.655,-122.3035,60.0,6.6
2026-01-20T23:06:37+00:00,SAT-56456,252.74244534593646,38.81188482717142,2665.5005075550553,-1.5014648344866552,52587.649693675354,10.5,10500052587.649694,47.655,-122.3035,60.0,6.616666666666666
2026-01-20T23:06:38+00:00,SAT-56456,252.91713790030929,38.88178589272369,2664.003046626794,-1.4857332535586845,52036.663185056466,10.5,10500052036.663185,47.655,-122.3035,60.0,6.633333333333334
2026-01-20T23:06:39+00:00,SAT-56456,253.09244562888125,38.95135266053483,2662.521275328578,-1.4699739538239514,51484.70584657433,10.5,10500051484.705847,47.655,-122.3035,60.0,6.65
2026-01-20T23:06:40+00:00,SAT-56456,253.2683674006987,39.02058180792851,2661.055221305298,-1.4541871694706336,50931.78588048954,10.5,10500050931.785881,47.655,-122.3035,60.0,6.666666666666667
2026-01-20T23:06:41+00:00,SAT-56456,253.44490202382357,39.08947001134621,2659.6049119682793,-1.438373133038243,50377.91143131943,10.5,10500050377.911432,47.655,-122.3035,60.0,6.683333333333334
2026-01-20T23:06:42+00:00,SAT-56456,253.6220482442887,39.158013946605045,2658.170374496929,-1.422532096843665,49823.09133626865,10.5,10500049823.091337,47.655,-122.3035,60.0,6.7
2026-01-20T23:06:43+00:00,SAT-56456,253.79980474750096,39.22621029011333,2656.7516358190105,-1.4066642914311411,49267.33366997172,10.5,10500049267.33367,47.655,-122.3035,60.0,6.716666666666667
2026-01-20T23:06:44+00:00,SAT-56456,253.9781701548957,39.29405571824394,2655.3487226323564,-1.3907699728387415,48710.647399964895,10.5,10500048710.6474,47.655,-122.3035,60.0,6.733333333333333
2026-01-20T23:06:45+00:00,SAT-56456,254.15714302612452,39.361546908841625,2653.9616613794456,-1.3748493768773893,48153.040785344194,10.5,10500048153.040785,47.655,-122.3035,60.0,6.75
2026-01-20T23:06:46+00:00,SAT-56456,254.33672185572973,39.428680540636435,2652.590478267573,-1.35890275614349,47594.52267310422,10.5,10500047594.522673,47.655,-122.3035,60.0,6.766666666666667
2026-01-20T23:06:47+00:00,SAT-56456,254.51690507441236,39.495453294391545,2651.235199252112,-1.3429303672763375,47035.10205183863,10.5,10500047035.102053,47.655,-122.3035,60.0,6.783333333333333
2026-01-20T23:06:48+00:00,SAT-56456,254.69769104867663,39.56186185343725,2649.895850032482,-1.3269324610381732,46474.787704301816,10.5,10500046474.787704,47.655,-122.3035,60.0,6.8
2026-01-20T23:06:49+00:00,SAT-56456,254.87907807933726,39.627902903784445,2648.5724560580065,-1.310909285999793,45913.58833649453,10.5,10500045913.588337,47.655,-122.3035,60.0,6.816666666666666
2026-01-20T23:06:50+00:00,SAT-56456,255.0610644003639,39.69357313438233,2647.2650425301026,-1.294861110797019,45351.51335717958,10.5,10500045351.513357,47.655,-122.3035,60.0,6.833333333333333
2026-01-20T23:06:51+00:00,SAT-56456,255.24364818071376,39.75886923844827,2645.973634382268,-1.2787881895529487,44788.5716668228,10.5,10500044788.571667,47.655,-122.3035,60.0,6.85
2026-01-20T23:06:52+00:00,SAT-56456,255.4268275216399,39.823787913162064,2644.6982562945536,-1.262690787815461,44224.77256603413,10.5,10500044224.772566,47.655,-122.3035,60.0,6.866666666666666
2026-01-20T23:06:53+00:00,SAT-56456,255.61060045743397,39.88832586060356,2643.4389326821724,-1.24656916293739,43660.12506839847,10.5,10500043660.125069,47.655,-122.3035,60.0,6.883333333333334
2026-01-20T23:06:54+00:00,SAT-56456,255.79496495352595,39.95247978774881,2642.1956877036696,-1.2304235872010345,43094.63871039364,10.5,10500043094.63871,47.655,-122.3035,60.0,6.9
2026-01-20T23:06:55+00:00,SAT-56456,255.97991890775552,40.016246407583985,2640.9685452460344,-1.2142543312308791,42528.322970433874,10.5,10500042528.322971,47.655,-122.3035,60.0,6.916666666666667
2026-01-20T23:06:56+00:00,SAT-56456,256.16546014944385,40.07962243943685,2639.7575289263536,-1.198061659815523,41961.18712253592,10.5,10500041961.187122,47.655,-122.3035,60.0,6.933333333333334
2026-01-20T23:06:57+00:00,SAT-56456,256.3515864378086,40.14260460910039,2638.562662097631,-1.1818458468981259,41393.24076134805,10.5,10500041393.24076,47.655,-122.3035,60.0,6.95
2026-01-20T23:06:58+00:00,SAT-56456,256.5382954625071,40.20518964968138,2637.383967839658,-1.165607168071022,40824.49353927953,10.5,10500040824.49354,47.655,-122.3035,60.0,6.966666666666667
2026-01-20T23:06:59+00:00,SAT-56456,256.7255848431939,40.267374302111,2636.2214689573684,-1.1493459042349006,40254.95529466074,10.5,10500040254.955296,47.655,-122.3035,60.0,6.983333333333333
2026-01-20T23:07:00+00:00,SAT-56456,256.91345212963256,40.32915531582668,2635.0751879755444,-1.133062324653743,39684.63545825526,10.5,10500039684.635458,47.655,-122.3035,60.0,7.0
2026-01-20T23:07:01+00:00,SAT-56456,257.1018947991614,40.390529448605854,2633.9451471504235,-1.116756717229982,39113.54411362413,10.5,10500039113.544113,47.655,-122.3035,60.0,7.016666666666667
2026-01-20T23:07:02+00:00,SAT-56456,257.2909102589371,40.45149346794301,2632.831368451106,-1.100429361449931,38541.69104956027,10.5,10500038541.69105,47.655,-122.3035,60.0,7.033333333333333
2026-01-20T23:07:03+00:00,SAT-56456,257.48049584392436,40.51204415105252,2631.733873567953,-1.0840805458187723,37969.086370735546,10.5,10500037969.08637,47.655,-122.3035,60.0,7.05
2026-01-20T23:07:04+00:00,SAT-56456,257.67064881771665,40.57217828577043,2630.65268390359,-1.067710551841468,37395.73993664448,10.5,10500037395.739937,47.655,-122.3035,60.0,7.066666666666666
2026-01-20T23:07:05+00:00,SAT-56456,257.86136637071206,40.63189267062637,2629.5878205798867,-1.0513196689064852,36821.66188289532,10.5,10500036821.661882,47.655,-122.3035,60.0,7.083333333333333
2026-01-20T23:07:06+00:00,SAT-56456,258.0526456207821,40.69118411569836,2628.539304430097,-1.0349081892747514,36246.86244570198,10.5,10500036246.862446,47.655,-122.3035,60.0,7.1
2026-01-20T23:07:07+00:00,SAT-56456,258.24448361315905,40.75004944320955,2627.507155995994,-1.0184764049800163,35671.351853321714,10.5,10500035671.351852,47.655,-122.3035,60.0,7.116666666666666
2026-01-20T23:07:08+00:00,SAT-56456,258.4368773198049,40.808485487969996,2626.491395528094,-1.0020246072022232,35095.140304107794,10.5,10500035095.140305,47.655,-122.3035,60.0,7.133333333333334
2026-01-20T23:07:09+00:00,SAT-56456,258.62982363866485,40.86648909777928,2625.4920429865106,-0.9855530935314896,34518.23822092496,10.5,10500034518.23822,47.655,-122.3035,60.0,7.15
2026-01-20T23:07:10+00:00,SAT-56456,258.8233193942413,40.92405713423181,2624.509118034562,-0.9690621643521271,33940.65612450242,10.5,10500033940.656124,47.655,-122.3035,60.0,7.166666666666667
2026-01-20T23:07:11+00:00,SAT-56456,259.01736133755503,40.981186473321706,2623.542640035982,-0.9525521125821887,33362.404274069435,10.5,10500033362.404274,47.655,-122.3035,60.0,7.183333333333334
2026-01-20T23:07:12+00:00,SAT-56456,259.21194614424064,41.037874005503355,2622.5926280623667,-0.936023246514393,32783.49346734108,10.5,10500032783.493467,47.655,-122.3035,60.0,7.2
2026-01-20T23:07:13+00:00,SAT-56456,259.4070704169049,41.09411663699494,2621.659100877843,-0.9194758629358707,32203.934099058097,10.5,10500032203.9341,47.655,-122.3035,60.0,7.216666666666667
2026-01-20T23:07:14+00:00,SAT-56456,259.6027306824103,41.14991128960664,2620.742076950541,-0.9029102704808644,31623.736978897166,10.5,10500031623.736979,47.655,-122.3035,60.0,7.233333333333333
2026-01-20T23:07:15+00:00,SAT-56456,259.79892339376624,41.20525490188196,2619.8415744407816,-0.8863267704545786,31042.912659841084,10.5,10500031042.91266,47.655,-122.3035,60.0,7.25
2026-01-20T23:07:16+00:00,SAT-56456,259.9956449281238,41.260144429142805,2618.9576112083814,-0.8697256790901573,30461.472217712202,10.5,10500030461.472218,47.655,-122.3035,60.0,7.266666666666667
2026-01-20T23:07:17+00:00,SAT-56456,260.1928915894246,41.31457684481628,2618.090204797769,-0.8531072975001899,29879.426198747115,10.5,10500029879.426199,47.655,-122.3035,60.0,7.283333333333333
2026-01-20T23:07:18+00:00,SAT-56456,260.39065960486244,41.36854914005023,2617.2393724530625,-0.8364719418156683,29296.78567519039,10.5,10500029296.785675,47.655,-122.3035,60.0,7.3
2026-01-20T23:07:19+00:00,SAT-56456,260.5889451275933,41.422058325044624,2616.405131103091,-0.8198199207231811,28713.561458552107,10.5,10500028713.561459,47.655,-122.3035,60.0,7.316666666666666
2026-01-20T23:07:20+00:00,SAT-56456,260.78774423477984,41.47510142910457,2615.5874973688233,-0.8031515532993618,28129.764724245662,10.5,10500028129.764725,47.655,-122.3035,60.0,7.333333333333333
2026-01-20T23:07:21+00:00,SAT-56456,260.9870529294881,41.5276755017229,2614.7864875529995,-0.7864671519316557,27545.406413400782,10.5,10500027545.406414,47.655,-122.3035,60.0,7.35
2026-01-20T23:07:22+00:00,SAT-56456,261.18686713894255,41.579777612682925,2614.0021176468063,-0.7697670357571744,26960.49770354907,10.5,10500026960.497704,47.655,-122.3035,60.0,7.366666666666666
2026-01-20T23:07:23+00:00,SAT-56456,261.38718271562664,41.63140485291716,2613.2344033231448,-0.7530515210349811,26375.049671420693,10.5,10500026375.049671,47.655,-122.3035,60.0,7.383333333333334
2026-01-20T23:07:24+00:00,SAT-56456,261.5879954364169,41.68255433484126,2612.4833599394988,-0.736320930518171,25789.073621194286,10.5,10500025789.073622,47.655,-122.3035,60.0,7.4
2026-01-20T23:07:25+00:00,SAT-56456,261.7893010037533,41.733223193207344,2611.7490025314623,-0.7195755847724621,25202.580780437285,10.5,10500025202.58078,47.655,-122.3035,60.0,7.416666666666667
2026-01-20T23:07:26+00:00,SAT-56456,261.9910950449909,41.78340858548267,2611.0313458149158,-0.7028158078377619,24615.58249839794,10.5,10500024615.582499,47.655,-122.3035,60.0,7.433333333333334
2026-01-20T23:07:27+00:00,SAT-56456,262.19337311291997,41.83310769252133,2610.330404182566,-0.6860419198818518,24028.08998870627,10.5,10500024028.089989,47.655,-122.3035,60.0,7.45
2026-01-20T23:07:28+00:00,SAT-56456,262.3961306846352,41.88231771882144,2609.6461917078036,-0.6692542560761776,23440.114990484068,10.5,10500023440.11499,47.655,-122.3035,60.0,7.466666666666667
2026-01-20T23:07:29+00:00,SAT-56456,262.59936316527313,41.931035893960214,2608.9787221297433,-0.6524531334431485,22851.668607197113,10.5,10500022851.668608,47.655,-122.3035,60.0,7.483333333333333
2026-01-20T23:07:30+00:00,SAT-56456,262.803065883058,41.97925947191352,2608.328008871323,-0.6356388839036359,22262.762464118354,10.5,10500022262.762465,47.655,-122.3035,60.0,7.5
2026-01-20T23:07:31+00:00,SAT-56456,263.0072340930816,42.02698573248704,2607.694065024443,-0.6188118386741194,21673.408161849937,10.5,10500021673.408161,47.655,-122.3035,60.0,7.516666666666667
2026-01-20T23:07:32+00:00,SAT-56456,263.21186297717185,42.07421198178059,2607.076903350672,-0.6019723281716486,21083.617272994605,10.5,10500021083.617273,47.655,-122.3035,60.0,7.533333333333333
2026-01-20T23:07:33+00:00,SAT-56456,263.41694764349717,42.12093555259192,2606.476536282042,-0.5851206829692962,20493.4013756197,10.5,10500020493.401375,47.655,-122.3035,60.0,7.55
2026-01-20T23:07:34+00:00,SAT-56456,263.62248312663786,42.167153804928624,2605.892975920894,-0.5682572370167475,19902.772166055787,10.5,10500019902.772165,47.655,-122.3035,60.0,7.566666666666666
2026-01-20T23:07:35+00:00,SAT-56456,263.8284643884876,42.21286412669752,2605.3262340365095,-0.551382324063957,19311.74133363805,10.5,10500019311.741333,47.655,-122.3035,60.0,7.583333333333333
2026-01-20T23:07:36+00:00,SAT-56456,264.0348863182161,42.25806393417499,2604.7763220653096,-0.5344962810560576,18720.320679610308,10.5,10500018720.320679,47.655,-122.3035,60.0,7.6
2026-01-20T23:07:37+00:00,SAT-56456,264.24174373338315,42.30275067271621,2604.24325110767,-0.5175994429134337,18128.521934301145,10.5,10500018128.521935,47.655,-122.3035,60.0,7.616666666666666
2026-01-20T23:07:38+00:00,SAT-56456,264.4490313792561,42.34692181707023,2603.7270319299373,-0.500692147903606,17536.356945269996,10.5,10500017536.356945,47.655,-122.3035,60.0,7.633333333333334
2026-01-20T23:07:39+00:00,SAT-56456,264.6567439299747,42.39057487208714,2603.2276749610946,-0.4837747338697309,16943.83754521328,10.5,10500016943.837545,47.655,-122.3035,60.0,7.65
2026-01-20T23:07:40+00:00,SAT-56456,264.86487598862124,42.433707373175096,2602.745190293182,-0.4668475423898726,16350.975697639673,10.5,10500016350.975698,47.655,-122.3035,60.0,7.666666666666667
2026-01-20T23:07:41+00:00,SAT-56456,265.07342208864094,42.47631688703273,2602.2795876775717,-0.44991091137935474,15757.783237773196,10.5,10500015757.783237,47.655,-122.3035,60.0,7.683333333333334
2026-01-20T23:07:42+00:00,SAT-56456,265.28237669268907,42.51840101184184,2601.830876528623,-0.43296518222565894,15164.272122447519,10.5,10500015164.272123,47.655,-122.3035,60.0,7.7
2026-01-20T23:07:43+00:00,SAT-56456,265.49173419393367,42.55995737796051,2601.3990659202163,-0.4160107003378096,14570.454449347759,10.5,10500014570.454449,47.655,-122.3035,60.0,7.716666666666667
2026-01-20T23:07:44+00:00,SAT-56456,265.7014889182135,42.600983648759176,2600.9841645817464,-0.3990478060726186,13976.34213920917,10.5,10500013976.342138,47.655,-122.3035,60.0,7.733333333333333
2026-01-20T23:07:45+00:00,SAT-56456,265.9116351219469,42.64147752060957,2600.5861809031567,-0.3820768445158824,13381.947278396061,10.5,10500013381.947279,47.655,-122.3035,60.0,7.75
2026-01-20T23:07:46+00:00,SAT-56456,266.12216699454035,42.68143672375494,2600.205122930226,-0.36509815864479406,12787.281879420521,10.5,10500012787.28188,47.655,-122.3035,60.0,7.766666666666667
2026-01-20T23:07:47+00:00,SAT-56456,266.33307865758724,42.720859022545284,2599.840998366671,-0.34811209674236077,12192.3581406267,10.5,10500012192.35814,47.655,-122.3035,60.0,7.783333333333333
2026-01-20T23:07:48+00:00,SAT-56456,266.5443641679062,42.75974221638437,2599.493814568853,-0.3311190041352754,11597.188156816113,10.5,10500011597.188156,47.655,-122.3035,60.0,7.8
2026-01-20T23:07:49+00:00,SAT-56456,266.7560175162667,42.798084139857465,2599.1635785487288,-0.3141192257812632,11001.784009867466,10.5,10500011001.78401,47.655,-122.3035,60.0,7.816666666666666
2026-01-20T23:07:50+00:00,SAT-56456,266.96803262768884,42.835882663154955,2598.8502969742167,-0.2971131118625488,10406.157964643537,10.5,10500010406.157965,47.655,-122.3035,60.0,7.833333333333333
2026-01-20T23:07:51+00:00,SAT-56456,267.18040336446484,42.87313569296664,2598.5539761639857,-0.2801010088234002,9810.322155088044,10.5,10500009810.322155,47.655,-122.3035,60.0,7.85
2026-01-20T23:07:52+00:00,SAT-56456,267.3931235246848,42.90984117256058,2598.274622091186,-0.2630832669908847,9214.288851136773,10.5,10500009214.28885,47.655,-122.3035,60.0,7.866666666666666
2026-01-20T23:07:53+00:00,SAT-56456,267.60618684492295,42.945997082583084,2598.012240379573,-0.246060233911599,8618.070225341658,10.5,10500008618.070225,47.655,-122.3035,60.0,7.883333333333334
2026-01-20T23:07:54+00:00,SAT-56456,267.81958699900747,42.98160144117482,2597.7668363062858,-0.22903226020991888,8021.678558051479,10.5,10500008021.678558,47.655,-122.3035,60.0,7.9
2026-01-20T23:07:55+00:00,SAT-56456,268.0333176003932,43.01665230469025,2597.5384147987697,-0.21199969756274317,7425.126166478822,10.5,10500007425.126167,47.655,-122.3035,60.0,7.916666666666667
2026-01-20T23:07:56+00:00,SAT-56456,268.2473722037696,43.05114776826099,2597.3269804337338,-0.1949628946464413,6828.425262745047,10.5,10500006828.425262,47.655,-122.3035,60.0,7.933333333333334
2026-01-20T23:07:57+00:00,SAT-56456,268.46174430319996,43.085085965790974,2597.13253744014,-0.1779222037066099,6231.588183980946,10.5,10500006231.588184,47.655,-122.3035,60.0,7.95
2026-01-20T23:07:58+00:00,SAT-56456,268.6764273354688,43.11846507078792,2596.9550896956425,-0.16087797649536453,5634.627250033513,10.5,10500005634.62725,47.655,-122.3035,60.0,7.966666666666667
2026-01-20T23:07:59+00:00,SAT-56456,268.8914146804975,43.151283296698224,2596.794640727085,-0.14383056509008113,5037.554792141743,10.5,10500005037.554792,47.655,-122.3035,60.0,7.983333333333333
2026-01-20T23:08:00+00:00,SAT-56456,269.1066996623206,43.183538897325455,2596.651193710168,-0.1267803207951335,4440.383114470817,10.5,10500004440.383114,47.655,-122.3035,60.0,8.0
2026-01-20T23:08:01+00:00,SAT-56456,269.3222755488115,43.21523016705152,2596.5247514702287,-0.10972759729844617,3843.124604667956,10.5,10500003843.124605,47.655,-122.3035,60.0,8.016666666666667
2026-01-20T23:08:02+00:00,SAT-56456,269.5381355551277,43.24635544160013,2596.4153164798563,-0.09267274651273191,3245.791588204948,10.5,10500003245.791588,47.655,-122.3035,60.0,8.033333333333333
2026-01-20T23:08:03+00:00,SAT-56456,269.7542728423632,43.276913098076,2596.3228908606675,-0.07561612238866486,2648.396461931611,10.5,10500002648.396461,47.655,-122.3035,60.0,8.05
2026-01-20T23:08:04+00:00,SAT-56456,269.9706805208799,43.30690155567508,2596.247476381272,-0.05855807777204939,2050.9515840005506,10.5,10500002050.951584,47.655,-122.3035,60.0,8.066666666666666
2026-01-20T23:08:05+00:00,SAT-56456,270.18735165010025,43.336319275867226,2596.1890744583743,-0.04149896510668793,1453.4692984845642,10.5,10500001453.4693,47.655,-122.3035,60.0,8.083333333333334
2026-01-20T23:08:06+00:00,SAT-56456,270.4042792381214,43.36516476256538,2596.1476861571746,-0.02443913928244475,855.9620351278812,10.5,10500000855.962034,47.655,-122.3035,60.0,8.1
2026-01-20T23:08:07+00:00,SAT-56456,270.62145624705806,43.39343656304794,2596.12331218893,-0.007378952863062212,258.44214220410186,10.5,10500000258.442142,47.655,-122.3035,60.0,8.116666666666667
2026-01-20T23:08:08+00:00,SAT-56456,270.8388755900212,43.42113326774059,2596.1159529132747,0.00968124015047182,-339.07798167475613,10.5,10499999660.922018,47.655,-122.3035,60.0,8.133333333333333
2026-01-20T23:08:09+00:00,SAT-56456,271.05653013500637,43.44825351090894,2596.1256083367844,0.02674108642293738,-936.5859612146829,10.5,10499999063.41404,47.655,-122.3035,60.0,8.15
2026-01-20T23:08:10+00:00,SAT-56456,271.27441270457103,43.47479597078713,2596.1522781136437,0.04380023217645507,-1534.0694056178631,10.5,10499998465.930593,47.655,-122.3035,60.0,8.166666666666666
2026-01-20T23:08:11+00:00,SAT-56456,271.49251607787494,43.50075936999594,2596.195961545201,0.06085832413577486,-2131.515941690688,10.5,10499997868.484058,47.655,-122.3035,60.0,8.183333333333334
2026-01-20T23:08:12+00:00,SAT-56456,271.71083299131965,43.52614247577225,2596.2566575804726,0.0779150087522245,-2728.9131866631456,10.5,10499997271.086813,47.655,-122.3035,60.0,8.2
2026-01-20T23:08:13+00:00,SAT-56456,271.9293561414144,43.550944100450195,2596.334364815868,0.09496993291877465,-3326.2487732334275,10.5,10499996673.751226,47.655,-122.3035,60.0,8.216666666666667
2026-01-20T23:08:14+00:00,SAT-56456,272.14807818355473,43.5751631014499,2596.4290814956325,0.11202274345978638,-3923.510331696727,10.5,10499996076.489668,47.655,-122.3035,60.0,8.233333333333333
2026-01-20T23:08:15+00:00,SAT-56456,272.36699173567393,43.59879838182041,2596.5408055117764,0.1290730875472431,-4520.685504523441,10.5,10499995479.314495,47.655,-122.3035,60.0,8.25
2026-01-20T23:08:16+00:00,SAT-56456,272.58608937782685,43.62184889030279,2596.6695344044238,0.146120612542694,-5117.761940823365,10.5,10499994882.23806,47.655,-122.3035,60.0,8.266666666666667
2026-01-20T23:08:17+00:00,SAT-56456,272.80536365512444,43.644313621753135,2596.815265361999,0.1631649659662531,-5714.727295259901,10.5,10499994285.272705,47.655,-122.3035,60.0,8.283333333333333
2026-01-20T23:08:18+00:00,SAT-56456,273.0248070775305,43.666191617213435,2596.9779952213894,0.18020579602108164,-6311.569246419659,10.5,10499993688.430754,47.655,-122.3035,60.0,8.3
2026-01-20T23:08:19+00:00,SAT-56456,273.24441212282784,43.68748196430023,2597.1577204686214,0.197242750475813,-6908.275457670241,10.5,10499993091.724543,47.655,-122.3035,60.0,8.316666666666666
2026-01-20T23:08:20+00:00,SAT-56456,273.4641712362735,43.70818379724693,2597.354437238429,0.21427547900642932,-7504.833659182673,10.5,10499992495.16634,47.655,-122.3035,60.0,8.333333333333334
2026-01-20T23:08:21+00:00,SAT-56456,273.68407683453285,43.72829629734547,2597.5681413161583,0.23130362920826097,-8101.231508254755,10.5,10499991898.768492,47.655,-122.3035,60.0,8.35
2026-01-20T23:08:22+00:00,SAT-56456,273.90412130346664,43.74781869279779,2597.798828135689,0.24832685224840706,-8697.456787282734,10.5,10499991302.543213,47.655,-122.3035,60.0,8.366666666666667
2026-01-20T23:08:23+00:00,SAT-56456,274.1242970040109,43.76675025930063,2598.046492782998,0.2653447962985191,-9293.497173749616,10.5,10499990706.502827,47.655,-122.3035,60.0,8.383333333333333
2026-01-20T23:08:24+00:00,SAT-56456,274.3445962690133,43.7850903197972,2598.311129993173,0.282357113716455,-9889.340491757059,10.5,10499990110.659508,47.655,-122.3035,60.0,8.4
2026-01-20T23:08:25+00:00,SAT-56456,274.5650114091539,43.80283824501857,2598.5927341545857,0.2993634543408273,-10484.974477172093,10.5,10499989515.025522,47.655,-122.3035,60.0,8.416666666666666
2026-01-20T23:08:26+00:00,SAT-56456,274.7855347109542,43.81999345332869,2598.891299306382,0.31636346961164885,-11080.386921949561,10.5,10499988919.613077,47.655,-122.3035,60.0,8.433333333333334
2026-01-20T23:08:27+00:00,SAT-56456,275.0061584396558,43.836555410973865,2599.206819140075,0.33335681327370936,-11675.56569876734,10.5,10499988324.434301,47.655,-122.3035,60.0,8.45
2026-01-20T23:08:28+00:00,SAT-56456,275.22687484184553,43.85252363227872,2599.5392870018463,0.3503431364707297,-12270.498589202873,10.5,10499987729.501411,47.655,-122.3035,60.0,8.466666666666667
2026-01-20T23:08:29+00:00,SAT-56456,275.44767614452894,43.867897679567264,2599.888695889953,0.3673220940594843,-12865.17350488045,10.5,10499987134.826494,47.655,-122.3035,60.0,8.483333333333333
2026-01-20T23:08:30+00:00,SAT-56456,275.6685545589272,43.882677163421285,2600.2550384584283,0.3842933389462002,-13459.578289107934,10.5,10499986540.421711,47.655,-122.3035,60.0,8.5
2026-01-20T23:08:31+00:00,SAT-56456,275.8895022801201,43.89686174262506,2600.6383070151373,0.4012565279041486,-14053.700920633435,10.5,10499985946.29908,47.655,-122.3035,60.0,8.516666666666667
2026-01-20T23:08:32+00:00,SAT-56456,276.110511490691,43.91045112437147,2601.0384935256334,0.4182113158322862,-14647.529312558641,10.5,10499985352.470688,47.655,-122.3035,60.0,8.533333333333333
2026-01-20T23:08:33+00:00,SAT-56456,276.3315743605767,43.9234450642023,2601.4555896112906,0.4351573591339003,-15241.05143067326,10.5,10499984758.94857,47.655,-122.3035,60.0,8.55
2026-01-20T23:08:34+00:00,SAT-56456,276.55268304897817,43.93584336607113,2601.8895865508002,0.4520943147504829,-15834.255259617206,10.5,10499984165.74474,47.655,-122.3035,60.0,8.566666666666666
2026-01-20T23:08:35+00:00,SAT-56456,276.77382970596676,43.94764588237895,2602.340475280711,0.4690218428151458,-16427.12889581442,10.5,10499983572.871103,47.655,-122.3035,60.0,8.583333333333334
2026-01-20T23:08:36+00:00,SAT-56456,276.99500647517164,43.958852514043826,2602.8082463986125,0.4859396011923085,-17019.66035622964,10.5,10499982980.339643,47.655,-122.3035,60.0,8.6
2026-01-20T23:08:37+00:00,SAT-56456,277.21620549365423,43.96946321040935,2603.292890160868,0.5028472508378906,-17611.837766105014,10.5,10499982388.162233,47.655,-122.3035,60.0,8.616666666666667
2026-01-20T23:08:38+00:00,SAT-56456,277.43741889460983,43.97947796929269,2603.7943964857036,0.5197444512731079,-18203.649200433298,10.5,10499981796.3508,47.655,-122.3035,60.0,8.633333333333333
2026-01-20T23:08:39+00:00,SAT-56456,277.6586388078237,43.988896836907536,2604.312754951773,0.5366308675394587,-18795.082927550888,10.5,10499981204.917072,47.655,-122.3035,60.0,8.65
2026-01-20T23:08:40+00:00,SAT-56456,277.87985736334315,43.997719907918245,2604.847954803666,0.5535061603433272,-19386.127063960146,10.5,10499980613.872936,47.655,-122.3035,60.0,8.666666666666666
2026-01-20T23:08:41+00:00,SAT-56456,278.1010666905779,44.005947325280275,2605.3999849475817,0.5703699948517422,-19976.769882394085,10.5,10499980023.230118,47.655,-122.3035,60.0,8.683333333333334
2026-01-20T23:08:42+00:00,SAT-56456,278.32225892138894,44.01357928024135,2605.9688339557806,0.5872220353398072,-20566.999624346707,10.5,10499979433.000376,47.655,-122.3035,60.0,8.7
2026-01-20T23:08:43+00:00,SAT-56456,278.54342619095297,44.02061601223986,2606.554490065693,0.6040619507348689,-21156.80469425326,10.5,10499978843.195305,47.655,-122.3035,60.0,8.716666666666667
2026-01-20T23:08:44+00:00,SAT-56456,278.76456064062654,44.02705780885474,2607.156941184559,0.6208894067772283,-21746.17338492517,10.5,10499978253.826614,47.655,-122.3035,60.0,8.733333333333333
2026-01-20T23:08:45+00:00,SAT-56456,278.98565441783825,44.032905005647066,2607.7761748862513,0.6377040733202086,-22335.094133229297,10.5,10499977664.905867,47.655,-122.3035,60.0,8.75
2026-01-20T23:08:46+00:00,SAT-56456,279.2066996787803,44.03815798608158,2608.4121784153763,0.6545056182930135,-22923.555308641688,10.5,10499977076.44469,47.655,-122.3035,60.0,8.766666666666667
2026-01-20T23:08:47+00:00,SAT-56456,279.4276885888518,44.04281718136963,2609.064938685354,0.6712937156004939,-23511.545489930857,10.5,10499976488.45451,47.655,-122.3035,60.0,8.783333333333333
2026-01-20T23:08:48+00:00,SAT-56456,279.64861332592386,44.046883070370306,2609.734442284379,0.688068039000626,-24099.05325072111,10.5,10499975900.946749,47.655,-122.3035,60.0,8.8
2026-01-20T23:08:49+00:00,SAT-56456,279.86946608135366,44.050356179416234,2610.420675475276,0.7048282551332598,-24686.066915329895,10.5,10499975313.933084,47.655,-122.3035,60.0,8.816666666666666
2026-01-20T23:08:50+00:00,SAT-56456,280.0902390586145,44.053237082104275,2611.1236241883958,0.7215740481326935,-25272.575420804224,10.5,10499974727.42458,47.655,-122.3035,60.0,8.833333333333334
2026-01-20T23:08:51+00:00,SAT-56456,280.3109244804448,44.055526399209846,2611.8432740390663,0.738305089516671,-25858.567262305995,10.5,10499974141.432737,47.655,-122.3035,60.0,8.85
2026-01-20T23:08:52+00:00,SAT-56456,280.5315145855558,44.05722479841803,2612.5796103150115,0.7550210596037767,-26444.0312432398,10.5,10499973555.968758,47.655,-122.3035,60.0,8.866666666666667
2026-01-20T23:08:53+00:00,SAT-56456,280.7520016326764,44.05833299415717,2613.332617985123,0.7717216328187712,-27028.95596058356,10.5,10499972971.044039,47.655,-122.3035,60.0,8.883333333333333
2026-01-20T23:08:54+00:00,SAT-56456,280.9723778997354,44.058851747368465,2614.102281693587,0.7884064973759413,-27613.33049428276,10.5,10499972386.669506,47.655,-122.3035,60.0,8.9
2026-01-20T23:08:55+00:00,SAT-56456,281.1926356892575,44.05878186530066,2614.8885857736373,0.8050753306472137,-28197.14354453755,10.5,10499971802.856455,47.655,-122.3035,60.0,8.916666666666666
2026-01-20T23:08:56+00:00,SAT-56456,281.41276732596236,44.05812420125058,2615.6915142367357,0.8217278189832342,-28780.384126020806,10.5,10499971219.615873,47.655,-122.3035,60.0,8.933333333333334
2026-01-20T23:08:57+00:00,SAT-56456,281.63276516059557,44.05687965432247,2616.511050781535,0.8383636422650098,-29363.0410268113,10.5,10499970636.958973,47.655,-122.3035,60.0,8.95
2026-01-20T23:08:58+00:00,SAT-56456,281.85262156907277,44.05504916917439,2617.3471787874205,0.8549824962167917,-29945.103589885213,10.5,10499970054.89641,47.655,-122.3035,60.0,8.966666666666667
2026-01-20T23:08:59+00:00,SAT-56456,282.0723289579792,44.05263373572401,2618.199881330314,0.8715840617248458,-30526.560638529743,10.5,10499969473.439362,47.655,-122.3035,60.0,8.983333333333333
2026-01-20T23:09:00+00:00,SAT-56456,282.29187976139775,44.049634388891384,2619.0691411678745,0.8881680322498123,-31107.401436439835,10.5,10499968892.598564,47.655,-122.3035,60.0,9.0
2026-01-20T23:09:01+00:00,SAT-56456,282.51126644543797,44.04605220828571,2619.954940752038,0.9047340980449561,-31687.615134974607,10.5,10499968312.384865,47.655,-122.3035,60.0,9.016666666666667
2026-01-20T23:09:02+00:00,SAT-56456,282.7304815082592,44.041888317909034,2620.8572622258216,0.9212819546500439,-32267.19107064882,10.5,10499967732.80893,47.655,-122.3035,60.0,9.033333333333333
2026-01-20T23:09:03+00:00,SAT-56456,282.94951748247433,44.037143885826225,2621.7760874285927,0.9378112948248808,-32846.11848261122,10.5,10499967153.881517,47.655,-122.3035,60.0,9.05
2026-01-20T23:09:04+00:00,SAT-56456,283.1683669353514,44.031820123857344,2622.711397893298,0.9543218167784037,-33424.38680086221,10.5,10499966575.6132,47.655,-122.3035,60.0,9.066666666666666
2026-01-20T23:09:05+00:00,SAT-56456,283.3870224711631,44.025918287222545,2623.6631748518985,0.9708132157535795,-34001.98535152136,10.5,10499965998.014648,47.655,-122.3035,60.0,9.083333333333334
2026-01-20T23:09:06+00:00,SAT-56456,283.6054767313558,44.01943967422234,2624.63139923241,0.9872851958358899,-34578.90377041054,10.5,10499965421.09623,47.655,-122.3035,60.0,9.1
2026-01-20T23:09:07+00:00,SAT-56456,283.82372239764356,44.01238562583639,2625.6160516677237,1.0037374582536063,-35155.13159327999,10.5,10499964844.868406,47.655,-122.3035,60.0,9.116666666666667
2026-01-20T23:09:08+00:00,SAT-56456,284.041752192119,44.00475752538165,2626.617112492755,1.0201697059141577,-35730.658414691185,10.5,10499964269.341585,47.655,-122.3035,60.0,9.133333333333333
2026-01-20T23:09:09+00:00,SAT-56456,284.2595588785908,43.996556798139025,2627.6345617461207,1.03658164174276,-36305.47382982857,10.5,10499963694.52617,47.655,-122.3035,60.0,9.15
2026-01-20T23:09:10+00:00,SAT-56456,284.4771352634438,43.98778491098335,2628.668379170152,1.0529729782349169,-36879.56776906852,10.5,10499963120.43223,47.655,-122.3035,60.0,9.166666666666666
2026-01-20T23:09:11+00:00,SAT-56456,284.6944741986299,43.97844337192365,2629.7185442204445,1.0693434211974508,-37452.92992852153,10.5,10499962547.070072,47.655,-122.3035,60.0,9.183333333333334
2026-01-20T23:09:12+00:00,SAT-56456,284.91156858096724,43.96853372976854,2630.7850360591856,1.0856926816794716,-38025.55018790517,10.5,10499961974.449812,47.655,-122.3035,60.0,9.2
2026-01-20T23:09:13+00:00,SAT-56456,285.1284113541425,43.95805757368631,2631.8678335603804,1.10202047540876,-38597.418590803834,10.5,10499961402.58141,47.655,-122.3035,60.0,9.216666666666667
2026-01-20T23:09:14+00:00,SAT-56456,285.34499551043825,43.947016532754645,2632.9669153145214,1.118326514588084,-39168.52505734111,10.5,10499960831.474943,47.655,-122.3035,60.0,9.233333333333333
2026-01-20T23:09:15+00:00,SAT-56456,285.56131409078097,43.93541227558264,2634.082259625071,1.134610516991318,-39738.85970276424,10.5,10499960261.140297,47.655,-122.3035,60.0,9.25
2026-01-20T23:09:16+00:00,SAT-56456,285.777360186626,43.92324650983807,2635.2138445140167,1.150872201428595,-40308.412678614644,10.5,10499959691.587322,47.655,-122.3035,60.0,9.266666666666667
2026-01-20T23:09:17+00:00,SAT-56456,285.9931269408953,43.91052098180853,2636.3616477229084,1.1671112887114183,-40877.17420653022,10.5,10499959122.825794,47.655,-122.3035,60.0,9.283333333333333
2026-01-20T23:09:18+00:00,SAT-56456,286.2086075490844,43.89723747594837,2637.5256467148497,1.183327500617417,-41445.13454198665,10.5,10499958554.865458,47.655,-122.3035,60.0,9.3
2026-01-20T23:09:19+00:00,SAT-56456,286.42379526011536,43.88339781442822,2638.7058186754653,1.1995205649613627,-42012.28415190588,10.5,10499957987.715849,47.655,-122.3035,60.0,9.316666666666666
2026-01-20T23:09:20+00:00,SAT-56456,286.63868337818235,43.86900385661949,2639.9021405189205,1.215690204582555,-42578.61332894782,10.5,10499957421.386671,47.655,-122.3035,60.0,9.333333333333334
2026-01-20T23:09:21+00:00,SAT-56456,286.85326526240846,43.85405749870155,2641.114588882957,1.2318361534675866,-43144.11275619769,10.5,10499956855.887243,47.655,-122.3035,60.0,9.35
2026-01-20T23:09:22+00:00,SAT-56456,287.06753432957424,43.838560673068436,2642.3431401400157,1.2479581353593723,-43708.77275796381,10.5,10499956291.227242,47.655,-122.3035,60.0,9.366666666666667
2026-01-20T23:09:23+00:00,SAT-56456,287.28148405282,43.822515347994006,2643.5877703870137,1.2640558895000051,-44272.584201401274,10.5,10499955727.415798,47.655,-122.3035,60.0,9.383333333333333
2026-01-20T23:09:24+00:00,SAT-56456,287.49510796503796,43.805923526967355,2644.8484554608085,1.2801291500676761,-44835.5377763059,10.5,10499955164.462223,47.655,-122.3035,60.0,9.4
2026-01-20T23:09:25+00:00,SAT-56456,287.70839965847784,43.78878724828082,2646.1251709331427,1.2961776532724394,-45397.624243637954,10.5,10499954602.375757,47.655,-122.3035,60.0,9.416666666666666
2026-01-20T23:09:26+00:00,SAT-56456,287.92135278564734,43.77110858452583,2647.417892112673,1.3122011351820475,-45958.8343593737,10.5,10499954041.16564,47.655,-122.3035,60.0,9.433333333333334
2026-01-20T23:09:27+00:00,SAT-56456,288.13396105980945,43.75288964211323,2648.7265940448283,1.3281993439512425,-46519.15930282691,10.5,10499953480.840696,47.655,-122.3035,60.0,9.45
2026-01-20T23:09:28+00:00,SAT-56456,288.3462182575163,43.734132560617674,2650.051251523862,1.3441720177055598,-47078.5899020461,10.5,10499952921.410097,47.655,-122.3035,60.0,9.466666666666667
2026-01-20T23:09:29+00:00,SAT-56456,288.55811821734324,43.714839512423964,2651.391839082854,1.3601189080348,-47637.117456655295,10.5,10499952362.882544,47.655,-122.3035,60.0,9.483333333333333
2026-01-20T23:09:30+00:00,SAT-56456,288.7696548425868,43.6950127020391,2652.748331007134,1.3760397537846436,-48194.73281992557,10.5,10499951805.26718,47.655,-122.3035,60.0,9.5
2026-01-20T23:09:31+00:00,SAT-56456,288.98082209957516,43.674654365778586,2654.1207013215753,1.3919343168144884,-48751.42765116569,10.5,10499951248.57235,47.655,-122.3035,60.0,9.516666666666667
2026-01-20T23:09:32+00:00,SAT-56456,289.191614021768,43.65376677092233,2655.5089238135447,1.4078023415019894,-49307.19299739984,10.5,10499950692.807003,47.655,-122.3035,60.0,9.533333333333333
2026-01-20T23:09:33+00:00,SAT-56456,289.40202470730696,43.63235221546681,2656.912972015469,1.4236435848860776,-49862.020349103695,10.5,10499950137.97965,47.655,-122.3035,60.0,9.55
2026-01-20T23:09:34+00:00,SAT-56456,289.61204832137594,43.61041302742531,2658.3328192174627,1.439457802689398,-50415.90115065096,10.5,10499949584.09885,47.655,-122.3035,60.0,9.566666666666666
2026-01-20T23:09:35+00:00,SAT-56456,289.82167909628464,43.587951564334844,2659.7684384660115,1.4552447578111651,-50968.827097769194,10.5,10499949031.172903,47.655,-122.3035,60.0,9.583333333333334
2026-01-20T23:09:36+00:00,SAT-56456,290.03091133285704,43.56497021262747,2661.219802571135,1.4710042080475592,-51520.78970745612,10.5,10499948479.210293,47.655,-122.3035,60.0,9.6
2026-01-20T23:09:37+00:00,SAT-56456,290.2397393999048,43.5414713871919,2662.6868841012943,1.4867359158586937,-52071.78066006011,10.5,10499947928.21934,47.655,-122.3035,60.0,9.616666666666667
2026-01-20T23:09:38+00:00,SAT-56456,290.44815773520605,43.51745753078,2664.1696553880442,1.5024396548712864,-52621.792027031275,10.5,10499947378.207973,47.655,-122.3035,60.0,9.633333333333333
2026-01-20T23:09:39+00:00,SAT-56456,290.656160847297,43.492931113303676,2665.6680885371693,1.5181151845703318,-53170.815384516725,10.5,10499946829.184616,47.655,-122.3035,60.0,9.65
2026-01-20T23:09:40+00:00,SAT-56456,290.8637433136476,43.467894631538904,2667.182155414581,1.533762284574459,-53718.84301382866,10.5,10499946281.156986,47.655,-122.3035,60.0,9.666666666666666
2026-01-20T23:09:41+00:00,SAT-56456,291.07089978368106,43.442350608270374,2668.7118276663964,1.549380713560085,-54265.86646279438,10.5,10499945734.133537,47.655,-122.3035,60.0,9.683333333333334
2026-01-20T23:09:42+00:00,SAT-56456,291.2776249760003,43.41630159211316,2670.2570766980534,1.5649702610744203,-54811.878360467,10.5,10499945188.12164,47.655,-122.3035,60.0,9.7
2026-01-20T23:09:43+00:00,SAT-56456,291.48391368279033,43.38975015646716,2671.8178737050985,1.5805307009535687,-55356.87078563021,10.5,10499944643.129215,47.655,-122.3035,60.0,9.716666666666667
2026-01-20T23:09:44+00:00,SAT-56456,291.6897607677189,43.3626988992501,2673.394189657516,1.5960618145186964,-55900.836079226225,10.5,10499944099.163921,47.655,-122.3035,60.0,9.733333333333333
2026-01-20T23:09:45+00:00,SAT-56456,291.8951611670167,43.33515044224,2674.985995307196,1.6115633732467507,-56443.766237411095,10.5,10499943556.233763,47.655,-122.3035,60.0,9.75
2026-01-20T23:09:46+00:00,SAT-56456,292.1001098882664,43.307107430718204,2676.593261178114,1.6270351739255497,-56985.65414283462,10.5,10499943014.345858,47.655,-122.3035,60.0,9.766666666666667
2026-01-20T23:09:47+00:00,SAT-56456,292.3046020137424,43.278572532499304,2678.215957591576,1.6424769981608616,-57526.492146406985,10.5,10499942473.507854,47.655,-122.3035,60.0,9.783333333333333
2026-01-20T23:09:48+00:00,SAT-56456,292.50863269842273,43.24954843766343,2679.854054651075,1.6578886437477947,-58066.27316605758,10.5,10499941933.726833,47.655,-122.3035,60.0,9.8
2026-01-20T23:09:49+00:00,SAT-56456,292.7121971720271,43.220037857739996,2681.5075222584396,1.6732698842332772,-58604.989270441925,10.5,10499941395.010729,47.655,-122.3035,60.0,9.816666666666666
2026-01-20T23:09:50+00:00,SAT-56456,292.91529073592807,43.19004352561071,2683.176330089648,1.6886205319749468,-59142.633887530756,10.5,10499940857.366112,47.655,-122.3035,60.0,9.833333333333334
2026-01-20T23:09:51+00:00,SAT-56456,293.11790876796124,43.15956819428709,2684.860447633538,1.703940373734462,-59679.19954881537,10.5,10499940320.800451,47.655,-122.3035,60.0,9.85
2026-01-20T23:09:52+00:00,SAT-56456,293.3200467191295,43.12861463683971,2686.5598441662755,1.719229219983457,-60214.679616210684,10.5,10499939785.320383,47.655,-122.3035,60.0,9.866666666666667
2026-01-20T23:09:53+00:00,SAT-56456,293.52170011638185,43.097185645440376,2688.274488775006,1.7344868486883378,-60749.06631316104,10.5,10499939250.933687,47.655,-122.3035,60.0,9.883333333333333
2026-01-20T23:09:54+00:00,SAT-56456,293.72286455858875,43.06528403143169,2690.004350325431,1.749713086962396,-61282.35358444261,10.5,10499938717.646416,47.655,-122.3035,60.0,9.9
2026-01-20T23:09:55+00:00,SAT-56456,293.9235357222694,43.03291262390102,2691.749397510828,1.764907730732525,-61814.53428255194,10.5,10499938185.465717,47.655,-122.3035,60.0,9.916666666666666
2026-01-20T23:09:56+00:00,SAT-56456,294.1237093576846,43.00007426972803,2693.509598820945,1.7800705930190808,-62345.601858671,10.5,10499937654.398142,47.655,-122.3035,60.0,9.933333333333334
2026-01-20T23:09:57+00:00,SAT-56456,294.32338129064095,42.966771832748385,2695.28492255905,1.7952014741552225,-62875.54931962243,10.5,10499937124.45068,47.655,-122.3035,60.0,9.95
2026-01-20T23:09:58+00:00,SAT-56456,294.52254742084017,42.93300819347043,2697.075336829274,1.8103002011602203,-63404.37060688936,10.5,10499936595.629393,47.655,-122.3035,60.0,9.966666666666667
2026-01-20T23:09:59+00:00,SAT-56456,294.7212037246709,42.898786248058464,2698.880809563231,1.8253665838221529,-63932.05905844571,10.5,10499936067.94094,47.655,-122.3035,60.0,9.983333333333333
2026-01-20T23:10:00+00:00,SAT-56456,294.9193462529841,42.86410890813816,2700.7013085028298,1.8404004371342868,-64458.6081945731,10.5,10499935541.391806,47.655,-122.3035,60.0,10.0
2026-01-20T23:10:01+00:00,SAT-56456,295.11697113140684,42.82897910018825,2702.536801205465,1.8554015864347013,-64984.01189787224,10.5,10499935015.988102,47.655,-122.3035,60.0,10.016666666666667
2026-01-20T23:10:02+00:00,SAT-56456,295.3140745612036,42.79339976483238,2704.3872550543356,1.8703698515564386,-65508.26385813417,10.5,10499934491.736141,47.655,-122.3035,60.0,10.033333333333333
2026-01-20T23:10:03+00:00,SAT-56456,295.5106528183265,42.75737385643682,2706.2526372529546,1.8853050644469769,-66031.35818944871,10.5,10499933968.641811,47.655,-122.3035,60.0,10.05
2026-01-20T23:10:04+00:00,SAT-56456,295.70670225440364,42.72090434237139,2708.13291483723,1.900207044934276,-66553.28858142889,10.5,10499933446.711418,47.655,-122.3035,60.0,10.066666666666666
