satellites_20260121_005943/SAT-64042.csv

timestamp,satellite,azimuth_deg,elevation_deg,distance_km,relative_velocity_kms,doppler_shift_hz,tx_freq_ghz,rx_freq_hz,ue_lat,ue_lon,ue_alt_m,time_minutes
2026-01-20T23:01:32+00:00,SAT-64042,250.14229673582548,30.023291646804044,3505.6778767389083,-4.784661715913103,167579.09239026814,10.5,10500167579.09239,47.655,-122.3035,60.0,1.5333333333333334
2026-01-20T23:01:33+00:00,SAT-64042,250.21195869797697,30.09017983970331,3500.9059741209044,-4.779384064007515,167394.24669608902,10.5,10500167394.246696,47.655,-122.3035,60.0,1.55
2026-01-20T23:01:34+00:00,SAT-64042,250.28196287482655,30.15710113208016,3496.139335081067,-4.774079432242642,167208.45605311307,10.5,10500167208.456053,47.655,-122.3035,60.0,1.5666666666666667
2026-01-20T23:01:35+00:00,SAT-64042,250.35231103382563,30.22405504674966,3491.377986527311,-4.768747743195269,167021.71774965175,10.5,10500167021.71775,47.655,-122.3035,60.0,1.5833333333333333
2026-01-20T23:01:36+00:00,SAT-64042,250.42300495182315,30.29104109961235,3486.621955444764,-4.763388856883375,166834.02688294256,10.5,10500166834.026882,47.655,-122.3035,60.0,1.6
2026-01-20T23:01:37+00:00,SAT-64042,250.49404641411348,30.35805879871256,3481.8712689581653,-4.758002674411965,166645.37998926456,10.5,10500166645.37999,47.655,-122.3035,60.0,1.6166666666666667
2026-01-20T23:01:38+00:00,SAT-64042,250.5654372150927,30.42510764473213,3477.1259542908856,-4.752589084035205,166455.77315480582,10.5,10500166455.773155,47.655,-122.3035,60.0,1.6333333333333333
2026-01-20T23:01:39+00:00,SAT-64042,250.63717915806447,30.492187130736983,3472.386038777741,-4.747147982270399,166265.2027551647,10.5,10500166265.202755,47.655,-122.3035,60.0,1.65
2026-01-20T23:01:40+00:00,SAT-64042,250.7092740553846,30.55929674221313,3467.6515498567564,-4.741679252321023,166073.6646996328,10.5,10500166073.6647,47.655,-122.3035,60.0,1.6666666666666667
2026-01-20T23:01:41+00:00,SAT-64042,250.78172372827055,30.62643595680701,3462.922515082442,-4.7361827531794685,165881.15404952722,10.5,10500165881.154049,47.655,-122.3035,60.0,1.6833333333333333
2026-01-20T23:01:42+00:00,SAT-64042,250.854530006424,30.693604243903412,3458.198962149937,-4.730658420758714,165687.6685602494,10.5,10500165687.66856,47.655,-122.3035,60.0,1.7
2026-01-20T23:01:43+00:00,SAT-64042,250.92769472924925,30.76080106562773,3453.480918818301,-4.725106105128847,165493.20298061965,10.5,10500165493.20298,47.655,-122.3035,60.0,1.7166666666666666
2026-01-20T23:01:44+00:00,SAT-64042,251.00121974451747,30.828025875560236,3448.768412996119,-4.719525717022589,165297.7541841202,10.5,10500165297.754185,47.655,-122.3035,60.0,1.7333333333333334
2026-01-20T23:01:45+00:00,SAT-64042,251.07510690932207,30.895278119509403,3444.061472681008,-4.713917114307133,165101.31719265896,10.5,10500165101.317192,47.655,-122.3035,60.0,1.75
2026-01-20T23:01:46+00:00,SAT-64042,251.14935808924957,30.96255723468416,3439.360126012339,-4.708280202696532,164903.88870394326,10.5,10500164903.888704,47.655,-122.3035,60.0,1.7666666666666666
2026-01-20T23:01:47+00:00,SAT-64042,251.22397515914346,31.02986265028937,3434.6644012235165,-4.702614876015545,164705.464999267,10.5,10500164705.465,47.655,-122.3035,60.0,1.7833333333333334
2026-01-20T23:01:48+00:00,SAT-64042,251.2989600029327,31.09719378727457,3429.974326653837,-4.696920990809994,164506.04105425806,10.5,10500164506.041054,47.655,-122.3035,60.0,1.8
2026-01-20T23:01:49+00:00,SAT-64042,251.37431451300864,31.16455005772344,3425.2899307856696,-4.691198464474854,164305.61397573908,10.5,10500164305.613976,47.655,-122.3035,60.0,1.8166666666666667
2026-01-20T23:01:50+00:00,SAT-64042,251.45004059123795,31.231930865631888,3420.6112421837665,-4.685447144755107,164104.17843109526,10.5,10500164104.17843,47.655,-122.3035,60.0,1.8333333333333333
2026-01-20T23:01:51+00:00,SAT-64042,251.52614014779772,31.299335605836212,3415.9382895647304,-4.679666960941121,163901.7319437761,10.5,10500163901.731943,47.655,-122.3035,60.0,1.85
2026-01-20T23:01:52+00:00,SAT-64042,251.6026151025426,31.36676366508439,3411.2711017156853,-4.6738577479183885,163698.26873077333,10.5,10500163698.26873,47.655,-122.3035,60.0,1.8666666666666667
2026-01-20T23:01:53+00:00,SAT-64042,251.67946738341155,31.434214420609457,3406.609707588428,-4.668019433999971,163493.786281307,10.5,10500163493.786282,47.655,-122.3035,60.0,1.8833333333333333
2026-01-20T23:01:54+00:00,SAT-64042,251.756698928008,31.50168724137329,3401.954136206252,-4.662151865998778,163288.27923011713,10.5,10500163288.27923,47.655,-122.3035,60.0,1.9
2026-01-20T23:01:55+00:00,SAT-64042,251.8343116821984,31.569181486815566,3397.304416745229,-4.6562549593572,163081.74461563872,10.5,10500163081.744616,47.655,-122.3035,60.0,1.9166666666666667
2026-01-20T23:01:56+00:00,SAT-64042,251.91230760129,31.63669650774779,3392.660578465764,-4.650328568401156,162874.17733574918,10.5,10500162874.177336,47.655,-122.3035,60.0,1.9333333333333333
2026-01-20T23:01:57+00:00,SAT-64042,251.99068864896412,31.704231645390102,3388.0226507735447,-4.644372583993501,162665.57356800407,10.5,10500162665.573568,47.655,-122.3035,60.0,1.95
2026-01-20T23:01:58+00:00,SAT-64042,252.06945679789123,31.771786231802334,3383.3906631831087,-4.638386908026984,162455.9298762724,10.5,10500162455.929876,47.655,-122.3035,60.0,1.9666666666666666
2026-01-20T23:01:59+00:00,SAT-64042,252.14861402992253,31.839359589958107,3378.7646453068364,-4.632371390448701,162245.2410050668,10.5,10500162245.241005,47.655,-122.3035,60.0,1.9833333333333334
2026-01-20T23:02:00+00:00,SAT-64042,252.22816233516613,31.906951032902526,3374.1446269067624,-4.62632594882388,162033.50406717285,10.5,10500162033.504066,47.655,-122.3035,60.0,2.0
2026-01-20T23:02:01+00:00,SAT-64042,252.30810371315022,31.974559864637705,3369.5306378271353,-4.6202504206675465,161820.71337167942,10.5,10500161820.713371,47.655,-122.3035,60.0,2.0166666666666666
2026-01-20T23:02:02+00:00,SAT-64042,252.3884401714033,32.04218537887301,3364.922708074256,-4.614144726828537,161606.866146378,10.5,10500161606.866146,47.655,-122.3035,60.0,2.033333333333333
2026-01-20T23:02:03+00:00,SAT-64042,252.4691737269015,32.10982686013896,3360.320867733366,-4.608008736206481,161391.957799579,10.5,10500161391.9578,47.655,-122.3035,60.0,2.05
2026-01-20T23:02:04+00:00,SAT-64042,252.5503064051414,32.17748358294154,3355.725147020456,-4.601842305494584,161175.9833120723,10.5,10500161175.983313,47.655,-122.3035,60.0,2.066666666666667
2026-01-20T23:02:05+00:00,SAT-64042,252.6318402398686,32.245154811489336,3351.1355762944427,-4.595645342859568,160958.93946746807,10.5,10500160958.939468,47.655,-122.3035,60.0,2.0833333333333335
2026-01-20T23:02:06+00:00,SAT-64042,252.71377727400625,32.31283980034738,3346.5521860058307,-4.589417732143737,160740.82219743246,10.5,10500160740.822197,47.655,-122.3035,60.0,2.1
2026-01-20T23:02:07+00:00,SAT-64042,252.7961195591803,32.38053779399028,3341.9750067209725,-4.583159333467732,160521.6266027986,10.5,10500160521.626602,47.655,-122.3035,60.0,2.1166666666666667
2026-01-20T23:02:08+00:00,SAT-64042,252.87886915525974,32.44824802635709,3337.4040691457276,-4.576870026240151,160301.34845994553,10.5,10500160301.34846,47.655,-122.3035,60.0,2.1333333333333333
2026-01-20T23:02:09+00:00,SAT-64042,252.96202813066543,32.51596972103767,3332.839404106224,-4.570549705771786,160079.9841022143,10.5,10500160079.984102,47.655,-122.3035,60.0,2.15
2026-01-20T23:02:10+00:00,SAT-64042,253.04559856265303,32.583702091406714,3328.281042533001,-4.564198250870518,159857.52928494435,10.5,10500159857.529285,47.655,-122.3035,60.0,2.1666666666666665
2026-01-20T23:02:11+00:00,SAT-64042,253.1295825369575,32.65144434028713,3323.7290154774664,-4.557815520890086,159633.97908210856,10.5,10500159633.979082,47.655,-122.3035,60.0,2.183333333333333
2026-01-20T23:02:12+00:00,SAT-64042,253.2139821474004,32.71919565956197,3319.1833541312985,-4.551401402170695,159409.3295128602,10.5,10500159409.329514,47.655,-122.3035,60.0,2.2
2026-01-20T23:02:13+00:00,SAT-64042,253.29879949634233,32.786955230473815,3314.6440897995335,-4.544955792858497,159183.57700984666,10.5,10500159183.57701,47.655,-122.3035,60.0,2.216666666666667
2026-01-20T23:02:14+00:00,SAT-64042,253.38403669488963,32.85472222369815,3310.1112538887896,-4.53847854741612,158956.71647573356,10.5,10500158956.716476,47.655,-122.3035,60.0,2.2333333333333334
2026-01-20T23:02:15+00:00,SAT-64042,253.46969586200163,32.92249579859973,3305.5848779508333,-4.531969543952137,158728.7436413675,10.5,10500158728.74364,47.655,-122.3035,60.0,2.25
2026-01-20T23:02:16+00:00,SAT-64042,253.55577912489628,32.990275103478346,3301.064993658998,-4.525428683582733,158499.65504341907,10.5,10500158499.655043,47.655,-122.3035,60.0,2.2666666666666666
2026-01-20T23:02:17+00:00,SAT-64042,253.64228861945645,33.05805927580939,3296.5516327852383,-4.518855812826049,158269.44530630426,10.5,10500158269.445307,47.655,-122.3035,60.0,2.283333333333333
2026-01-20T23:02:18+00:00,SAT-64042,253.72922648911145,33.125847441330485,3292.04482725458,-4.512250839802048,158038.11121199557,10.5,10500158038.111212,47.655,-122.3035,60.0,2.3
2026-01-20T23:02:19+00:00,SAT-64042,253.81659488598837,33.193638714855936,3287.5446090836836,-4.505613607008342,157805.6472440931,10.5,10500157805.647243,47.655,-122.3035,60.0,2.316666666666667
2026-01-20T23:02:20+00:00,SAT-64042,253.9043959695663,33.26143219919298,3283.051010446294,-4.498944033967822,157572.0505839481,10.5,10500157572.050585,47.655,-122.3035,60.0,2.3333333333333335
2026-01-20T23:02:21+00:00,SAT-64042,253.992631908141,33.329226986188345,3278.564063596417,-4.492241950928989,157337.31528614496,10.5,10500157337.315287,47.655,-122.3035,60.0,2.35
2026-01-20T23:02:22+00:00,SAT-64042,254.08130487698716,33.397022155289896,3274.083800957357,-4.485507277044238,157101.43851905875,10.5,10500157101.438519,47.655,-122.3035,60.0,2.3666666666666667
2026-01-20T23:02:23+00:00,SAT-64042,254.17041706007612,33.46481677476977,3269.6102550330515,-4.4787398541764185,156864.41474405737,10.5,10500156864.414743,47.655,-122.3035,60.0,2.3833333333333333
2026-01-20T23:02:24+00:00,SAT-64042,254.25997064844336,33.53260990046111,3265.143458485153,-4.471939585323145,156626.240563707,10.5,10500156626.240564,47.655,-122.3035,60.0,2.4
2026-01-20T23:02:25+00:00,SAT-64042,254.3499678413699,33.60040057656974,3260.6834440720577,-4.465106335216137,156386.91124034027,10.5,10500156386.91124,47.655,-122.3035,60.0,2.4166666666666665
2026-01-20T23:02:26+00:00,SAT-64042,254.44041084552788,33.668187834990604,3256.230244687068,-4.458239960407315,156146.4217497987,10.5,10500156146.42175,47.655,-122.3035,60.0,2.433333333333333
2026-01-20T23:02:27+00:00,SAT-64042,254.53130187471496,33.73597069507743,3251.7838933665557,-4.4513403868485515,155904.76949860356,10.5,10500155904.769499,47.655,-122.3035,60.0,2.45
2026-01-20T23:02:28+00:00,SAT-64042,254.62264315124906,33.80374816458056,3247.344423220739,-4.444407432332386,155661.94810507892,10.5,10500155661.948105,47.655,-122.3035,60.0,2.466666666666667
2026-01-20T23:02:29+00:00,SAT-64042,254.71443690359766,33.871519237905964,3242.911867541559,-4.437441022676012,155417.95497102907,10.5,10500155417.954971,47.655,-122.3035,60.0,2.4833333333333334
2026-01-20T23:02:30+00:00,SAT-64042,254.8066853685849,33.93928289763766,3238.486259694944,-4.430440986850264,155172.78410628918,10.5,10500155172.784107,47.655,-122.3035,60.0,2.5
2026-01-20T23:02:31+00:00,SAT-64042,254.89939078923572,34.007038112963734,3234.0676332173916,-4.423407238607197,154926.43249009142,10.5,10500154926.43249,47.655,-122.3035,60.0,2.5166666666666666
2026-01-20T23:02:32+00:00,SAT-64042,254.9925554165073,34.074783840849285,3229.656021731421,-4.416339630107207,154678.89494446747,10.5,10500154678.894945,47.655,-122.3035,60.0,2.533333333333333
2026-01-20T23:02:33+00:00,SAT-64042,255.0861815078615,34.142519024992275,3225.2514590069936,-4.409238055520133,154430.16776279738,10.5,10500154430.167763,47.655,-122.3035,60.0,2.55
2026-01-20T23:02:34+00:00,SAT-64042,255.1802713280818,34.21024259635007,3220.8539789196216,-4.40210235917775,154180.24549292156,10.5,10500154180.245493,47.655,-122.3035,60.0,2.566666666666667
2026-01-20T23:02:35+00:00,SAT-64042,255.27482714807965,34.27795347226907,3216.4636155000685,-4.394932446738717,153929.12483060706,10.5,10500153929.12483,47.655,-122.3035,60.0,2.5833333333333335
2026-01-20T23:02:36+00:00,SAT-64042,255.3698512461366,34.345650557306506,3212.0804028731877,-4.387728196081889,153676.80149865488,10.5,10500153676.801498,47.655,-122.3035,60.0,2.6
2026-01-20T23:02:37+00:00,SAT-64042,255.46534590718977,34.413332742698074,3207.704375285629,-4.380489437068499,153423.2695380857,10.5,10500153423.269539,47.655,-122.3035,60.0,2.6166666666666667
2026-01-20T23:02:38+00:00,SAT-64042,255.56131342164332,34.48099890550465,3203.3355671537256,-4.373216096679567,153168.52639146594,10.5,10500153168.526392,47.655,-122.3035,60.0,2.6333333333333333
2026-01-20T23:02:39+00:00,SAT-64042,255.65775608742013,34.548647909990265,3198.974012966637,-4.365908008479722,152912.56622952496,10.5,10500152912.566229,47.655,-122.3035,60.0,2.65
2026-01-20T23:02:40+00:00,SAT-64042,255.75467620774958,34.61627860607299,3194.6197473795137,-4.358565091499901,152655.38621638357,10.5,10500152655.386217,47.655,-122.3035,60.0,2.6666666666666665
2026-01-20T23:02:41+00:00,SAT-64042,255.8520760929802,34.683889830527775,3190.272805128258,-4.351187164392044,152396.98000046573,10.5,10500152396.98,47.655,-122.3035,60.0,2.683333333333333
2026-01-20T23:02:42+00:00,SAT-64042,255.94995805814997,34.75148040532187,3185.9332211296373,-4.343774153733132,152137.34501018666,10.5,10500152137.34501,47.655,-122.3035,60.0,2.7
2026-01-20T23:02:43+00:00,SAT-64042,256.0483244253438,34.81904913916714,3181.6010303736475,-4.336325896229105,151876.4755262976,10.5,10500151876.475527,47.655,-122.3035,60.0,2.716666666666667
2026-01-20T23:02:44+00:00,SAT-64042,256.14717752147465,34.886594826017685,3177.2762680131414,-4.328842296415452,151614.36820522766,10.5,10500151614.368206,47.655,-122.3035,60.0,2.7333333333333334
2026-01-20T23:02:45+00:00,SAT-64042,256.2465196797296,34.95411624600084,3172.9589692961836,-4.321323202222148,151351.01772084125,10.5,10500151351.017721,47.655,-122.3035,60.0,2.75
2026-01-20T23:02:46+00:00,SAT-64042,256.3463532380862,35.02161216442704,3168.6491696225003,-4.313768499216396,151086.42006521777,10.5,10500151086.420065,47.655,-122.3035,60.0,2.7666666666666666
2026-01-20T23:02:47+00:00,SAT-64042,256.44668054006195,35.08908133225602,3164.3469045059487,-4.306178068981972,150820.57109092022,10.5,10500150820.57109,47.655,-122.3035,60.0,2.783333333333333
2026-01-20T23:02:48+00:00,SAT-64042,256.5475039344619,35.15652248591935,3160.052209578484,-4.298551771174499,150553.46588249473,10.5,10500150553.465883,47.655,-122.3035,60.0,2.8
2026-01-20T23:02:49+00:00,SAT-64042,256.64882577469587,35.22393434686266,3155.765120612032,-4.290889494550256,150285.10054371576,10.5,10500150285.100544,47.655,-122.3035,60.0,2.816666666666667
2026-01-20T23:02:50+00:00,SAT-64042,256.75064841932095,35.29131562188374,3151.485673489468,-4.283191098857867,150015.47016238683,10.5,10500150015.470161,47.655,-122.3035,60.0,2.8333333333333335
2026-01-20T23:02:51+00:00,SAT-64042,256.8529742311713,35.358665002560585,3147.21390423354,-4.275456473002527,149744.57084749787,10.5,10500149744.570847,47.655,-122.3035,60.0,2.85
2026-01-20T23:02:52+00:00,SAT-64042,256.95580557788855,35.42598116559249,3142.949848977799,-4.267685469435836,149472.39743127988,10.5,10500149472.39743,47.655,-122.3035,60.0,2.8666666666666667
2026-01-20T23:02:53+00:00,SAT-64042,257.0591448308621,35.49326277211048,3138.6935440029483,-4.259877995499676,149198.94666845354,10.5,10500149198.946669,47.655,-122.3035,60.0,2.8833333333333333
2026-01-20T23:02:54+00:00,SAT-64042,257.16299436639315,35.56050846842121,3134.4450256821033,-4.252033900075915,148924.21326622268,10.5,10500148924.213266,47.655,-122.3035,60.0,2.9
2026-01-20T23:02:55+00:00,SAT-64042,257.26735656407175,35.62771688497319,3130.2043305390944,-4.244153068554897,148648.19321047235,10.5,10500148648.19321,47.655,-122.3035,60.0,2.9166666666666665
2026-01-20T23:02:56+00:00,SAT-64042,257.3722338074835,35.69488663681217,3125.9714952120553,-4.236235361094868,148370.8816033528,10.5,10500148370.881603,47.655,-122.3035,60.0,2.933333333333333
2026-01-20T23:02:57+00:00,SAT-64042,257.4776284833777,35.762016323065595,3121.7465564785903,-4.228280663231019,148092.2744358222,10.5,10500148092.274435,47.655,-122.3035,60.0,2.95
2026-01-20T23:02:58+00:00,SAT-64042,257.5835429821103,35.829104527227095,3117.529551230461,-4.220288871664121,147812.36808990463,10.5,10500147812.36809,47.655,-122.3035,60.0,2.966666666666667
2026-01-20T23:02:59+00:00,SAT-64042,257.68997969773915,35.89614981721417,3113.3205164624546,-4.212259817511222,147531.15665060468,10.5,10500147531.15665,47.655,-122.3035,60.0,2.9833333333333334
2026-01-20T23:03:00+00:00,SAT-64042,257.7969410261025,35.963150744216136,3109.11948933779,-4.20419340510808,147248.63676735602,10.5,10500147248.636766,47.655,-122.3035,60.0,3.0
2026-01-20T23:03:01+00:00,SAT-64042,257.90442936650896,36.0301058437328,3104.926507115096,-4.196089494840118,146964.80355026558,10.5,10500146964.80355,47.655,-122.3035,60.0,3.0166666666666666
2026-01-20T23:03:02+00:00,SAT-64042,258.0124471203568,36.097013634763236,3100.741607192242,-4.187947983826379,146679.65339600696,10.5,10500146679.653397,47.655,-122.3035,60.0,3.033333333333333
2026-01-20T23:03:03+00:00,SAT-64042,258.12099669189024,36.16387262027022,3096.5648270697056,-4.179768729316566,146393.18130486106,10.5,10500146393.181305,47.655,-122.3035,60.0,3.05
2026-01-20T23:03:04+00:00,SAT-64042,258.230080486894,36.230681286432265,3092.396204390334,-4.171551603382617,146105.38279624592,10.5,10500146105.382795,47.655,-122.3035,60.0,3.066666666666667
2026-01-20T23:03:05+00:00,SAT-64042,258.33970091285454,36.297438102760786,3088.2357769245605,-4.163296481676368,145816.2535149629,10.5,10500145816.253515,47.655,-122.3035,60.0,3.0833333333333335
2026-01-20T23:03:06+00:00,SAT-64042,258.44986037879676,36.36414152204048,3084.083582566835,-4.155003265438013,145525.79000202578,10.5,10500145525.790003,47.655,-122.3035,60.0,3.1
2026-01-20T23:03:07+00:00,SAT-64042,258.5605612957369,36.4307899806225,3079.9396593101046,-4.146671809086473,145233.98715856945,10.5,10500145233.987158,47.655,-122.3035,60.0,3.1166666666666667
2026-01-20T23:03:08+00:00,SAT-64042,258.6718060751531,36.49738189756206,3075.8040452925093,-4.138301981947776,144940.84040783858,10.5,10500144940.840408,47.655,-122.3035,60.0,3.1333333333333333
2026-01-20T23:03:09+00:00,SAT-64042,258.7835971291203,36.5639156747395,3071.6767787825133,-4.1298936817970695,144646.34616948647,10.5,10500144646.34617,47.655,-122.3035,60.0,3.15
2026-01-20T23:03:10+00:00,SAT-64042,258.8959368708182,36.63038969720154,3067.5578981505346,-4.1214467677634605,144350.49950961853,10.5,10500144350.49951,47.655,-122.3035,60.0,3.1666666666666665
2026-01-20T23:03:11+00:00,SAT-64042,259.008827713199,36.69680233242746,3063.447441907485,-4.112961130868365,144053.29661134383,10.5,10500144053.296612,47.655,-122.3035,60.0,3.183333333333333
2026-01-20T23:03:12+00:00,SAT-64042,259.12227206957647,36.76315193072682,3059.3454486729656,-4.104436634303596,143754.7326830609,10.5,10500143754.732683,47.655,-122.3035,60.0,3.2
2026-01-20T23:03:13+00:00,SAT-64042,259.2362723525687,36.82943682467843,3055.2519572030205,-4.095873162614837,143454.8036810712,10.5,10500143454.80368,47.655,-122.3035,60.0,3.216666666666667
2026-01-20T23:03:14+00:00,SAT-64042,259.35083097439076,36.895655329360636,3051.1670063688393,-4.087270597242547,143153.50545291818,10.5,10500143153.505453,47.655,-122.3035,60.0,3.2333333333333334
2026-01-20T23:03:15+00:00,SAT-64042,259.4659503464727,36.96180574218947,3047.0906351598555,-4.078628819417291,142850.83383879374,10.5,10500142850.83384,47.655,-122.3035,60.0,3.25
2026-01-20T23:03:16+00:00,SAT-64042,259.58163287914715,37.02788634280385,3043.022882683957,-4.069947686688623,142546.78384948077,10.5,10500142546.78385,47.655,-122.3035,60.0,3.2666666666666666
2026-01-20T23:03:17+00:00,SAT-64042,259.6978809806407,37.093895392571234,3038.9637881911,-4.0612271021370026,142241.35209044695,10.5,10500142241.35209,47.655,-122.3035,60.0,3.283333333333333
2026-01-20T23:03:18+00:00,SAT-64042,259.8146970580672,37.15983113521346,3034.913391027902,-4.052466934339339,141934.53395869973,10.5,10500141934.533958,47.655,-122.3035,60.0,3.3
2026-01-20T23:03:19+00:00,SAT-64042,259.93208351610787,37.225691796138705,3030.871730672054,-4.0436670451183,141626.32461468445,10.5,10500141626.324615,47.655,-122.3035,60.0,3.316666666666667
2026-01-20T23:03:20+00:00,SAT-64042,260.0500427564408,37.29147558222329,3026.8388467390555,-4.034827352576303,141316.72119000135,10.5,10500141316.72119,47.655,-122.3035,60.0,3.3333333333333335
2026-01-20T23:03:21+00:00,SAT-64042,260.16857717909943,37.357180682615876,3022.814778926086,-4.025947708738557,141005.71850194724,10.5,10500141005.718502,47.655,-122.3035,60.0,3.35
2026-01-20T23:03:22+00:00,SAT-64042,260.2876891801267,37.42280526755924,3018.7995670779046,-4.017028001107055,140693.31261036618,10.5,10500140693.31261,47.655,-122.3035,60.0,3.3666666666666667
2026-01-20T23:03:23+00:00,SAT-64042,260.407381152291,37.488347488859254,3014.7932511514673,-4.008068106914707,140379.4992154353,10.5,10500140379.499216,47.655,-122.3035,60.0,3.3833333333333333
2026-01-20T23:03:24+00:00,SAT-64042,260.5276554843964,37.55380547961356,3010.7958712261707,-3.9990679178253212,140064.27452276292,10.5,10500140064.274523,47.655,-122.3035,60.0,3.4
2026-01-20T23:03:25+00:00,SAT-64042,260.6485145613566,37.6191773543412,3006.8074674894597,-3.9900273049650394,139747.63401864137,10.5,10500139747.634018,47.655,-122.3035,60.0,3.4166666666666665
2026-01-20T23:03:26+00:00,SAT-64042,260.7699607631788,37.68446120854749,3002.8280802573076,-3.980946150579846,139429.57357882694,10.5,10500139429.573578,47.655,-122.3035,60.0,3.433333333333333
2026-01-20T23:03:27+00:00,SAT-64042,260.8919964649156,37.74965511880081,2998.857749963129,-3.971824343860045,139110.08932229536,10.5,10500139110.089323,47.655,-122.3035,60.0,3.45
2026-01-20T23:03:28+00:00,SAT-64042,261.0146240364762,37.814757142747055,2994.8965171508535,-3.962661761059207,138789.17691492315,10.5,10500138789.176914,47.655,-122.3035,60.0,3.466666666666667
2026-01-20T23:03:29+00:00,SAT-64042,261.1378458418287,37.87976531879896,2990.9444224878234,-3.953458295661073,138466.83262606047,10.5,10500138466.832626,47.655,-122.3035,60.0,3.4833333333333334
2026-01-20T23:03:30+00:00,SAT-64042,261.2616642391159,37.944677666319656,2987.0015067476174,-3.944213824902616,138143.0521560268,10.5,10500138143.052156,47.655,-122.3035,60.0,3.5
2026-01-20T23:03:31+00:00,SAT-64042,261.38608157973187,38.00949218526035,2983.067810826248,-3.9349282228723923,137817.8310948707,10.5,10500137817.831095,47.655,-122.3035,60.0,3.5166666666666666
2026-01-20T23:03:32+00:00,SAT-64042,261.511100207768,38.074206856013895,2979.143375745303,-3.92560138842704,137491.1659001239,10.5,10500137491.1659,47.655,-122.3035,60.0,3.533333333333333
2026-01-20T23:03:33+00:00,SAT-64042,261.6367224603819,38.13881963972622,2975.2282426272454,-3.9162332165978366,137163.0528953376,10.5,10500137163.052895,47.655,-122.3035,60.0,3.55
2026-01-20T23:03:34+00:00,SAT-64042,261.7629506672407,38.20332847814352,2971.322452699225,-3.9068235635789126,136833.4870438221,10.5,10500136833.487043,47.655,-122.3035,60.0,3.566666666666667
2026-01-20T23:03:35+00:00,SAT-64042,261.8897871487759,38.26773129288277,2967.4260473318154,-3.897372335762286,136502.4650670298,10.5,10500136502.465067,47.655,-122.3035,60.0,3.5833333333333335
2026-01-20T23:03:36+00:00,SAT-64042,262.01723421736784,38.332025986168226,2963.539067988949,-3.8878794206860388,136169.9830260687,10.5,10500136169.983027,47.655,-122.3035,60.0,3.6
2026-01-20T23:03:37+00:00,SAT-64042,262.1452941762684,38.39621044043454,2959.6615562467177,-3.8783447089086,135836.03708783194,10.5,10500135836.037088,47.655,-122.3035,60.0,3.6166666666666667
2026-01-20T23:03:38+00:00,SAT-64042,262.273969319208,38.46028251829282,2955.7935537903663,-3.868768069314351,135500.62266009604,10.5,10500135500.62266,47.655,-122.3035,60.0,3.6333333333333333
2026-01-20T23:03:39+00:00,SAT-64042,262.40326192917524,38.524240062088,2951.9351024359034,-3.8591494138628586,135163.73665931253,10.5,10500135163.73666,47.655,-122.3035,60.0,3.65
2026-01-20T23:03:40+00:00,SAT-64042,262.53317427937276,38.588080894529824,2948.086244087144,-3.849488619071456,134825.37476059617,10.5,10500134825.37476,47.655,-122.3035,60.0,3.6666666666666665
2026-01-20T23:03:41+00:00,SAT-64042,262.6637086315138,38.65180281802821,2944.2470207710567,-3.8397855718698857,134485.5330037482,10.5,10500134485.533003,47.655,-122.3035,60.0,3.683333333333333
2026-01-20T23:03:42+00:00,SAT-64042,262.7948672356417,38.715403614788194,2940.417474627379,-3.8300401798068715,134144.2081507339,10.5,10500134144.20815,47.655,-122.3035,60.0,3.7
2026-01-20T23:03:43+00:00,SAT-64042,262.92665233033586,38.77888104707579,2936.597647888051,-3.820252321250686,133801.39594149563,10.5,10500133801.39594,47.655,-122.3035,60.0,3.716666666666667
2026-01-20T23:03:44+00:00,SAT-64042,263.05906614115213,38.842232856663614,2932.787582906324,-3.810421895203322,133457.092838656,10.5,10500133457.092838,47.655,-122.3035,60.0,3.7333333333333334
2026-01-20T23:03:45+00:00,SAT-64042,263.1921108808089,38.905456765101334,2928.9873221361745,-3.800548775278655,133111.29441563832,10.5,10500133111.294416,47.655,-122.3035,60.0,3.75
2026-01-20T23:03:46+00:00,SAT-64042,263.3257887477058,38.96855047322743,2925.19690815763,-3.79063289438456,132763.9983225925,10.5,10500132763.998323,47.655,-122.3035,60.0,3.7666666666666666
2026-01-20T23:03:47+00:00,SAT-64042,263.46010192752203,39.03151166208681,2921.416383617631,-3.7806741080433066,132415.19949929733,10.5,10500132415.1995,47.655,-122.3035,60.0,3.783333333333333
2026-01-20T23:03:48+00:00,SAT-64042,263.595052589823,39.094337991584965,2917.6457913072086,-3.7706723472945516,132064.89553046992,10.5,10500132064.89553,47.655,-122.3035,60.0,3.8
2026-01-20T23:03:49+00:00,SAT-64042,263.73064289024774,39.157027101680725,2913.8851740861737,-3.760627459834488,131713.08108178666,10.5,10500131713.081081,47.655,-122.3035,60.0,3.816666666666667
2026-01-20T23:03:50+00:00,SAT-64042,263.86687496683464,39.219576610944664,2910.134574966232,-3.7505393945392567,131359.7543626738,10.5,10500131359.754362,47.655,-122.3035,60.0,3.8333333333333335
2026-01-20T23:03:51+00:00,SAT-64042,264.00375094316985,39.28198411818578,2906.394037010078,-3.7404080232038144,131004.91088284834,10.5,10500131004.910883,47.655,-122.3035,60.0,3.85
2026-01-20T23:03:52+00:00,SAT-64042,264.1412729249214,39.344247201118584,2902.6636034082694,-3.7302332382690375,130648.54687513484,10.5,10500130648.546875,47.655,-122.3035,60.0,3.8666666666666667
2026-01-20T23:03:53+00:00,SAT-64042,264.2794429999769,39.40636341665719,2898.9433174586356,-3.7200149584045157,130290.65949099831,10.5,10500130290.65949,47.655,-122.3035,60.0,3.8833333333333333
2026-01-20T23:03:54+00:00,SAT-64042,264.41826323880093,39.46833030130686,2895.2332225401206,-3.709753068218443,129931.2446889296,10.5,10500129931.244688,47.655,-122.3035,60.0,3.9
2026-01-20T23:03:55+00:00,SAT-64042,264.55773569251835,39.53014537055334,2891.5333621467507,-3.699447478519774,129570.299345081,10.5,10500129570.299345,47.655,-122.3035,60.0,3.9166666666666665
2026-01-20T23:03:56+00:00,SAT-64042,264.69786239324645,39.59180611926075,2887.843779861507,-3.689098091641883,129207.82003875419,10.5,10500129207.820038,47.655,-122.3035,60.0,3.933333333333333
2026-01-20T23:03:57+00:00,SAT-64042,264.83864535313467,39.65331002149406,2884.164519364776,-3.6787047982021552,128843.80293890726,10.5,10500128843.802938,47.655,-122.3035,60.0,3.95
2026-01-20T23:03:58+00:00,SAT-64042,264.9800865632102,39.71465453029064,2880.495624446036,-3.668267518144287,128478.24524162985,10.5,10500128478.245241,47.655,-122.3035,60.0,3.966666666666667
2026-01-20T23:03:59+00:00,SAT-64042,265.12218799387153,39.77583707812045,2876.8371389746067,-3.657786156561287,128111.14362287763,10.5,10500128111.143623,47.655,-122.3035,60.0,3.9833333333333334
2026-01-20T23:04:00+00:00,SAT-64042,265.2649515936103,39.83685507661292,2873.1891069144626,-3.6472605978356976,127742.49403323822,10.5,10500127742.494034,47.655,-122.3035,60.0,4.0
2026-01-20T23:04:01+00:00,SAT-64042,265.40837928747806,39.89770591618944,2869.551572344888,-3.6366907834449957,127372.29442300531,10.5,10500127372.294422,47.655,-122.3035,60.0,4.016666666666667
2026-01-20T23:04:02+00:00,SAT-64042,265.5524729786764,39.95838696699673,2865.9245794035323,-3.626076584336938,127000.5402722234,10.5,10500127000.540272,47.655,-122.3035,60.0,4.033333333333333
2026-01-20T23:04:03+00:00,SAT-64042,265.6972345449915,40.018895577717466,2862.308172356753,-3.615417943878052,126627.22959734879,10.5,10500126627.229597,47.655,-122.3035,60.0,4.05
2026-01-20T23:04:04+00:00,SAT-64042,265.84266584099964,40.07922907676693,2858.702395527392,-3.6047147447829055,126252.35829054948,10.5,10500126252.35829,47.655,-122.3035,60.0,4.066666666666666
2026-01-20T23:04:05+00:00,SAT-64042,265.988768694864,40.13938477127491,2855.1072933552623,-3.59396691997208,125875.92400242049,10.5,10500125875.924002,47.655,-122.3035,60.0,4.083333333333333
2026-01-20T23:04:06+00:00,SAT-64042,266.13554490963946,40.199359947921174,2851.5229103470765,-3.5831743729163437,125497.92335209984,10.5,10500125497.923351,47.655,-122.3035,60.0,4.1
2026-01-20T23:04:07+00:00,SAT-64042,266.28299626131525,40.25915187244647,2847.9492911058214,-3.572337008128318,125118.3529952156,10.5,10500125118.352995,47.655,-122.3035,60.0,4.116666666666666
2026-01-20T23:04:08+00:00,SAT-64042,266.431124498064,40.318757789675736,2844.3864803297147,-3.5614547559402228,124737.21049170736,10.5,10500124737.210491,47.655,-122.3035,60.0,4.133333333333334
2026-01-20T23:04:09+00:00,SAT-64042,266.5799313405688,40.37817492395977,2840.834522786457,-3.550527526251298,124354.49268586545,10.5,10500124354.492685,47.655,-122.3035,60.0,4.15
2026-01-20T23:04:10+00:00,SAT-64042,266.7294184803698,40.437400478849575,2837.293463333609,-3.5395552394646703,123970.19678987068,10.5,10500123970.19679,47.655,-122.3035,60.0,4.166666666666667
2026-01-20T23:04:11+00:00,SAT-64042,266.8795875795242,40.49643163729205,2833.763346908116,-3.528537804984578,123584.3196306762,10.5,10500123584.319632,47.655,-122.3035,60.0,4.183333333333334
2026-01-20T23:04:12+00:00,SAT-64042,267.0304402693031,40.555265561470065,2830.2442185372784,-3.5174751457613462,123196.85850967649,10.5,10500123196.85851,47.655,-122.3035,60.0,4.2
2026-01-20T23:04:13+00:00,SAT-64042,267.18197814998325,40.61389939305854,2826.736123325239,-3.506367197755217,122807.81118392838,10.5,10500122807.811184,47.655,-122.3035,60.0,4.216666666666667
2026-01-20T23:04:14+00:00,SAT-64042,267.3342027905884,40.67233025347602,2823.2391064400113,-3.495213865363447,122417.17430501936,10.5,10500122417.174305,47.655,-122.3035,60.0,4.233333333333333
2026-01-20T23:04:15+00:00,SAT-64042,267.487115726673,40.7305552433966,2819.753213144955,-3.4840150781300037,122024.94540528113,10.5,10500122024.945406,47.655,-122.3035,60.0,4.25
2026-01-20T23:04:16+00:00,SAT-64042,267.64071846057107,40.788571443214664,2816.2784887737002,-3.4727707553953286,121631.12165967481,10.5,10500121631.12166,47.655,-122.3035,60.0,4.266666666666667
2026-01-20T23:04:17+00:00,SAT-64042,267.79501246010426,40.84637591292478,2812.8149787403195,-3.4614808350371775,121235.7008924166,10.5,10500121235.700891,47.655,-122.3035,60.0,4.283333333333333
2026-01-20T23:04:18+00:00,SAT-64042,267.94999915854845,40.903965692484114,2809.362728520842,-3.450145247961549,120838.6806835423,10.5,10500120838.680683,47.655,-122.3035,60.0,4.3
2026-01-20T23:04:19+00:00,SAT-64042,268.10567995346594,40.96133780175851,2805.921783660209,-3.438763896561787,120440.05761445392,10.5,10500120440.057615,47.655,-122.3035,60.0,4.316666666666666
2026-01-20T23:04:20+00:00,SAT-64042,268.26205620448434,41.018489240112196,2802.492189800704,-3.4273367380107187,120039.83018516279,10.5,10500120039.830185,47.655,-122.3035,60.0,4.333333333333333
2026-01-20T23:04:21+00:00,SAT-64042,268.41912923495926,41.07541698739238,2799.073992627328,-3.415863698326286,119637.9958045042,10.5,10500119637.995804,47.655,-122.3035,60.0,4.35
2026-01-20T23:04:22+00:00,SAT-64042,268.57690032962097,41.1321180034878,2795.667237898864,-3.404344705142058,119234.55193789968,10.5,10500119234.551937,47.655,-122.3035,60.0,4.366666666666666
2026-01-20T23:04:23+00:00,SAT-64042,268.7353707337518,41.18858922843815,2792.271971446269,-3.392779696296152,118829.49640817713,10.5,10500118829.496408,47.655,-122.3035,60.0,4.383333333333334
2026-01-20T23:04:24+00:00,SAT-64042,268.89454165273213,41.244827582693816,2788.8882391624966,-3.3811686054643615,118422.82689238232,10.5,10500118422.826893,47.655,-122.3035,60.0,4.4
2026-01-20T23:04:25+00:00,SAT-64042,269.0544142509374,41.300829967142235,2785.5160870066466,-3.3695113762053253,118014.54141369999,10.5,10500118014.541414,47.655,-122.3035,60.0,4.416666666666667
2026-01-20T23:04:26+00:00,SAT-64042,269.21498965126693,41.35659326337137,2782.1555609941115,-3.3578079453208978,117604.6377586638,10.5,10500117604.637758,47.655,-122.3035,60.0,4.433333333333334
2026-01-20T23:04:27+00:00,SAT-64042,269.3762689338879,41.41211433366715,2778.8067072033114,-3.3460582509836043,117193.113761814,10.5,10500117193.113762,47.655,-122.3035,60.0,4.45
2026-01-20T23:04:28+00:00,SAT-64042,269.5382531353423,41.467390021149455,2775.4695717743302,-3.334262244487186,116779.96771725142,10.5,10500116779.967718,47.655,-122.3035,60.0,4.466666666666667
2026-01-20T23:04:29+00:00,SAT-64042,269.7009432482523,41.522417150109106,2772.144200895829,-3.3224198588411618,116365.19727868604,10.5,10500116365.197279,47.655,-122.3035,60.0,4.483333333333333
2026-01-20T23:04:30+00:00,SAT-64042,269.86434021942733,41.5771925258334,2768.8306408232775,-3.3105310485288624,115948.80085193155,10.5,10500115948.800852,47.655,-122.3035,60.0,4.5
2026-01-20T23:04:31+00:00,SAT-64042,270.02844494998766,41.631712935094484,2765.528937857545,-3.2985957610262813,115530.77659737508,10.5,10500115530.776598,47.655,-122.3035,60.0,4.516666666666667
2026-01-20T23:04:32+00:00,SAT-64042,270.1932582940151,41.685975146172524,2762.2391383518816,-3.2866139318479544,115111.12225646291,10.5,10500115111.122257,47.655,-122.3035,60.0,4.533333333333333
2026-01-20T23:04:33+00:00,SAT-64042,270.35878105696685,41.73997590880805,2758.9612887238513,-3.2745855427304957,114689.837189534,10.5,10500114689.837189,47.655,-122.3035,60.0,4.55
2026-01-20T23:04:34+00:00,SAT-64042,270.5250139970542,41.793711955115896,2755.695435409235,-3.2625105074117315,114266.9183753221,10.5,10500114266.918375,47.655,-122.3035,60.0,4.566666666666666
2026-01-20T23:04:35+00:00,SAT-64042,270.6919578207269,41.84717999862748,2752.441624929843,-3.2503888083824735,113842.36520058144,10.5,10500113842.3652,47.655,-122.3035,60.0,4.583333333333333
2026-01-20T23:04:36+00:00,SAT-64042,270.8596131852362,41.9003767355907,2749.1999038249496,-3.238220396365226,113416.17593940563,10.5,10500113416.17594,47.655,-122.3035,60.0,4.6
2026-01-20T23:04:37+00:00,SAT-64042,271.027980695978,41.95329884462265,2745.9703186829747,-3.226005223876507,112988.34892872229,10.5,10500112988.348928,47.655,-122.3035,60.0,4.616666666666666
2026-01-20T23:04:38+00:00,SAT-64042,271.197060905552,42.005942986921696,2742.752916139695,-3.2137432484260935,112558.88268034408,10.5,10500112558.88268,47.655,-122.3035,60.0,4.633333333333334
2026-01-20T23:04:39+00:00,SAT-64042,271.36685431300833,42.0583058065415,2739.5477428732647,-3.201434445317556,112127.77632929757,10.5,10500112127.776329,47.655,-122.3035,60.0,4.65
2026-01-20T23:04:40+00:00,SAT-64042,271.53736136377074,42.11038393087854,2736.354845586468,-3.189078770222441,111695.0283230128,10.5,10500111695.028322,47.655,-122.3035,60.0,4.666666666666667
2026-01-20T23:04:41+00:00,SAT-64042,271.70858244756334,42.162173970556275,2733.1742710262997,-3.176676183287678,111260.6372656667,10.5,10500111260.637266,47.655,-122.3035,60.0,4.683333333333334
2026-01-20T23:04:42+00:00,SAT-64042,271.8805178975781,42.213672519713406,2730.006065979501,-3.1642266575496683,110824.60221287994,10.5,10500110824.602213,47.655,-122.3035,60.0,4.7
2026-01-20T23:04:43+00:00,SAT-64042,272.0531679901644,42.264876156433985,2726.850277259705,-3.151730165124934,110386.9221880552,10.5,10500110386.922188,47.655,-122.3035,60.0,4.716666666666667
2026-01-20T23:04:44+00:00,SAT-64042,272.22653294372213,42.31578144296016,2723.7069517083532,-3.139186677622794,109947.59619683072,10.5,10500109947.596197,47.655,-122.3035,60.0,4.733333333333333
2026-01-20T23:04:45+00:00,SAT-64042,272.40061291763755,42.366384925922624,2720.576136195204,-3.1265961629842374,109506.62311636437,10.5,10500109506.623116,47.655,-122.3035,60.0,4.75
2026-01-20T23:04:46+00:00,SAT-64042,272.5754080110012,42.41668313652429,2717.457877621988,-3.113958594310716,109064.00200455515,10.5,10500109064.002005,47.655,-122.3035,60.0,4.766666666666667
2026-01-20T23:04:47+00:00,SAT-64042,272.75091826185087,42.466672590879355,2714.352222917262,-3.101273959572668,108619.73244007699,10.5,10500108619.73244,47.655,-122.3035,60.0,4.783333333333333
2026-01-20T23:04:48+00:00,SAT-64042,272.9271436469529,42.51634979051185,2711.2592190215814,-3.0885422385190613,108173.81371365301,10.5,10500108173.813713,47.655,-122.3035,60.0,4.8
2026-01-20T23:04:49+00:00,SAT-64042,273.1040840803038,42.56571122249419,2708.1789128956984,-3.0757633969675413,107726.24462807261,10.5,10500107726.244629,47.655,-122.3035,60.0,4.816666666666666
2026-01-20T23:04:50+00:00,SAT-64042,273.2817394111952,42.61475335950014,2705.111351534456,-3.0629374372056053,107277.02526345362,10.5,10500107277.025263,47.655,-122.3035,60.0,4.833333333333333
2026-01-20T23:04:51+00:00,SAT-64042,273.46010942533536,42.6634726606774,2702.0565819304165,-3.0500643321227785,106826.15467027252,10.5,10500106826.15467,47.655,-122.3035,60.0,4.85
2026-01-20T23:04:52+00:00,SAT-64042,273.6391938420085,42.711865571471115,2699.0146511031794,-3.0371440801710237,106373.63279431048,10.5,10500106373.632793,47.655,-122.3035,60.0,4.866666666666666
2026-01-20T23:04:53+00:00,SAT-64042,273.818992314557,42.75992852433541,2695.985606073889,-3.02417665894293,105919.45885076525,10.5,10500105919.45885,47.655,-122.3035,60.0,4.883333333333334
2026-01-20T23:04:54+00:00,SAT-64042,273.99950442803544,42.80765793871313,2692.969493886036,-3.0111620763240365,105463.6331158217,10.5,10500105463.633116,47.655,-122.3035,60.0,4.9
2026-01-20T23:04:55+00:00,SAT-64042,274.18072969998934,42.855050221838084,2689.9663615752493,-2.998100319383199,105006.15513657649,10.5,10500105006.155136,47.655,-122.3035,60.0,4.916666666666667
2026-01-20T23:04:56+00:00,SAT-64042,274.36266757812865,42.90210176873371,2686.9762561900507,-2.9849913775524963,104547.02454289632,10.5,10500104547.024544,47.655,-122.3035,60.0,4.933333333333334
2026-01-20T23:04:57+00:00,SAT-64042,274.54531743936207,42.94880896258938,2683.999224789505,-2.9718352629189186,104086.24175811869,10.5,10500104086.241758,47.655,-122.3035,60.0,4.95
2026-01-20T23:04:58+00:00,SAT-64042,274.7286785901805,42.99516817546503,2681.035314420621,-2.958631974483813,103623.8067472666,10.5,10500103623.806747,47.655,-122.3035,60.0,4.966666666666667
2026-01-20T23:04:59+00:00,SAT-64042,274.9127502647575,43.04117576843951,2678.084572131402,-2.9453815112205777,103159.71947438405,10.5,10500103159.719475,47.655,-122.3035,60.0,4.983333333333333
2026-01-20T23:05:00+00:00,SAT-64042,275.0975316238848,43.086828091975995,2675.1470449708786,-2.9320838770064195,102693.98007526729,10.5,10500102693.980076,47.655,-122.3035,60.0,5.0
2026-01-20T23:05:01+00:00,SAT-64042,275.28302175421055,43.132121486373606,2672.222779984211,-2.918739092996496,102226.58929085937,10.5,10500102226.58929,47.655,-122.3035,60.0,5.016666666666667
2026-01-20T23:05:02+00:00,SAT-64042,275.4692196683244,43.1770522824175,2669.311824195462,-2.905347162748852,101757.5472457781,10.5,10500101757.547245,47.655,-122.3035,60.0,5.033333333333333
2026-01-20T23:05:03+00:00,SAT-64042,275.65612430254157,43.22161680149708,2666.414224625147,-2.8919080949616705,101286.85424467063,10.5,10500101286.854244,47.655,-122.3035,60.0,5.05
2026-01-20T23:05:04+00:00,SAT-64042,275.8437345161999,43.265811356087944,2663.5300282851053,-2.8784219104872073,100814.51101787116,10.5,10500100814.511019,47.655,-122.3035,60.0,5.066666666666666
2026-01-20T23:05:05+00:00,SAT-64042,276.0320490913964,43.3096322503495,2660.6592821663794,-2.86488862786278,100340.51821463498,10.5,10500100340.518215,47.655,-122.3035,60.0,5.083333333333333
2026-01-20T23:05:06+00:00,SAT-64042,276.22106673182634,43.35307578050706,2657.8020332415244,-2.851308275182776,99864.87681894636,10.5,10500099864.87682,47.655,-122.3035,60.0,5.1
2026-01-20T23:05:07+00:00,SAT-64042,276.41078606238113,43.396138235425965,2654.958328455076,-2.8376808638618116,99387.58723059345,10.5,10500099387.58723,47.655,-122.3035,60.0,5.116666666666666
2026-01-20T23:05:08+00:00,SAT-64042,276.6012056270022,43.438815896795,2652.128214740184,-2.8240064223007324,98908.650444294,10.5,10500098908.650444,47.655,-122.3035,60.0,5.133333333333334
2026-01-20T23:05:09+00:00,SAT-64042,276.7923238887917,43.481105039831355,2649.311739001676,-2.810284979177872,98428.06746448456,10.5,10500098428.067465,47.655,-122.3035,60.0,5.15
2026-01-20T23:05:10+00:00,SAT-64042,276.98413922903995,43.523001933741426,2646.5089481157756,-2.796516579774594,97945.83987711005,10.5,10500097945.839876,47.655,-122.3035,60.0,5.166666666666667
2026-01-20T23:05:11+00:00,SAT-64042,277.17664994739545,43.56450284243159,2643.7198889135475,-2.7827012365463504,97461.96811841303,10.5,10500097461.968119,47.655,-122.3035,60.0,5.183333333333334
2026-01-20T23:05:12+00:00,SAT-64042,277.36985425855227,43.60560402449211,2640.944608213632,-2.7688389953340544,96976.45379393623,10.5,10500096976.453794,47.655,-122.3035,60.0,5.2
2026-01-20T23:05:13+00:00,SAT-64042,277.5637502936035,43.646301734179474,2638.183152788952,-2.754929897614539,96489.29835637378,10.5,10500096489.298357,47.655,-122.3035,60.0,5.216666666666667
2026-01-20T23:05:14+00:00,SAT-64042,277.7583360988028,43.68659222184203,2635.4355693710645,-2.7409739849256205,96000.50326055572,10.5,10500096000.50326,47.655,-122.3035,60.0,5.233333333333333
2026-01-20T23:05:15+00:00,SAT-64042,277.9536096345683,43.72647173442003,2632.7019046500986,-2.726971294781035,95510.06982037176,10.5,10500095510.06982,47.655,-122.3035,60.0,5.25
2026-01-20T23:05:16+00:00,SAT-64042,278.14956877425783,43.76593651589961,2629.9822052787704,-2.7129218812538407,95017.99992968912,10.5,10500095017.99993,47.655,-122.3035,60.0,5.266666666666667
2026-01-20T23:05:17+00:00,SAT-64042,278.346211304426,43.80498280807176,2627.276517855866,-2.6988257918940946,94524.29525391193,10.5,10500094524.295254,47.655,-122.3035,60.0,5.283333333333333
2026-01-20T23:05:18+00:00,SAT-64042,278.54353492343006,43.84360685096629,2624.584888932751,-2.6846830770165706,94028.95755527643,10.5,10500094028.957556,47.655,-122.3035,60.0,5.3
2026-01-20T23:05:19+00:00,SAT-64042,278.7415372407012,43.881804883427904,2621.907365010606,-2.6704937989183404,93531.98901568956,10.5,10500093531.989016,47.655,-122.3035,60.0,5.316666666666666
2026-01-20T23:05:20+00:00,SAT-64042,278.9402157767796,43.91957314383417,2619.2439925284853,-2.6562580043810327,93033.39127364186,10.5,10500093033.391273,47.655,-122.3035,60.0,5.333333333333333
2026-01-20T23:05:21+00:00,SAT-64042,279.1395679611962,43.956907870427756,2616.594817878782,-2.6419757725009236,92533.16709941947,10.5,10500092533.167099,47.655,-122.3035,60.0,5.35
2026-01-20T23:05:22+00:00,SAT-64042,279.3395911341466,43.99380530233841,2613.9598873750083,-2.6276471402550663,92031.31778811527,10.5,10500092031.317787,47.655,-122.3035,60.0,5.366666666666666
2026-01-20T23:05:23+00:00,SAT-64042,279.54028254229826,44.030261679560525,2611.3392472937935,-2.61327220777597,91527.8468467932,10.5,10500091527.846848,47.655,-122.3035,60.0,5.383333333333334
2026-01-20T23:05:24+00:00,SAT-64042,279.7416393429586,44.066273244418596,2608.732943811905,-2.598851011465891,91022.75555041434,10.5,10500091022.75555,47.655,-122.3035,60.0,5.4
2026-01-20T23:05:25+00:00,SAT-64042,279.94365859816764,44.101836241266696,2606.141023069803,-2.5843836480766598,90516.047287637,10.5,10500090516.047287,47.655,-122.3035,60.0,5.416666666666667
2026-01-20T23:05:26+00:00,SAT-64042,280.1463372787267,44.13694691792396,2603.5635311114547,-2.5698701820800203,90007.72431653438,10.5,10500090007.724316,47.655,-122.3035,60.0,5.433333333333334
2026-01-20T23:05:27+00:00,SAT-64042,280.3496722608157,44.17160152583142,2601.000513916527,-2.5553106876120224,89497.78923366456,10.5,10500089497.789234,47.655,-122.3035,60.0,5.45
2026-01-20T23:05:28+00:00,SAT-64042,280.55366032598687,44.20579632080178,2598.4520173907486,-2.5407052653515096,88986.2455652265,10.5,10500088986.245565,47.655,-122.3035,60.0,5.466666666666667
2026-01-20T23:05:29+00:00,SAT-64042,280.7582981626199,44.23952756399617,2595.918087339438,-2.5260539781215625,88473.09551155021,10.5,10500088473.095512,47.655,-122.3035,60.0,5.483333333333333
2026-01-20T23:05:30+00:00,SAT-64042,280.9635823620621,44.27279152204472,2593.3987695052583,-2.5113569260867057,87958.34258082106,10.5,10500087958.34258,47.655,-122.3035,60.0,5.5
2026-01-20T23:05:31+00:00,SAT-64042,281.16950942100533,44.30558446818333,2590.894109530974,-2.496614189018638,87441.98956698138,10.5,10500087441.989567,47.655,-122.3035,60.0,5.516666666666667
2026-01-20T23:05:32+00:00,SAT-64042,281.3760757391083,44.33790268262899,2588.4041529797933,-2.4818258708564356,86924.04011041722,10.5,10500086924.04011,47.655,-122.3035,60.0,5.533333333333333
2026-01-20T23:05:33+00:00,SAT-64042,281.58327762036856,44.36974245354741,2585.928945311259,-2.4669920679250223,86404.49758483496,10.5,10500086404.497585,47.655,-122.3035,60.0,5.55
2026-01-20T23:05:34+00:00,SAT-64042,281.791111271865,44.40110007761137,2583.4685318888482,-2.45211286723518,85883.36503772017,10.5,10500085883.365038,47.655,-122.3035,60.0,5.566666666666666
2026-01-20T23:05:35+00:00,SAT-64042,281.99957280228324,44.431971860549915,2581.0229579892593,-2.437188381865808,85360.64642957425,10.5,10500085360.64643,47.655,-122.3035,60.0,5.583333333333333
2026-01-20T23:05:36+00:00,SAT-64042,282.20865822362885,44.46235411815615,2578.592268776412,-2.4222187214343207,84836.3455996627,10.5,10500084836.3456,47.655,-122.3035,60.0,5.6
2026-01-20T23:05:37+00:00,SAT-64042,282.4183634503526,44.49224317691839,2576.176509304901,-2.4072039825319482,84310.46593101905,10.5,10500084310.46593,47.655,-122.3035,60.0,5.616666666666666
2026-01-20T23:05:38+00:00,SAT-64042,282.6286842976498,44.52163537454741,2573.7757245329894,-2.3921442852500077,83783.01162974915,10.5,10500083783.01163,47.655,-122.3035,60.0,5.633333333333334
2026-01-20T23:05:39+00:00,SAT-64042,282.8396164830315,44.55052706096177,2571.3899592991665,-2.377039742659773,83253.98665608733,10.5,10500083253.986656,47.655,-122.3035,60.0,5.65
2026-01-20T23:05:40+00:00,SAT-64042,283.0511556252332,44.578914598900425,2569.019258329154,-2.361890471013976,82723.39508169597,10.5,10500082723.395082,47.655,-122.3035,60.0,5.666666666666667
2026-01-20T23:05:41+00:00,SAT-64042,283.2632972439904,44.60679436466695,2566.663666232729,-2.3466965957565016,82191.2413001506,10.5,10500082191.2413,47.655,-122.3035,60.0,5.683333333333334
2026-01-20T23:05:42+00:00,SAT-64042,283.47603676051096,44.63416274895177,2564.3232274945617,-2.3314582414337193,81657.5296735919,10.5,10500081657.529675,47.655,-122.3035,60.0,5.7
2026-01-20T23:05:43+00:00,SAT-64042,283.68936949693773,44.66101615753759,2561.997986475105,-2.316175530075802,81122.26447603268,10.5,10500081122.264477,47.655,-122.3035,60.0,5.716666666666667
2026-01-20T23:05:44+00:00,SAT-64042,283.90329067576675,44.68735101199407,2559.687987413109,-2.300848600510603,80585.45056981163,10.5,10500080585.45057,47.655,-122.3035,60.0,5.733333333333333
2026-01-20T23:05:45+00:00,SAT-64042,284.1177954210552,44.71316375059915,2557.3932744088665,-2.285477577420694,80047.09232183982,10.5,10500080047.092321,47.655,-122.3035,60.0,5.75
2026-01-20T23:05:46+00:00,SAT-64042,284.3328787567847,44.73845082891249,2555.1138914383196,-2.270062607990078,79507.19488712361,10.5,10500079507.194887,47.655,-122.3035,60.0,5.766666666666667
2026-01-20T23:05:47+00:00,SAT-64042,284.548535608709,44.76320872076517,2552.8498823306168,-2.254603829179917,78965.76306262225,10.5,10500078965.763063,47.655,-122.3035,60.0,5.783333333333333
2026-01-20T23:05:48+00:00,SAT-64042,284.7647608031364,44.7874339188862,2550.601290778315,-2.2391013888054223,78422.80202544967,10.5,10500078422.802025,47.655,-122.3035,60.0,5.8
2026-01-20T23:05:49+00:00,SAT-64042,284.9815490677608,44.81112293576838,2548.3681603265463,-2.2235554211845043,77878.31647998728,10.5,10500077878.31648,47.655,-122.3035,60.0,5.816666666666666
2026-01-20T23:05:50+00:00,SAT-64042,285.19889503011103,44.834272304276446,2546.150534386485,-2.20796609567022,77332.31235769551,10.5,10500077332.312357,47.655,-122.3035,60.0,5.833333333333333
2026-01-20T23:05:51+00:00,SAT-64042,285.416793220908,44.856878578769944,2543.948456200403,-2.1923335531995347,76784.79459478303,10.5,10500076784.794596,47.655,-122.3035,60.0,5.85
2026-01-20T23:05:52+00:00,SAT-64042,285.6352380710935,44.87893833556268,2541.761968870012,-2.1766579530078665,76235.76876834773,10.5,10500076235.768768,47.655,-122.3035,60.0,5.866666666666666
2026-01-20T23:05:53+00:00,SAT-64042,285.8542239135404,44.90044817387512,2539.591115338212,-2.1609394558009125,75685.24050698294,10.5,10500075685.240507,47.655,-122.3035,60.0,5.883333333333334
2026-01-20T23:05:54+00:00,SAT-64042,286.0737449831805,44.92140471661215,2537.4359383876267,-2.1451782345416146,75133.2158685825,10.5,10500075133.215868,47.655,-122.3035,60.0,5.9
2026-01-20T23:05:55+00:00,SAT-64042,286.2937954182646,44.94180461124526,2535.296480628377,-2.1293744457113486,74579.70033378611,10.5,10500074579.700335,47.655,-122.3035,60.0,5.916666666666667
2026-01-20T23:05:56+00:00,SAT-64042,286.5143692586318,44.96164453042343,2533.172784514521,-2.1135282618766436,74024.69994660359,10.5,10500074024.699947,47.655,-122.3035,60.0,5.933333333333334
2026-01-20T23:05:57+00:00,SAT-64042,286.7354604474194,44.9809211728986,2531.0648923280096,-2.0976398588901803,73468.22086613964,10.5,10500073468.220865,47.655,-122.3035,60.0,5.95
2026-01-20T23:05:58+00:00,SAT-64042,286.95706283154607,44.99963126432713,2528.97284617541,-2.0817094176558344,72910.26942841324,10.5,10500072910.269428,47.655,-122.3035,60.0,5.966666666666667
2026-01-20T23:05:59+00:00,SAT-64042,287.17917016232064,45.01777155808684,2526.896687982868,-2.065737118845225,72350.85196130874,10.5,10500072350.851961,47.655,-122.3035,60.0,5.983333333333333
2026-01-20T23:06:00+00:00,SAT-64042,287.40177609564057,45.03533883604631,2524.836459496339,-2.049723129569144,71789.97431775289,10.5,10500071789.974318,47.655,-122.3035,60.0,6.0
2026-01-20T23:06:01+00:00,SAT-64042,287.62487419054827,45.052329909231595,2522.7922022951157,-2.033667663141658,71227.64396890668,10.5,10500071227.643969,47.655,-122.3035,60.0,6.016666666666667
2026-01-20T23:06:02+00:00,SAT-64042,287.84845791472986,45.06874161898796,2520.7639577457426,-2.01757089011573,70663.8668882563,10.5,10500070663.866888,47.655,-122.3035,60.0,6.033333333333333
2026-01-20T23:06:03+00:00,SAT-64042,288.0725206398623,45.084570837399795,2518.7517670446673,-2.0014330250368446,70098.65059009213,10.5,10500070098.65059,47.655,-122.3035,60.0,6.05
2026-01-20T23:06:04+00:00,SAT-64042,288.29705564702226,45.09981446841739,2516.7556711743637,-1.985254243971134,69532.00124099488,10.5,10500069532.001242,47.655,-122.3035,60.0,6.066666666666666
2026-01-20T23:06:05+00:00,SAT-64042,288.52205612244995,45.11446944833389,2514.7757109417103,-1.9690347631127456,68963.92641299812,10.5,10500068963.926413,47.655,-122.3035,60.0,6.083333333333333
2026-01-20T23:06:06+00:00,SAT-64042,288.74751516268975,45.12853274686401,2512.8119269379654,-1.952774777263841,68394.43292889754,10.5,10500068394.432928,47.655,-122.3035,60.0,6.1
2026-01-20T23:06:07+00:00,SAT-64042,288.9734257723812,45.14200136775772,2510.864359560108,-1.936474505808157,67823.52847243959,10.5,10500067823.528473,47.655,-122.3035,60.0,6.116666666666666
2026-01-20T23:06:08+00:00,SAT-64042,289.1997808677238,45.15487234974162,2508.9330489863146,-1.920134147338666,67251.21999919022,10.5,10500067251.22,47.655,-122.3035,60.0,6.133333333333334
2026-01-20T23:06:09+00:00,SAT-64042,289.426573274343,45.16714276714779,2507.0180351967024,-1.9037539263970258,66677.51537354809,10.5,10500066677.515373,47.655,-122.3035,60.0,6.15
2026-01-20T23:06:10+00:00,SAT-64042,289.6537957310228,45.178809730850055,2505.1193579474425,-1.8873340596098802,66102.42218269462,10.5,10500066102.422182,47.655,-122.3035,60.0,6.166666666666667
2026-01-20T23:06:11+00:00,SAT-64042,289.88144088927004,45.18987038897299,2503.2370567786584,-1.870874764039925,65525.948029083556,10.5,10500065525.948029,47.655,-122.3035,60.0,6.183333333333334
2026-01-20T23:06:12+00:00,SAT-64042,290.1095013139272,45.20032192765707,2501.371171013989,-1.8543762695732582,64948.10096429848,10.5,10500064948.100964,47.655,-122.3035,60.0,6.2
2026-01-20T23:06:13+00:00,SAT-64042,290.337969485401,45.210161571889614,2499.5217397478013,-1.8378388031904833,64368.88893816026,10.5,10500064368.888939,47.655,-122.3035,60.0,6.216666666666667
2026-01-20T23:06:14+00:00,SAT-64042,290.5668377999781,45.21938658623811,2497.688801848086,-1.8212625984445032,63788.32013067949,10.5,10500063788.320131,47.655,-122.3035,60.0,6.233333333333333
2026-01-20T23:06:15+00:00,SAT-64042,290.79609857132175,45.227994275631744,2495.872395949904,-1.8046478847492795,63206.4025769035,10.5,10500063206.402576,47.655,-122.3035,60.0,6.25
2026-01-20T23:06:16+00:00,SAT-64042,291.02574403066933,45.23598198608913,2494.072560459514,-1.7879949084567213,62623.14490511824,10.5,10500062623.144905,47.655,-122.3035,60.0,6.266666666666667
2026-01-20T23:06:17+00:00,SAT-64042,291.2557663298228,45.24334710553133,2492.2893335374797,-1.7713039102937616,62038.555546599164,10.5,10500062038.555546,47.655,-122.3035,60.0,6.283333333333333
2026-01-20T23:06:18+00:00,SAT-64042,291.4861575412115,45.25008706448612,2490.52275310428,-1.7545751329856532,61452.64300261136,10.5,10500061452.643003,47.655,-122.3035,60.0,6.3
2026-01-20T23:06:19+00:00,SAT-64042,291.7169096589536,45.25619933682815,2488.7728568383163,-1.737808825651563,60865.41599836181,10.5,10500060865.415998,47.655,-122.3035,60.0,6.316666666666666
2026-01-20T23:06:20+00:00,SAT-64042,291.9480146006208,45.261681440522985,2487.039682169533,-1.7210052409046674,60276.883381432526,10.5,10500060276.88338,47.655,-122.3035,60.0,6.333333333333333
2026-01-20T23:06:21+00:00,SAT-64042,292.17946420855606,45.26653093835541,2485.3232662759374,-1.7041646443777172,59687.05445540605,10.5,10500059687.054455,47.655,-122.3035,60.0,6.35
2026-01-20T23:06:22+00:00,SAT-64042,292.41125025274596,45.27074543866359,2483.6236460706114,-1.6872872770959706,59095.937662006465,10.5,10500059095.937662,47.655,-122.3035,60.0,6.366666666666666
2026-01-20T23:06:23+00:00,SAT-64042,292.6433644281673,45.27432259598708,2481.940858226254,-1.6703734170744455,58503.5427384957,10.5,10500058503.542738,47.655,-122.3035,60.0,6.383333333333334
2026-01-20T23:06:24+00:00,SAT-64042,292.87579836117334,45.27726011183932,2480.2749391382918,-1.6534233207654103,57909.87866691699,10.5,10500057909.878668,47.655,-122.3035,60.0,6.4
2026-01-20T23:06:25+00:00,SAT-64042,293.1085436073015,45.27955573535324,2478.625924946382,-1.63643726697264,57314.95521215787,10.5,10500057314.955212,47.655,-122.3035,60.0,6.416666666666667
2026-01-20T23:06:26+00:00,SAT-64042,293.34159165573163,45.28120726398519,2476.993851512121,-1.6194155204186633,56718.78164592107,10.5,10500056718.781647,47.655,-122.3035,60.0,6.433333333333334
2026-01-20T23:06:27+00:00,SAT-64042,293.5749339281693,45.28221254417012,2475.3787544330903,-1.602358357197936,56121.367638202326,10.5,10500056121.367638,47.655,-122.3035,60.0,6.45
2026-01-20T23:06:28+00:00,SAT-64042,293.80856178174315,45.28256947199313,2473.7806690315115,-1.5852660621788186,55522.723166296586,10.5,10500055522.723166,47.655,-122.3035,60.0,6.466666666666667
2026-01-20T23:06:29+00:00,SAT-64042,294.0424665114229,45.28227599383901,2472.1996303454985,-1.5681389165969168,54922.858080264414,10.5,10500054922.85808,47.655,-122.3035,60.0,6.483333333333333
2026-01-20T23:06:30+00:00,SAT-64042,294.27663935074486,45.28133010702312,2470.635673132679,-1.5509772040576668,54321.7823131678,10.5,10500054321.782312,47.655,-122.3035,60.0,6.5
2026-01-20T23:06:31+00:00,SAT-64042,294.5110714732813,45.27972986042977,2469.088831867832,-1.5337812126266388,53719.505954281565,10.5,10500053719.505955,47.655,-122.3035,60.0,6.516666666666667
2026-01-20T23:06:32+00:00,SAT-64042,294.745753994612,45.277473355127526,2467.559140738439,-1.516551242904137,53116.0395318999,10.5,10500053116.039532,47.655,-122.3035,60.0,6.533333333333333
2026-01-20T23:06:33+00:00,SAT-64042,294.9806779755959,45.2745587449523,2466.046633632183,-1.4992875804324226,52511.3930469206,10.5,10500052511.393047,47.655,-122.3035,60.0,6.55
2026-01-20T23:06:34+00:00,SAT-64042,295.21583442122915,45.270984237136766,2464.5513441519647,-1.481990534482536,51905.57733132375,10.5,10500051905.577332,47.655,-122.3035,60.0,6.566666666666666
2026-01-20T23:06:35+00:00,SAT-64042,295.451214285814,45.26674809283999,2463.073305592241,-1.4646603989051148,51298.602677001654,10.5,10500051298.602676,47.655,-122.3035,60.0,6.583333333333333
2026-01-20T23:06:36+00:00,SAT-64042,295.6868084717863,45.26184862776221,2461.6125509543995,-1.4472974855560066,50690.48000646524,10.5,10500050690.480007,47.655,-122.3035,60.0,6.6
2026-01-20T23:06:37+00:00,SAT-64042,295.922607834029,45.25628421265256,2460.1691129288056,-1.4299020962496516,50081.21989053288,10.5,10500050081.21989,47.655,-122.3035,60.0,6.616666666666666
2026-01-20T23:06:38+00:00,SAT-64042,296.15860317957527,45.25005327389698,2458.743023904812,-1.4124745536436,49470.83363003682,10.5,10500049470.83363,47.655,-122.3035,60.0,6.633333333333334
2026-01-20T23:06:39+00:00,SAT-64042,296.3947852726282,45.24315429395831,2457.334315949978,-1.3950151637288435,48859.33194207593,10.5,10500048859.331942,47.655,-122.3035,60.0,6.65
2026-01-20T23:06:40+00:00,SAT-64042,296.63114483306566,45.235585811982396,2455.9430208266863,-1.3775242507196084,48246.72618200384,10.5,10500048246.726183,47.655,-122.3035,60.0,6.666666666666667
2026-01-20T23:06:41+00:00,SAT-64042,296.867672541092,45.227346424212406,2454.5691699739687,-1.360002130705213,47633.02742060555,10.5,10500047633.02742,47.655,-122.3035,60.0,6.683333333333334
2026-01-20T23:06:42+00:00,SAT-64042,297.10435903722123,45.218434784539234,2453.2127945156117,-1.3424491360629103,47018.24729913839,10.5,10500047018.2473,47.655,-122.3035,60.0,6.7
2026-01-20T23:06:43+00:00,SAT-64042,297.34119492680173,45.208849604864646,2451.873925243912,-1.324865585937944,46402.396995418785,10.5,10500046402.396996,47.655,-122.3035,60.0,6.716666666666667
2026-01-20T23:06:44+00:00,SAT-64042,297.5781707789899,45.19858965567793,2450.5525926328696,-1.3072518199725682,45785.48840515516,10.5,10500045785.488405,47.655,-122.3035,60.0,6.733333333333333
2026-01-20T23:06:45+00:00,SAT-64042,297.8152771321146,45.18765376634548,2449.2488268177503,-1.289608163518915,45167.53292355542,10.5,10500045167.532923,47.655,-122.3035,60.0,6.75
2026-01-20T23:06:46+00:00,SAT-64042,298.0525044925316,45.1760408256715,2447.962657609334,-1.271934959111517,44548.542547627825,10.5,10500044548.542547,47.655,-122.3035,60.0,6.766666666666667
2026-01-20T23:06:47+00:00,SAT-64042,298.2898433393753,45.16374978217732,2446.69411447678,-1.2542325476113403,43928.529215765244,10.5,10500043928.529215,47.655,-122.3035,60.0,6.783333333333333
