satellites_20260121_005943/SAT-66120.csv

timestamp,satellite,azimuth_deg,elevation_deg,distance_km,relative_velocity_kms,doppler_shift_hz,tx_freq_ghz,rx_freq_hz,ue_lat,ue_lon,ue_alt_m,time_minutes
2026-01-20T23:07:45+00:00,SAT-66120,204.65385456528244,30.18130430859528,1224.8072327560903,-5.491944534717362,192351.1285081505,10.5,10500192351.128508,47.655,-122.3035,60.0,7.75
2026-01-20T23:07:46+00:00,SAT-66120,204.71011992656133,30.40557220187999,1219.3299334067988,-5.475955947796061,191791.14056251087,10.5,10500191791.140562,47.655,-122.3035,60.0,7.766666666666667
2026-01-20T23:07:47+00:00,SAT-66120,204.76744801985703,30.631574202306407,1213.868580008197,-5.459744341805525,191223.34154569695,10.5,10500191223.341545,47.655,-122.3035,60.0,7.783333333333333
2026-01-20T23:07:48+00:00,SAT-66120,204.8258606737879,30.8593271541036,1208.4233949846362,-5.44330633746876,190647.61310113405,10.5,10500190647.613102,47.655,-122.3035,60.0,7.8
2026-01-20T23:07:49+00:00,SAT-66120,204.88538031185692,31.08884797010352,1202.994604130734,-5.426638559243431,190063.83700305104,10.5,10500190063.837004,47.655,-122.3035,60.0,7.816666666666666
2026-01-20T23:07:50+00:00,SAT-66120,204.94602997309838,31.320153628197886,1197.5824366076486,-5.409737578772238,189471.89317587332,10.5,10500189471.893175,47.655,-122.3035,60.0,7.833333333333333
2026-01-20T23:07:51+00:00,SAT-66120,205.0078333329195,31.55326116511651,1192.1871249957533,-5.392599921057536,188871.65991048422,10.5,10500188871.65991,47.655,-122.3035,60.0,7.85
2026-01-20T23:07:52+00:00,SAT-66120,205.07081472486223,31.788187670135475,1186.8089053411516,-5.375222034164833,188263.0128031131,10.5,10500188263.012804,47.655,-122.3035,60.0,7.866666666666666
2026-01-20T23:07:53+00:00,SAT-66120,205.1349991628926,32.02495027705769,1181.4480172324113,-5.35760037082306,187645.82761332218,10.5,10500187645.827614,47.655,-122.3035,60.0,7.883333333333334
2026-01-20T23:07:54+00:00,SAT-66120,205.2004123655492,32.26356615931774,1176.1047037959106,-5.339731325002559,187019.97804269934,10.5,10500187019.978043,47.655,-122.3035,60.0,7.9
2026-01-20T23:07:55+00:00,SAT-66120,205.2670807803627,32.50405252197653,1170.7792117544413,-5.321611203886502,186385.33475317873,10.5,10500186385.334753,47.655,-122.3035,60.0,7.916666666666667
2026-01-20T23:07:56+00:00,SAT-66120,205.3350316088975,32.74642659199485,1165.471791513765,-5.303236324624257,185741.7687557527,10.5,10500185741.768755,47.655,-122.3035,60.0,7.933333333333334
2026-01-20T23:07:57+00:00,SAT-66120,205.40429283405692,32.99070561232414,1160.1826971526732,-5.284602945256435,185089.148991175,10.5,10500185089.14899,47.655,-122.3035,60.0,7.95
2026-01-20T23:07:58+00:00,SAT-66120,205.47489324767147,33.23690683251077,1154.9121864819376,-5.26570724749793,184427.34172694985,10.5,10500184427.341726,47.655,-122.3035,60.0,7.966666666666667
2026-01-20T23:07:59+00:00,SAT-66120,205.5468624789988,33.485047497956884,1149.6605211204328,-5.246545391359096,183756.21247039677,10.5,10500183756.212471,47.655,-122.3035,60.0,7.983333333333333
2026-01-20T23:08:00+00:00,SAT-66120,205.62023102513038,33.7351448411284,1144.427966516784,-5.227113515075103,183075.62596617616,10.5,10500183075.625967,47.655,-122.3035,60.0,8.0
2026-01-20T23:08:01+00:00,SAT-66120,205.69503028275037,33.98721607229105,1139.2147919710826,-5.2074076680255,182385.44384684868,10.5,10500182385.443848,47.655,-122.3035,60.0,8.016666666666667
2026-01-20T23:08:02+00:00,SAT-66120,205.7712925802646,34.24127836651221,1134.021270723505,-5.187423896621961,181685.52764102753,10.5,10500181685.527641,47.655,-122.3035,60.0,8.033333333333333
2026-01-20T23:08:03+00:00,SAT-66120,205.84905121256813,34.497348854104715,1128.847679957274,-5.1671581694036774,180975.73614990214,10.5,10500180975.73615,47.655,-122.3035,60.0,8.05
2026-01-20T23:08:04+00:00,SAT-66120,205.9283404761807,34.755444606875635,1123.6943008763221,-5.146606438517086,180255.92760051822,10.5,10500180255.9276,47.655,-122.3035,60.0,8.066666666666666
2026-01-20T23:08:05+00:00,SAT-66120,206.00919570686818,35.01558262669309,1118.561418721641,-5.12576460989823,179525.9586014382,10.5,10500179525.958601,47.655,-122.3035,60.0,8.083333333333334
2026-01-20T23:08:06+00:00,SAT-66120,206.09165331844102,35.27777983194382,1113.4493228173694,-5.10462854549737,178785.68422065632,10.5,10500178785.684221,47.655,-122.3035,60.0,8.1
2026-01-20T23:08:07+00:00,SAT-66120,206.17575084327305,35.54205304334954,1108.35830661466,-5.083194052650576,178034.95761334678,10.5,10500178034.957613,47.655,-122.3035,60.0,8.116666666666667
2026-01-20T23:08:08+00:00,SAT-66120,206.26152697445397,35.80841896852139,1103.2886677461497,-5.0614569223749895,177273.63136312587,10.5,10500177273.631363,47.655,-122.3035,60.0,8.133333333333333
2026-01-20T23:08:09+00:00,SAT-66120,206.34902161043684,36.07689418765159,1098.2407080422345,-5.039412910964265,176501.5568374465,10.5,10500176501.556837,47.655,-122.3035,60.0,8.15
2026-01-20T23:08:10+00:00,SAT-66120,206.43827590138505,36.347495137524604,1093.2147335656994,-5.017057695755418,175718.58263836606,10.5,10500175718.582638,47.655,-122.3035,60.0,8.166666666666666
2026-01-20T23:08:11+00:00,SAT-66120,206.52933229680738,36.62023809228208,1088.211054690466,-4.9943869762750985,174924.55814511696,10.5,10500174924.558146,47.655,-122.3035,60.0,8.183333333333334
2026-01-20T23:08:12+00:00,SAT-66120,206.62223459717194,36.895139148700906,1083.229986079461,-4.971396368071598,174119.3297956541,10.5,10500174119.329796,47.655,-122.3035,60.0,8.2
2026-01-20T23:08:13+00:00,SAT-66120,206.71702800590262,37.17221420485009,1078.2718467683708,-4.948081485474749,173302.74398525682,10.5,10500173302.743986,47.655,-122.3035,60.0,8.216666666666667
2026-01-20T23:08:14+00:00,SAT-66120,206.81375918532478,37.45147894227229,1073.3369601668574,-4.924437891494226,172474.64531175556,10.5,10500172474.645311,47.655,-122.3035,60.0,8.233333333333333
2026-01-20T23:08:15+00:00,SAT-66120,206.91247631418034,37.73294880439424,1068.4256541097404,-4.900461137902456,171634.8779794046,10.5,10500171634.87798,47.655,-122.3035,60.0,8.25
2026-01-20T23:08:16+00:00,SAT-66120,207.01322914865187,38.01663897615898,1063.5382608682057,-4.876146720480404,170783.28423140064,10.5,10500170783.284231,47.655,-122.3035,60.0,8.266666666666667
2026-01-20T23:08:17+00:00,SAT-66120,207.11606908524323,38.30256435997981,1058.6751172056465,-4.851490135503152,169919.70632824625,10.5,10500169919.706327,47.655,-122.3035,60.0,8.283333333333333
2026-01-20T23:08:18+00:00,SAT-66120,207.2210492278205,38.59073955381564,1053.8365643771715,-4.826486842869699,169043.98525639976,10.5,10500169043.985256,47.655,-122.3035,60.0,8.3
2026-01-20T23:08:19+00:00,SAT-66120,207.32822445701186,38.88117882592364,1049.0229481658828,-4.801132266724894,168155.96075005791,10.5,10500168155.96075,47.655,-122.3035,60.0,8.316666666666666
2026-01-20T23:08:20+00:00,SAT-66120,207.43765150286825,39.17389608838071,1044.2346189185357,-4.775421826993959,167255.47239562834,10.5,10500167255.472395,47.655,-122.3035,60.0,8.333333333333334
2026-01-20T23:08:21+00:00,SAT-66120,207.549389021712,39.46890487116496,1039.471931549747,-4.749350949266108,166342.35997789554,10.5,10500166342.359978,47.655,-122.3035,60.0,8.35
2026-01-20T23:08:22+00:00,SAT-66120,207.66349767689806,39.76621829557474,1034.7352455363457,-4.722914962818581,165416.45990839135,10.5,10500165416.459908,47.655,-122.3035,60.0,8.366666666666667
2026-01-20T23:08:23+00:00,SAT-66120,207.78004022100066,40.06584903991788,1030.024925013428,-4.696109271288796,164477.6112030555,10.5,10500164477.611202,47.655,-122.3035,60.0,8.383333333333333
2026-01-20T23:08:24+00:00,SAT-66120,207.8990815861256,40.367809314255,1025.341338700196,-4.668929236017707,163525.6513964268,10.5,10500163525.651396,47.655,-122.3035,60.0,8.4
2026-01-20T23:08:25+00:00,SAT-66120,208.0206889757571,40.67211082645717,1020.684859942141,-4.64137017825472,162560.4166188682,10.5,10500162560.416618,47.655,-122.3035,60.0,8.416666666666666
2026-01-20T23:08:26+00:00,SAT-66120,208.1449319610774,40.97876474667194,1016.0558667510284,-4.613427462900232,161581.74452958532,10.5,10500161581.74453,47.655,-122.3035,60.0,8.433333333333334
2026-01-20T23:08:27+00:00,SAT-66120,208.27188258423223,41.28778167549511,1011.4547417613624,-4.585096440119193,160589.47227168575,10.5,10500160589.472271,47.655,-122.3035,60.0,8.45
2026-01-20T23:08:28+00:00,SAT-66120,208.40161546518053,41.599171606744925,1006.8818722450835,-4.556372431995118,159583.43600474682,10.5,10500159583.436005,47.655,-122.3035,60.0,8.466666666666667
2026-01-20T23:08:29+00:00,SAT-66120,208.53420791340767,41.9129438873957,1002.3376501395738,-4.527250800338943,158563.47327976776,10.5,10500158563.47328,47.655,-122.3035,60.0,8.483333333333333
2026-01-20T23:08:30+00:00,SAT-66120,208.66974004715468,42.22910718018494,997.8224720080358,-4.497726916038274,157529.42196565156,10.5,10500157529.421967,47.655,-122.3035,60.0,8.5
2026-01-20T23:08:31+00:00,SAT-66120,208.8082949178107,42.54766942226446,993.3367390304402,-4.467796124461102,156481.11903749613,10.5,10500156481.119038,47.655,-122.3035,60.0,8.516666666666667
2026-01-20T23:08:32+00:00,SAT-66120,208.9499586394575,42.868637779321,988.8808570289777,-4.4374538426100045,155418.40397934575,10.5,10500155418.40398,47.655,-122.3035,60.0,8.533333333333333
2026-01-20T23:08:33+00:00,SAT-66120,209.09482052800706,43.19201860433303,984.4552363966147,-4.406695461694016,154341.11537184558,10.5,10500154341.115372,47.655,-122.3035,60.0,8.55
2026-01-20T23:08:34+00:00,SAT-66120,209.242973244406,43.517817387293476,980.0602921228185,-4.375516426889898,153249.0936858189,10.5,10500153249.093685,47.655,-122.3035,60.0,8.566666666666666
2026-01-20T23:08:35+00:00,SAT-66120,209.39451294768557,43.84603870819032,975.6964437397337,-4.34391220893799,152142.18028743367,10.5,10500152142.180288,47.655,-122.3035,60.0,8.583333333333334
2026-01-20T23:08:36+00:00,SAT-66120,209.54953945503672,44.17668618561342,971.3641152966862,-4.311878310693421,151020.2176676537,10.5,10500151020.217669,47.655,-122.3035,60.0,8.6
2026-01-20T23:08:37+00:00,SAT-66120,209.70815641037603,44.50976242325335,967.0637353281546,-4.279410264235106,149883.04934098315,10.5,10500149883.049341,47.655,-122.3035,60.0,8.616666666666667
2026-01-20T23:08:38+00:00,SAT-66120,209.8704714615315,44.8452689534992,962.7957368246241,-4.246503669832469,148730.5212102465,10.5,10500148730.52121,47.655,-122.3035,60.0,8.633333333333333
2026-01-20T23:08:39+00:00,SAT-66120,210.03659644817117,45.1832061812459,958.5605571645779,-4.213154159847107,147562.48030227175,10.5,10500147562.480303,47.655,-122.3035,60.0,8.65
2026-01-20T23:08:40+00:00,SAT-66120,210.20664759823603,45.52357332206285,954.3586380824903,-4.179357443477095,146378.77633502538,10.5,10500146378.776335,47.655,-122.3035,60.0,8.666666666666666
2026-01-20T23:08:41+00:00,SAT-66120,210.38074573648123,45.86636834081949,950.1904255921959,-4.145109267833954,145179.26035436327,10.5,10500145179.260355,47.655,-122.3035,60.0,8.683333333333334
2026-01-20T23:08:42+00:00,SAT-66120,210.55901650252963,46.21158788408368,946.056369949076,-4.110405459602195,143963.7861931238,10.5,10500143963.786194,47.655,-122.3035,60.0,8.7
2026-01-20T23:08:43+00:00,SAT-66120,210.7415905821458,46.559227212463455,941.9569255706995,-4.075241942685207,142732.2110891618,10.5,10500142732.21109,47.655,-122.3035,60.0,8.716666666666667
2026-01-20T23:08:44+00:00,SAT-66120,210.92860395181418,46.909280131128035,937.8925509398615,-4.03961467836417,141484.39358946044,10.5,10500141484.393589,47.655,-122.3035,60.0,8.733333333333333
2026-01-20T23:08:45+00:00,SAT-66120,211.12019813365578,47.26173891161467,933.8637085673063,-4.003519750600956,140220.19653779964,10.5,10500140220.196537,47.655,-122.3035,60.0,8.75
2026-01-20T23:08:46+00:00,SAT-66120,211.31652046796296,47.616594217027355,929.8708648693736,-3.9669533319219754,138939.48587986408,10.5,10500138939.48588,47.655,-122.3035,60.0,8.766666666666667
2026-01-20T23:08:47+00:00,SAT-66120,211.517724398939,47.97383502044356,925.9144900796701,-3.929911693149183,137642.13100406423,10.5,10500137642.131004,47.655,-122.3035,60.0,8.783333333333333
2026-01-20T23:08:48+00:00,SAT-66120,211.723969776352,48.33344851999356,921.9950581510359,-3.892391202313637,136328.00470348453,10.5,10500136328.004704,47.655,-122.3035,60.0,8.8
2026-01-20T23:08:49+00:00,SAT-66120,211.93542317345924,48.69542004939111,918.1130466585952,-3.854388377072394,134996.9850117448,10.5,10500134996.985012,47.655,-122.3035,60.0,8.816666666666666
2026-01-20T23:08:50+00:00,SAT-66120,212.1522582250928,49.059732988710195,914.2689366505283,-3.8158998306346867,133648.9533091063,10.5,10500133648.95331,47.655,-122.3035,60.0,8.833333333333334
2026-01-20T23:08:51+00:00,SAT-66120,212.37465598124462,49.42636866542134,910.4632125527753,-3.7769223089456996,132283.79562480468,10.5,10500132283.795626,47.655,-122.3035,60.0,8.85
2026-01-20T23:08:52+00:00,SAT-66120,212.60280528197458,49.79530625371911,906.6963620366535,-3.737452724932318,130901.40383648123,10.5,10500130901.403837,47.655,-122.3035,60.0,8.866666666666667
2026-01-20T23:08:53+00:00,SAT-66120,212.83690315493016,50.16652267187932,902.9688758523209,-3.6974881173527057,129501.67422892075,10.5,10500129501.674229,47.655,-122.3035,60.0,8.883333333333333
2026-01-20T23:08:54+00:00,SAT-66120,213.0771552321794,50.539992470135466,899.2812477032812,-3.6570256900116807,128084.50886754012,10.5,10500128084.508867,47.655,-122.3035,60.0,8.9
2026-01-20T23:08:55+00:00,SAT-66120,213.32377619222913,50.91568771638686,895.6339740817763,-3.616062808345866,126649.81547878563,10.5,10500126649.81548,47.655,-122.3035,60.0,8.916666666666666
2026-01-20T23:08:56+00:00,SAT-66120,213.57699022607906,51.293577875462255,892.027554107586,-3.5745970257756388,125197.50837308994,10.5,10500125197.508373,47.655,-122.3035,60.0,8.933333333333334
2026-01-20T23:08:57+00:00,SAT-66120,213.83703153053852,51.67362968450388,888.4624893405457,-3.532626057231208,123727.50751764303,10.5,10500123727.507517,47.655,-122.3035,60.0,8.95
2026-01-20T23:08:58+00:00,SAT-66120,214.10414482658376,52.05580701875608,884.939283619467,-3.4901478320290615,122239.74038834943,10.5,10500122239.740389,47.655,-122.3035,60.0,8.966666666666667
2026-01-20T23:08:59+00:00,SAT-66120,214.37858590972345,52.44007075557629,881.4584428483234,-3.447160468249951,120734.14107243647,10.5,10500120734.141073,47.655,-122.3035,60.0,8.983333333333333
2026-01-20T23:09:00+00:00,SAT-66120,214.66062222835308,52.826378628133014,878.0204748079889,-3.403662298741943,119210.65117919144,10.5,10500119210.651178,47.655,-122.3035,60.0,9.0
2026-01-20T23:09:01+00:00,SAT-66120,214.95053349520197,53.214685073712175,874.6258889420435,-3.3596518721470328,117669.21987591777,10.5,10500117669.219875,47.655,-122.3035,60.0,9.016666666666667
2026-01-20T23:09:02+00:00,SAT-66120,215.24861233168255,53.60494107361393,871.2751961415555,-3.3151279787857884,116109.80479452481,10.5,10500116109.804794,47.655,-122.3035,60.0,9.033333333333333
2026-01-20T23:09:03+00:00,SAT-66120,215.55516494867058,53.997093986845464,867.9689085040465,-3.270089627108865,114532.37120676025,10.5,10500114532.371206,47.655,-122.3035,60.0,9.05
2026-01-20T23:09:04+00:00,SAT-66120,215.87051186098145,54.39108737151145,864.7075391159433,-3.224536090939839,112936.893678854,10.5,10500112936.893679,47.655,-122.3035,60.0,9.066666666666666
2026-01-20T23:09:05+00:00,SAT-66120,216.19498864331672,54.786860801430834,861.4916017879127,-3.1784669003858266,111323.35575316969,10.5,10500111323.355753,47.655,-122.3035,60.0,9.083333333333334
2026-01-20T23:09:06+00:00,SAT-66120,216.52894672426075,55.18434967101009,858.3216107992612,-3.131881839553166,109691.74986819798,10.5,10500109691.749868,47.655,-122.3035,60.0,9.1
2026-01-20T23:09:07+00:00,SAT-66120,216.87275421990628,55.5834849882288,855.1980806446135,-3.0847809728123377,108042.07827846537,10.5,10500108042.078278,47.655,-122.3035,60.0,9.116666666666667
2026-01-20T23:09:08+00:00,SAT-66120,217.22679681140326,55.98419315868996,852.1215257543953,-3.0371646688753846,106374.35389782733,10.5,10500106374.353897,47.655,-122.3035,60.0,9.133333333333333
2026-01-20T23:09:09+00:00,SAT-66120,217.59147866764445,56.38639575984012,849.0924601913036,-2.9890335558804693,104688.59872633929,10.5,10500104688.598726,47.655,-122.3035,60.0,9.15
2026-01-20T23:09:10+00:00,SAT-66120,217.96722340600044,56.79000929571372,846.1113973915722,-2.940388591831892,102984.84631736422,10.5,10500102984.846317,47.655,-122.3035,60.0,9.166666666666666
2026-01-20T23:09:11+00:00,SAT-66120,218.35447510480105,57.194944946142634,843.1788498359851,-2.8912310432399977,101263.1410294517,10.5,10500101263.14103,47.655,-122.3035,60.0,9.183333333333334
2026-01-20T23:09:12+00:00,SAT-66120,218.75369935754165,57.60110829789696,840.2953287421938,-2.841562480313413,99523.53785794985,10.5,10500099523.537857,47.655,-122.3035,60.0,9.2
2026-01-20T23:09:13+00:00,SAT-66120,219.165384369752,58.00839905859406,837.461343761828,-2.791384831544907,97766.10434683293,10.5,10500097766.104347,47.655,-122.3035,60.0,9.216666666666667
2026-01-20T23:09:14+00:00,SAT-66120,219.59004210611275,58.41671076082791,834.677402623167,-2.740700328650343,95990.9186602306,10.5,10500095990.918661,47.655,-122.3035,60.0,9.233333333333333
2026-01-20T23:09:15+00:00,SAT-66120,220.0282094709866,58.8259304401025,831.9440108287265,-2.6895115727504604,94198.07190039394,10.5,10500094198.071901,47.655,-122.3035,60.0,9.25
2026-01-20T23:09:16+00:00,SAT-66120,220.4804495370878,59.23593830262368,829.2616712868366,-2.637821512773314,92387.66735125736,10.5,10500092387.66735,47.655,-122.3035,60.0,9.266666666666667
2026-01-20T23:09:17+00:00,SAT-66120,220.94735280639117,59.64660736946412,826.630883964764,-2.585633455310302,90559.82082363851,10.5,10500090559.820824,47.655,-122.3035,60.0,9.283333333333333
2026-01-20T23:09:18+00:00,SAT-66120,221.42953850277823,60.057803100346256,824.0521455320013,-2.532951067081166,88714.6607415729,10.5,10500088714.660742,47.655,-122.3035,60.0,9.3
2026-01-20T23:09:19+00:00,SAT-66120,221.92765588869398,60.46938299476855,821.525949001099,-2.4797784001405407,86852.32902515405,10.5,10500086852.329025,47.655,-122.3035,60.0,9.316666666666666
2026-01-20T23:09:20+00:00,SAT-66120,222.44238560193207,60.88119617291892,819.0527833433588,-2.4261198867619647,84972.98091134978,10.5,10500084972.980911,47.655,-122.3035,60.0,9.333333333333334
2026-01-20T23:09:21+00:00,SAT-66120,222.97444099692592,61.29308293069496,816.6331331096283,-2.3719803262401733,83076.7844917627,10.5,10500083076.784492,47.655,-122.3035,60.0,9.35
2026-01-20T23:09:22+00:00,SAT-66120,223.52456947452865,61.70487426595103,814.2674780642581,-2.31736492467899,81163.9221061705,10.5,10500081163.922106,47.655,-122.3035,60.0,9.366666666666667
2026-01-20T23:09:23+00:00,SAT-66120,224.09355379554086,62.116391383931344,811.9562927793781,-2.2622792884432936,79234.59011318619,10.5,10500079234.590113,47.655,-122.3035,60.0,9.383333333333333
2026-01-20T23:09:24+00:00,SAT-66120,224.6822133489128,62.52744517349073,809.7000462357041,-2.2067293987740806,77288.99800117001,10.5,10500077288.998001,47.655,-122.3035,60.0,9.4
2026-01-20T23:09:25+00:00,SAT-66120,225.2914053442362,62.937835649640945,807.4992014486601,-2.1507216586766877,75327.3700304536,10.5,10500075327.370031,47.655,-122.3035,60.0,9.416666666666666
2026-01-20T23:09:26+00:00,SAT-66120,225.92202591715838,63.34735137475508,805.3542150477398,-2.094262873657745,73349.94455866638,10.5,10500073349.94456,47.655,-122.3035,60.0,9.433333333333334
2026-01-20T23:09:27+00:00,SAT-66120,226.57501109659083,63.755768846683786,803.2655368750786,-2.037360243391127,71356.97374884205,10.5,10500071356.97375,47.655,-122.3035,60.0,9.45
2026-01-20T23:09:28+00:00,SAT-66120,227.25133759292274,64.16285185555576,801.2336095923365,-1.9800213964438527,69348.7247856664,10.5,10500069348.724785,47.655,-122.3035,60.0,9.466666666666667
2026-01-20T23:09:29+00:00,SAT-66120,227.95202337121094,64.56835081844056,799.2588682529498,-1.9222543464578827,67325.47834077857,10.5,10500067325.47834,47.655,-122.3035,60.0,9.483333333333333
2026-01-20T23:09:30+00:00,SAT-66120,228.67812792562,64.97200207788062,797.3417399180825,-1.864067532225408,65287.52997637714,10.5,10500065287.529976,47.655,-122.3035,60.0,9.5
2026-01-20T23:09:31+00:00,SAT-66120,229.43075221388972,65.37352718310945,795.4826432326096,-1.8054697972009877,63235.18942764855,10.5,10500063235.189428,47.655,-122.3035,60.0,9.516666666666667
2026-01-20T23:09:32+00:00,SAT-66120,230.21103815204378,65.77263214510077,793.6819880215345,-1.7464703899753349,61168.78061936107,10.5,10500061168.780619,47.655,-122.3035,60.0,9.533333333333333
2026-01-20T23:09:33+00:00,SAT-66120,231.0201675839661,66.16900667410194,791.9401748859325,-1.6870789511641375,59088.641206655855,10.5,10500059088.641207,47.655,-122.3035,60.0,9.55
2026-01-20T23:09:34+00:00,SAT-66120,231.85936061330315,66.56232340237763,790.2575948119714,-1.6273055436149908,56995.12363302149,10.5,10500056995.123632,47.655,-122.3035,60.0,9.566666666666666
2026-01-20T23:09:35+00:00,SAT-66120,232.72987319827763,66.95223710983193,788.6346287498061,-1.5671606108705913,54888.593675499375,10.5,10500054888.593676,47.655,-122.3035,60.0,9.583333333333334
2026-01-20T23:09:36+00:00,SAT-66120,233.63299384059897,67.33838394619536,787.0716472338978,-1.506654987497801,52769.43080645115,10.5,10500052769.430807,47.655,-122.3035,60.0,9.6
2026-01-20T23:09:37+00:00,SAT-66120,234.5700392395517,67.72038067354421,785.5690099930333,-1.4457998960061793,50638.02808563277,10.5,10500050638.028086,47.655,-122.3035,60.0,9.616666666666667
2026-01-20T23:09:38+00:00,SAT-66120,235.54234873901288,68.09782394152681,784.1270655634164,-1.384606938976551,48494.7918845036,10.5,10500048494.791885,47.655,-122.3035,60.0,9.633333333333333
2026-01-20T23:09:39+00:00,SAT-66120,236.55127738311984,68.47028961277962,782.7461509096106,-1.3230880863801588,46340.141442089465,10.5,10500046340.141441,47.655,-122.3035,60.0,9.65
2026-01-20T23:09:40+00:00,SAT-66120,237.5981873817201,68.83733215940232,781.4265910581273,-1.2612556664840726,44174.5085464517,10.5,10500044174.508547,47.655,-122.3035,60.0,9.666666666666666
2026-01-20T23:09:41+00:00,SAT-66120,238.68443778236755,69.19848415778523,780.1686987400872,-1.1991223666131359,41998.337561373635,10.5,10500041998.33756,47.655,-122.3035,60.0,9.683333333333334
2026-01-20T23:09:42+00:00,SAT-66120,239.8113721489481,69.55325591567505,778.9727740331184,-1.1367012089945359,39812.08458033533,10.5,10500039812.08458,47.655,-122.3035,60.0,9.7
2026-01-20T23:09:43+00:00,SAT-66120,240.9803040212742,69.90113526068589,777.8391040273478,-1.0740055563118822,37616.2176210409,10.5,10500037616.21762,47.655,-122.3035,60.0,9.716666666666667
2026-01-20T23:09:44+00:00,SAT-66120,242.19249998875074,70.2415875397888,776.7679624858529,-1.0110490713686942,35411.21521266318,10.5,10500035411.215212,47.655,-122.3035,60.0,9.733333333333333
2026-01-20T23:09:45+00:00,SAT-66120,243.44916016578196,70.57405586247802,775.7596095453412,-0.9478457449622205,33197.56737210285,10.5,10500033197.567371,47.655,-122.3035,60.0,9.75
2026-01-20T23:09:46+00:00,SAT-66120,244.75139601739272,70.8979616596971,774.8142913890322,-0.8844098427396633,30975.773742668553,10.5,10500030975.773743,47.655,-122.3035,60.0,9.766666666666667
2026-01-20T23:09:47+00:00,SAT-66120,246.10020538537748,71.21270558920955,773.9322399725398,-0.8207559155544238,28746.343956796438,10.5,10500028746.343956,47.655,-122.3035,60.0,9.783333333333333
2026-01-20T23:09:48+00:00,SAT-66120,247.49644481095305,71.51766886609175,773.1136727394269,-0.756898768900496,26509.796565513363,10.5,10500026509.796566,47.655,-122.3035,60.0,9.8
2026-01-20T23:09:49+00:00,SAT-66120,248.94079924072065,71.81221506585139,772.3587923672435,-0.6928534657239386,24266.65913690649,10.5,10500024266.659138,47.655,-122.3035,60.0,9.816666666666666
2026-01-20T23:09:50+00:00,SAT-66120,250.43374944745173,72.09569247206318,771.6677865107614,-0.628635288062192,22017.466912569947,10.5,10500022017.466913,47.655,-122.3035,60.0,9.833333333333334
2026-01-20T23:09:51+00:00,SAT-66120,251.97553754716148,72.36743701041912,771.0408275834674,-0.5642597346710742,19762.76272449215,10.5,10500019762.762724,47.655,-122.3035,60.0,9.85
2026-01-20T23:09:52+00:00,SAT-66120,253.56613131982652,72.6267758316089,770.4780725414221,-0.49974249732750853,17503.096165077106,10.5,10500017503.096165,47.655,-122.3035,60.0,9.866666666666667
2026-01-20T23:09:53+00:00,SAT-66120,255.20518816424743,72.87303157332887,769.9796626907541,-0.43509944343239937,15239.022977823523,10.5,10500015239.022978,47.655,-122.3035,60.0,9.883333333333333
2026-01-20T23:09:54+00:00,SAT-66120,256.892019790829,73.10552732442595,769.5457235125042,-0.37034659816182597,12971.104432184124,10.5,10500012971.104433,47.655,-122.3035,60.0,9.9
2026-01-20T23:09:55+00:00,SAT-66120,258.6255589765783,73.32359229012175,769.1763645052708,-0.30550012263252446,10699.906558828465,10.5,10500010699.906559,47.655,-122.3035,60.0,9.916666666666666
2026-01-20T23:09:56+00:00,SAT-66120,260.40432989007394,73.52656812691099,768.8716790496319,-0.24057629670271405,8425.999547255113,10.5,10500008425.999548,47.655,-122.3035,60.0,9.933333333333334
2026-01-20T23:09:57+00:00,SAT-66120,262.22642368519007,73.71381588755082,768.6317442897205,-0.17559149677000815,6149.956968180585,10.5,10500006149.956968,47.655,-122.3035,60.0,9.95
2026-01-20T23:09:58+00:00,SAT-66120,264.0894811024883,73.88472347405948,768.4566210369419,-0.11056217655816618,3872.355100610119,10.5,10500003872.3551,47.655,-122.3035,60.0,9.966666666666667
2026-01-20T23:09:59+00:00,SAT-66120,265.9906838360939,74.03871346215877,768.3463536928546,-0.04550484579956133,1593.772185207521,10.5,10500001593.772184,47.655,-122.3035,60.0,9.983333333333333
2026-01-20T23:10:00+00:00,SAT-66120,267.9267562472385,74.17525111798656,768.3009701933104,0.019563949667595136,-685.2122727842237,10.5,10499999314.787727,47.655,-122.3035,60.0,10.0
2026-01-20T23:10:01+00:00,SAT-66120,269.893978760615,74.29385239585471,768.3204819724455,0.08462764990389916,-2964.018274238711,10.5,10499997035.981726,47.655,-122.3035,60.0,10.016666666666667
2026-01-20T23:10:02+00:00,SAT-66120,271.88821380653866,74.3940916732391,768.4048839486163,0.14966970132917365,-5242.066042756564,10.5,10499994757.933958,47.655,-122.3035,60.0,10.033333333333333
2026-01-20T23:10:03+00:00,SAT-66120,273.90494462957554,74.47560896341268,768.5541545307419,0.21467357738820875,-7518.776748467074,10.5,10499992481.223251,47.655,-122.3035,60.0,10.05
2026-01-20T23:10:04+00:00,SAT-66120,275.9393266443274,74.53811634233647,768.7682556452572,0.27962280030587155,-9793.573269984168,10.5,10499990206.42673,47.655,-122.3035,60.0,10.066666666666666
2026-01-20T23:10:05+00:00,SAT-66120,277.98625025954544,74.58140333535508,769.0471327847622,0.34450096028078797,-12065.880866650334,10.5,10499987934.119133,47.655,-122.3035,60.0,10.083333333333334
2026-01-20T23:10:06+00:00,SAT-66120,280.04041338259276,74.60534103885345,769.3907150758156,0.409291739361253,-14335.128014771995,10.5,10499985664.871984,47.655,-122.3035,60.0,10.1
2026-01-20T23:10:07+00:00,SAT-66120,282.09640121812004,74.60988479710603,769.7989153705386,0.4739789260759891,-16600.746920050555,10.5,10499983399.25308,47.655,-122.3035,60.0,10.116666666666667
2026-01-20T23:10:08+00:00,SAT-66120,284.1487703768423,74.59507531128868,770.2716303528116,0.5385464397805405,-18862.174370296118,10.5,10499981137.82563,47.655,-122.3035,60.0,10.133333333333333
2026-01-20T23:10:09+00:00,SAT-66120,286.1921341275635,74.5610381274587,770.8087406687528,0.6029783527006709,-21118.852507480507,10.5,10499978881.147493,47.655,-122.3035,60.0,10.15
2026-01-20T23:10:10+00:00,SAT-66120,288.22124545037127,74.50798152068467,771.4101110791796,0.6672588976390083,-23370.229097656575,10.5,10499976629.770903,47.655,-122.3035,60.0,10.166666666666666
2026-01-20T23:10:11+00:00,SAT-66120,290.2310746911712,74.4361928663906,772.0755906197583,0.7313725017088933,-25615.758712460272,10.5,10499974384.241287,47.655,-122.3035,60.0,10.183333333333334
2026-01-20T23:10:12+00:00,SAT-66120,292.2168791392638,74.34603365052452,772.8050127947959,0.7953037940469966,-27854.902999239108,10.5,10499972145.097,47.655,-122.3035,60.0,10.2
2026-01-20T23:10:13+00:00,SAT-66120,294.1742622097353,74.23793332655356,773.5981957787254,0.8590376291605533,-30087.13149877109,10.5,10499969912.868502,47.655,-122.3035,60.0,10.216666666666667
2026-01-20T23:10:14+00:00,SAT-66120,296.0992207427548,74.11238226127612,774.4549426408748,0.9225590939833586,-32311.921892395523,10.5,10499967688.078108,47.655,-122.3035,60.0,10.233333333333333
2026-01-20T23:10:15+00:00,SAT-66120,297.9881795545932,73.96992403528321,775.3750415772744,0.9858535412990967,-34528.76117263936,10.5,10499965471.238827,47.655,-122.3035,60.0,10.25
2026-01-20T23:10:16+00:00,SAT-66120,299.8380131904714,73.81114736140272,776.3582661757966,1.04890658629167,-36737.14552239515,10.5,10499963262.854477,47.655,-122.3035,60.0,10.266666666666667
2026-01-20T23:10:17+00:00,SAT-66120,301.6460553173804,73.63667788232564,777.4043756778582,1.1117041375401266,-38936.5814004945,10.5,10499961063.4186,47.655,-122.3035,60.0,10.283333333333333
2026-01-20T23:10:18+00:00,SAT-66120,303.41009687537854,73.4471700737732,778.5131152710316,1.1742323968522175,-41126.58553587858,10.5,10499958873.414465,47.655,-122.3035,60.0,10.3
2026-01-20T23:10:19+00:00,SAT-66120,305.1283743497944,73.24329945687819,779.6842163814921,1.2364778868395125,-43306.68589339523,10.5,10499956693.314106,47.655,-122.3035,60.0,10.316666666666666
2026-01-20T23:10:20+00:00,SAT-66120,306.79954987504567,73.02575527548352,780.9173969939668,1.2984274469643393,-45476.42153534618,10.5,10499954523.578465,47.655,-122.3035,60.0,10.333333333333334
2026-01-20T23:10:21+00:00,SAT-66120,308.42268488044596,72.79523376396713,782.2123619677392,1.3600682645092987,-47635.34370617035,10.5,10499952364.656294,47.655,-122.3035,60.0,10.35
2026-01-20T23:10:22+00:00,SAT-66120,309.9972090735591,72.552432080385,783.5688033835431,1.4213878687444268,-49783.01562815327,10.5,10499950216.984371,47.655,-122.3035,60.0,10.366666666666667
2026-01-20T23:10:23+00:00,SAT-66120,311.5228863435397,72.29804295649039,784.9864008846376,1.4823741441980827,-51919.01296622968,10.5,10499948080.987034,47.655,-122.3035,60.0,10.383333333333333
2026-01-20T23:10:24+00:00,SAT-66120,312.9997790742451,72.03275007497331,786.4648220311177,1.5430153493303411,-54042.92448200475,10.5,10499945957.075518,47.655,-122.3035,60.0,10.4
2026-01-20T23:10:25+00:00,SAT-66120,314.4282121165153,71.75722416095701,788.0037226728499,1.6033001130130624,-56154.35191047119,10.5,10499943845.64809,47.655,-122.3035,60.0,10.416666666666666
2026-01-20T23:10:26+00:00,SAT-66120,315.8087374149433,71.47211975979957,789.6027473188949,1.6632174459358682,-58252.910359494825,10.5,10499941747.08964,47.655,-122.3035,60.0,10.433333333333334
2026-01-20T23:10:27+00:00,SAT-66120,317.1421000975606,71.17807265205379,791.2615295183084,1.72275675153922,-60338.22869273719,10.5,10499939661.771307,47.655,-122.3035,60.0,10.45
2026-01-20T23:10:28+00:00,SAT-66120,318.4292066052763,70.87569784968078,792.9796922518434,1.7819078245567161,-62409.94947860069,10.5,10499937590.050522,47.655,-122.3035,60.0,10.466666666666667
2026-01-20T23:10:29+00:00,SAT-66120,319.67109524107195,70.5655881144705,794.7568483222013,1.8406608536309017,-64467.729081845246,10.5,10499935532.270918,47.655,-122.3035,60.0,10.483333333333333
2026-01-20T23:10:30+00:00,SAT-66120,320.8689093734273,70.24831293474786,796.5926007468893,1.899006436823625,-66511.23820682662,10.5,10499933488.761793,47.655,-122.3035,60.0,10.5
2026-01-20T23:10:31+00:00,SAT-66120,322.0238733988288,69.92441789587517,798.486543166548,1.9569355778716035,-68540.16176635049,10.5,10499931459.838234,47.655,-122.3035,60.0,10.516666666666667
2026-01-20T23:10:32+00:00,SAT-66120,323.1372714426624,69.59442438841779,800.4382602495452,2.0144396794119785,-70554.19864440277,10.5,10499929445.801355,47.655,-122.3035,60.0,10.533333333333333
2026-01-20T23:10:33+00:00,SAT-66120,324.21042871384657,69.25882959906384,802.4473280898122,2.0715105553400637,-72553.06212897012,10.5,10499927446.937872,47.655,-122.3035,60.0,10.55
2026-01-20T23:10:34+00:00,SAT-66120,325.24469538423466,68.91810673053875,804.5133146170045,2.1281404404577664,-74536.48024996862,10.5,10499925463.51975,47.655,-122.3035,60.0,10.566666666666666
2026-01-20T23:10:35+00:00,SAT-66120,326.2414328112015,68.57270540606389,806.6357800162879,2.184321952062215,-76504.19443391488,10.5,10499923495.805567,47.655,-122.3035,60.0,10.583333333333334
2026-01-20T23:10:36+00:00,SAT-66120,327.2020018825771,68.22305222643224,808.8142771098112,2.2400481483086963,-78455.96154804305,10.5,10499921544.038452,47.655,-122.3035,60.0,10.6
2026-01-20T23:10:37+00:00,SAT-66120,328.1277533221505,67.86955142952664,811.0483517963911,2.295312462564292,-80391.55160109153,10.5,10499919608.448399,47.655,-122.3035,60.0,10.616666666666667
2026-01-20T23:10:38+00:00,SAT-66120,329.0200196893069,67.51258564295028,813.337543425722,2.3501087454010605,-82310.74921408173,10.5,10499917689.250786,47.655,-122.3035,60.0,10.633333333333333
2026-01-20T23:10:39+00:00,SAT-66120,329.8801089202865,67.15251668749049,815.6813852144686,2.40443125196614,-84213.35317796578,10.5,10499915786.646822,47.655,-122.3035,60.0,10.65
2026-01-20T23:10:40+00:00,SAT-66120,330.7092991938847,66.78968641960054,818.0794046497628,2.458274619584125,-86099.17566916681,10.5,10499913900.824331,47.655,-122.3035,60.0,10.666666666666666
2026-01-20T23:10:41+00:00,SAT-66120,331.50883494241634,66.42441759714211,820.5311238703614,2.5116338896848394,-87968.04301758256,10.5,10499912031.956982,47.655,-122.3035,60.0,10.683333333333334
2026-01-20T23:10:42+00:00,SAT-66120,332.2799238614018,66.05701474777551,823.0360600696737,2.5645044867061193,-89819.79496767143,10.5,10499910180.205032,47.655,-122.3035,60.0,10.7
2026-01-20T23:10:43+00:00,SAT-66120,333.0237347555434,65.68776503551939,825.5937258777486,2.616882225951908,-91654.2849536763,10.5,10499908345.715046,47.655,-122.3035,60.0,10.716666666666667
2026-01-20T23:10:44+00:00,SAT-66120,333.7413961000847,65.31693911242482,828.203629751098,2.668763267516289,-93471.37848584916,10.5,10499906528.621513,47.655,-122.3035,60.0,10.733333333333333
2026-01-20T23:10:45+00:00,SAT-66120,334.433995186577,64.94479195635816,830.8652763165676,2.720144182970177,-95270.95548610119,10.5,10499904729.044514,47.655,-122.3035,60.0,10.75
2026-01-20T23:10:46+00:00,SAT-66120,335.1025777829117,64.57156367383635,833.5781667817165,2.771021882497978,-97052.9077360204,10.5,10499902947.092264,47.655,-122.3035,60.0,10.766666666666667
2026-01-20T23:10:47+00:00,SAT-66120,335.7481481803365,64.19748028416707,836.3417992725279,2.8213936317628616,-98817.13946756475,10.5,10499901182.860533,47.655,-122.3035,60.0,10.783333333333333
2026-01-20T23:10:48+00:00,SAT-66120,336.3716695770278,63.82275446950128,839.1556691879392,2.8712570464569938,-100563.5671721883,10.5,10499899436.432827,47.655,-122.3035,60.0,10.8
2026-01-20T23:10:49+00:00,SAT-66120,336.9740647258456,63.44758629250613,842.0192695489391,2.9206100998477114,-102292.11986514006,10.5,10499897707.880135,47.655,-122.3035,60.0,10.816666666666666
2026-01-20T23:10:50+00:00,SAT-66120,337.5562167929742,63.07216387920031,844.9320913551871,2.9694510633868316,-104002.737005351,10.5,10499895997.262995,47.655,-122.3035,60.0,10.833333333333334
2026-01-20T23:10:51+00:00,SAT-66120,338.1189703665903,62.69666407533913,847.893623882405,3.0177785692749213,-105695.3706866991,10.5,10499894304.629313,47.655,-122.3035,60.0,10.85
2026-01-20T23:10:52+00:00,SAT-66120,338.6631326008754,62.32125306075494,850.9033550421618,3.065591537846601,-107369.98309473587,10.5,10499892630.016905,47.655,-122.3035,60.0,10.866666666666667
2026-01-20T23:10:53+00:00,SAT-66120,339.1894744344847,61.946086939680754,853.9607716692408,3.1128892032651203,-109026.54740661876,10.5,10499890973.452593,47.655,-122.3035,60.0,10.883333333333333
2026-01-20T23:10:54+00:00,SAT-66120,339.6987318755484,61.57131229523581,857.0653598346306,3.1596711158008355,-110665.04787091333,10.5,10499889334.95213,47.655,-122.3035,60.0,10.9
2026-01-20T23:10:55+00:00,SAT-66120,340.1916073245526,61.197066712341424,860.2166051607892,3.2059370802798215,-112285.47765180313,10.5,10499887714.522348,47.655,-122.3035,60.0,10.916666666666666
2026-01-20T23:10:56+00:00,SAT-66120,340.66877090646534,60.823479277781594,863.4139930755217,3.251687207011687,-113887.84061279726,10.5,10499886112.159388,47.655,-122.3035,60.0,10.933333333333334
2026-01-20T23:10:57+00:00,SAT-66120,341.1308618151454,60.45067104515231,866.6570091166479,3.2969218717597712,-115472.14991471735,10.5,10499884527.850086,47.655,-122.3035,60.0,10.95
2026-01-20T23:10:58+00:00,SAT-66120,341.5784896426774,60.07875547700047,869.9451391967498,3.341641708238551,-117038.42775292494,10.5,10499882961.572247,47.655,-122.3035,60.0,10.966666666666667
2026-01-20T23:10:59+00:00,SAT-66120,342.01223568943715,59.7078388614977,873.277869860433,3.3858475933818712,-118586.70484135278,10.5,10499881413.295158,47.655,-122.3035,60.0,10.983333333333333
2026-01-20T23:11:00+00:00,SAT-66120,342.43265424630977,59.338020705791116,876.6546885268992,3.429540662987476,-120117.02096044224,10.5,10499879882.97904,47.655,-122.3035,60.0,11.0
2026-01-20T23:11:01+00:00,SAT-66120,342.8402738468591,58.96939410403611,880.0750837481187,3.4727222719302637,-121629.42356364337,10.5,10499878370.576437,47.655,-122.3035,60.0,11.016666666666667
2026-01-20T23:11:02+00:00,SAT-66120,343.23559847795065,58.60204608752811,883.5385454273238,3.5153940124052094,-123123.96841635923,10.5,10499876876.031584,47.655,-122.3035,60.0,11.033333333333333
2026-01-20T23:11:03+00:00,SAT-66120,343.61910875298634,58.23605795180833,887.0445650556959,3.55755767434252,-124600.718209517,10.5,10499875399.28179,47.655,-122.3035,60.0,11.05
2026-01-20T23:11:04+00:00,SAT-66120,343.99126303871,57.87150556814406,890.5926359095736,3.5992152546079246,-126059.74288180128,10.5,10499873940.257118,47.655,-122.3035,60.0,11.066666666666666
2026-01-20T23:11:05+00:00,SAT-66120,344.35249854002313,57.50845967529347,894.1822532568359,3.64036897394241,-127501.12021295514,10.5,10499872498.879787,47.655,-122.3035,60.0,11.083333333333334
2026-01-20T23:11:06+00:00,SAT-66120,344.70323234238117,57.14698615209769,897.8129145801811,3.681021209717246,-128924.93346857674,10.5,10499871075.066532,47.655,-122.3035,60.0,11.1
2026-01-20T23:11:07+00:00,SAT-66120,345.04386240318695,56.78714628037467,901.4841197333391,3.721174511372559,-130331.27194084338,10.5,10499869668.72806,47.655,-122.3035,60.0,11.116666666666667
2026-01-20T23:11:08+00:00,SAT-66120,345.3747685014586,56.428996990559206,905.1953711126813,3.760831630876337,-131720.23201531486,10.5,10499868279.767984,47.655,-122.3035,60.0,11.133333333333333
2026-01-20T23:11:09+00:00,SAT-66120,345.696313146952,56.072591089879346,908.9461738592086,3.7999954604769175,-133091.91499076216,10.5,10499866908.085009,47.655,-122.3035,60.0,11.15
2026-01-20T23:11:10+00:00,SAT-66120,346.00884244126195,55.717977482903606,912.7360359984576,3.838669037400711,-134446.4272437016,10.5,10499865553.572756,47.655,-122.3035,60.0,11.166666666666666
2026-01-20T23:11:11+00:00,SAT-66120,346.3126868985471,55.36520137863084,916.5644685850918,3.876855559167784,-135783.88076481142,10.5,10499864216.119236,47.655,-122.3035,60.0,11.183333333333334
2026-01-20T23:11:12+00:00,SAT-66120,346.608162227659,55.01430448406786,920.4309858627686,3.9145583595119047,-137104.39231554983,10.5,10499862895.607685,47.655,-122.3035,60.0,11.2
2026-01-20T23:11:13+00:00,SAT-66120,346.89557007370024,54.66532518872143,924.3351053999885,3.9517808801251673,-138408.08243853238,10.5,10499861591.91756,47.655,-122.3035,60.0,11.216666666666667
2026-01-20T23:11:14+00:00,SAT-66120,347.17519872058784,54.31829874088475,928.2763481977667,3.9885267025148674,-139695.07657329427,10.5,10499860304.923428,47.655,-122.3035,60.0,11.233333333333333
2026-01-20T23:11:15+00:00,SAT-66120,347.4473237605048,53.97325741099787,932.2542388290748,4.0247995213339,-140965.50412220828,10.5,10499859034.495878,47.655,-122.3035,60.0,11.25
2026-01-20T23:11:16+00:00,SAT-66120,347.7122087273111,53.63023064798292,936.2683055516852,4.060603115700395,-142219.49744597694,10.5,10499857780.502554,47.655,-122.3035,60.0,11.266666666666667
2026-01-20T23:11:17+00:00,SAT-66120,347.9701056956032,53.28924522909211,940.3180803924104,4.09594139028818,-143457.19330279448,10.5,10499856542.806698,47.655,-122.3035,60.0,11.283333333333333
2026-01-20T23:11:18+00:00,SAT-66120,348.2212558516024,52.9503253978714,944.4030992723244,4.13081831637074,-144678.73078345676,10.5,10499855321.269217,47.655,-122.3035,60.0,11.3
2026-01-20T23:11:19+00:00,SAT-66120,348.4658900306594,52.613492999221386,948.5229020731848,4.16523795667812,-145884.25218195535,10.5,10499854115.747818,47.655,-122.3035,60.0,11.316666666666666
2026-01-20T23:11:20+00:00,SAT-66120,348.7042292284429,52.27876760489079,952.6770327286451,4.199204472053591,-147073.90322862193,10.5,10499852926.096771,47.655,-122.3035,60.0,11.333333333333334
2026-01-20T23:11:21+00:00,SAT-66120,348.93648508573995,51.94616663150653,956.8650393221067,4.232722067228376,-148247.83119092992,10.5,10499851752.16881,47.655,-122.3035,60.0,11.35
2026-01-20T23:11:22+00:00,SAT-66120,349.16286034485336,51.615705456353155,961.086474130489,4.265795011117282,-149406.18558433335,10.5,10499850593.814415,47.655,-122.3035,60.0,11.366666666666667
2026-01-20T23:11:23+00:00,SAT-66120,349.38354928335417,51.287397525195054,965.3408936882433,4.29842766100996,-150549.1190195471,10.5,10499849450.88098,47.655,-122.3035,60.0,11.383333333333333
2026-01-20T23:11:24+00:00,SAT-66120,349.59873812636374,50.961254452408475,969.6278588754906,4.330624401581734,-151676.78506644824,10.5,10499848323.214933,47.655,-122.3035,60.0,11.4
2026-01-20T23:11:25+00:00,SAT-66120,349.8086054340427,50.63728612027638,973.9469349453348,4.362389670320989,-152789.3391446505,10.5,10499847210.660856,47.655,-122.3035,60.0,11.416666666666666
2026-01-20T23:11:26+00:00,SAT-66120,350.0133224702144,50.31550077102741,978.2976915765349,4.393727960436174,-153886.93862532004,10.5,10499846113.061375,47.655,-122.3035,60.0,11.433333333333334
2026-01-20T23:11:27+00:00,SAT-66120,350.21305355179254,49.99590509373376,982.6797029290766,4.424643777362498,-154969.74130785582,10.5,10499845030.258692,47.655,-122.3035,60.0,11.45
2026-01-20T23:11:28+00:00,SAT-66120,350.4079563779806,49.67850430970498,987.0925476563662,4.455141688670491,-156037.90716789867,10.5,10499843962.092833,47.655,-122.3035,60.0,11.466666666666667
2026-01-20T23:11:29+00:00,SAT-66120,350.598182344624,49.36330224979541,991.5358089672001,4.485226259322125,-157091.59608972655,10.5,10499842908.40391,47.655,-122.3035,60.0,11.483333333333333
2026-01-20T23:11:30+00:00,SAT-66120,350.7838768393412,49.05030143216866,996.0090746231641,4.514902104097358,-158130.96970245414,10.5,10499841869.030298,47.655,-122.3035,60.0,11.5
2026-01-20T23:11:31+00:00,SAT-66120,350.9651795236715,48.739503132335415,1000.5119369883172,4.544173837193981,-159156.18961480612,10.5,10499840843.810385,47.655,-122.3035,60.0,11.516666666666667
2026-01-20T23:11:32+00:00,SAT-66120,351.14222459849685,48.43090745296857,1005.043993028612,4.5730461071733215,-160167.41863906354,10.5,10499839832.581362,47.655,-122.3035,60.0,11.533333333333333
2026-01-20T23:11:33+00:00,SAT-66120,351.3151410572481,48.12451338771923,1009.6048443461663,4.601523545543136,-161164.81899021936,10.5,10499838835.18101,47.655,-122.3035,60.0,11.55
2026-01-20T23:11:34+00:00,SAT-66120,351.48405292409956,47.82031888512212,1014.1940971622545,4.6296108144515005,-162148.5539564199,10.5,10499837851.446043,47.655,-122.3035,60.0,11.566666666666666
2026-01-20T23:11:35+00:00,SAT-66120,351.64907948182645,47.5183209060572,1018.8113623478674,4.657312578440453,-163118.78690965855,10.5,10499836881.21309,47.655,-122.3035,60.0,11.583333333333334
2026-01-20T23:11:36+00:00,SAT-66120,351.81033548696325,47.218515480089,1023.4562554260988,4.6846334876756455,-164075.68071840648,10.5,10499835924.319283,47.655,-122.3035,60.0,11.6
2026-01-20T23:11:37+00:00,SAT-66120,351.96793137347953,46.920897759966074,1028.1283965578073,4.711578178860495,-165019.39777963058,10.5,10499834980.60222,47.655,-122.3035,60.0,11.616666666666667
2026-01-20T23:11:38+00:00,SAT-66120,352.1219734462439,46.625462073231915,1032.8274105281907,4.738151335483854,-165950.1021289217,10.5,10499834049.897871,47.655,-122.3035,60.0,11.633333333333333
2026-01-20T23:11:39+00:00,SAT-66120,352.2725640667313,46.332201967494655,1037.5529267934467,4.764357566381546,-166867.95518720563,10.5,10499833132.044813,47.655,-122.3035,60.0,11.65
2026-01-20T23:11:40+00:00,SAT-66120,352.4198018254303,46.041110260812296,1042.304579406318,4.790201500681333,-167773.1190861179,10.5,10499832226.880915,47.655,-122.3035,60.0,11.666666666666666
2026-01-20T23:11:41+00:00,SAT-66120,352.56378170878537,45.75217908374015,1047.0820070363307,4.815687747895095,-168665.75527026266,10.5,10499831334.24473,47.655,-122.3035,60.0,11.683333333333334
2026-01-20T23:11:42+00:00,SAT-66120,352.70459525654115,45.46539992163809,1051.8848529502313,4.840820920974342,-169546.0253047146,10.5,10499830453.974695,47.655,-122.3035,60.0,11.7
2026-01-20T23:11:43+00:00,SAT-66120,352.8423307119999,45.18076365348321,1056.7127650154166,4.865605567525848,-170414.0884658993,10.5,10499829585.911533,47.655,-122.3035,60.0,11.716666666666667
2026-01-20T23:11:44+00:00,SAT-66120,352.97707316290905,44.89826059269755,1061.5653956347624,4.890046238336568,-171270.10414162578,10.5,10499828729.895859,47.655,-122.3035,60.0,11.733333333333333
2026-01-20T23:11:45+00:00,SAT-66120,353.1089046774559,44.61788052195244,1066.4424017497968,4.914147479294352,-172114.23154811552,10.5,10499827885.768452,47.655,-122.3035,60.0,11.75
2026-01-20T23:11:46+00:00,SAT-66120,353.23790443334946,44.33961272669415,1071.3434448358128,4.9379137699481,-172946.62757811954,10.5,10499827053.372421,47.655,-122.3035,60.0,11.766666666666667
2026-01-20T23:11:47+00:00,SAT-66120,353.364148839026,44.063446030409274,1076.2681908357079,4.9613495986188445,-173767.449431626,10.5,10499826232.550568,47.655,-122.3035,60.0,11.783333333333333
2026-01-20T23:11:48+00:00,SAT-66120,353.4877116509903,43.78936882393874,1081.2163101687304,4.984459395034833,-174576.85225645584,10.5,10499825423.147743,47.655,-122.3035,60.0,11.8
2026-01-20T23:11:49+00:00,SAT-66120,353.6086640838162,43.51736909700054,1086.1874776720451,5.007247565344056,-175374.99037454964,10.5,10499824625.009626,47.655,-122.3035,60.0,11.816666666666666
2026-01-20T23:11:50+00:00,SAT-66120,353.72707491577927,43.24743446621029,1091.181372577215,5.029718504459927,-176162.0177143657,10.5,10499823837.982286,47.655,-122.3035,60.0,11.833333333333334
2026-01-20T23:11:51+00:00,SAT-66120,353.843010589782,42.97955220104524,1096.197678498996,5.051876560357956,-176938.0865603982,10.5,10499823061.913439,47.655,-122.3035,60.0,11.85
2026-01-20T23:11:52+00:00,SAT-66120,353.9565353086245,42.71370925037703,1101.2360833885266,5.0737260027751185,-177703.346456897,10.5,10499822296.653543,47.655,-122.3035,60.0,11.866666666666667
2026-01-20T23:11:53+00:00,SAT-66120,354.06771112516304,42.449892269260864,1106.2962794552943,5.095271132675196,-178457.9480418068,10.5,10499821542.051958,47.655,-122.3035,60.0,11.883333333333333
2026-01-20T23:11:54+00:00,SAT-66120,354.1765980307161,42.18808763874705,1111.3779631982823,5.116516205621426,-179202.0403629533,10.5,10499820797.959637,47.655,-122.3035,60.0,11.9
2026-01-20T23:11:55+00:00,SAT-66120,354.2832540376049,41.92828148861479,1116.4808353606888,5.137465360030613,-179935.76836519828,10.5,10499820064.231634,47.655,-122.3035,60.0,11.916666666666666
2026-01-20T23:11:56+00:00,SAT-66120,354.3877352564088,41.67045972250154,1121.6046008130927,5.158122798778467,-180659.2792510274,10.5,10499819340.720749,47.655,-122.3035,60.0,11.933333333333334
2026-01-20T23:11:57+00:00,SAT-66120,354.4900959735175,41.41460803276643,1126.748968617741,5.178492610071204,-181372.71620671538,10.5,10499818627.283792,47.655,-122.3035,60.0,11.95
2026-01-20T23:11:58+00:00,SAT-66120,354.5903887213767,41.16071192337725,1131.9136519141853,5.19857888486565,-182076.222514875,10.5,10499817923.777485,47.655,-122.3035,60.0,11.966666666666667
2026-01-20T23:11:59+00:00,SAT-66120,354.6886643479791,40.9087567259367,1137.0983679220249,5.218385636531132,-182769.9387406767,10.5,10499817230.06126,47.655,-122.3035,60.0,11.983333333333333
2026-01-20T23:12:00+00:00,SAT-66120,354.784972081599,40.65872761872603,1142.3028378635252,5.237916867127567,-183454.00505318737,10.5,10499816545.994947,47.655,-122.3035,60.0,12.0
2026-01-20T23:12:01+00:00,SAT-66120,354.8793595939141,40.41060964164029,1147.5267869523402,5.25717651301501,-184128.55932038694,10.5,10499815871.44068,47.655,-122.3035,60.0,12.016666666666667
2026-01-20T23:12:02+00:00,SAT-66120,354.97187305927616,40.164387712894154,1152.7699443279873,5.276168489568999,-184793.73867528877,10.5,10499815206.261324,47.655,-122.3035,60.0,12.033333333333333
2026-01-20T23:12:03+00:00,SAT-66120,355.0625572121726,39.92004664279996,1158.0320430349175,5.294896641168164,-185449.67776429426,10.5,10499814550.322235,47.655,-122.3035,60.0,12.05
2026-01-20T23:12:04+00:00,SAT-66120,355.15145540124337,39.67757114911093,1163.3128199517091,5.313364772544406,-186096.50984520852,10.5,10499813903.490154,47.655,-122.3035,60.0,12.066666666666666
2026-01-20T23:12:05+00:00,SAT-66120,355.23860964152004,39.436945870146346,1168.6120157515268,5.331576687652811,-186734.3681486294,10.5,10499813265.631851,47.655,-122.3035,60.0,12.083333333333334
2026-01-20T23:12:06+00:00,SAT-66120,355.3240606649791,39.19815537549831,1173.929374901346,5.349536084358351,-187363.38218943015,10.5,10499812636.617811,47.655,-122.3035,60.0,12.1
2026-01-20T23:12:07+00:00,SAT-66120,355.4078479671777,38.961184180835765,1179.264645556146,5.3672466315015654,-187983.68046592566,10.5,10499812016.319534,47.655,-122.3035,60.0,12.116666666666667
2026-01-20T23:12:08+00:00,SAT-66120,355.4900098531463,38.726016758533866,1184.6175795299635,5.3847119855049,-188595.39104149662,10.5,10499811404.60896,47.655,-122.3035,60.0,12.133333333333333
2026-01-20T23:12:09+00:00,SAT-66120,355.5705834815629,38.49263754704535,1189.987932283507,5.401935729834835,-189198.6394242972,10.5,10499810801.360577,47.655,-122.3035,60.0,12.15
2026-01-20T23:12:10+00:00,SAT-66120,355.64960490606705,38.26103096235159,1195.3754628513957,5.418921393863955,-189793.54922788462,10.5,10499810206.450771,47.655,-122.3035,60.0,12.166666666666666
2026-01-20T23:12:11+00:00,SAT-66120,355.72710911514497,38.03118140799846,1200.7799337882093,5.435672483429696,-190380.24324151545,10.5,10499809619.756758,47.655,-122.3035,60.0,12.183333333333334
2026-01-20T23:12:12+00:00,SAT-66120,355.8031300707787,37.80307328330905,1206.2011111450165,5.452192455356269,-190958.84253779604,10.5,10499809041.157463,47.655,-122.3035,60.0,12.2
2026-01-20T23:12:13+00:00,SAT-66120,355.8777007450842,37.576690992214424,1211.638764420492,5.468484715861144,-191529.46641687033,10.5,10499808470.533583,47.655,-122.3035,60.0,12.216666666666667
2026-01-20T23:12:14+00:00,SAT-66120,355.95085315539,37.3520189516556,1217.0926665104441,5.484552617066874,-192092.2322842497,10.5,10499807907.767715,47.655,-122.3035,60.0,12.233333333333333
2026-01-20T23:12:15+00:00,SAT-66120,356.02261839784416,37.129041599666,1222.5625936538654,5.500399465717579,-192647.25595610074,10.5,10499807352.744043,47.655,-122.3035,60.0,12.25
2026-01-20T23:12:16+00:00,SAT-66120,356.0930266797218,36.90774340265092,1228.0483253876744,5.516028565502726,-193194.6531416031,10.5,10499806805.346859,47.655,-122.3035,60.0,12.266666666666667
2026-01-20T23:12:17+00:00,SAT-66120,356.1621073509847,36.688108860593545,1233.5496445436693,5.531443128523714,-193734.53634213508,10.5,10499806265.463657,47.655,-122.3035,60.0,12.283333333333333
2026-01-20T23:12:18+00:00,SAT-66120,356.22988893336344,36.470122515420236,1239.0663371571834,5.546646313194373,-194267.01617870893,10.5,10499805732.983822,47.655,-122.3035,60.0,12.3
2026-01-20T23:12:19+00:00,SAT-66120,356.29639914878646,36.25376895742561,1244.5981924135426,5.561641284489141,-194792.2035021174,10.5,10499805207.796497,47.655,-122.3035,60.0,12.316666666666666
2026-01-20T23:12:20+00:00,SAT-66120,356.3616649473974,36.03903282901603,1250.1450026546065,5.57643112691373,-195310.20634479792,10.5,10499804689.793655,47.655,-122.3035,60.0,12.333333333333334
2026-01-20T23:12:21+00:00,SAT-66120,356.42571253335814,35.82589883153515,1255.706563298515,5.591018893537919,-195821.13163816865,10.5,10499804178.868362,47.655,-122.3035,60.0,12.35
2026-01-20T23:12:22+00:00,SAT-66120,356.4885673902269,35.614351729839655,1261.2826728083369,5.6054075674620805,-196325.08386302317,10.5,10499803674.916138,47.655,-122.3035,60.0,12.366666666666667
2026-01-20T23:12:23+00:00,SAT-66120,356.5502543048837,35.404376358043606,1266.8731326222858,5.619600152972232,-196822.16824216588,10.5,10499803177.831758,47.655,-122.3035,60.0,12.383333333333333
2026-01-20T23:12:24+00:00,SAT-66120,356.61079739153274,35.1959576215525,1272.47774717485,5.633599532199705,-197312.48572002738,10.5,10499802687.51428,47.655,-122.3035,60.0,12.4
2026-01-20T23:12:25+00:00,SAT-66120,356.67022011316226,34.98908050418852,1278.0963237749638,5.647408596050246,-197796.1375483555,10.5,10499802203.862452,47.655,-122.3035,60.0,12.416666666666666
2026-01-20T23:12:26+00:00,SAT-66120,356.7285453036039,34.78373007016279,1283.728672614758,5.661030189211078,-198273.22336012975,10.5,10499801726.77664,47.655,-122.3035,60.0,12.433333333333334
2026-01-20T23:12:27+00:00,SAT-66120,356.78579518814337,34.579891467876,1289.3746067234645,5.674467085083217,-198743.84029158525,10.5,10499801256.159708,47.655,-122.3035,60.0,12.45
2026-01-20T23:12:28+00:00,SAT-66120,356.8419914030579,34.37754993435333,1295.0339418963208,5.687722055217504,-199208.08541415608,10.5,10499800791.914585,47.655,-122.3035,60.0,12.466666666666667
2026-01-20T23:12:29+00:00,SAT-66120,356.8971550151266,34.17669079697943,1300.7064966927246,5.700797794741491,-199666.05312260942,10.5,10499800333.946877,47.655,-122.3035,60.0,12.483333333333333
2026-01-20T23:12:30+00:00,SAT-66120,356.9513065396409,33.977299477668296,1306.392092360013,5.713696969098366,-200117.8367720406,10.5,10499799882.163227,47.655,-122.3035,60.0,12.5
2026-01-20T23:12:31+00:00,SAT-66120,357.00446595819585,33.77936149517381,1312.0905528038606,5.7264222270307155,-200563.52913261918,10.5,10499799436.470867,47.655,-122.3035,60.0,12.516666666666667
2026-01-20T23:12:32+00:00,SAT-66120,357.0566527359126,33.582862466783574,1317.8017045716194,5.738976158622144,-201003.22092002898,10.5,10499798996.77908,47.655,-122.3035,60.0,12.533333333333333
2026-01-20T23:12:33+00:00,SAT-66120,357.1078858376317,33.38778811129198,1323.5253767938186,5.7513612799853755,-201437.0002591808,10.5,10499798562.99974,47.655,-122.3035,60.0,12.55
2026-01-20T23:12:34+00:00,SAT-66120,357.15818374334236,33.1941242522699,1329.2614011103906,5.763580146531993,-201864.95665139754,10.5,10499798135.043348,47.655,-122.3035,60.0,12.566666666666666
2026-01-20T23:12:35+00:00,SAT-66120,357.2075644641002,33.001856817379135,1335.009611709865,5.775635206866363,-202287.17585716187,10.5,10499797712.824142,47.655,-122.3035,60.0,12.583333333333334
2026-01-20T23:12:36+00:00,SAT-66120,357.25604555599625,32.810971842447195,1340.7698452228467,5.787528900862147,-202703.7433311699,10.5,10499797296.256668,47.655,-122.3035,60.0,12.6
2026-01-20T23:12:37+00:00,SAT-66120,357.30364413451616,32.62145547209951,1346.5419407133065,5.799263620682352,-203114.74285708915,10.5,10499796885.257143,47.655,-122.3035,60.0,12.616666666666667
2026-01-20T23:12:38+00:00,SAT-66120,357.35037688801617,32.43329396155414,1352.3257396310003,5.8108417415360245,-203520.2576247874,10.5,10499796479.742374,47.655,-122.3035,60.0,12.633333333333333
2026-01-20T23:12:39+00:00,SAT-66120,357.3962600909723,32.246473677296336,1358.1210857945587,5.822265571983766,-203920.36848982217,10.5,10499796079.63151,47.655,-122.3035,60.0,12.65
2026-01-20T23:12:40+00:00,SAT-66120,357.44130961631976,32.06098109922591,1363.9278253250172,5.83353739433332,-204315.15538826486,10.5,10499795684.844612,47.655,-122.3035,60.0,12.666666666666666
2026-01-20T23:12:41+00:00,SAT-66120,357.4855409477136,31.876802821377975,1369.7458066196325,5.844659484878163,-204704.69804554156,10.5,10499795295.301954,47.655,-122.3035,60.0,12.683333333333334
2026-01-20T23:12:42+00:00,SAT-66120,357.5289691914593,31.693925551926856,1375.5748803458841,5.855634035186444,-205089.0732196394,10.5,10499794910.92678,47.655,-122.3035,60.0,12.7
2026-01-20T23:12:43+00:00,SAT-66120,357.57160908744186,31.512336115546738,1381.4148993569768,5.866463246168419,-205468.3579957452,10.5,10499794531.642004,47.655,-122.3035,60.0,12.716666666666667
2026-01-20T23:12:44+00:00,SAT-66120,357.6134750203593,31.332021452734846,1387.2657187011555,5.877149240360496,-205842.62671406232,10.5,10499794157.373285,47.655,-122.3035,60.0,12.733333333333333
2026-01-20T23:12:45+00:00,SAT-66120,357.65458102992227,31.152968621759914,1393.1271955435418,5.887694160330565,-206211.95441638137,10.5,10499793788.045584,47.655,-122.3035,60.0,12.75
2026-01-20T23:12:46+00:00,SAT-66120,357.6949408214024,30.975164797511745,1398.9991891861114,5.898100061204769,-206576.41308191305,10.5,10499793423.586918,47.655,-122.3035,60.0,12.766666666666667
2026-01-20T23:12:47+00:00,SAT-66120,357.7345677750344,30.798597273538828,1404.8815609804863,5.908369014133415,-206936.07525110204,10.5,10499793063.92475,47.655,-122.3035,60.0,12.783333333333333
2026-01-20T23:12:48+00:00,SAT-66120,357.7734749558366,30.623253460885348,1410.7741743439153,5.918502999197639,-207291.01027476552,10.5,10499792708.989725,47.655,-122.3035,60.0,12.8
2026-01-20T23:12:49+00:00,SAT-66120,357.81167512233156,30.449120890054928,1416.6768946684485,5.928504027332859,-207641.28858436798,10.5,10499792358.711416,47.655,-122.3035,60.0,12.816666666666666
2026-01-20T23:12:50+00:00,SAT-66120,357.84918073581116,30.276187209287457,1422.5895893517084,5.938374040239455,-207986.9781864702,10.5,10499792013.021814,47.655,-122.3035,60.0,12.833333333333334
2026-01-20T23:12:51+00:00,SAT-66120,357.88600396860096,30.104440185749155,1428.5121277278406,5.948114956146441,-208328.14626556623,10.5,10499791671.853735,47.655,-122.3035,60.0,12.85
