satellites_20260121_005943/SAT-53536.csv

timestamp,satellite,azimuth_deg,elevation_deg,distance_km,relative_velocity_kms,doppler_shift_hz,tx_freq_ghz,rx_freq_hz,ue_lat,ue_lon,ue_alt_m,time_minutes
2026-01-20T23:00:00+00:00,SAT-53536,170.52322685837638,48.51248265947527,704.7421452817769,-2.9955141283647553,104915.57578753342,10.5,10500104915.575787,47.655,-122.3035,60.0,0.0
2026-01-20T23:00:01+00:00,SAT-53536,170.32815917852403,49.039762755421414,701.7546191910877,-2.9385379839335632,102920.03020070109,10.5,10500102920.030201,47.655,-122.3035,60.0,0.016666666666666666
2026-01-20T23:00:02+00:00,SAT-53536,170.1277902843144,49.571010539011546,698.8239173084447,-2.880839121418466,100899.17196947594,10.5,10500100899.17197,47.655,-122.3035,60.0,0.03333333333333333
2026-01-20T23:00:03+00:00,SAT-53536,169.92187806586247,50.106177827531425,695.9507604246834,-2.8224198910150777,98853.08340764968,10.5,10500098853.083408,47.655,-122.3035,60.0,0.05
2026-01-20T23:00:04+00:00,SAT-53536,169.7101656990146,50.64521194568426,693.1358669867109,-2.7632832824420603,96781.86922781638,10.5,10500096781.869228,47.655,-122.3035,60.0,0.06666666666666667
2026-01-20T23:00:05+00:00,SAT-53536,169.49238053152249,51.1880555644645,690.3799524596888,-2.703432974486069,94685.65827664592,10.5,10500094685.658278,47.655,-122.3035,60.0,0.08333333333333333
2026-01-20T23:00:06+00:00,SAT-53536,169.2682328662753,51.734646541762686,687.6837286398013,-2.6428733334824304,92564.60348167105,10.5,10500092564.603481,47.655,-122.3035,60.0,0.1
2026-01-20T23:00:07+00:00,SAT-53536,169.03741463451405,52.28491775466507,685.0479029685415,-2.5816094216668457,90418.88214379923,10.5,10500090418.882143,47.655,-122.3035,60.0,0.11666666666666667
2026-01-20T23:00:08+00:00,SAT-53536,168.7995979469783,52.83879692465583,682.4731778386658,-2.519647050395527,88248.69780130705,10.5,10500088248.697802,47.655,-122.3035,60.0,0.13333333333333333
2026-01-20T23:00:09+00:00,SAT-53536,168.55443350543425,53.396206444329195,679.9602498470713,-2.456992760337843,86054.27953610277,10.5,10500086054.279535,47.655,-122.3035,60.0,0.15
2026-01-20T23:00:10+00:00,SAT-53536,168.3015488662286,53.95706319043486,677.5098090674277,-2.393653862240497,83835.88340146042,10.5,10500083835.883402,47.655,-122.3035,60.0,0.16666666666666666
2026-01-20T23:00:11+00:00,SAT-53536,168.04054653360836,54.521278334742746,675.1225382821532,-2.32963842776382,81593.79210106783,10.5,10500081593.7921,47.655,-122.3035,60.0,0.18333333333333332
2026-01-20T23:00:12+00:00,SAT-53536,167.77100186896968,55.08875714135385,672.7991122235301,-2.264955309996691,79328.3157075461,10.5,10500079328.315708,47.655,-122.3035,60.0,0.2
2026-01-20T23:00:13+00:00,SAT-53536,167.49246079212386,55.65939875539686,670.5401967943601,-2.1996141809798053,77039.79297667307,10.5,10500077039.792976,47.655,-122.3035,60.0,0.21666666666666667
2026-01-20T23:00:14+00:00,SAT-53536,167.20443724818912,56.23309598677337,668.3464482511962,-2.1336254943896376,74728.59004041787,10.5,10500074728.59004,47.655,-122.3035,60.0,0.23333333333333334
2026-01-20T23:00:15+00:00,SAT-53536,166.90641042252412,56.80973506909919,666.2185124247916,-2.0670005137690293,72395.10139569557,10.5,10500072395.101397,47.655,-122.3035,60.0,0.25
2026-01-20T23:00:16+00:00,SAT-53536,166.59782166613923,57.389195407369265,664.1570239123926,-1.9997513331276275,70039.75062588163,10.5,10500070039.750626,47.655,-122.3035,60.0,0.26666666666666666
2026-01-20T23:00:17+00:00,SAT-53536,166.27807109749742,57.97134931108486,662.1626052494867,-1.9318908613744772,67662.98985557539,10.5,10500067662.989855,47.655,-122.3035,60.0,0.2833333333333333
2026-01-20T23:00:18+00:00,SAT-53536,165.94651384746544,58.55606170099902,660.2358660970758,-1.8634328286843613,65265.299973576366,10.5,10500065265.299974,47.655,-122.3035,60.0,0.3
2026-01-20T23:00:19+00:00,SAT-53536,165.60245590104807,59.14318979154262,658.3774024226012,-1.7943917751515406,62847.1902354901,10.5,10500062847.190235,47.655,-122.3035,60.0,0.31666666666666665
2026-01-20T23:00:20+00:00,SAT-53536,165.24514948994224,59.73258274036413,656.5877956921835,-1.724783070152422,60409.19894189076,10.5,10500060409.198942,47.655,-122.3035,60.0,0.3333333333333333
2026-01-20T23:00:21+00:00,SAT-53536,164.87378797449855,60.32408126982638,654.8676120435514,-1.6546228973815305,57951.89291421758,10.5,10500057951.892914,47.655,-122.3035,60.0,0.35
2026-01-20T23:00:22+00:00,SAT-53536,164.48750015782085,60.917517245908535,653.2174014738962,-1.583928226564383,55475.86650404001,10.5,10500055475.866505,47.655,-122.3035,60.0,0.36666666666666664
2026-01-20T23:00:23+00:00,SAT-53536,164.08534396496566,61.51271320251065,651.6376970559361,-1.5127168376437907,52981.742440164395,10.5,10500052981.74244,47.655,-122.3035,60.0,0.38333333333333336
2026-01-20T23:00:24+00:00,SAT-53536,163.66629939459426,62.109481822673786,650.1290141298592,-1.4410072792679613,50470.17037471168,10.5,10500050470.170374,47.655,-122.3035,60.0,0.4
2026-01-20T23:00:25+00:00,SAT-53536,163.22926066681,62.707625345677535,648.6918495366695,-1.368818870196109,47941.826932347794,10.5,10500047941.826933,47.655,-122.3035,60.0,0.4166666666666667
2026-01-20T23:00:26+00:00,SAT-53536,162.77302745402065,63.30693490546964,647.3266808501271,-1.2961716735604236,45397.414808829,10.5,10500045397.414808,47.655,-122.3035,60.0,0.43333333333333335
2026-01-20T23:00:27+00:00,SAT-53536,162.29629508534973,63.90718977910678,646.0339656343629,-1.223086484090954,42837.66232356326,10.5,10500042837.662323,47.655,-122.3035,60.0,0.45
2026-01-20T23:00:28+00:00,SAT-53536,161.7976435893697,64.5081565373788,644.8141407142296,-1.1495847865518687,40263.321963872164,10.5,10500040263.321964,47.655,-122.3035,60.0,0.4666666666666667
2026-01-20T23:00:29+00:00,SAT-53536,161.27552543880626,65.10958806878155,643.6676214871084,-1.0756887628858816,37675.1706352191,10.5,10500037675.170635,47.655,-122.3035,60.0,0.48333333333333334
2026-01-20T23:00:30+00:00,SAT-53536,160.72825181259046,65.71122248147557,642.5948012275903,-1.001421225940363,35074.00734001724,10.5,10500035074.00734,47.655,-122.3035,60.0,0.5
2026-01-20T23:00:31+00:00,SAT-53536,160.1539772220373,66.31278182679054,641.5960504582524,-0.9268056207864234,32460.653223829417,10.5,10500032460.653223,47.655,-122.3035,60.0,0.5166666666666667
2026-01-20T23:00:32+00:00,SAT-53536,159.55068226850545,66.91397065227277,640.6717163191214,-0.8518659713174669,29835.94970502361,10.5,10500029835.949705,47.655,-122.3035,60.0,0.5333333333333333
2026-01-20T23:00:33+00:00,SAT-53536,158.91615433524356,67.51447432664482,639.8221219903941,-0.7766268599083307,27200.757762349953,10.5,10500027200.757763,47.655,-122.3035,60.0,0.55
2026-01-20T23:00:34+00:00,SAT-53536,158.24796595427722,68.11395712084042,639.0475661354457,-0.7011133773412803,24555.956181137295,10.5,10500024555.95618,47.655,-122.3035,60.0,0.5666666666666667
2026-01-20T23:00:35+00:00,SAT-53536,157.54345060999637,68.71205998682213,638.3483223937772,-0.6253510958590542,21902.440609496818,10.5,10500021902.440609,47.655,-122.3035,60.0,0.5833333333333334
2026-01-20T23:00:36+00:00,SAT-53536,156.79967569628408,69.30839800222307,637.7246389008404,-0.5493660194011277,19241.121815385497,10.5,10500019241.121815,47.655,-122.3035,60.0,0.6
2026-01-20T23:00:37+00:00,SAT-53536,156.01341237723068,69.90255741193727,637.176737857491,-0.47318454365827367,16572.924287547867,10.5,10500016572.924288,47.655,-122.3035,60.0,0.6166666666666667
2026-01-20T23:00:38+00:00,SAT-53536,155.18110209545247,70.49409220872441,636.7048151392825,-0.39683341358259616,13898.784747337639,10.5,10500013898.784748,47.655,-122.3035,60.0,0.6333333333333333
2026-01-20T23:00:39+00:00,SAT-53536,154.29881951806442,71.08252018089057,636.309039948136,-0.32033967550801745,11219.650471774656,10.5,10500011219.650473,47.655,-122.3035,60.0,0.65
2026-01-20T23:00:40+00:00,SAT-53536,153.36223179777534,71.66731833853834,635.9895545117628,-0.24373063165215833,8536.47770000826,10.5,10500008536.4777,47.655,-122.3035,60.0,0.6666666666666666
2026-01-20T23:00:41+00:00,SAT-53536,152.36655414825242,72.24791762892318,635.7464738284617,-0.16703379063313875,5850.229900206351,10.5,10500005850.2299,47.655,-122.3035,60.0,0.6833333333333333
2026-01-20T23:00:42+00:00,SAT-53536,151.30650196314224,72.82369683104979,635.5798854612702,-0.09027681904601728,3161.8760735574656,10.5,10500003161.876074,47.655,-122.3035,60.0,0.7
2026-01-20T23:00:43+00:00,SAT-53536,150.17624002674168,73.3939755198854,635.4898493804084,-0.013487493011659626,472.38905730719245,10.5,10500000472.389057,47.655,-122.3035,60.0,0.7166666666666667
2026-01-20T23:00:44+00:00,SAT-53536,148.96932986019647,73.95800598193357,635.4763978540448,0.06330635396228994,-2217.256301371145,10.5,10499997782.743698,47.655,-122.3035,60.0,0.7333333333333333
2026-01-20T23:00:45+00:00,SAT-53536,147.67867699424994,74.51496395374183,635.5395353910632,0.14007687848979247,-4906.084809321057,10.5,10499995093.91519,47.655,-122.3035,60.0,0.75
2026-01-20T23:00:46+00:00,SAT-53536,146.29648096067413,75.0639380819715,635.6792387312103,0.21679628036227114,-7593.122785643417,10.5,10499992406.877214,47.655,-122.3035,60.0,0.7666666666666667
2026-01-20T23:00:47+00:00,SAT-53536,144.8141922368854,75.6039180294486,635.8954568881583,0.2934368500284079,-10277.39972463978,10.5,10499989722.600275,47.655,-122.3035,60.0,0.7833333333333333
2026-01-20T23:00:48+00:00,SAT-53536,143.2224824680486,76.13378116812632,636.1881112399199,0.3699710224656928,-12957.95018262192,10.5,10499987042.049818,47.655,-122.3035,60.0,0.8
2026-01-20T23:00:49+00:00,SAT-53536,141.51123678996785,76.65227795769634,636.5570956729924,0.44637141765669824,-15633.815195562165,10.5,10499984366.184805,47.655,-122.3035,60.0,0.8166666666666667
2026-01-20T23:00:50+00:00,SAT-53536,139.6695807684165,77.15801617775033,637.0022767668687,0.5226109033512986,-18304.0444772918,10.5,10499981695.955523,47.655,-122.3035,60.0,0.8333333333333334
2026-01-20T23:00:51+00:00,SAT-53536,137.68595855620634,77.64944449313465,637.5234940411444,0.5986626265398298,-20967.69752182429,10.5,10499979032.302479,47.655,-122.3035,60.0,0.85
2026-01-20T23:00:52+00:00,SAT-53536,135.54828431262672,78.1248360700506,638.1205602340134,0.6745000708632474,-23623.8456141018,10.5,10499976376.154387,47.655,-122.3035,60.0,0.8666666666666667
2026-01-20T23:00:53+00:00,SAT-53536,133.2441941388835,78.58227351886856,638.793261638021,0.7500970945813353,-26271.573159802512,10.5,10499973728.42684,47.655,-122.3035,60.0,0.8833333333333333
2026-01-20T23:00:54+00:00,SAT-53536,130.76143099334112,79.0196370018443,639.5413584736834,0.8254279800162638,-28909.979417063154,10.5,10499971090.020582,47.655,-122.3035,60.0,0.9
2026-01-20T23:00:55+00:00,SAT-53536,128.08839758946664,79.4345981682606,640.3645853124196,0.9004674704321928,-31538.179788158726,10.5,10499968461.820211,47.655,-122.3035,60.0,0.9166666666666666
2026-01-20T23:00:56+00:00,SAT-53536,125.21490983343844,79.82462346766555,641.2626515362641,0.9751908087356974,-34155.30717495509,10.5,10499965844.692825,47.655,-122.3035,60.0,0.9333333333333333
2026-01-20T23:00:57+00:00,SAT-53536,122.13317135784396,80.18699131047205,642.2352418361764,1.049573782770984,-36760.513565339024,10.5,10499963239.486435,47.655,-122.3035,60.0,0.95
2026-01-20T23:00:58+00:00,SAT-53536,118.83896326817367,80.51882820375215,643.2820167555268,1.1235927485833943,-39352.97084800458,10.5,10499960647.029152,47.655,-122.3035,60.0,0.9666666666666667
2026-01-20T23:00:59+00:00,SAT-53536,115.33299800200957,80.81716899331478,644.4026132567806,1.1972246816149241,-41931.87260553667,10.5,10499958068.127394,47.655,-122.3035,60.0,0.9833333333333333
2026-01-20T23:01:00+00:00,SAT-53536,111.62232112535914,81.07904520116554,645.5966453392446,1.2704471843840606,-44496.434383391446,10.5,10499955503.565617,47.655,-122.3035,60.0,1.0
2026-01-20T23:01:01+00:00,SAT-53536,107.72156833201781,81.30160254704545,646.8637046644703,1.3432385396179973,-47045.895550811256,10.5,10499952954.104448,47.655,-122.3035,60.0,1.0166666666666666
2026-01-20T23:01:02+00:00,SAT-53536,103.65381618806622,81.48224390112651,648.2033612346492,1.4155777158139564,-49579.519495605666,10.5,10499950420.480505,47.655,-122.3035,60.0,1.0333333333333334
2026-01-20T23:01:03+00:00,SAT-53536,99.45073834398875,81.61878741049475,649.6151640765544,1.4874444092051835,-52096.595093978074,10.5,10499947903.404905,47.655,-122.3035,60.0,1.05
2026-01-20T23:01:04+00:00,SAT-53536,95.15182884918893,81.70962282600746,651.098641967335,1.5588190468173793,-54596.43681757492,10.5,10499945403.563183,47.655,-122.3035,60.0,1.0666666666666667
2026-01-20T23:01:05+00:00,SAT-53536,90.80260107395749,81.75384433313683,652.6533041633609,1.6296828231316742,-57078.38601757814,10.5,10499942921.613983,47.655,-122.3035,60.0,1.0833333333333333
2026-01-20T23:01:06+00:00,SAT-53536,86.45189316855452,81.75133798067256,654.2786411656309,1.7000177029372678,-59541.81102461661,10.5,10499940458.188976,47.655,-122.3035,60.0,1.1
2026-01-20T23:01:07+00:00,SAT-53536,82.14864307575078,81.70280744666489,655.974125488027,1.7698064412322958,-61986.10784577878,10.5,10499938013.892155,47.655,-122.3035,60.0,1.1166666666666667
2026-01-20T23:01:08+00:00,SAT-53536,77.93864720579448,81.60973256256268,657.739212445416,1.8390325914954888,-64410.70045432108,10.5,10499935589.299545,47.655,-122.3035,60.0,1.1333333333333333
2026-01-20T23:01:09+00:00,SAT-53536,73.86182177096231,81.4742675968139,659.5733409500008,1.9076805224616182,-66815.041377215,10.5,10499933184.958622,47.655,-122.3035,60.0,1.15
2026-01-20T23:01:10+00:00,SAT-53536,69.95034189871807,81.29909671458643,661.4759343244025,1.9757354105201808,-69198.61142891693,10.5,10499930801.38857,47.655,-122.3035,60.0,1.1666666666666667
2026-01-20T23:01:11+00:00,SAT-53536,66.22780414270274,81.08726923645614,663.4464011071613,2.0431832507903938,-71560.92009926125,10.5,10499928439.0799,47.655,-122.3035,60.0,1.1833333333333333
2026-01-20T23:01:12+00:00,SAT-53536,62.709332399293764,80.84203658429534,665.4841358692829,2.1100108696037116,-73901.50599065094,10.5,10499926098.494009,47.655,-122.3035,60.0,1.2
2026-01-20T23:01:13+00:00,SAT-53536,59.40239505500379,80.56670763778553,667.5885200432343,2.176205900143324,-76219.93596484973,10.5,10499923780.064035,47.655,-122.3035,60.0,1.2166666666666666
2026-01-20T23:01:14+00:00,SAT-53536,56.308045501773165,80.26453218393374,669.758922727644,2.2417568056808572,-78515.80595682964,10.5,10499921484.194044,47.655,-122.3035,60.0,1.2333333333333334
2026-01-20T23:01:15+00:00,SAT-53536,53.422321472339775,79.9386155075088,671.9947015151763,2.306652855850511,-80788.74014379097,10.5,10499919211.259855,47.655,-122.3035,60.0,1.25
2026-01-20T23:01:16+00:00,SAT-53536,50.737605775202056,79.59186231704619,674.2952032967446,2.370884126573083,-83038.3909425012,10.5,10499916961.609058,47.655,-122.3035,60.0,1.2666666666666666
2026-01-20T23:01:17+00:00,SAT-53536,48.2438279085303,79.22694541447476,676.6597650656469,2.434441500387962,-85264.43902092293,10.5,10499914735.56098,47.655,-122.3035,60.0,1.2833333333333334
2026-01-20T23:01:18+00:00,SAT-53536,45.92945201500365,78.84629350031615,679.0877147220338,2.497316640226446,-87466.59237964447,10.5,10499912533.40762,47.655,-122.3035,60.0,1.3
2026-01-20T23:01:19+00:00,SAT-53536,43.782243197861604,78.45209267271187,681.5783718512196,2.559501972246114,-89644.58575066687,10.5,10499910355.41425,47.655,-122.3035,60.0,1.3166666666666667
2026-01-20T23:01:20+00:00,SAT-53536,41.78983162253383,78.04629695857976,684.1310484848731,2.6209907291354666,-91798.18211411576,10.5,10499908201.817886,47.655,-122.3035,60.0,1.3333333333333333
2026-01-20T23:01:21+00:00,SAT-53536,39.94010647496675,77.63064421064921,686.7450499053974,2.6817768384013796,-93927.16878559529,10.5,10499906072.831215,47.655,-122.3035,60.0,1.35
2026-01-20T23:01:22+00:00,SAT-53536,38.22147498326842,77.20667471568586,689.4196753388965,2.741855011606013,-96031.36054164225,10.5,10499903968.639458,47.655,-122.3035,60.0,1.3666666666666667
2026-01-20T23:01:23+00:00,SAT-53536,36.62301897161082,76.7757506322413,692.1542187371382,2.8012206169706024,-98110.59515777187,10.5,10499901889.404842,47.655,-122.3035,60.0,1.3833333333333333
2026-01-20T23:01:24+00:00,SAT-53536,35.13457682213227,76.33907509511269,694.9479694324635,2.859869793085561,-100164.7373910867,10.5,10499899835.26261,47.655,-122.3035,60.0,1.4
2026-01-20T23:01:25+00:00,SAT-53536,33.74677289517633,75.89771022856567,697.8002129061009,2.9177992995744266,-102193.67374989628,10.5,10499897806.32625,47.655,-122.3035,60.0,1.4166666666666667
2026-01-20T23:01:26+00:00,SAT-53536,32.45101159675048,75.45259372746297,700.710231407543,2.9750065790393694,-104197.31466331075,10.5,10499895802.685337,47.655,-122.3035,60.0,1.4333333333333333
2026-01-20T23:01:27+00:00,SAT-53536,31.23944860840063,75.00455381335655,703.6773046357051,3.0314897189251395,-106175.59314555526,10.5,10499893824.406855,47.655,-122.3035,60.0,1.45
2026-01-20T23:01:28+00:00,SAT-53536,30.104948446450358,74.55432256573526,706.7007103820464,3.0872474127744307,-108128.46343896858,10.5,10499891871.536562,47.655,-122.3035,60.0,1.4666666666666666
2026-01-20T23:01:29+00:00,SAT-53536,29.041034735892836,74.10254769775536,709.7797251350534,3.142278950848426,-110055.90068549514,10.5,10499889944.099314,47.655,-122.3035,60.0,1.4833333333333334
2026-01-20T23:01:30+00:00,SAT-53536,28.041837547493458,73.64980288798156,712.9136246753662,3.196584211831255,-111957.90063614001,10.5,10499888042.099363,47.655,-122.3035,60.0,1.5
2026-01-20T23:01:31+00:00,SAT-53536,27.10204068140446,73.19659680557446,716.1016846626327,3.2501636174655344,-113834.4780621136,10.5,10499886165.521938,47.655,-122.3035,60.0,1.5166666666666666
2026-01-20T23:01:32+00:00,SAT-53536,26.216830733569882,72.74338097696591,719.3431811771183,3.3030181230001254,-115685.66642027171,10.5,10499884314.33358,47.655,-122.3035,60.0,1.5333333333333334
2026-01-20T23:01:33+00:00,SAT-53536,25.381849017726246,72.2905566271487,722.6373912517903,3.355149192385957,-117511.51698436838,10.5,10499882488.483015,47.655,-122.3035,60.0,1.55
2026-01-20T23:01:34+00:00,SAT-53536,24.593146926380157,71.83848062677423,725.9835933796633,3.406558775662533,-119312.09805303572,10.5,10499880687.901947,47.655,-122.3035,60.0,1.5666666666666667
2026-01-20T23:01:35+00:00,SAT-53536,23.847144967663624,71.38747066172913,729.3810679985908,3.4572492839512363,-121087.4940739436,10.5,10499878912.505926,47.655,-122.3035,60.0,1.5833333333333333
2026-01-20T23:01:36+00:00,SAT-53536,23.14059549491167,70.93780972966516,732.8290979511181,3.5072235785061125,-122837.80526031172,10.5,10499877162.19474,47.655,-122.3035,60.0,1.6
2026-01-20T23:01:37+00:00,SAT-53536,22.470549003624228,70.48975005336256,736.3269689334148,3.5564849374980216,-124563.14642755031,10.5,10499875436.853573,47.655,-122.3035,60.0,1.6166666666666667
2026-01-20T23:01:38+00:00,SAT-53536,21.834323796599943,70.04351649379055,739.8739699110795,3.6050370181208855,-126263.6456660604,10.5,10499873736.354334,47.655,-122.3035,60.0,1.6333333333333333
2026-01-20T23:01:39+00:00,SAT-53536,21.22947876963052,69.59930953253712,743.4693934971522,3.652883877828287,-127939.44508502951,10.5,10499872060.554914,47.655,-122.3035,60.0,1.65
2026-01-20T23:01:40+00:00,SAT-53536,20.653789043310702,69.15730787577954,747.1125363513062,3.7000299288733363,-129590.69922022532,10.5,10499870409.30078,47.655,-122.3035,60.0,1.6666666666666667
2026-01-20T23:01:41+00:00,SAT-53536,20.105224187516935,68.71767073991984,750.8026995337026,3.7464798892466584,-131217.57331563663,10.5,10499868782.426683,47.655,-122.3035,60.0,1.6833333333333333
2026-01-20T23:01:42+00:00,SAT-53536,19.581928780922244,68.2805398628291,754.5391888099111,3.7922388179440527,-132820.24455869585,10.5,10499867179.755442,47.655,-122.3035,60.0,1.7
2026-01-20T23:01:43+00:00,SAT-53536,19.08220505220047,67.84604126841103,758.3213149910074,3.8373120647025427,-134398.90031982292,10.5,10499865601.09968,47.655,-122.3035,60.0,1.7166666666666666
2026-01-20T23:01:44+00:00,SAT-53536,18.604497393313938,67.41428682729007,762.1483942235374,3.8817052396221654,-135953.73708845183,10.5,10499864046.26291,47.655,-122.3035,60.0,1.7333333333333334
2026-01-20T23:01:45+00:00,SAT-53536,18.147378537456575,66.98537563874073,766.0197482491873,3.9254242005429503,-137484.96003091906,10.5,10499862515.039968,47.655,-122.3035,60.0,1.75
2026-01-20T23:01:46+00:00,SAT-53536,17.70953721567357,66.55939525544679,769.934704651862,3.968475087735225,-138992.78420546476,10.5,10499861007.215794,47.655,-122.3035,60.0,1.7666666666666666
2026-01-20T23:01:47+00:00,SAT-53536,17.28976712255904,66.13642276657792,773.8925971393633,4.010864185943112,-140477.42973041264,10.5,10499859522.57027,47.655,-122.3035,60.0,1.7833333333333334
2026-01-20T23:01:48+00:00,SAT-53536,16.886957062156846,65.71652577551025,777.8927656874773,4.052598065065861,-141939.12671142493,10.5,10499858060.87329,47.655,-122.3035,60.0,1.8
2026-01-20T23:01:49+00:00,SAT-53536,16.50008211316028,65.29976325683921,781.9345568243696,4.093683386146088,-143378.10844639034,10.5,10499856621.891554,47.655,-122.3035,60.0,1.8166666666666667
2026-01-20T23:01:50+00:00,SAT-53536,16.128195731249026,64.8861863417579,786.017323721486,4.134127060194558,-144794.61698813937,10.5,10499855205.383013,47.655,-122.3035,60.0,1.8333333333333333
2026-01-20T23:01:51+00:00,SAT-53536,15.770422650826616,64.47583900541093,790.1404264428533,4.1739361093064264,-146188.89828014778,10.5,10499853811.101719,47.655,-122.3035,60.0,1.85
2026-01-20T23:01:52+00:00,SAT-53536,15.425952523496441,64.06875869730177,794.3032320558683,4.213117694631242,-147561.2031361644,10.5,10499852438.796864,47.655,-122.3035,60.0,1.8666666666666667
2026-01-20T23:01:53+00:00,SAT-53536,15.094034196466081,63.664976905579756,798.5051147699805,4.251679092597276,-148911.78640748656,10.5,10499851088.213593,47.655,-122.3035,60.0,1.8833333333333333
2026-01-20T23:01:54+00:00,SAT-53536,14.773970564813538,63.264519667721885,802.7454560516642,4.289627712831489,-150240.9076105932,10.5,10499849759.09239,47.655,-122.3035,60.0,1.9
2026-01-20T23:01:55+00:00,SAT-53536,14.4651139314042,62.86740803005545,807.0236447572615,4.326971060903204,-151548.82962227036,10.5,10499848451.170378,47.655,-122.3035,60.0,1.9166666666666667
2026-01-20T23:01:56+00:00,SAT-53536,14.166861823329537,62.473658466911004,811.339077228669,4.363716664779621,-152835.81610377278,10.5,10499847164.183897,47.655,-122.3035,60.0,1.9333333333333333
2026-01-20T23:01:57+00:00,SAT-53536,13.878653217274197,62.08328326725569,815.6911573156757,4.399872204373839,-154102.13603814313,10.5,10499845897.863962,47.655,-122.3035,60.0,1.95
2026-01-20T23:01:58+00:00,SAT-53536,13.599965117361124,61.69629087424816,820.0792965275047,4.43544537714829,-155348.05902307606,10.5,10499844651.940977,47.655,-122.3035,60.0,1.9666666666666666
2026-01-20T23:01:59+00:00,SAT-53536,13.330309464608394,61.312686205988015,824.5029140503138,4.470443908997383,-156573.8556520742,10.5,10499843426.144348,47.655,-122.3035,60.0,1.9833333333333334
2026-01-20T23:02:00+00:00,SAT-53536,13.06923033390291,60.93247094681567,828.9614367755539,4.504875612187474,-157779.7995437513,10.5,10499842220.200457,47.655,-122.3035,60.0,2.0
2026-01-20T23:02:01+00:00,SAT-53536,12.816301386281115,60.5556438083356,833.4542993861089,4.538748284403968,-158966.1638060343,10.5,10499841033.836193,47.655,-122.3035,60.0,2.0166666666666666
2026-01-20T23:02:02+00:00,SAT-53536,12.571123558918671,60.18220077645465,837.9809443417545,4.572069751906799,-160133.22254765124,10.5,10499839866.777452,47.655,-122.3035,60.0,2.033333333333333
2026-01-20T23:02:03+00:00,SAT-53536,12.33332296066075,59.81213533402816,842.5408219076561,4.604847881669642,-161281.2513032974,10.5,10499838718.748697,47.655,-122.3035,60.0,2.05
2026-01-20T23:02:04+00:00,SAT-53536,12.10254895437637,59.445438664010666,847.1333901949747,4.637090474159387,-162410.5232783193,10.5,10499837589.47672,47.655,-122.3035,60.0,2.066666666666667
2026-01-20T23:02:05+00:00,SAT-53536,11.878472412867946,59.082099844490024,851.7581150945364,4.668805393351215,-163521.31390239226,10.5,10499836478.686098,47.655,-122.3035,60.0,2.0833333333333335
2026-01-20T23:02:06+00:00,SAT-53536,11.660784120253503,58.72210601778688,856.414470340172,4.700000436768022,-164613.89627775172,10.5,10499835386.103722,47.655,-122.3035,60.0,2.1
2026-01-20T23:02:07+00:00,SAT-53536,11.449193316394432,58.365442556117095,861.1019374424419,4.730683416343794,-165688.54401137016,10.5,10499834311.455988,47.655,-122.3035,60.0,2.1166666666666667
2026-01-20T23:02:08+00:00,SAT-53536,11.24342636123553,58.01209320806293,865.8200057030087,4.760862083110884,-166745.5285771875,10.5,10499833254.471422,47.655,-122.3035,60.0,2.1333333333333333
2026-01-20T23:02:09+00:00,SAT-53536,11.043225514178618,57.66204023932276,870.5681721538981,4.790544186427065,-167785.12139049266,10.5,10499832214.878609,47.655,-122.3035,60.0,2.15
2026-01-20T23:02:10+00:00,SAT-53536,10.848347812201801,57.31526455826994,875.345941555828,4.8197374108031665,-168807.59159536046,10.5,10499831192.408405,47.655,-122.3035,60.0,2.1666666666666665
2026-01-20T23:02:11+00:00,SAT-53536,10.658564042205162,56.97174583658584,880.1528263335357,4.848449382877898,-169813.206308939,10.5,10499830186.793692,47.655,-122.3035,60.0,2.183333333333333
2026-01-20T23:02:12+00:00,SAT-53536,10.473657796200664,56.63146262027774,884.9883465180593,4.876687745109827,-170802.23320245498,10.5,10499829197.766798,47.655,-122.3035,60.0,2.2
2026-01-20T23:02:13+00:00,SAT-53536,10.29342459940487,56.294392427324865,889.8520297625155,4.9044600107784815,-171774.93542273855,10.5,10499828225.064577,47.655,-122.3035,60.0,2.216666666666667
2026-01-20T23:02:14+00:00,SAT-53536,10.117671112390179,55.96051184811047,894.7434112132652,4.931773666724773,-172731.57519062777,10.5,10499827268.424809,47.655,-122.3035,60.0,2.2333333333333334
2026-01-20T23:02:15+00:00,SAT-53536,9.946214391921895,55.62979663151274,899.6620334835453,4.958636120176102,-173672.41193855874,10.5,10499826327.588062,47.655,-122.3035,60.0,2.25
2026-01-20T23:02:16+00:00,SAT-53536,9.778881210725899,55.3022217682999,904.6074465740676,4.985054745520229,-174597.70394878447,10.5,10499825402.296051,47.655,-122.3035,60.0,2.2666666666666666
2026-01-20T23:02:17+00:00,SAT-53536,9.615507427707639,54.97776156545083,909.5792078402666,5.011036818032408,-175507.70603221873,10.5,10499824492.293968,47.655,-122.3035,60.0,2.283333333333333
2026-01-20T23:02:18+00:00,SAT-53536,9.45593740781289,54.65638971944045,914.5768818934507,5.0365895608643605,-176402.67117418873,10.5,10499823597.328825,47.655,-122.3035,60.0,2.3
2026-01-20T23:02:19+00:00,SAT-53536,9.300023483734812,54.33807938132164,919.6000405488195,5.061720070637859,-177282.84792840757,10.5,10499822717.152071,47.655,-122.3035,60.0,2.316666666666667
2026-01-20T23:02:20+00:00,SAT-53536,9.147625459585296,54.02280322182928,924.648262699269,5.086435443188716,-178148.48482106082,10.5,10499821851.515179,47.655,-122.3035,60.0,2.3333333333333335
2026-01-20T23:02:21+00:00,SAT-53536,8.99861014720481,53.71053348411011,929.7211343146092,5.110742638266478,-178999.82561201727,10.5,10499821000.174389,47.655,-122.3035,60.0,2.35
2026-01-20T23:02:22+00:00,SAT-53536,8.85285093980039,53.40124204102823,934.8182483058403,5.134648572698106,-179837.1125578153,10.5,10499820162.887442,47.655,-122.3035,60.0,2.3666666666666667
2026-01-20T23:02:23+00:00,SAT-53536,8.710227413493312,53.09490044281229,939.9392044823445,5.158160018315586,-180660.5828366558,10.5,10499819339.417164,47.655,-122.3035,60.0,2.3833333333333333
2026-01-20T23:02:24+00:00,SAT-53536,8.570624959717671,52.79147996743078,945.083609407278,5.1812837312857924,-181470.4730780813,10.5,10499818529.526922,47.655,-122.3035,60.0,2.4
2026-01-20T23:02:25+00:00,SAT-53536,8.433934440023785,52.490951659863846,950.2510763819471,5.204026346664668,-182267.0156698172,10.5,10499817732.984331,47.655,-122.3035,60.0,2.4166666666666665
2026-01-20T23:02:26+00:00,SAT-53536,8.300051867472648,52.19328637472323,955.4412253250206,5.226394406576743,-183050.43974473767,10.5,10499816949.560255,47.655,-122.3035,60.0,2.433333333333333
2026-01-20T23:02:27+00:00,SAT-53536,8.16887810909052,51.89845481428902,960.6536826798464,5.24839437370163,-183820.97165321987,10.5,10499816179.028347,47.655,-122.3035,60.0,2.45
2026-01-20T23:02:28+00:00,SAT-53536,8.040318608240705,51.606427563103594,965.8880813352182,5.270032629651411,-184578.83490631313,10.5,10499815421.165094,47.655,-122.3035,60.0,2.466666666666667
2026-01-20T23:02:29+00:00,SAT-53536,7.914283125623398,51.31717512025531,971.1440605445239,5.291315453353761,-185324.24941862444,10.5,10499814675.750582,47.655,-122.3035,60.0,2.4833333333333334
2026-01-20T23:02:30+00:00,SAT-53536,7.7906854980327696,51.03066793054154,976.4212658233354,5.312249031656588,-186057.43187973785,10.5,10499813942.568121,47.655,-122.3035,60.0,2.5
2026-01-20T23:02:31+00:00,SAT-53536,7.669443412650775,50.74687641290181,981.7193488575741,5.332839484264348,-186778.59662758978,10.5,10499813221.403372,47.655,-122.3035,60.0,2.5166666666666666
2026-01-20T23:02:32+00:00,SAT-53536,7.550478195613426,50.465770985466776,987.0379674365472,5.353092793436253,-187487.95318620274,10.5,10499812512.046814,47.655,-122.3035,60.0,2.533333333333333
2026-01-20T23:02:33+00:00,SAT-53536,7.43371461558601,50.18732209253897,992.3767853158677,5.373014905407628,-188185.7098178904,10.5,10499811814.290182,47.655,-122.3035,60.0,2.55
2026-01-20T23:02:34+00:00,SAT-53536,7.319080697869295,49.91150022437542,997.7354721815275,5.392611614656963,-188872.06946980004,10.5,10499811127.93053,47.655,-122.3035,60.0,2.566666666666667
2026-01-20T23:02:35+00:00,SAT-53536,7.206507552516604,49.638275941469445,1003.1137034985453,5.411888685487704,-189547.23403222137,10.5,10499810452.765968,47.655,-122.3035,60.0,2.5833333333333335
2026-01-20T23:02:36+00:00,SAT-53536,7.095929210905475,49.36761989091196,1008.5111604808718,5.430851748084105,-190211.4006980226,10.5,10499809788.599302,47.655,-122.3035,60.0,2.6
2026-01-20T23:02:37+00:00,SAT-53536,6.987282474352834,49.099502826766354,1013.9275299576276,5.449506376221197,-190864.7646843823,10.5,10499809135.235315,47.655,-122.3035,60.0,2.6166666666666667
2026-01-20T23:02:38+00:00,SAT-53536,6.880506770679968,48.83389562507063,1019.3625043168456,5.467858005010824,-191507.51635190786,10.5,10499808492.483648,47.655,-122.3035,60.0,2.6333333333333333
2026-01-20T23:02:39+00:00,SAT-53536,6.775544020889774,48.57076930174556,1024.8157813671764,5.48591203278776,-192139.84477311792,10.5,10499807860.155228,47.655,-122.3035,60.0,2.65
2026-01-20T23:02:40+00:00,SAT-53536,6.672338512176013,48.310095024234926,1030.28706430121,5.503673729440203,-192761.93452178888,10.5,10499807238.065477,47.655,-122.3035,60.0,2.6666666666666665
2026-01-20T23:02:41+00:00,SAT-53536,6.570836780028208,48.05184412661462,1035.7760615673717,5.5211482871598445,-193373.96745043655,10.5,10499806626.032549,47.655,-122.3035,60.0,2.683333333333333
2026-01-20T23:02:42+00:00,SAT-53536,6.470987496519273,47.79598812111857,1041.2824867924326,5.53834083731107,-193976.1232811475,10.5,10499806023.876719,47.655,-122.3035,60.0,2.7
2026-01-20T23:02:43+00:00,SAT-53536,6.37274136482318,47.542498708014946,1046.806058720844,5.555256381477108,-194568.577190523,10.5,10499805431.42281,47.655,-122.3035,60.0,2.716666666666667
2026-01-20T23:02:44+00:00,SAT-53536,6.276051021006766,47.291347787787494,1052.346501085304,5.571899868875239,-195151.50252108747,10.5,10499804848.497478,47.655,-122.3035,60.0,2.7333333333333334
2026-01-20T23:02:45+00:00,SAT-53536,6.180870940267868,47.0425074688477,1057.9035425545287,5.588276118923797,-195725.06806925696,10.5,10499804274.93193,47.655,-122.3035,60.0,2.75
2026-01-20T23:02:46+00:00,SAT-53536,6.087157349674483,46.79595007803595,1063.4769166038022,5.604389924291727,-196289.44169457103,10.5,10499803710.558306,47.655,-122.3035,60.0,2.7666666666666666
2026-01-20T23:02:47+00:00,SAT-53536,5.994868144333706,46.55164816571099,1069.0663614882958,5.62024595502954,-196844.78696195275,10.5,10499803155.213037,47.655,-122.3035,60.0,2.783333333333333
2026-01-20T23:02:48+00:00,SAT-53536,5.903962809668412,46.309574514502074,1074.6716201207785,5.635848813212336,-197391.26505553894,10.5,10499802608.734945,47.655,-122.3035,60.0,2.8
2026-01-20T23:02:49+00:00,SAT-53536,5.814402347237828,46.06970214494958,1080.2924400038223,5.651202993570684,-197929.03339980682,10.5,10499802070.9666,47.655,-122.3035,60.0,2.816666666666667
2026-01-20T23:02:50+00:00,SAT-53536,5.726149205187221,45.832004322278564,1085.9285731227435,5.666312959304567,-198458.24831489907,10.5,10499801541.751684,47.655,-122.3035,60.0,2.8333333333333335
2026-01-20T23:02:51+00:00,SAT-53536,5.639167211464817,45.59645455934689,1091.5797759141565,5.681183039461227,-198979.06142236202,10.5,10499801020.938578,47.655,-122.3035,60.0,2.85
2026-01-20T23:02:52+00:00,SAT-53536,5.553421512059616,45.36302662348031,1097.2458091321791,5.695817538281321,-199491.62347491033,10.5,10499800508.376526,47.655,-122.3035,60.0,2.8666666666666667
2026-01-20T23:02:53+00:00,SAT-53536,5.468878511101785,45.13169453818265,1102.926437823692,5.710220608042706,-199996.07990287873,10.5,10499800003.920097,47.655,-122.3035,60.0,2.8833333333333333
2026-01-20T23:02:54+00:00,SAT-53536,5.385505815821956,44.90243258969683,1108.6214311767799,5.724396403117875,-200492.57620996484,10.5,10499799507.42379,47.655,-122.3035,60.0,2.9
2026-01-20T23:02:55+00:00,SAT-53536,5.303272182431121,44.67521532677831,1114.3305625228224,5.738348957409373,-200981.25368049927,10.5,10499799018.746319,47.655,-122.3035,60.0,2.9166666666666665
2026-01-20T23:02:56+00:00,SAT-53536,5.2221474664048975,44.45001756514227,1120.0536092163454,5.752082250329069,-201462.25169031846,10.5,10499798537.74831,47.655,-122.3035,60.0,2.933333333333333
2026-01-20T23:02:57+00:00,SAT-53536,5.142102574538951,44.22681438883924,1125.7903525806737,5.765600137640604,-201935.70528457506,10.5,10499798064.294716,47.655,-122.3035,60.0,2.95
2026-01-20T23:02:58+00:00,SAT-53536,5.063109420321748,44.00558115402649,1131.540577784614,5.7789064972314454,-202401.7502832916,10.5,10499797598.249716,47.655,-122.3035,60.0,2.966666666666667
2026-01-20T23:02:59+00:00,SAT-53536,4.9851408798186405,43.78629348672377,1137.3040738645193,5.792005060774868,-202860.5173854511,10.5,10499797139.482615,47.655,-122.3035,60.0,2.9833333333333334
2026-01-20T23:03:00+00:00,SAT-53536,4.90817075182945,43.56892728688417,1143.0806335784655,5.804899495271786,-203312.135024937,10.5,10499796687.864975,47.655,-122.3035,60.0,3.0
2026-01-20T23:03:01+00:00,SAT-53536,4.832173719106913,43.353458728945185,1148.87005334175,5.817593417453694,-203756.729874985,10.5,10499796243.270124,47.655,-122.3035,60.0,3.0166666666666666
2026-01-20T23:03:02+00:00,SAT-53536,4.757125311291913,43.139864261636184,1154.6721331767571,5.830090376905968,-204194.4262570897,10.5,10499795805.573744,47.655,-122.3035,60.0,3.033333333333333
2026-01-20T23:03:03+00:00,SAT-53536,4.6830018699539115,42.92812060819757,1160.4866766459913,5.8423938658704015,-204625.3464843309,10.5,10499795374.653515,47.655,-122.3035,60.0,3.05
2026-01-20T23:03:04+00:00,SAT-53536,4.609780515189365,42.718204766050086,1166.313490794886,5.854507260763727,-205049.60881310474,10.5,10499794950.391188,47.655,-122.3035,60.0,3.066666666666667
2026-01-20T23:03:05+00:00,SAT-53536,4.53743911455538,42.51009400836989,1172.1523860362877,5.866433953384705,-205467.33203855116,10.5,10499794532.667961,47.655,-122.3035,60.0,3.0833333333333335
2026-01-20T23:03:06+00:00,SAT-53536,4.465956252014385,42.30376588073809,1178.0031761657967,5.878177171929553,-205878.62922575691,10.5,10499794121.370773,47.655,-122.3035,60.0,3.1
2026-01-20T23:03:07+00:00,SAT-53536,4.39531120037665,42.09919820405623,1183.865678198601,5.889740187220653,-206283.61493275742,10.5,10499793716.385067,47.655,-122.3035,60.0,3.1166666666666667
2026-01-20T23:03:08+00:00,SAT-53536,4.325483892796607,41.89636906996436,1189.7397124119893,5.901126128265221,-206682.39875062107,10.5,10499793317.60125,47.655,-122.3035,60.0,3.1333333333333333
2026-01-20T23:03:09+00:00,SAT-53536,4.256454897624041,41.695256842655226,1195.6251022039125,5.912338114037707,-207075.08991902636,10.5,10499792924.910082,47.655,-122.3035,60.0,3.15
2026-01-20T23:03:10+00:00,SAT-53536,4.188205393019518,41.49584015593252,1201.5216740829794,5.9233791742727275,-207461.7945520952,10.5,10499792538.205448,47.655,-122.3035,60.0,3.1666666666666665
2026-01-20T23:03:11+00:00,SAT-53536,4.120717143624501,41.29809791290589,1207.429257579454,5.934252279838562,-207842.6167022017,10.5,10499792157.383297,47.655,-122.3035,60.0,3.183333333333333
2026-01-20T23:03:12+00:00,SAT-53536,4.053972477950599,41.1020092845239,1213.3476851865462,5.944960360207213,-208217.65897184692,10.5,10499791782.341028,47.655,-122.3035,60.0,3.2
2026-01-20T23:03:13+00:00,SAT-53536,3.987954266689219,40.907553707428185,1219.2767923191263,5.955506314096532,-208587.02288639155,10.5,10499791412.977114,47.655,-122.3035,60.0,3.216666666666667
2026-01-20T23:03:14+00:00,SAT-53536,3.9226459018740862,40.71471088141469,1225.2164172830521,5.965892913426321,-208950.80553019242,10.5,10499791049.19447,47.655,-122.3035,60.0,3.2333333333333334
2026-01-20T23:03:15+00:00,SAT-53536,3.858031277958865,40.52346076995696,1231.1664011487092,5.976122917966132,-209309.10356205286,10.5,10499790690.896439,47.655,-122.3035,60.0,3.25
2026-01-20T23:03:16+00:00,SAT-53536,3.7940947726082253,40.33378359687561,1237.1265877388942,5.986199068327652,-209662.01296978706,10.5,10499790337.98703,47.655,-122.3035,60.0,3.2666666666666666
2026-01-20T23:03:17+00:00,SAT-53536,3.7308212284587863,40.14565984323964,1243.0968236097062,5.9961239981819565,-210009.62599569646,10.5,10499789990.374004,47.655,-122.3035,60.0,3.283333333333333
2026-01-20T23:03:18+00:00,SAT-53536,3.668195936485635,39.95907024703221,1249.0769579438931,6.005900310433001,-210352.03380448787,10.5,10499789647.966196,47.655,-122.3035,60.0,3.3
2026-01-20T23:03:19+00:00,SAT-53536,3.6062046194294703,39.773995800303105,1255.0668425201648,6.01553054692925,-210689.32542244653,10.5,10499789310.674578,47.655,-122.3035,60.0,3.316666666666667
2026-01-20T23:03:20+00:00,SAT-53536,3.544833416186288,39.59041774725824,1261.0663316523023,6.025017221873288,-211021.58890758193,10.5,10499788978.411093,47.655,-122.3035,60.0,3.3333333333333335
2026-01-20T23:03:21+00:00,SAT-53536,3.484068866629524,39.408317581269195,1267.0752821615838,6.034362800360704,-211348.91059796905,10.5,10499788651.089401,47.655,-122.3035,60.0,3.35
2026-01-20T23:03:22+00:00,SAT-53536,3.4238978972289797,39.22767704255437,1273.0935533278102,6.043569685467761,-211671.3746595036,10.5,10499788328.625341,47.655,-122.3035,60.0,3.3666666666666667
2026-01-20T23:03:23+00:00,SAT-53536,3.3643078074600106,39.04847811620641,1279.1210068274502,6.052640207104864,-211989.0626955034,10.5,10499788010.937304,47.655,-122.3035,60.0,3.3833333333333333
2026-01-20T23:03:24+00:00,SAT-53536,3.3052862568394925,38.87070303051502,1285.1575066606692,6.0615767284479425,-212302.05747438583,10.5,10499787697.942526,47.655,-122.3035,60.0,3.4
2026-01-20T23:03:25+00:00,SAT-53536,3.246821251626371,38.694334252116704,1291.2029191845083,6.070381489334085,-212610.43744472016,10.5,10499787389.562555,47.655,-122.3035,60.0,3.4166666666666665
2026-01-20T23:03:26+00:00,SAT-53536,3.1889011334120583,38.51935448580565,1297.2571129898706,6.079056738613405,-212914.28137074996,10.5,10499787085.71863,47.655,-122.3035,60.0,3.433333333333333
2026-01-20T23:03:27+00:00,SAT-53536,3.131514567080458,38.345746670408666,1303.3199589105143,6.087604639894854,-213213.66503121293,10.5,10499786786.334969,47.655,-122.3035,60.0,3.45
2026-01-20T23:03:28+00:00,SAT-53536,3.0746505300337703,38.17349397742869,1309.391329938036,6.0960273571957435,-213508.66421914892,10.5,10499786491.335781,47.655,-122.3035,60.0,3.466666666666667
2026-01-20T23:03:29+00:00,SAT-53536,3.0182983011955997,38.00257980720715,1315.4711012222795,6.104326970813571,-213799.35179537605,10.5,10499786200.648205,47.655,-122.3035,60.0,3.4833333333333334
2026-01-20T23:03:30+00:00,SAT-53536,2.9624474511108008,37.83298778750941,1321.5591499878376,6.112505568565462,-214085.80088408143,10.5,10499785914.199116,47.655,-122.3035,60.0,3.5
2026-01-20T23:03:31+00:00,SAT-53536,2.907087831757299,37.664701769526346,1327.6553555415535,6.12056514001263,-214368.0811681147,10.5,10499785631.918833,47.655,-122.3035,60.0,3.5166666666666666
2026-01-20T23:03:32+00:00,SAT-53536,2.8522095675791914,37.49770582686375,1333.759599174526,6.128507689923751,-214646.26286295496,10.5,10499785353.737137,47.655,-122.3035,60.0,3.533333333333333
2026-01-20T23:03:33+00:00,SAT-53536,2.797803046015174,37.331984251368496,1339.8717641772766,6.136335151490846,-214920.41367716424,10.5,10499785079.586323,47.655,-122.3035,60.0,3.55
2026-01-20T23:03:34+00:00,SAT-53536,2.7438589090606023,37.16752155139904,1345.9917357683635,6.144049449117291,-215190.6010114889,10.5,10499784809.398989,47.655,-122.3035,60.0,3.566666666666667
2026-01-20T23:03:35+00:00,SAT-53536,2.6903680447122613,37.00430244837397,1352.1194010856166,6.151652431825016,-215456.88962649842,10.5,10499784543.110374,47.655,-122.3035,60.0,3.5833333333333335
2026-01-20T23:03:36+00:00,SAT-53536,2.6373215792214073,36.84231187515862,1358.2546491109567,6.159145957040639,-215719.3445771298,10.5,10499784280.655422,47.655,-122.3035,60.0,3.6
2026-01-20T23:03:37+00:00,SAT-53536,2.584710869068062,36.68153497220753,1364.3973706787785,6.166531802673188,-215978.02813327772,10.5,10499784021.971867,47.655,-122.3035,60.0,3.6166666666666667
2026-01-20T23:03:38+00:00,SAT-53536,2.532527493852024,36.52195708609364,1370.5474583966445,6.173811756884771,-216233.0029239431,10.5,10499783766.997076,47.655,-122.3035,60.0,3.6333333333333333
2026-01-20T23:03:39+00:00,SAT-53536,2.480763248856094,36.36356376566953,1376.704806655511,6.1809875352530375,-216484.3290359122,10.5,10499783515.670963,47.655,-122.3035,60.0,3.65
2026-01-20T23:03:40+00:00,SAT-53536,2.429410138445792,36.206340760448796,1382.8693115573367,6.188060848096581,-216732.06637177675,10.5,10499783267.933628,47.655,-122.3035,60.0,3.6666666666666665
2026-01-20T23:03:41+00:00,SAT-53536,2.3784603692880104,36.050274017248846,1389.0408709098385,6.195033345990727,-216976.27274166662,10.5,10499783023.727259,47.655,-122.3035,60.0,3.683333333333333
2026-01-20T23:03:42+00:00,SAT-53536,2.327906344178627,35.89534967826908,1395.2193841669066,6.201906669840652,-217217.00561702208,10.5,10499782782.994383,47.655,-122.3035,60.0,3.7
2026-01-20T23:03:43+00:00,SAT-53536,2.2777406557749336,35.74155407791806,1401.404752418961,6.208682450334537,-217454.32211144097,10.5,10499782545.677889,47.655,-122.3035,60.0,3.716666666666667
2026-01-20T23:03:44+00:00,SAT-53536,2.2279560805541414,35.58887373971462,1407.5968783827614,6.215362229425386,-217688.27623064004,10.5,10499782311.72377,47.655,-122.3035,60.0,3.7333333333333334
2026-01-20T23:03:45+00:00,SAT-53536,2.1785455735689054,35.43729537516466,1413.795666312908,6.221947556679849,-217918.922246998,10.5,10499782081.077753,47.655,-122.3035,60.0,3.75
2026-01-20T23:03:46+00:00,SAT-53536,2.129502262698381,35.28680588026158,1420.0010220094368,6.228439957614341,-218146.31359055266,10.5,10499781853.686409,47.655,-122.3035,60.0,3.7666666666666666
2026-01-20T23:03:47+00:00,SAT-53536,2.0808194433682807,35.13739233283047,1426.212852793831,6.234840913189655,-218370.50213081535,10.5,10499781629.49787,47.655,-122.3035,60.0,3.783333333333333
2026-01-20T23:03:48+00:00,SAT-53536,2.0324905735685985,34.98904199039771,1432.4310674645853,6.2411518978151195,-218591.53950783765,10.5,10499781408.460493,47.655,-122.3035,60.0,3.8
2026-01-20T23:03:49+00:00,SAT-53536,1.9845092688356065,34.84174228718034,1438.6555762906728,6.2473742939514185,-218809.4741412404,10.5,10499781190.525858,47.655,-122.3035,60.0,3.816666666666667
2026-01-20T23:03:50+00:00,SAT-53536,1.9368692979592765,34.69548083313456,1444.8862909198406,6.253509560051309,-219024.3571122084,10.5,10499780975.642887,47.655,-122.3035,60.0,3.8333333333333335
2026-01-20T23:03:51+00:00,SAT-53536,1.8895645777459729,34.5502454090578,1451.1231244543983,6.259559035593292,-219236.23533494482,10.5,10499780763.764666,47.655,-122.3035,60.0,3.85
2026-01-20T23:03:52+00:00,SAT-53536,1.8425891692504188,34.40602396634971,1457.3659913325632,6.265524115948614,-219445.1576812531,10.5,10499780554.84232,47.655,-122.3035,60.0,3.8666666666666667
2026-01-20T23:03:53+00:00,SAT-53536,1.7959372730080552,34.26280462269202,1463.6148073842028,6.271406073602252,-219651.1687189397,10.5,10499780348.831282,47.655,-122.3035,60.0,3.8833333333333333
2026-01-20T23:03:54+00:00,SAT-53536,1.7496032255802685,34.120575661922885,1469.8694897082755,6.277206248617928,-219854.31538270466,10.5,10499780145.684618,47.655,-122.3035,60.0,3.9
2026-01-20T23:03:55+00:00,SAT-53536,1.703581495024151,33.97932552954198,1476.1299567402302,6.282925913021945,-220054.6422242898,10.5,10499779945.357777,47.655,-122.3035,60.0,3.9166666666666665
2026-01-20T23:03:56+00:00,SAT-53536,1.6578666773530213,33.83904283139001,1482.396128184151,6.288566310163553,-220252.19279104515,10.5,10499779747.807209,47.655,-122.3035,60.0,3.933333333333333
2026-01-20T23:03:57+00:00,SAT-53536,1.6124534929140029,33.69971633143881,1488.667924984154,6.294128670729445,-220447.01018682454,10.5,10499779552.989813,47.655,-122.3035,60.0,3.95
2026-01-20T23:03:58+00:00,SAT-53536,1.567336782748414,33.56133494926426,1494.9452693117614,6.299614213316274,-220639.13709203745,10.5,10499779360.862907,47.655,-122.3035,60.0,3.966666666666667
2026-01-20T23:03:59+00:00,SAT-53536,1.5225115051139462,33.42388775755192,1501.2280845538423,6.30502412892411,-220828.6152205442,10.5,10499779171.384779,47.655,-122.3035,60.0,3.9833333333333334
2026-01-20T23:04:00+00:00,SAT-53536,1.4779727321938798,33.28736397998621,1507.5162952850894,6.3103595488554935,-221015.4841953452,10.5,10499778984.515804,47.655,-122.3035,60.0,4.0
2026-01-20T23:04:01+00:00,SAT-53536,1.4337156471384638,33.15175298986097,1513.8098272084812,6.315621647668822,-221199.78515444382,10.5,10499778800.214846,47.655,-122.3035,60.0,4.016666666666667
2026-01-20T23:04:02+00:00,SAT-53536,1.3897355405619694,33.01704430649042,1520.108607198423,6.3208115360578105,-221381.55699903233,10.5,10499778618.443,47.655,-122.3035,60.0,4.033333333333333
2026-01-20T23:04:03+00:00,SAT-53536,1.3460278078281465,32.883227593988735,1526.4125632370512,6.325930319744271,-221560.83845616571,10.5,10499778439.161543,47.655,-122.3035,60.0,4.05
2026-01-20T23:04:04+00:00,SAT-53536,1.3025879460452527,32.75029265880769,1532.721624409276,6.330979068895714,-221737.66700763704,10.5,10499778262.332993,47.655,-122.3035,60.0,4.066666666666666
2026-01-20T23:04:05+00:00,SAT-53536,1.259411551384892,32.618229447957546,1539.0357208673215,6.335958843716265,-221912.0797862793,10.5,10499778087.920214,47.655,-122.3035,60.0,4.083333333333333
2026-01-20T23:04:06+00:00,SAT-53536,1.216494316291553,32.487028046726174,1545.3547838207878,6.340870696913034,-222084.11366234854,10.5,10499777915.886337,47.655,-122.3035,60.0,4.1
2026-01-20T23:04:07+00:00,SAT-53536,1.1738320268178835,32.35667867638384,1551.6787455291758,6.345715650663616,-222253.80443682795,10.5,10499777746.195562,47.655,-122.3035,60.0,4.116666666666666
2026-01-20T23:04:08+00:00,SAT-53536,1.13142056014586,32.227171692410195,1558.0075392714375,6.350494692727943,-222421.1867052486,10.5,10499777578.813295,47.655,-122.3035,60.0,4.133333333333334
2026-01-20T23:04:09+00:00,SAT-53536,1.0892558822363727,32.09849758281988,1564.3410993116518,6.355208830359223,-222586.29574587848,10.5,10499777413.704254,47.655,-122.3035,60.0,4.15
2026-01-20T23:04:10+00:00,SAT-53536,1.0473340452311195,31.97064696542582,1570.6793609184633,6.359859009799141,-222749.16470010392,10.5,10499777250.8353,47.655,-122.3035,60.0,4.166666666666667
2026-01-20T23:04:11+00:00,SAT-53536,1.0056511854165797,31.84361058677659,1577.0222603042364,6.364446203008603,-222909.82761010728,10.5,10499777090.17239,47.655,-122.3035,60.0,4.183333333333334
2026-01-20T23:04:12+00:00,SAT-53536,0.9642035207325339,31.71737931937074,1583.3697346507033,6.368971321595378,-223068.3164042488,10.5,10499776931.683596,47.655,-122.3035,60.0,4.2
2026-01-20T23:04:13+00:00,SAT-53536,0.9229873488896444,31.59194416063529,1589.7217220487746,6.373435298168664,-223224.66374644745,10.5,10499776775.336254,47.655,-122.3035,60.0,4.216666666666667
2026-01-20T23:04:14+00:00,SAT-53536,0.8819990450435625,31.467296230311504,1596.0781615194815,6.377839033057313,-223378.90117002805,10.5,10499776621.09883,47.655,-122.3035,60.0,4.233333333333333
2026-01-20T23:04:15+00:00,SAT-53536,0.8412350598875696,31.343426768937587,1602.438992981784,6.382183387659274,-223531.05884479047,10.5,10499776468.941154,47.655,-122.3035,60.0,4.25
2026-01-20T23:04:16+00:00,SAT-53536,0.8006919177988124,31.22032713648143,1608.8041572137429,6.386469263969089,-223681.168362399,10.5,10499776318.831638,47.655,-122.3035,60.0,4.266666666666667
2026-01-20T23:04:17+00:00,SAT-53536,0.7603662146479518,31.097988809458172,1615.173595893008,6.390697502519492,-223829.25916186548,10.5,10499776170.740839,47.655,-122.3035,60.0,4.283333333333333
2026-01-20T23:04:18+00:00,SAT-53536,0.7202546161977399,30.976403380074974,1621.547251535521,6.394868914196468,-223975.35964384707,10.5,10499776024.640356,47.655,-122.3035,60.0,4.3
2026-01-20T23:04:19+00:00,SAT-53536,0.6803538564106083,30.855562554760702,1627.925067465946,6.398984353877759,-224119.49974977845,10.5,10499775880.50025,47.655,-122.3035,60.0,4.316666666666666
2026-01-20T23:04:20+00:00,SAT-53536,0.6406607353871747,30.735458151338197,1634.306987861547,6.403044618958149,-224261.70740779798,10.5,10499775738.292593,47.655,-122.3035,60.0,4.333333333333333
2026-01-20T23:04:21+00:00,SAT-53536,0.6011721179368027,30.616082098162288,1640.6929576948544,6.407050503012387,-224402.01041225015,10.5,10499775597.989588,47.655,-122.3035,60.0,4.35
2026-01-20T23:04:22+00:00,SAT-53536,0.5618849318780899,30.49742643226264,1647.0829227298586,6.411002791461348,-224540.4362718963,10.5,10499775459.563728,47.655,-122.3035,60.0,4.366666666666666
2026-01-20T23:04:23+00:00,SAT-53536,0.5227961664503358,30.37948329760196,1653.4768295138763,6.414902228033329,-224677.01103524741,10.5,10499775322.988964,47.655,-122.3035,60.0,4.383333333333334
2026-01-20T23:04:24+00:00,SAT-53536,0.48390287091136025,30.262244943983426,1659.8746253359682,6.4187496044531605,-224811.76243185607,10.5,10499775188.237568,47.655,-122.3035,60.0,4.4
2026-01-20T23:04:25+00:00,SAT-53536,0.4452021527462317,30.145703724334908,1666.2762582748094,6.422545620659405,-224944.7149765314,10.5,10499775055.285023,47.655,-122.3035,60.0,4.416666666666667
2026-01-20T23:04:26+00:00,SAT-53536,0.40669117662779336,30.02985209459314,1672.681677107147,6.4262910369338435,-225075.89529755732,10.5,10499774924.104702,47.655,-122.3035,60.0,4.433333333333334
