satellites_20260121_005943/SAT-62165.csv

timestamp,satellite,azimuth_deg,elevation_deg,distance_km,relative_velocity_kms,doppler_shift_hz,tx_freq_ghz,rx_freq_hz,ue_lat,ue_lon,ue_alt_m,time_minutes
2026-01-20T23:10:40+00:00,SAT-62165,222.73649080361173,30.103332978374883,2247.6409285898585,-2.1542817944750396,75452.06104547138,10.5,10500075452.061045,47.655,-122.3035,60.0,10.666666666666666
2026-01-20T23:10:41+00:00,SAT-62165,222.88121736115207,30.230181550541484,2245.4923915468357,-2.135860708440408,74806.87669142193,10.5,10500074806.876692,47.655,-122.3035,60.0,10.683333333333334
2026-01-20T23:10:42+00:00,SAT-62165,223.02672729944132,30.356957995095772,2243.362226466951,-2.1173851914854045,74159.78593629846,10.5,10500074159.785936,47.655,-122.3035,60.0,10.7
2026-01-20T23:10:43+00:00,SAT-62165,223.17302381463813,30.483657926223497,2241.2504876359762,-2.098855520144855,73510.79846552038,10.5,10500073510.798466,47.655,-122.3035,60.0,10.716666666666667
2026-01-20T23:10:44+00:00,SAT-62165,223.32011008535204,30.61027691868331,2239.157229063885,-2.080271973985119,72859.9240706841,10.5,10500072859.92407,47.655,-122.3035,60.0,10.733333333333333
2026-01-20T23:10:45+00:00,SAT-62165,223.4679892716345,30.73681050780398,2237.0825044818307,-2.061634829344596,72207.17243032932,10.5,10500072207.17243,47.655,-122.3035,60.0,10.75
2026-01-20T23:10:46+00:00,SAT-62165,223.61666451344965,30.86325418907699,2235.026367345364,-2.0429443718305986,71552.55354763223,10.5,10500071552.553547,47.655,-122.3035,60.0,10.766666666666667
2026-01-20T23:10:47+00:00,SAT-62165,223.76613892998557,30.98960341850354,2232.988870825192,-2.024200919803425,70896.07857291713,10.5,10500070896.078573,47.655,-122.3035,60.0,10.783333333333333
2026-01-20T23:10:48+00:00,SAT-62165,223.91641562054778,31.115853614267536,2230.970067774508,-2.005404749619263,70237.75718534674,10.5,10500070237.757185,47.655,-122.3035,60.0,10.8
2026-01-20T23:10:49+00:00,SAT-62165,224.06749766037282,31.242000154179735,2228.9700107708877,-1.9865561778194918,69577.60047153909,10.5,10500069577.600471,47.655,-122.3035,60.0,10.816666666666666
2026-01-20T23:10:50+00:00,SAT-62165,224.21938810199214,31.368038377802847,2226.988752076209,-1.9676555206730857,68915.61950857149,10.5,10500068915.619509,47.655,-122.3035,60.0,10.833333333333334
2026-01-20T23:10:51+00:00,SAT-62165,224.37208997385596,31.49396358630524,2225.0263436369246,-1.948703094837805,68251.82538713817,10.5,10500068251.825388,47.655,-122.3035,60.0,10.85
2026-01-20T23:10:52+00:00,SAT-62165,224.52560627894792,31.619771042332168,2223.082837083673,-1.929699211957063,67586.2290223097,10.5,10500067586.229023,47.655,-122.3035,60.0,10.866666666666667
2026-01-20T23:10:53+00:00,SAT-62165,224.67993999296127,31.745455969563263,2221.158283736281,-1.9106442240848553,66918.8427445062,10.5,10500066918.842745,47.655,-122.3035,60.0,10.883333333333333
2026-01-20T23:10:54+00:00,SAT-62165,224.83509406578753,31.87101355498507,2219.2527345634608,-1.8915384526236847,66249.67781060285,10.5,10500066249.67781,47.655,-122.3035,60.0,10.9
2026-01-20T23:10:55+00:00,SAT-62165,224.991071417801,31.996438946958982,2217.366240213377,-1.8723822465159727,65578.7464420393,10.5,10500065578.746443,47.655,-122.3035,60.0,10.916666666666666
2026-01-20T23:10:56+00:00,SAT-62165,225.1478749404019,32.12172725675992,2215.498850986185,-1.8531759409069926,64906.06037702063,10.5,10500064906.060377,47.655,-122.3035,60.0,10.933333333333334
2026-01-20T23:10:57+00:00,SAT-62165,225.3055074934252,32.24687355764306,2213.650616847787,-1.833919908619905,64231.632673391,10.5,10500064231.632673,47.655,-122.3035,60.0,10.95
2026-01-20T23:10:58+00:00,SAT-62165,225.463971906493,32.37187288705596,2211.8215873922572,-1.8146144877974615,63555.475174339925,10.5,10500063555.475174,47.655,-122.3035,60.0,10.966666666666667
2026-01-20T23:10:59+00:00,SAT-62165,225.62327097474932,32.496720244437256,2210.0118118764267,-1.7952600624934645,62877.60133105608,10.5,10500062877.601332,47.655,-122.3035,60.0,10.983333333333333
2026-01-20T23:11:00+00:00,SAT-62165,225.7834074608737,32.621410593989516,2208.2213391741,-1.7758569896588627,62198.02364547162,10.5,10500062198.023645,47.655,-122.3035,60.0,11.0
2026-01-20T23:11:01+00:00,SAT-62165,225.9443840913092,32.74593886293943,2206.4502178030807,-1.7564056546576496,61516.75561466366,10.5,10500061516.755615,47.655,-122.3035,60.0,11.016666666666667
2026-01-20T23:11:02+00:00,SAT-62165,226.1062035568834,32.870299943262616,2204.6984958968355,-1.7369064322869103,60833.81036561153,10.5,10500060833.810366,47.655,-122.3035,60.0,11.033333333333333
2026-01-20T23:11:03+00:00,SAT-62165,226.26886851036258,32.99448869103244,2202.9662212150342,-1.7173597195049097,60149.20180147277,10.5,10500060149.201801,47.655,-122.3035,60.0,11.05
2026-01-20T23:11:04+00:00,SAT-62165,226.43238156651057,33.11849992775453,2201.2534411214483,-1.6977658982832722,59462.94330050945,10.5,10500059462.9433,47.655,-122.3035,60.0,11.066666666666666
2026-01-20T23:11:05+00:00,SAT-62165,226.59674529915878,33.24232843942881,2199.5602025988937,-1.678125378104576,58775.04920453351,10.5,10500058775.049204,47.655,-122.3035,60.0,11.083333333333334
2026-01-20T23:11:06+00:00,SAT-62165,226.76196224181308,33.36596897832163,2197.8865522217975,-1.658438563610097,58085.533685794115,10.5,10500058085.533686,47.655,-122.3035,60.0,11.1
2026-01-20T23:11:07+00:00,SAT-62165,226.92803488553182,33.48941626270278,2196.2325361610237,-1.6387058585085281,57394.41088387735,10.5,10500057394.410883,47.655,-122.3035,60.0,11.116666666666667
2026-01-20T23:11:08+00:00,SAT-62165,227.09496567694907,33.61266497673645,2194.598200184804,-1.618927683230517,56701.69552404293,10.5,10500056701.695524,47.655,-122.3035,60.0,11.133333333333333
2026-01-20T23:11:09+00:00,SAT-62165,227.26275701810164,33.73570977172284,2192.9835896420623,-1.5991044635704634,56007.40251941183,10.5,10500056007.40252,47.655,-122.3035,60.0,11.15
2026-01-20T23:11:10+00:00,SAT-62165,227.43141126499432,33.85854526644713,2191.3887494570613,-1.579236623827838,55311.546730746304,10.5,10500055311.54673,47.655,-122.3035,60.0,11.166666666666666
2026-01-20T23:11:11+00:00,SAT-62165,227.6009307256873,33.98116604718523,2189.8137241308973,-1.5593245960351836,54614.1432896535,10.5,10500054614.14329,47.655,-122.3035,60.0,11.183333333333334
2026-01-20T23:11:12+00:00,SAT-62165,227.77131765909863,34.103566668279825,2188.258557733785,-1.5393688178787337,53915.20752575672,10.5,10500053915.207525,47.655,-122.3035,60.0,11.2
2026-01-20T23:11:13+00:00,SAT-62165,227.9425742736273,34.225741652618126,2186.7232938994202,-1.5193697424844392,53214.75530944348,10.5,10500053214.75531,47.655,-122.3035,60.0,11.216666666666667
2026-01-20T23:11:14+00:00,SAT-62165,228.1147027268286,34.34768549285213,2185.2079758095824,-1.4993278108991364,52512.80208803963,10.5,10500052512.802088,47.655,-122.3035,60.0,11.233333333333333
2026-01-20T23:11:15+00:00,SAT-62165,228.28770512223176,34.46939265064275,2183.712646206179,-1.4792434804098258,51809.36387767023,10.5,10500051809.363878,47.655,-122.3035,60.0,11.25
2026-01-20T23:11:16+00:00,SAT-62165,228.46158350898162,34.590857557924814,2182.237347375051,-1.4591172131323558,51104.45686358706,10.5,10500051104.456863,47.655,-122.3035,60.0,11.266666666666667
2026-01-20T23:11:17+00:00,SAT-62165,228.63633988039427,34.71207461743215,2180.782121141153,-1.4389494811769723,50398.097581087946,10.5,10500050398.097582,47.655,-122.3035,60.0,11.283333333333333
2026-01-20T23:11:18+00:00,SAT-62165,228.8119761730009,34.833038203571654,2179.3470088585927,-1.4187407448317135,49690.302151407,10.5,10500049690.30215,47.655,-122.3035,60.0,11.3
2026-01-20T23:11:19+00:00,SAT-62165,228.98849426325881,34.95374266172595,2177.9320514224137,-1.3984914872555223,48981.08749681416,10.5,10500048981.087498,47.655,-122.3035,60.0,11.316666666666666
2026-01-20T23:11:20+00:00,SAT-62165,229.1658959679049,35.07418231010509,2176.537289245791,-1.3782021930214634,48270.47058910791,10.5,10500048270.470589,47.655,-122.3035,60.0,11.333333333333334
2026-01-20T23:11:21+00:00,SAT-62165,229.3441830421687,35.19435144011492,2175.1627622586175,-1.357873344778736,47558.468332704775,10.5,10500047558.468332,47.655,-122.3035,60.0,11.35
2026-01-20T23:11:22+00:00,SAT-62165,229.5233571773689,35.31424431636453,2173.808509909425,-1.3375054404294844,46845.09816624402,10.5,10500046845.098166,47.655,-122.3035,60.0,11.366666666666667
2026-01-20T23:11:23+00:00,SAT-62165,229.70342000061078,35.433855178112736,2172.4745711501696,-1.3170989732370781,46130.37736589531,10.5,10500046130.377365,47.655,-122.3035,60.0,11.383333333333333
2026-01-20T23:11:24+00:00,SAT-62165,229.8843730720535,35.55317823909899,2171.1609844408613,-1.2966544507898214,45414.323709548175,10.5,10500045414.32371,47.655,-122.3035,60.0,11.4
2026-01-20T23:11:25+00:00,SAT-62165,230.0662178845835,35.67220768900707,2169.8677877352734,-1.2761723798308509,44696.95494549077,10.5,10500044696.954945,47.655,-122.3035,60.0,11.416666666666666
2026-01-20T23:11:26+00:00,SAT-62165,230.24895586136932,35.790937693558774,2168.5950184817893,-1.255653269396898,43978.28890234266,10.5,10500043978.288902,47.655,-122.3035,60.0,11.433333333333334
2026-01-20T23:11:27+00:00,SAT-62165,230.4325883541052,35.909362395072655,2167.3427136211108,-1.2350976465728487,43258.344040846125,10.5,10500043258.34404,47.655,-122.3035,60.0,11.45
2026-01-20T23:11:28+00:00,SAT-62165,230.61711664303087,36.027475914212644,2166.110909568262,-1.2145060251742255,42537.13835699418,10.5,10500042537.138357,47.655,-122.3035,60.0,11.466666666666667
2026-01-20T23:11:29+00:00,SAT-62165,230.80254193298316,36.145272349180466,2164.8996422258215,-1.1938789427608318,41814.69067840504,10.5,10500041814.690678,47.655,-122.3035,60.0,11.483333333333333
2026-01-20T23:11:30+00:00,SAT-62165,230.98886535432635,36.26274577808052,2163.7089469602415,-1.1732169255131768,41091.01943414586,10.5,10500041091.019434,47.655,-122.3035,60.0,11.5
2026-01-20T23:11:31+00:00,SAT-62165,231.1760879591377,36.379890258261035,2162.538858613196,-1.1525205122969353,40366.143497571975,10.5,10500040366.143497,47.655,-122.3035,60.0,11.516666666666667
2026-01-20T23:11:32+00:00,SAT-62165,231.3642107206859,36.496699827791026,2161.389411488932,-1.1317902473168842,39640.08192903667,10.5,10500039640.081928,47.655,-122.3035,60.0,11.533333333333333
2026-01-20T23:11:33+00:00,SAT-62165,231.55323453183686,36.61316850626135,2160.2606393489414,-1.1110266818194399,38912.85403552119,10.5,10500038912.854036,47.655,-122.3035,60.0,11.55
2026-01-20T23:11:34+00:00,SAT-62165,231.74316020390054,36.72929029587398,2159.1525754049403,-1.0902303571732588,38184.47877804591,10.5,10500038184.478779,47.655,-122.3035,60.0,11.566666666666666
2026-01-20T23:11:35+00:00,SAT-62165,231.93398846271373,36.84505918087585,2158.0652523287195,-1.069401840136896,37454.97600689277,10.5,10500037454.976007,47.655,-122.3035,60.0,11.583333333333334
2026-01-20T23:11:36+00:00,SAT-62165,232.1257199502574,36.96046913038073,2156.998702226823,-1.048541689186447,36724.365282257015,10.5,10500036724.365282,47.655,-122.3035,60.0,11.6
2026-01-20T23:11:37+00:00,SAT-62165,232.31835522090446,37.07551409794853,2155.9529566488077,-1.0276504637633732,35992.666198145045,10.5,10500035992.666199,47.655,-122.3035,60.0,11.616666666666667
2026-01-20T23:11:38+00:00,SAT-62165,232.51189473938575,37.19018802222802,2154.9280465862807,-1.0067287417758068,35259.898995344214,10.5,10500035259.898994,47.655,-122.3035,60.0,11.633333333333333
2026-01-20T23:11:39+00:00,SAT-62165,232.70633888116336,37.30448482906653,2153.924002454483,-0.9857770925673623,34526.08361467621,10.5,10500034526.083614,47.655,-122.3035,60.0,11.65
2026-01-20T23:11:40+00:00,SAT-62165,232.9016879289012,37.41839843129088,2152.9408541008293,-0.9647960968505304,33791.24039514886,10.5,10500033791.240395,47.655,-122.3035,60.0,11.666666666666666
2026-01-20T23:11:41+00:00,SAT-62165,233.0979420718307,37.531922730238726,2151.97863079357,-0.9437863330861326,33055.38959690704,10.5,10500033055.389597,47.655,-122.3035,60.0,11.683333333333334
2026-01-20T23:11:42+00:00,SAT-62165,233.295101403044,37.645051616090434,2151.037361224039,-0.9227483939171192,32318.551976813746,10.5,10500032318.551977,47.655,-122.3035,60.0,11.7
2026-01-20T23:11:43+00:00,SAT-62165,233.49316591953442,37.757778969808236,2150.1170734925054,-0.9016828658166509,31580.74807563983,10.5,10500031580.748075,47.655,-122.3035,60.0,11.716666666666667
2026-01-20T23:11:44+00:00,SAT-62165,233.69213551881688,37.870098663108635,2149.2177951143312,-0.8805903441570714,30841.9987458432,10.5,10500030841.998745,47.655,-122.3035,60.0,11.733333333333333
2026-01-20T23:11:45+00:00,SAT-62165,233.8920099979533,37.98200455985651,2148.339553011092,-0.859471430299332,30102.32504962812,10.5,10500030102.32505,47.655,-122.3035,60.0,11.75
2026-01-20T23:11:46+00:00,SAT-62165,234.0927890525444,38.09349051741752,2147.4823735046066,-0.838326721602153,29361.74790902381,10.5,10500029361.74791,47.655,-122.3035,60.0,11.766666666666667
2026-01-20T23:11:47+00:00,SAT-62165,234.29447227336874,38.20455038672513,2146.6462823209285,-0.8171568284123196,28620.288700956433,10.5,10500028620.2887,47.655,-122.3035,60.0,11.783333333333333
2026-01-20T23:11:48+00:00,SAT-62165,234.49705914659523,38.315178014357656,2145.8313045773925,-0.7959623572271058,27877.968667526024,10.5,10500027877.968668,47.655,-122.3035,60.0,11.8
2026-01-20T23:11:49+00:00,SAT-62165,234.70054905058328,38.42536724272032,2145.0374647864514,-0.7747439236609946,27134.809370155814,10.5,10500027134.80937,47.655,-122.3035,60.0,11.816666666666666
2026-01-20T23:11:50+00:00,SAT-62165,234.90494125542585,38.535111911763025,2144.2647868465865,-0.7535021430710553,26390.832361253335,10.5,10500026390.832361,47.655,-122.3035,60.0,11.833333333333334
2026-01-20T23:11:51+00:00,SAT-62165,235.11023492044862,38.64440585958119,2143.5132940425638,-0.7322376402390393,25646.059523318334,10.5,10500025646.059523,47.655,-122.3035,60.0,11.85
2026-01-20T23:11:52+00:00,SAT-62165,235.31642909397283,38.753242924251666,2142.783009036032,-0.7109510295457253,24900.512374564525,10.5,10500024900.512375,47.655,-122.3035,60.0,11.866666666666667
2026-01-20T23:11:53+00:00,SAT-62165,235.5235227084894,38.86161694323782,2142.0739538758985,-0.6896429461029397,24154.213159294577,10.5,10500024154.21316,47.655,-122.3035,60.0,11.883333333333333
2026-01-20T23:11:54+00:00,SAT-62165,235.73151458312498,38.969521756664996,2141.3861499776517,-0.6683140155808017,23407.183791122654,10.5,10500023407.18379,47.655,-122.3035,60.0,11.9
2026-01-20T23:11:55+00:00,SAT-62165,235.94040341901058,39.07695120685551,2140.719618132779,-0.6469648730385366,22659.44651250911,10.5,10500022659.446512,47.655,-122.3035,60.0,11.916666666666666
2026-01-20T23:11:56+00:00,SAT-62165,236.1501877992759,39.18389914030439,2140.074378499402,-0.6255961546948725,21911.023606525025,10.5,10500021911.023607,47.655,-122.3035,60.0,11.933333333333334
2026-01-20T23:11:57+00:00,SAT-62165,236.3608661869528,39.290359408560185,2139.4504506011194,-0.6042084972744716,21161.937373961395,10.5,10500021161.937374,47.655,-122.3035,60.0,11.95
2026-01-20T23:11:58+00:00,SAT-62165,236.5724369228279,39.39632586910715,2138.8478533265047,-0.5828025454497897,20412.210393974594,10.5,10500020412.210394,47.655,-122.3035,60.0,11.966666666666667
2026-01-20T23:11:59+00:00,SAT-62165,236.78489822519077,39.50179238720005,2138.266604921176,-0.5613789421556798,19661.865184862785,10.5,10500019661.865185,47.655,-122.3035,60.0,11.983333333333333
2026-01-20T23:12:00+00:00,SAT-62165,236.99824818718128,39.60675283649262,2137.7067229895324,-0.5399383330053132,18910.92435873016,10.5,10500018910.924358,47.655,-122.3035,60.0,12.0
2026-01-20T23:12:01+00:00,SAT-62165,237.21248477509243,39.71120110016726,2137.168224492082,-0.5184813717166954,18159.410811546506,10.5,10500018159.410812,47.655,-122.3035,60.0,12.016666666666667
2026-01-20T23:12:02+00:00,SAT-62165,237.4276058287099,39.81513107304594,2136.6511257373563,-0.4970087069924657,17407.347263622254,10.5,10500017407.347263,47.655,-122.3035,60.0,12.033333333333333
2026-01-20T23:12:03+00:00,SAT-62165,237.64360905744542,39.918536661649945,2136.1554423869165,-0.47552099393781555,16654.756659512306,10.5,10500016654.75666,47.655,-122.3035,60.0,12.05
2026-01-20T23:12:04+00:00,SAT-62165,237.8604920401514,40.02141178606905,2135.681189448962,-0.4540188907319041,15901.662051434907,10.5,10500015901.662052,47.655,-122.3035,60.0,12.066666666666666
2026-01-20T23:12:05+00:00,SAT-62165,238.07825222391,40.12375038130649,2135.228381275272,-0.43250305521312904,15148.086479673397,10.5,10500015148.08648,47.655,-122.3035,60.0,12.083333333333334
2026-01-20T23:12:06+00:00,SAT-62165,238.2968869220289,40.22554639825368,2134.7970315615394,-0.4109741491082772,14394.053120698954,10.5,10500014394.053122,47.655,-122.3035,60.0,12.1
2026-01-20T23:12:07+00:00,SAT-62165,238.516393312894,40.32679380507784,2134.3871533434954,-0.38943283441806614,13639.58516057697,10.5,10500013639.585161,47.655,-122.3035,60.0,12.116666666666667
2026-01-20T23:12:08+00:00,SAT-62165,238.73676843838155,40.427486588389314,2133.9987589966363,-0.3678797781819584,12884.705961850992,10.5,10500012884.705961,47.655,-122.3035,60.0,12.133333333333333
2026-01-20T23:12:09+00:00,SAT-62165,238.95800920352707,40.52761875498594,2133.6318602311962,-0.34631564418477684,12129.438773073327,10.5,10500012129.438772,47.655,-122.3035,60.0,12.15
2026-01-20T23:12:10+00:00,SAT-62165,239.18011237330575,40.62718433227223,2133.286468095396,-0.3247411033551357,11373.80709300207,10.5,10500011373.807093,47.655,-122.3035,60.0,12.166666666666666
2026-01-20T23:12:11+00:00,SAT-62165,239.40307457348905,40.72617737053432,2132.962592968316,-0.30315682402210503,10617.834329348281,10.5,10500010617.83433,47.655,-122.3035,60.0,12.183333333333334
2026-01-20T23:12:12+00:00,SAT-62165,239.6268922878756,40.824591943547894,2132.6602445624912,-0.2815634783480025,9861.544024079572,10.5,10500009861.544024,47.655,-122.3035,60.0,12.2
2026-01-20T23:12:13+00:00,SAT-62165,239.8515618578894,40.92242215026294,2132.3794319200856,-0.2599617386488823,9104.959724548053,10.5,10500009104.959724,47.655,-122.3035,60.0,12.216666666666667
2026-01-20T23:12:14+00:00,SAT-62165,240.07707948101836,41.01966211595221,2132.12016341274,-0.23835228022277796,8348.105082547369,10.5,10500008348.105083,47.655,-122.3035,60.0,12.233333333333333
2026-01-20T23:12:15+00:00,SAT-62165,240.30344121050746,41.11630599389494,2131.8824467385975,-0.21673577771339025,7591.003726953657,10.5,10500007591.003727,47.655,-122.3035,60.0,12.25
2026-01-20T23:12:16+00:00,SAT-62165,240.53064295329597,41.21234796629591,2131.6662889229583,-0.19511290641011308,6833.679309257965,10.5,10500006833.67931,47.655,-122.3035,60.0,12.266666666666667
2026-01-20T23:12:17+00:00,SAT-62165,240.7586804686007,41.30778224547524,2131.4716963176315,-0.17348434684386496,6076.1556645317005,10.5,10500006076.155664,47.655,-122.3035,60.0,12.283333333333333
2026-01-20T23:12:18+00:00,SAT-62165,240.98754936987206,41.40260307646039,2131.298674595713,-0.1518507733640872,5318.456411344796,10.5,10500005318.456411,47.655,-122.3035,60.0,12.3
2026-01-20T23:12:19+00:00,SAT-62165,241.2172451189285,41.49680473628482,2131.1472287577444,-0.1302128679336076,4560.6054349201795,10.5,10500004560.605434,47.655,-122.3035,60.0,12.316666666666666
2026-01-20T23:12:20+00:00,SAT-62165,241.44776302999514,41.59038153740714,2131.017363124125,-0.10857130897524898,3802.6264964948327,10.5,10500003802.626497,47.655,-122.3035,60.0,12.333333333333334
2026-01-20T23:12:21+00:00,SAT-62165,241.6790982653103,41.68332782761761,2130.9090813386406,-0.08692677818654831,3044.543472000077,10.5,10500003044.543472,47.655,-122.3035,60.0,12.35
2026-01-20T23:12:22+00:00,SAT-62165,241.91124583747677,41.77563799267931,2130.8223863651956,-0.06527995447262909,2286.380139565103,10.5,10500002286.38014,47.655,-122.3035,60.0,12.366666666666667
2026-01-20T23:12:23+00:00,SAT-62165,242.14420060456348,41.86730645604123,2130.7572804906017,-0.043631520036961004,1528.1603928411387,10.5,10500001528.160393,47.655,-122.3035,60.0,12.383333333333333
2026-01-20T23:12:24+00:00,SAT-62165,242.37795727316234,41.95832768171536,2130.713765321285,-0.021982156815944325,769.9081161255077,10.5,10500000769.908115,47.655,-122.3035,60.0,12.4
2026-01-20T23:12:25+00:00,SAT-62165,242.61251039679848,42.04869617526175,2130.6918417835536,-0.0003325455153251283,11.647150612821111,10.5,10500000011.64715,47.655,-122.3035,60.0,12.416666666666666
2026-01-20T23:12:26+00:00,SAT-62165,242.84785437409292,42.13840648468074,2130.691510124827,0.02131663225655219,-746.5986308895002,10.5,10499999253.40137,47.655,-122.3035,60.0,12.433333333333334
2026-01-20T23:12:27+00:00,SAT-62165,243.08398344845455,42.22745320188838,2130.7127699127304,0.04296469409572518,-1504.8053277081256,10.5,10499998495.194672,47.655,-122.3035,60.0,12.45
2026-01-20T23:12:28+00:00,SAT-62165,243.32089171003602,42.31583096500832,2130.755620034309,0.06461095892290628,-2262.949085565441,10.5,10499997737.050915,47.655,-122.3035,60.0,12.466666666666667
2026-01-20T23:12:29+00:00,SAT-62165,243.55857309187894,42.40353445844755,2130.820058697341,0.0862547456306016,-3021.0060491959302,10.5,10499996978.99395,47.655,-122.3035,60.0,12.483333333333333
2026-01-20T23:12:30+00:00,SAT-62165,243.79702137218973,42.49055841524642,2130.906083430317,0.10789537332426145,-3778.9523707922813,10.5,10499996221.047628,47.655,-122.3035,60.0,12.5
2026-01-20T23:12:31+00:00,SAT-62165,244.0362301722335,42.5768976177816,2131.013691082645,0.1295321615189613,-4536.764216893987,10.5,10499995463.235783,47.655,-122.3035,60.0,12.516666666666667
2026-01-20T23:12:32+00:00,SAT-62165,244.27619295773547,42.66254689972904,2131.142877825067,0.151164430350821,-5294.417775792146,10.5,10499994705.582224,47.655,-122.3035,60.0,12.533333333333333
2026-01-20T23:12:33+00:00,SAT-62165,244.51690303729887,42.74750114690421,2131.2936391502703,0.17279150078562933,-6051.889264836369,10.5,10499993948.110735,47.655,-122.3035,60.0,12.55
2026-01-20T23:12:34+00:00,SAT-62165,244.75835356311114,42.83175529891462,2131.4659698737205,0.1944126942811318,-6809.154918606671,10.5,10499993190.845081,47.655,-122.3035,60.0,12.566666666666666
2026-01-20T23:12:35+00:00,SAT-62165,245.00053753073783,42.91530435044245,2131.65986413415,0.21602733328203663,-7566.19100625068,10.5,10499992433.808994,47.655,-122.3035,60.0,12.583333333333334
2026-01-20T23:12:36+00:00,SAT-62165,245.243447778938,42.9981433525165,2131.8753153945436,0.2376347415252008,-8322.973842172536,10.5,10499991677.026157,47.655,-122.3035,60.0,12.6
2026-01-20T23:12:37+00:00,SAT-62165,245.4870769910499,43.0802674142836,2132.112316443425,0.25923424301378867,-9079.47975010359,10.5,10499990920.52025,47.655,-122.3035,60.0,12.616666666666667
2026-01-20T23:12:38+00:00,SAT-62165,245.73141769221382,43.16167170333014,2132.3708593951237,0.2808251636301068,-9835.685119590704,10.5,10499990164.31488,47.655,-122.3035,60.0,12.633333333333333
2026-01-20T23:12:39+00:00,SAT-62165,245.97646225280786,43.24235144809347,2132.650935691651,0.30240683068989593,-10591.56639038567,10.5,10499989408.433609,47.655,-122.3035,60.0,12.65
2026-01-20T23:12:40+00:00,SAT-62165,246.22220288770262,43.32230193880127,2132.9525361041256,0.32397857217873033,-11347.100025700673,10.5,10499988652.899975,47.655,-122.3035,60.0,12.666666666666666
2026-01-20T23:12:41+00:00,SAT-62165,246.46863165583895,43.401518528501434,2133.2756507334448,0.3455397179615809,-12102.262554572333,10.5,10499987897.737446,47.655,-122.3035,60.0,12.683333333333334
2026-01-20T23:12:42+00:00,SAT-62165,246.71574046153316,43.47999663463989,2133.6202690121586,0.36708959961383236,-12857.030565943189,10.5,10499987142.969435,47.655,-122.3035,60.0,12.7
2026-01-20T23:12:43+00:00,SAT-62165,246.9635210550557,43.55773174033723,2133.9863797061735,0.3886275497626302,-13611.380685592889,10.5,10499986388.619314,47.655,-122.3035,60.0,12.716666666666667
2026-01-20T23:12:44+00:00,SAT-62165,247.21196503237505,43.63471939538571,2134.3739709158035,0.41015290388115044,-14365.28963898111,10.5,10499985634.710361,47.655,-122.3035,60.0,12.733333333333333
2026-01-20T23:12:45+00:00,SAT-62165,247.4610638374017,43.71095521798684,2134.7830300786077,0.4316649979919548,-15118.734170809345,10.5,10499984881.26583,47.655,-122.3035,60.0,12.75
2026-01-20T23:12:46+00:00,SAT-62165,247.7108087610253,43.786434895449524,2135.213543969938,0.45316317154910485,-15871.691145964722,10.5,10499984128.308853,47.655,-122.3035,60.0,12.766666666666667
2026-01-20T23:12:47+00:00,SAT-62165,247.96119094372642,43.86115418595936,2135.665498706363,0.474646764836331,-16624.137458392885,10.5,10499983375.862541,47.655,-122.3035,60.0,12.783333333333333
2026-01-20T23:12:48+00:00,SAT-62165,248.21220137498864,43.93510891932014,2136.1388797464933,0.4961151202373277,-17376.050075589093,10.5,10499982623.949924,47.655,-122.3035,60.0,12.8
2026-01-20T23:12:49+00:00,SAT-62165,248.4638308950056,44.00829499837038,2136.6336718930766,0.5175675847583021,-18127.406126948572,10.5,10499981872.593874,47.655,-122.3035,60.0,12.816666666666666
2026-01-20T23:12:50+00:00,SAT-62165,248.7160701966053,44.080708400390144,2137.149859297609,0.5390035031197433,-18878.182661811006,10.5,10499981121.817339,47.655,-122.3035,60.0,12.833333333333334
2026-01-20T23:12:51+00:00,SAT-62165,248.96890982409957,44.15234517759635,2137.6874254580534,0.5604222281319825,-19628.357012856595,10.5,10499980371.642986,47.655,-122.3035,60.0,12.85
2026-01-20T23:12:52+00:00,SAT-62165,249.22234017754397,44.22320145914484,2138.2463532269107,0.5818231101613219,-20377.90642716529,10.5,10499979622.093573,47.655,-122.3035,60.0,12.866666666666667
2026-01-20T23:12:53+00:00,SAT-62165,249.4763515115215,44.293273451529764,2138.826624808778,0.6032055060843593,-21126.808379835133,10.5,10499978873.19162,47.655,-122.3035,60.0,12.883333333333333
2026-01-20T23:12:54+00:00,SAT-62165,249.73093393850124,44.36255744022963,2139.428221766846,0.6245687723551073,-21875.040331163458,10.5,10499978124.95967,47.655,-122.3035,60.0,12.9
2026-01-20T23:12:55+00:00,SAT-62165,249.98607742884315,44.4310497903793,2140.051125022475,0.6459122707311062,-22622.579927199553,10.5,10499977377.420073,47.655,-122.3035,60.0,12.916666666666666
2026-01-20T23:12:56+00:00,SAT-62165,250.2417718134645,44.49874694812534,2140.6953148604844,0.6672353632567863,-23369.404824040823,10.5,10499976630.595177,47.655,-122.3035,60.0,12.933333333333334
2026-01-20T23:12:57+00:00,SAT-62165,250.49800678443444,44.56564544138386,2141.360770929439,0.6885374179293561,-24115.49288627614,10.5,10499975884.507114,47.655,-122.3035,60.0,12.95
2026-01-20T23:12:58+00:00,SAT-62165,250.7547718980306,44.63174188120796,2142.0474722475874,0.7098178033004916,-24860.821997914176,10.5,10499975139.178001,47.655,-122.3035,60.0,12.966666666666667
2026-01-20T23:12:59+00:00,SAT-62165,251.01205657550022,44.6970329624995,2142.7553972034125,0.7310758948755861,-25605.37028651219,10.5,10499974394.629713,47.655,-122.3035,60.0,12.983333333333333
2026-01-20T23:13:00+00:00,SAT-62165,251.2698501064998,44.76151546537208,2143.484523562568,0.7523110637756208,-26349.115726066793,10.5,10499973650.884274,47.655,-122.3035,60.0,13.0
2026-01-20T23:13:01+00:00,SAT-62165,251.52814164801532,44.825186255322215,2144.2348284635073,0.7735226926185246,-27092.03669324633,10.5,10499972907.963306,47.655,-122.3035,60.0,13.016666666666667
2026-01-20T23:13:02+00:00,SAT-62165,251.78692022973627,44.888042284987655,2145.0062884289455,0.794710165943043,-27834.111631994263,10.5,10499972165.888369,47.655,-122.3035,60.0,13.033333333333333
2026-01-20T23:13:03+00:00,SAT-62165,252.04617475558564,44.95008059487016,2145.7988793677796,0.8158728648912345,-28575.318867287722,10.5,10499971424.681133,47.655,-122.3035,60.0,13.05
2026-01-20T23:13:04+00:00,SAT-62165,252.30589400324382,45.01129831355647,2146.6125765716974,0.8370101837352695,-29315.63718397589,10.5,10499970684.362816,47.655,-122.3035,60.0,13.066666666666666
2026-01-20T23:13:05+00:00,SAT-62165,252.5660666302903,45.07169265948833,2147.447354728276,0.8581215131587786,-30055.0452412221,10.5,10499969944.95476,47.655,-122.3035,60.0,13.083333333333334
2026-01-20T23:13:06+00:00,SAT-62165,252.826681173658,45.131260941069364,2148.3031879173996,0.8792062533409712,-30793.52203076502,10.5,10499969206.47797,47.655,-122.3035,60.0,13.1
2026-01-20T23:13:07+00:00,SAT-62165,253.0877260543709,45.19000055798707,2149.1800496207316,0.9002638015888513,-31531.04644374656,10.5,10499968468.953556,47.655,-122.3035,60.0,13.116666666666667
2026-01-20T23:13:08+00:00,SAT-62165,253.34918957757935,45.24790900139292,2150.07791271885,0.9212935644346295,-32267.597694414344,10.5,10499967732.402306,47.655,-122.3035,60.0,13.133333333333333
2026-01-20T23:13:09+00:00,SAT-62165,253.61105993724138,45.3049838551058,2150.996749500446,0.9422949524706833,-33003.15513922026,10.5,10499966996.84486,47.655,-122.3035,60.0,13.15
2026-01-20T23:13:10+00:00,SAT-62165,253.8733252185403,45.361222796234905,2151.9365316663766,0.9632673775769652,-33737.6981797125,10.5,10499966262.30182,47.655,-122.3035,60.0,13.166666666666666
2026-01-20T23:13:11+00:00,SAT-62165,254.1359734000261,45.41662359571529,2152.897230330947,0.9842102511966131,-34471.20620214014,10.5,10499965528.793798,47.655,-122.3035,60.0,13.183333333333334
2026-01-20T23:13:12+00:00,SAT-62165,254.39899235478833,45.4711841185909,2153.8788160214735,1.0051230051937972,-35203.659307983224,10.5,10499964796.340693,47.655,-122.3035,60.0,13.2
2026-01-20T23:13:13+00:00,SAT-62165,254.66236985863588,45.52490232573988,2154.8812586986533,1.0260050569763761,-35935.0370924006,10.5,10499964064.962908,47.655,-122.3035,60.0,13.216666666666667
2026-01-20T23:13:14+00:00,SAT-62165,254.9260935871248,45.577776273185165,2155.9045277421446,1.0468558382489397,-36665.31965128311,10.5,10499963334.68035,47.655,-122.3035,60.0,13.233333333333333
2026-01-20T23:13:15+00:00,SAT-62165,255.19015112179446,45.62980411331206,2156.948591964825,1.0676747841475769,-37394.487200707226,10.5,10499962605.5128,47.655,-122.3035,60.0,13.25
2026-01-20T23:13:16+00:00,SAT-62165,255.45452995277273,45.68098409526088,2158.013419616215,1.088461330486596,-38122.51998050351,10.5,10499961877.480019,47.655,-122.3035,60.0,13.266666666666667
2026-01-20T23:13:17+00:00,SAT-62165,255.71921748106823,45.73131456523245,2159.0989783831533,1.109214923694475,-38849.39860225566,10.5,10499961150.601398,47.655,-122.3035,60.0,13.283333333333333
2026-01-20T23:13:18+00:00,SAT-62165,255.98420102334444,45.7807939672252,2160.205235400385,1.1299350077155146,-39575.103590540966,10.5,10499960424.89641,47.655,-122.3035,60.0,13.3
2026-01-20T23:13:19+00:00,SAT-62165,256.2494678134139,45.82942084309657,2161.33215724808,1.1506210374174364,-40299.61585252115,10.5,10499959700.384148,47.655,-122.3035,60.0,13.316666666666666
2026-01-20T23:13:20+00:00,SAT-62165,256.5150050071285,45.87719383322269,2162.479709962731,1.1712724705300008,-41022.916395598615,10.5,10499958977.083605,47.655,-122.3035,60.0,13.333333333333334
2026-01-20T23:13:21+00:00,SAT-62165,256.7807996853479,45.92411167674603,2163.647859040006,1.1918887633198054,-41744.986175929596,10.5,10499958255.013824,47.655,-122.3035,60.0,13.35
2026-01-20T23:13:22+00:00,SAT-62165,257.04683885573814,45.97017321158035,2164.83656943329,1.212469388319782,-42465.80671938622,10.5,10499957534.193281,47.655,-122.3035,60.0,13.366666666666667
2026-01-20T23:13:23+00:00,SAT-62165,257.3131094592891,46.015377375214875,2166.0458055699078,1.2330138122595027,-43185.35934858234,10.5,10499956814.640652,47.655,-122.3035,60.0,13.383333333333333
2026-01-20T23:13:24+00:00,SAT-62165,257.5795983710544,46.05972320444017,2167.2755313453345,1.2535215140350644,-43903.62581225501,10.5,10499956096.374187,47.655,-122.3035,60.0,13.4
2026-01-20T23:13:25+00:00,SAT-62165,257.8462924056084,46.103209835863275,2168.5257101353322,1.2739919747124104,-44620.58793513848,10.5,10499955379.412066,47.655,-122.3035,60.0,13.416666666666666
2026-01-20T23:13:26+00:00,SAT-62165,258.1131783199653,46.14583650593739,2169.7963047981116,1.294424678409343,-45336.227648856,10.5,10499954663.77235,47.655,-122.3035,60.0,13.433333333333334
2026-01-20T23:13:27+00:00,SAT-62165,258.3802428168003,46.18760255100328,2171.087277677379,1.3148191162664986,-46050.52713100019,10.5,10499953949.47287,47.655,-122.3035,60.0,13.45
2026-01-20T23:13:28+00:00,SAT-62165,258.64747254859503,46.22850740744525,2172.3985906093353,1.3351747874383781,-46763.468839843095,10.5,10499953236.53116,47.655,-122.3035,60.0,13.466666666666667
2026-01-20T23:13:29+00:00,SAT-62165,258.9148541221061,46.26855061184348,2173.7302049306736,1.3554911914159236,-47475.035245440355,10.5,10499952524.964754,47.655,-122.3035,60.0,13.483333333333333
2026-01-20T23:13:30+00:00,SAT-62165,259.1823741009544,46.30773180079104,2175.0820814789126,1.3757678313782276,-48185.20894702224,10.5,10499951814.791054,47.655,-122.3035,60.0,13.5
2026-01-20T23:13:31+00:00,SAT-62165,259.45001900921955,46.346050710841794,2176.454180596074,1.3960042267567432,-48893.97311304544,10.5,10499951106.026888,47.655,-122.3035,60.0,13.516666666666667
2026-01-20T23:13:32+00:00,SAT-62165,259.7177753375753,46.38350717877474,2177.8464621448925,1.4161998878756246,-49601.3105929905,10.5,10499950398.689407,47.655,-122.3035,60.0,13.533333333333333
2026-01-20T23:13:33+00:00,SAT-62165,259.98562954417093,46.420101141058254,2179.258885499734,1.4363543372725645,-50307.20466410775,10.5,10499949692.795336,47.655,-122.3035,60.0,13.55
2026-01-20T23:13:34+00:00,SAT-62165,260.25356805984273,46.455832633900236,2180.691409558774,1.456467108118228,-51011.638976059214,10.5,10499948988.361025,47.655,-122.3035,60.0,13.566666666666666
2026-01-20T23:13:35+00:00,SAT-62165,260.5215772932405,46.490701793237925,2182.143992754604,1.476537730241991,-51714.5970614808,10.5,10499948285.402939,47.655,-122.3035,60.0,13.583333333333334
2026-01-20T23:13:36+00:00,SAT-62165,260.7896436328447,46.524708854257604,2183.6165930508987,1.4965657409064506,-52416.06271335129,10.5,10499947583.937286,47.655,-122.3035,60.0,13.6
2026-01-20T23:13:37+00:00,SAT-62165,261.05775345139625,46.55785415121589,2185.109167949829,1.516550684095665,-53116.019960063444,10.5,10499946883.98004,47.655,-122.3035,60.0,13.616666666666667
2026-01-20T23:13:38+00:00,SAT-62165,261.3258931100397,46.59013811717911,2186.6216744987673,1.5364921115592902,-53814.453101994135,10.5,10499946185.546898,47.655,-122.3035,60.0,13.633333333333333
2026-01-20T23:13:39+00:00,SAT-62165,261.59404896277033,46.621561283759206,2188.154069298029,1.556389578343804,-54511.34655498886,10.5,10499945488.653444,47.655,-122.3035,60.0,13.65
2026-01-20T23:13:40+00:00,SAT-62165,261.86220735991833,46.6521242806903,2189.7063085041636,1.5762426425709217,-55206.684842600946,10.5,10499944793.315157,47.655,-122.3035,60.0,13.666666666666666
2026-01-20T23:13:41+00:00,SAT-62165,262.13035465162613,46.6818278353778,2191.278347833021,1.5960508714399269,-55900.452806318535,10.5,10499944099.547194,47.655,-122.3035,60.0,13.683333333333334
2026-01-20T23:13:42+00:00,SAT-62165,262.39847719254,46.71067277255626,2192.8701425688037,1.6158138367304324,-56592.63544805234,10.5,10499943407.364552,47.655,-122.3035,60.0,13.7
2026-01-20T23:13:43+00:00,SAT-62165,262.66656134549936,46.73866001378885,2194.4816475686366,1.635531113046738,-57283.21786864548,10.5,10499942716.782131,47.655,-122.3035,60.0,13.716666666666667
2026-01-20T23:13:44+00:00,SAT-62165,262.93459348505456,46.7657905769228,2196.1128172653816,1.6552022924906404,-57972.18578177749,10.5,10499942027.814219,47.655,-122.3035,60.0,13.733333333333333
2026-01-20T23:13:45+00:00,SAT-62165,263.2025600034876,46.792065575769435,2197.7636056850924,1.6748269519747736,-58659.524369139144,10.5,10499941340.475632,47.655,-122.3035,60.0,13.75
2026-01-20T23:13:46+00:00,SAT-62165,263.47044731101556,46.81748621914609,2199.433966431862,1.6944046909658013,-59345.21960235875,10.5,10499940654.780397,47.655,-122.3035,60.0,13.766666666666667
2026-01-20T23:13:47+00:00,SAT-62165,263.7382418427402,46.842053810591224,2201.1238527103187,1.7139351135445156,-60029.257614670925,10.5,10499939970.742386,47.655,-122.3035,60.0,13.783333333333333
2026-01-20T23:13:48+00:00,SAT-62165,264.0059300623253,46.865769747694756,2202.833217330227,1.733417817354342,-60711.62431384645,10.5,10499939288.375687,47.655,-122.3035,60.0,13.8
2026-01-20T23:13:49+00:00,SAT-62165,264.27349846374966,46.88863552122961,2204.5620127000684,1.7528524192252728,-61392.306279650846,10.5,10499938607.69372,47.655,-122.3035,60.0,13.816666666666666
2026-01-20T23:13:50+00:00,SAT-62165,264.54093357753084,46.910652714674846,2206.3101908461754,1.7722385351291723,-62071.29006179438,10.5,10499937928.709938,47.655,-122.3035,60.0,13.833333333333334
2026-01-20T23:13:51+00:00,SAT-62165,264.80822197335124,46.931823003367576,2208.077703411878,1.7915757893312874,-62748.56250045662,10.5,10499937251.4375,47.655,-122.3035,60.0,13.85
2026-01-20T23:13:52+00:00,SAT-62165,265.0753502643702,46.95214815378643,2209.864501665771,1.8108638064399152,-63424.110447832245,10.5,10499936575.889553,47.655,-122.3035,60.0,13.866666666666667
2026-01-20T23:13:53+00:00,SAT-62165,265.3423051100168,46.971630022675036,2211.6705365020603,1.8301022251829673,-64097.921250644526,10.5,10499935902.078749,47.655,-122.3035,60.0,13.883333333333333
2026-01-20T23:13:54+00:00,SAT-62165,265.6090732211671,46.99027055633637,2213.495758454643,1.8492906845650812,-64769.98226530886,10.5,10499935230.017735,47.655,-122.3035,60.0,13.9
2026-01-20T23:13:55+00:00,SAT-62165,265.8756413628808,47.00807178969837,2215.3401176973825,1.8684288321594795,-65440.28114834875,10.5,10499934559.718851,47.655,-122.3035,60.0,13.916666666666666
2026-01-20T23:13:56+00:00,SAT-62165,266.141996358559,47.02503584546991,2217.2035640526565,1.8875163154730632,-66108.80555396482,10.5,10499933891.194447,47.655,-122.3035,60.0,13.933333333333334
2026-01-20T23:13:57+00:00,SAT-62165,266.4081250926056,47.041164933164254,2219.0860469912877,1.9065527966901183,-66775.5436504218,10.5,10499933224.45635,47.655,-122.3035,60.0,13.95
2026-01-20T23:13:58+00:00,SAT-62165,266.6740145154335,47.05646134825843,2220.9875156471867,1.9255379411001554,-67440.48371474253,10.5,10499932559.516285,47.655,-122.3035,60.0,13.966666666666667
2026-01-20T23:13:59+00:00,SAT-62165,266.9396516464941,47.07092747118735,2222.907918820444,1.944471408667558,-68103.61383744137,10.5,10499931896.386162,47.655,-122.3035,60.0,13.983333333333333
2026-01-20T23:14:00+00:00,SAT-62165,267.2050235761808,47.08456576626652,2224.8472049720217,1.9633528871898724,-68764.92308386778,10.5,10499931235.076916,47.655,-122.3035,60.0,14.0
2026-01-20T23:14:01+00:00,SAT-62165,267.47011747246046,47.097378780856474,2226.8053222515127,1.9821820449703516,-69424.39983659859,10.5,10499930575.600163,47.655,-122.3035,60.0,14.016666666666667
2026-01-20T23:14:02+00:00,SAT-62165,267.7349205805967,47.10936914412156,2228.782218477696,2.0009585817354774,-70082.03357878506,10.5,10499929917.966421,47.655,-122.3035,60.0,14.033333333333333
2026-01-20T23:14:03+00:00,SAT-62165,267.99942023013057,47.1205395661536,2230.77784116988,2.0196821770262585,-70737.81308659777,10.5,10499929262.186913,47.655,-122.3035,60.0,14.05
2026-01-20T23:14:04+00:00,SAT-62165,268.26360383450503,47.130892836709556,2232.792137527768,2.0383525409195795,-71391.72820570285,10.5,10499928608.271793,47.655,-122.3035,60.0,14.066666666666666
2026-01-20T23:14:05+00:00,SAT-62165,268.52745889767334,47.14043182425146,2234.825054461912,2.0569693709260846,-72043.76834164349,10.5,10499927956.231659,47.655,-122.3035,60.0,14.083333333333334
2026-01-20T23:14:06+00:00,SAT-62165,268.790973014783,47.14915947471259,2236.876538581182,2.0755323788925337,-72693.92340207439,10.5,10499927306.076597,47.655,-122.3035,60.0,14.1
2026-01-20T23:14:07+00:00,SAT-62165,269.0541338763461,47.15707881038503,2238.946536207064,2.0940412805517896,-73342.18343075791,10.5,10499926657.816568,47.655,-122.3035,60.0,14.116666666666667
2026-01-20T23:14:08+00:00,SAT-62165,269.3169292710884,47.16419292874468,2241.0349933775346,2.112495797554934,-73988.53867873758,10.5,10499926011.46132,47.655,-122.3035,60.0,14.133333333333333
2026-01-20T23:14:09+00:00,SAT-62165,269.5793470888662,47.17050500125588,2243.1418558529626,2.1308956572212256,-74632.97959558031,10.5,10499925367.020405,47.655,-122.3035,60.0,14.15
2026-01-20T23:14:10+00:00,SAT-62165,269.8413753235885,47.176018272162985,2245.2670691217645,2.149240594463741,-75275.4968968208,10.5,10499924724.503103,47.655,-122.3035,60.0,14.166666666666666
2026-01-20T23:14:11+00:00,SAT-62165,270.1030020762339,47.180736057266515,2247.410578407976,2.1675303445746885,-75916.08131127244,10.5,10499924083.918688,47.655,-122.3035,60.0,14.183333333333334
2026-01-20T23:14:12+00:00,SAT-62165,270.36421555695165,47.1846617426658,2249.5723286716325,2.185764650428154,-76554.72383329808,10.5,10499923445.276167,47.655,-122.3035,60.0,14.2
2026-01-20T23:14:13+00:00,SAT-62165,270.6250040879221,47.18779878350374,2251.752264616326,2.2039432728421926,-77191.4160857343,10.5,10499922808.583914,47.655,-122.3035,60.0,14.216666666666667
2026-01-20T23:14:14+00:00,SAT-62165,270.8853561076129,47.19015070272328,2253.9503307071072,2.222065959111894,-77826.14921778617,10.5,10499922173.850782,47.655,-122.3035,60.0,14.233333333333333
2026-01-20T23:14:15+00:00,SAT-62165,271.14526017074144,47.19172108972586,2256.1664711569947,2.2401324652035934,-78458.91468236246,10.5,10499921541.085318,47.655,-122.3035,60.0,14.25
2026-01-20T23:14:16+00:00,SAT-62165,271.4047049512496,47.19251359909656,2258.4006299356247,2.258142574862664,-79089.70490531142,10.5,10499920910.295095,47.655,-122.3035,60.0,14.266666666666667
2026-01-20T23:14:17+00:00,SAT-62165,271.66367924736494,47.192531949305426,2260.652750796954,2.2760960482754427,-79718.51148734418,10.5,10499920281.488512,47.655,-122.3035,60.0,14.283333333333333
2026-01-20T23:14:18+00:00,SAT-62165,271.92217198030033,47.19177992135103,2262.9227772557674,2.293992669610397,-80345.32686912747,10.5,10499919654.67313,47.655,-122.3035,60.0,14.3
2026-01-20T23:14:19+00:00,SAT-62165,272.18017219870103,47.19026135743693,2265.210652611592,2.311832213476634,-80970.14315651882,10.5,10499919029.856844,47.655,-122.3035,60.0,14.316666666666666
2026-01-20T23:14:20+00:00,SAT-62165,272.43766907904956,47.18798015963315,2267.5163199391664,2.3296144885942085,-81592.95365008546,10.5,10499918407.04635,47.655,-122.3035,60.0,14.333333333333334
2026-01-20T23:14:21+00:00,SAT-62165,272.69465193105134,47.18494028850148,2269.8397221224577,2.3473392731983753,-82213.7505826879,10.5,10499917786.249418,47.655,-122.3035,60.0,14.35
2026-01-20T23:14:22+00:00,SAT-62165,272.95111019537615,47.18114576175104,2272.180801824261,2.3650063698101786,-82832.52703777784,10.5,10499917167.472961,47.655,-122.3035,60.0,14.366666666666667
2026-01-20T23:14:23+00:00,SAT-62165,273.2070334478185,47.17660065286583,2274.539501510418,2.382615592512917,-83449.27650376591,10.5,10499916550.723495,47.655,-122.3035,60.0,14.383333333333333
2026-01-20T23:14:24+00:00,SAT-62165,273.4624114017745,47.17130908970872,2276.9157634613507,2.400166753221824,-84063.99239312802,10.5,10499915936.007607,47.655,-122.3035,60.0,14.4
2026-01-20T23:14:25+00:00,SAT-62165,273.7172339090824,47.16527525314529,2279.3095297698974,2.4176596572650952,-84676.66788763412,10.5,10499915323.332113,47.655,-122.3035,60.0,14.416666666666666
2026-01-20T23:14:26+00:00,SAT-62165,273.97149096038555,47.15850337568857,2281.7207423347436,2.4350941411540226,-85287.29726121809,10.5,10499914712.70274,47.655,-122.3035,60.0,14.433333333333334
2026-01-20T23:14:27+00:00,SAT-62165,274.225172689565,47.150997740048524,2284.149342891521,2.452470024961019,-85895.87421205472,10.5,10499914104.125788,47.655,-122.3035,60.0,14.45
2026-01-20T23:14:28+00:00,SAT-62165,274.4782693728301,47.142762677787815,2286.5952729964156,2.4697871440701458,-86502.39297459753,10.5,10499913497.607025,47.655,-122.3035,60.0,14.466666666666667
2026-01-20T23:14:29+00:00,SAT-62165,274.7307714312213,47.13380256790096,2289.058474041435,2.4870453413146922,-87106.84804420354,10.5,10499912893.151957,47.655,-122.3035,60.0,14.483333333333333
2026-01-20T23:14:30+00:00,SAT-62165,274.9826694321782,47.124121835403976,2291.538887261839,2.504244448419028,-87709.23352714829,10.5,10499912290.766474,47.655,-122.3035,60.0,14.5
2026-01-20T23:14:31+00:00,SAT-62165,275.2339540890256,47.11372494999555,2294.0364537250625,2.521384328990689,-88309.54464639079,10.5,10499911690.455353,47.655,-122.3035,60.0,14.516666666666667
2026-01-20T23:14:32+00:00,SAT-62165,275.4846162650249,47.102616424560914,2296.5511143625095,2.5384648314749825,-88907.77609384462,10.5,10499911092.223906,47.655,-122.3035,60.0,14.533333333333333
2026-01-20T23:14:33+00:00,SAT-62165,275.7346469722382,47.09080081384474,2299.0828099544337,2.555485809193077,-89503.92273219665,10.5,10499910496.077269,47.655,-122.3035,60.0,14.55
2026-01-20T23:14:34+00:00,SAT-62165,275.9840373725856,47.078282713065036,2301.631481134802,2.5724471375747164,-90097.98019846958,10.5,10499909902.019802,47.655,-122.3035,60.0,14.566666666666666
2026-01-20T23:14:35+00:00,SAT-62165,276.23277878048145,47.065066756438284,2304.1970684133435,2.5893486845117306,-90689.94386567645,10.5,10499909310.056135,47.655,-122.3035,60.0,14.583333333333334
2026-01-20T23:14:36+00:00,SAT-62165,276.4808626624318,47.05115761584454,2306.7795121680297,2.6061903188173483,-91279.80913910168,10.5,10499908720.19086,47.655,-122.3035,60.0,14.6
2026-01-20T23:14:37+00:00,SAT-62165,276.728280637308,47.03655999945955,2309.378752645997,2.6229719291502764,-91867.57211910214,10.5,10499908132.427881,47.655,-122.3035,60.0,14.616666666666667
2026-01-20T23:14:38+00:00,SAT-62165,276.97502447863576,47.02127865029812,2311.994729983336,2.63969339434584,-92453.22856197842,10.5,10499907546.771439,47.655,-122.3035,60.0,14.633333333333333
2026-01-20T23:14:39+00:00,SAT-62165,277.22108611363683,47.00531834490948,2314.627384195297,2.656354606692957,-93036.77469523283,10.5,10499906963.225306,47.655,-122.3035,60.0,14.65
2026-01-20T23:14:40+00:00,SAT-62165,277.4664576246769,46.988683891960854,2317.2766551897057,2.6729554613713007,-93618.20684761408,10.5,10499906381.793152,47.655,-122.3035,60.0,14.666666666666666
2026-01-20T23:14:41+00:00,SAT-62165,277.7111312494961,46.9713801308803,2319.9424827698463,2.689495858384566,-94197.52151682862,10.5,10499905802.478483,47.655,-122.3035,60.0,14.683333333333334
2026-01-20T23:14:42+00:00,SAT-62165,277.95509938162695,46.95341193049759,2322.6248066392754,2.705975702717509,-94774.71537504072,10.5,10499905225.284624,47.655,-122.3035,60.0,14.7
2026-01-20T23:14:43+00:00,SAT-62165,278.19835457067234,46.93478418768929,2325.3235664067856,2.7223949040970856,-95349.78526050645,10.5,10499904650.214739,47.655,-122.3035,60.0,14.716666666666667
2026-01-20T23:14:44+00:00,SAT-62165,278.4408895225936,46.91550182603647,2328.0387015911383,2.738753381672646,-95922.7283414941,10.5,10499904077.271658,47.655,-122.3035,60.0,14.733333333333333
2026-01-20T23:14:45+00:00,SAT-62165,278.68269710026885,46.89556979445398,2330.7701516304596,2.755051038802643,-96493.54123320791,10.5,10499903506.458767,47.655,-122.3035,60.0,14.75
2026-01-20T23:14:46+00:00,SAT-62165,278.92377032173135,46.87499306601356,2333.5178558664925,2.7712878200169224,-97062.22199284843,10.5,10499902937.778008,47.655,-122.3035,60.0,14.766666666666667
2026-01-20T23:14:47+00:00,SAT-62165,279.1641023635443,46.853776636363094,2336.281753585656,2.7874636472376806,-97628.76788580067,10.5,10499902371.232115,47.655,-122.3035,60.0,14.783333333333333
2026-01-20T23:14:48+00:00,SAT-62165,279.4036865582698,46.83192552261553,2339.061783996501,2.803578439902937,-98193.17609044335,10.5,10499901806.82391,47.655,-122.3035,60.0,14.8
2026-01-20T23:14:49+00:00,SAT-62165,279.6425163937039,46.80944476211591,2341.857886227231,2.8196321591049105,-98755.44524406134,10.5,10499901244.554756,47.655,-122.3035,60.0,14.816666666666666
2026-01-20T23:14:50+00:00,SAT-62165,279.8805855160945,46.786339410866944,2344.669999367245,2.835624728728543,-99315.57268078339,10.5,10499900684.427319,47.655,-122.3035,60.0,14.833333333333334
2026-01-20T23:14:51+00:00,SAT-62165,280.1178877261058,46.76261454258554,2347.49806243003,2.8515561074499765,-99873.55695327316,10.5,10499900126.443047,47.655,-122.3035,60.0,14.85
2026-01-20T23:14:52+00:00,SAT-62165,280.3544169812709,46.738275247200875,2350.34201438786,2.8674262372691377,-100429.39603012276,10.5,10499899570.60397,47.655,-122.3035,60.0,14.866666666666667
2026-01-20T23:14:53+00:00,SAT-62165,280.5901673937308,46.7133266297812,2353.201794155163,2.8832350859562554,-100983.08878250927,10.5,10499899016.911217,47.655,-122.3035,60.0,14.883333333333333
2026-01-20T23:14:54+00:00,SAT-62165,280.8251332317036,46.68777380911936,2356.077340614224,2.8989825994123497,-101534.63331565757,10.5,10499898465.366684,47.655,-122.3035,60.0,14.9
2026-01-20T23:14:55+00:00,SAT-62165,281.05930891670823,46.661621916739264,2358.968592593371,2.9146687517583634,-102084.02872317359,10.5,10499897915.971277,47.655,-122.3035,60.0,14.916666666666666
2026-01-20T23:14:56+00:00,SAT-62165,281.29268902512126,46.634876095481864,2361.875488895125,2.9302935070428284,-102631.27374588489,10.5,10499897368.726254,47.655,-122.3035,60.0,14.933333333333334
2026-01-20T23:14:57+00:00,SAT-62165,281.525268286303,46.60754149844039,2364.7979682861487,2.945856845664218,-103176.36769726305,10.5,10499896823.632303,47.655,-122.3035,60.0,14.95
2026-01-20T23:14:58+00:00,SAT-62165,281.7570415830219,46.57962328767157,2367.735969513558,2.9613587351772734,-103719.30944093787,10.5,10499896280.69056,47.655,-122.3035,60.0,14.966666666666667
2026-01-20T23:14:59+00:00,SAT-62165,281.98800394927434,46.551126633193164,2370.6894312921077,2.976799171819643,-104260.0988451359,10.5,10499895739.901155,47.655,-122.3035,60.0,14.983333333333333
