satellites_20260121_005943/SAT-64436.csv

timestamp,satellite,azimuth_deg,elevation_deg,distance_km,relative_velocity_kms,doppler_shift_hz,tx_freq_ghz,rx_freq_hz,ue_lat,ue_lon,ue_alt_m,time_minutes
2026-01-20T23:07:19+00:00,SAT-64436,251.54034228496442,30.039719668177298,3628.456052650433,-6.708477770093154,234959.26834149414,10.5,10500234959.268341,47.655,-122.3035,60.0,7.316666666666666
2026-01-20T23:07:20+00:00,SAT-64436,251.53035000986551,30.089534276688397,3621.7654641543936,-6.709083988737467,234980.50068272033,10.5,10500234980.500683,47.655,-122.3035,60.0,7.333333333333333
2026-01-20T23:07:21+00:00,SAT-64436,251.52036269406625,30.139422514928913,3615.0742710562927,-6.709685868491083,235001.5810576408,10.5,10500235001.581059,47.655,-122.3035,60.0,7.35
2026-01-20T23:07:22+00:00,SAT-64436,251.51038038458427,30.189384801088927,3608.382477683451,-6.710283316436692,235022.50621189832,10.5,10500235022.506212,47.655,-122.3035,60.0,7.366666666666666
2026-01-20T23:07:23+00:00,SAT-64436,251.50040312898693,30.239421555932857,3601.690088455858,-6.710876387359366,235043.2780642979,10.5,10500235043.278065,47.655,-122.3035,60.0,7.383333333333334
2026-01-20T23:07:24+00:00,SAT-64436,251.49043097526567,30.289533203933626,3594.997107738865,-6.711464982263485,235063.8931475941,10.5,10500235063.893148,47.655,-122.3035,60.0,7.4
2026-01-20T23:07:25+00:00,SAT-64436,251.48046397198198,30.33972017215206,3588.3035399965543,-6.712049144075324,235084.35296524674,10.5,10500235084.352964,47.655,-122.3035,60.0,7.416666666666667
2026-01-20T23:07:26+00:00,SAT-64436,251.47050216814023,30.38998289133046,3581.609389650196,-6.71262881357864,235104.6554432524,10.5,10500235104.655443,47.655,-122.3035,60.0,7.433333333333334
2026-01-20T23:07:27+00:00,SAT-64436,251.46054561329464,30.44032179515897,3574.91466118012,-6.7132040161569755,235124.80147065024,10.5,10500235124.80147,47.655,-122.3035,60.0,7.45
2026-01-20T23:07:28+00:00,SAT-64436,251.45059435747197,30.490737320941896,3568.2193590413403,-6.713774675013247,235144.78835768142,10.5,10500235144.788357,47.655,-122.3035,60.0,7.466666666666667
2026-01-20T23:07:29+00:00,SAT-64436,251.44064845126593,30.541229908860867,3561.5234877654602,-6.7143408209409925,235164.61718286597,10.5,10500235164.617184,47.655,-122.3035,60.0,7.483333333333333
2026-01-20T23:07:30+00:00,SAT-64436,251.43070794575414,30.591800002817504,3554.827051853375,-6.71490239951496,235184.28604000132,10.5,10500235184.28604,47.655,-122.3035,60.0,7.5
2026-01-20T23:07:31+00:00,SAT-64436,251.4207728925793,30.642448049823464,3548.130055860259,-6.715459395463652,235203.79439421502,10.5,10500235203.794394,47.655,-122.3035,60.0,7.516666666666667
2026-01-20T23:07:32+00:00,SAT-64436,251.41084334390752,30.693174500328134,3541.4325043565163,-6.716011788455739,235223.14153341792,10.5,10500235223.141533,47.655,-122.3035,60.0,7.533333333333333
2026-01-20T23:07:33+00:00,SAT-64436,251.40091935246218,30.74397980821516,3534.7344019328298,-6.71655958567338,235242.32770915967,10.5,10500235242.32771,47.655,-122.3035,60.0,7.55
2026-01-20T23:07:34+00:00,SAT-64436,251.391000971484,30.79486443104372,3528.0357531727186,-6.7171027374792605,235261.35118293148,10.5,10500235261.351183,47.655,-122.3035,60.0,7.566666666666666
2026-01-20T23:07:35+00:00,SAT-64436,251.38108825480413,30.84582882965248,3521.3365627092057,-6.717641216659735,235280.21100159638,10.5,10500235280.211002,47.655,-122.3035,60.0,7.583333333333333
2026-01-20T23:07:36+00:00,SAT-64436,251.37118125681081,30.896873468362777,3514.636835202457,-6.718175012930979,235298.90680497134,10.5,10500235298.906805,47.655,-122.3035,60.0,7.6
2026-01-20T23:07:37+00:00,SAT-64436,251.361280032463,30.947998815142903,3507.936575322894,-6.71870412170834,235317.4384324824,10.5,10500235317.438433,47.655,-122.3035,60.0,7.616666666666666
2026-01-20T23:07:38+00:00,SAT-64436,251.35138463727952,30.999205341687865,3501.23578774551,-6.719228492614533,235335.80411970403,10.5,10500235335.80412,47.655,-122.3035,60.0,7.633333333333334
2026-01-20T23:07:39+00:00,SAT-64436,251.34149512738668,31.050493523104983,3494.5344771955424,-6.719748108703479,235354.0032731128,10.5,10500235354.003273,47.655,-122.3035,60.0,7.65
2026-01-20T23:07:40+00:00,SAT-64436,251.33161155949406,31.1018638382039,3487.832648415129,-6.720262953560697,235372.03531780414,10.5,10500235372.035318,47.655,-122.3035,60.0,7.666666666666667
2026-01-20T23:07:41+00:00,SAT-64436,251.32173399091187,31.153316769539103,3481.1303061627777,-6.720773021353345,235389.90004948733,10.5,10500235389.90005,47.655,-122.3035,60.0,7.683333333333334
2026-01-20T23:07:42+00:00,SAT-64436,251.31186247953167,31.20485280352725,3474.4274552028146,-6.721278255297525,235407.59547934998,10.5,10500235407.59548,47.655,-122.3035,60.0,7.7
2026-01-20T23:07:43+00:00,SAT-64436,251.30199708389483,31.25647243009322,3467.724100356198,-6.721778654651233,235425.121581404,10.5,10500235425.121582,47.655,-122.3035,60.0,7.716666666666667
2026-01-20T23:07:44+00:00,SAT-64436,251.2921378631325,31.30817614313822,3461.0202464446256,-6.722274190829141,235442.4773544703,10.5,10500235442.477354,47.655,-122.3035,60.0,7.733333333333333
2026-01-20T23:07:45+00:00,SAT-64436,251.2822848770177,31.359964440364443,3454.3158983183057,-6.7227648515231815,235459.66236746826,10.5,10500235459.662367,47.655,-122.3035,60.0,7.75
2026-01-20T23:07:46+00:00,SAT-64436,251.27243818594394,31.41183782343941,3447.61106083972,-6.723250578680426,235476.67458713884,10.5,10500235476.674587,47.655,-122.3035,60.0,7.766666666666667
2026-01-20T23:07:47+00:00,SAT-64436,251.26259785097199,31.463796797679755,3440.905738929249,-6.723731382285366,235493.51436318102,10.5,10500235493.514362,47.655,-122.3035,60.0,7.783333333333333
2026-01-20T23:07:48+00:00,SAT-64436,251.25276393378454,31.51584187261782,3434.1999374973166,-6.724207227244911,235510.18046648646,10.5,10500235510.180466,47.655,-122.3035,60.0,7.8
2026-01-20T23:07:49+00:00,SAT-64436,251.24293649673848,31.56797356169424,3427.493661489344,-6.724678099948939,235526.6724203711,10.5,10500235526.67242,47.655,-122.3035,60.0,7.816666666666666
2026-01-20T23:07:50+00:00,SAT-64436,251.23311560283503,31.620192382462985,3420.7869158643284,-6.725143935984152,235542.9879688087,10.5,10500235542.987968,47.655,-122.3035,60.0,7.833333333333333
2026-01-20T23:07:51+00:00,SAT-64436,251.2233013157894,31.67249885623662,3414.0797056455067,-6.725604767545255,235559.1282393941,10.5,10500235559.128239,47.655,-122.3035,60.0,7.85
2026-01-20T23:07:52+00:00,SAT-64436,251.21349369994735,31.724893508882715,3407.3720358240084,-6.726060517861078,235575.09054327616,10.5,10500235575.090544,47.655,-122.3035,60.0,7.866666666666666
2026-01-20T23:07:53+00:00,SAT-64436,251.20369282038965,31.77737687001265,3400.6639114675286,-6.726511213003803,235590.875793613,10.5,10500235590.875793,47.655,-122.3035,60.0,7.883333333333334
2026-01-20T23:07:54+00:00,SAT-64436,251.19389874284943,31.829949473830283,3393.955337617759,-6.726956775792128,235606.48128718883,10.5,10500235606.481287,47.655,-122.3035,60.0,7.9
2026-01-20T23:07:55+00:00,SAT-64436,251.18411153381112,31.882611858364008,3387.2463193933695,-6.727397203047646,235621.90691268252,10.5,10500235621.906912,47.655,-122.3035,60.0,7.916666666666667
2026-01-20T23:07:56+00:00,SAT-64436,251.1743312604521,31.935364566090968,3380.5368619161964,-6.727832480190547,235637.15215944743,10.5,10500235637.152159,47.655,-122.3035,60.0,7.933333333333334
2026-01-20T23:07:57+00:00,SAT-64436,251.16455799066853,31.98820814389262,3373.8269703226197,-6.728262563534264,235652.21549739508,10.5,10500235652.215498,47.655,-122.3035,60.0,7.95
2026-01-20T23:07:58+00:00,SAT-64436,251.15479179309887,32.04114314286847,3367.1166497925883,-6.728687426226491,235667.0959860443,10.5,10500235667.095985,47.655,-122.3035,60.0,7.966666666666667
2026-01-20T23:07:59+00:00,SAT-64436,251.14503273712813,32.09417011851368,3360.4059055328316,-6.729107058541432,235681.79328475645,10.5,10500235681.793285,47.655,-122.3035,60.0,7.983333333333333
2026-01-20T23:08:00+00:00,SAT-64436,251.13528089287178,32.147289630900616,3353.6947427597797,-6.729521410354383,235696.30563795244,10.5,10500235696.305637,47.655,-122.3035,60.0,8.0
2026-01-20T23:08:01+00:00,SAT-64436,251.12553633123127,32.20050224440408,3346.9831667398525,-6.729930482659933,235710.63308046694,10.5,10500235710.63308,47.655,-122.3035,60.0,8.016666666666667
2026-01-20T23:08:02+00:00,SAT-64436,251.11579912384764,32.253808528154025,3340.27118273848,-6.730334213267736,235724.773434131,10.5,10500235724.773434,47.655,-122.3035,60.0,8.033333333333333
2026-01-20T23:08:03+00:00,SAT-64436,251.1060693431724,32.307209055578866,3333.558796083114,-6.730732591514833,235738.72632548265,10.5,10500235738.726326,47.655,-122.3035,60.0,8.05
2026-01-20T23:08:04+00:00,SAT-64436,251.09634706243128,32.36070440486476,3326.8460121118437,-6.731125600367732,235752.49115793695,10.5,10500235752.491158,47.655,-122.3035,60.0,8.066666666666666
2026-01-20T23:08:05+00:00,SAT-64436,251.08663235564097,32.41429515895206,3320.1328361797437,-6.731513193693798,235766.06631573397,10.5,10500235766.066317,47.655,-122.3035,60.0,8.083333333333334
2026-01-20T23:08:06+00:00,SAT-64436,251.07692529763463,32.46798190535118,3313.4192736878995,-6.731895348810168,235779.45100442375,10.5,10500235779.451004,47.655,-122.3035,60.0,8.1
2026-01-20T23:08:07+00:00,SAT-64436,251.06722596406956,32.521765236380745,3306.7053300600196,-6.7322720302751184,235792.64398268735,10.5,10500235792.643982,47.655,-122.3035,60.0,8.116666666666667
2026-01-20T23:08:08+00:00,SAT-64436,251.05753443142305,32.57564574911301,3299.9910107551586,-6.732643226040793,235805.6448285578,10.5,10500235805.644829,47.655,-122.3035,60.0,8.133333333333333
2026-01-20T23:08:09+00:00,SAT-64436,251.04785077701254,32.62962404561415,3293.276321244387,-6.7330088888458,235818.45188674127,10.5,10500235818.451887,47.655,-122.3035,60.0,8.15
2026-01-20T23:08:10+00:00,SAT-64436,251.03817507900501,32.683700732710555,3286.5612670459113,-6.733368994777385,235831.06431971196,10.5,10500235831.06432,47.655,-122.3035,60.0,8.166666666666666
2026-01-20T23:08:11+00:00,SAT-64436,251.02850741643812,32.73787642223051,3279.8458537017873,-6.733723518507908,235843.48124038873,10.5,10500235843.481241,47.655,-122.3035,60.0,8.183333333333334
2026-01-20T23:08:12+00:00,SAT-64436,251.01884786920226,32.79215173104175,3273.1300867793284,-6.734072412643841,235855.70098884986,10.5,10500235855.700989,47.655,-122.3035,60.0,8.2
2026-01-20T23:08:13+00:00,SAT-64436,251.00919651809505,32.846527280928974,3266.4139718931183,-6.7344156628147624,235867.7230617823,10.5,10500235867.723063,47.655,-122.3035,60.0,8.216666666666667
2026-01-20T23:08:14+00:00,SAT-64436,250.9995534447873,32.90100369891202,3259.6975146720706,-6.73475323246341,235879.54617879612,10.5,10500235879.546179,47.655,-122.3035,60.0,8.233333333333333
2026-01-20T23:08:15+00:00,SAT-64436,250.98991873186492,32.95558161712306,3252.980720781561,-6.735085095048509,235891.16941030364,10.5,10500235891.16941,47.655,-122.3035,60.0,8.25
2026-01-20T23:08:16+00:00,SAT-64436,250.9802924628208,33.010261672939684,3246.2635959134327,-6.735411196166156,235902.59085085,10.5,10500235902.59085,47.655,-122.3035,60.0,8.266666666666667
2026-01-20T23:08:17+00:00,SAT-64436,250.9706747221008,33.06504450881579,3239.5461458137893,-6.735731537490424,235913.81055906834,10.5,10500235913.810558,47.655,-122.3035,60.0,8.283333333333333
2026-01-20T23:08:18+00:00,SAT-64436,250.96106559505765,33.119930772793424,3232.8283762270653,-6.736046063599439,235924.82659385016,10.5,10500235924.826593,47.655,-122.3035,60.0,8.3
2026-01-20T23:08:19+00:00,SAT-64436,250.9514651680231,33.17492111809462,3226.1102929529693,-6.736354758629629,235935.6383995861,10.5,10500235935.6384,47.655,-122.3035,60.0,8.316666666666666
2026-01-20T23:08:20+00:00,SAT-64436,250.94187352827234,33.230016203501876,3219.391901807029,-6.736657554648784,235946.24359700282,10.5,10500235946.243597,47.655,-122.3035,60.0,8.333333333333334
2026-01-20T23:08:21+00:00,SAT-64436,250.9322907640874,33.28521669298756,3212.673208672526,-6.736954458162622,235956.64241395803,10.5,10500235956.642414,47.655,-122.3035,60.0,8.35
2026-01-20T23:08:22+00:00,SAT-64436,250.922716964711,33.34052325638677,3205.954219426252,-6.737245395260237,235966.8322617792,10.5,10500235966.832262,47.655,-122.3035,60.0,8.366666666666667
2026-01-20T23:08:23+00:00,SAT-64436,250.91315222041732,33.39593656879393,3199.2349400187127,-6.737530394303848,235976.81413383124,10.5,10500235976.814135,47.655,-122.3035,60.0,8.383333333333333
2026-01-20T23:08:24+00:00,SAT-64436,250.90359662245487,33.45145731146822,3192.5153763721264,-6.737809346038912,235986.58420355784,10.5,10500235986.584204,47.655,-122.3035,60.0,8.4
2026-01-20T23:08:25+00:00,SAT-64436,250.8940502631523,33.50708617075439,3185.795534517677,-6.738082261163959,235996.14284566685,10.5,10500235996.142845,47.655,-122.3035,60.0,8.416666666666666
2026-01-20T23:08:26+00:00,SAT-64436,250.88451323584445,33.562823839139234,3179.0754204758764,-6.738349092908547,236005.48842205948,10.5,10500236005.488422,47.655,-122.3035,60.0,8.433333333333334
2026-01-20T23:08:27+00:00,SAT-64436,250.87498563494165,33.61867101483856,3172.3550403138825,-6.7386098222530535,236014.6202665881,10.5,10500236014.620266,47.655,-122.3035,60.0,8.45
2026-01-20T23:08:28+00:00,SAT-64436,250.86546755590157,33.67462840208983,3165.6344001178218,-6.738864355884266,236023.53511102937,10.5,10500236023.53511,47.655,-122.3035,60.0,8.466666666666667
2026-01-20T23:08:29+00:00,SAT-64436,250.85595909531344,33.73069671059625,3158.913506066887,-6.739112737456229,236032.23448433253,10.5,10500236032.234484,47.655,-122.3035,60.0,8.483333333333333
2026-01-20T23:08:30+00:00,SAT-64436,250.84646035080866,33.78687665673848,3152.19236429673,-6.739354860962939,236040.7146737189,10.5,10500236040.714674,47.655,-122.3035,60.0,8.5
2026-01-20T23:08:31+00:00,SAT-64436,250.83697142117978,33.843168962384276,3145.4709810487298,-6.739590734806285,236048.97597345823,10.5,10500236048.975973,47.655,-122.3035,60.0,8.516666666666667
2026-01-20T23:08:32+00:00,SAT-64436,250.82749240631577,33.89957435591661,3138.7493625558827,-6.739820287117383,236057.01586639826,10.5,10500236057.015867,47.655,-122.3035,60.0,8.533333333333333
2026-01-20T23:08:33+00:00,SAT-64436,250.81802340727398,33.956093571626496,3132.0275151228643,-6.740043518963498,236064.83438991895,10.5,10500236064.83439,47.655,-122.3035,60.0,8.55
2026-01-20T23:08:34+00:00,SAT-64436,250.80856452624258,34.01272735039436,3125.305445053285,-6.740260353388975,236072.42884870784,10.5,10500236072.428848,47.655,-122.3035,60.0,8.566666666666666
2026-01-20T23:08:35+00:00,SAT-64436,250.79911586661527,34.069476439102,3118.583158727505,-6.7404707782499,236079.79881743374,10.5,10500236079.798817,47.655,-122.3035,60.0,8.583333333333334
2026-01-20T23:08:36+00:00,SAT-64436,250.78967753295015,34.12634159124923,3111.860662537997,-6.740674731777245,236086.94213268394,10.5,10500236086.942133,47.655,-122.3035,60.0,8.6
2026-01-20T23:08:37+00:00,SAT-64436,250.7802496310352,34.183323566604614,3105.137962938838,-6.7408721969756344,236093.85819920845,10.5,10500236093.8582,47.655,-122.3035,60.0,8.616666666666667
2026-01-20T23:08:38+00:00,SAT-64436,250.7708322678575,34.240423131656996,3098.415066401054,-6.741063122230772,236100.54520925644,10.5,10500236100.54521,47.655,-122.3035,60.0,8.633333333333333
2026-01-20T23:08:39+00:00,SAT-64436,250.76142555166052,34.29764105939493,3091.6919794471496,-6.741247449341842,236107.001124389,10.5,10500236107.001125,47.655,-122.3035,60.0,8.65
2026-01-20T23:08:40+00:00,SAT-64436,250.7520295919461,34.354978129320834,3084.968708657673,-6.741425166173062,236113.22551955978,10.5,10500236113.22552,47.655,-122.3035,60.0,8.666666666666666
2026-01-20T23:08:41+00:00,SAT-64436,250.74264449947847,34.4124351279224,3078.245260625276,-6.741596224821673,236119.21671701147,10.5,10500236119.216717,47.655,-122.3035,60.0,8.683333333333334
2026-01-20T23:08:42+00:00,SAT-64436,250.73327038630907,34.47001284843862,3071.5216419903873,-6.741760578174683,236124.9730666479,10.5,10500236124.973066,47.655,-122.3035,60.0,8.7
2026-01-20T23:08:43+00:00,SAT-64436,250.72390736581394,34.52771209094755,3064.797859440421,-6.741918171642682,236130.49265651693,10.5,10500236130.492657,47.655,-122.3035,60.0,8.716666666666667
2026-01-20T23:08:44+00:00,SAT-64436,250.7145555526863,34.58553366237292,3058.073919717236,-6.742068979791305,236135.77459579954,10.5,10500236135.774595,47.655,-122.3035,60.0,8.733333333333333
2026-01-20T23:08:45+00:00,SAT-64436,250.70521506296922,34.64347837681817,3051.3498295880577,-6.7422129532058355,236140.8171537833,10.5,10500236140.817154,47.655,-122.3035,60.0,8.75
2026-01-20T23:08:46+00:00,SAT-64436,250.69588601405945,34.70154705543673,3044.6255958693937,-6.742350042370927,236145.61859623145,10.5,10500236145.618597,47.655,-122.3035,60.0,8.766666666666667
2026-01-20T23:08:47+00:00,SAT-64436,250.6865685247518,34.759740526511756,3037.901225427135,-6.742480225670981,236150.17816607413,10.5,10500236150.178165,47.655,-122.3035,60.0,8.783333333333333
2026-01-20T23:08:48+00:00,SAT-64436,250.67726271521823,34.81805962577998,3031.176725148733,-6.74260341824244,236154.4928910307,10.5,10500236154.492891,47.655,-122.3035,60.0,8.8
2026-01-20T23:08:49+00:00,SAT-64436,250.66796870708416,34.876505195963375,3024.4521020062725,-6.742719626140237,236158.56298317047,10.5,10500236158.562983,47.655,-122.3035,60.0,8.816666666666666
2026-01-20T23:08:50+00:00,SAT-64436,250.65868662338235,34.93507808764534,3017.727362965802,-6.74282874042543,236162.3846269909,10.5,10500236162.384626,47.655,-122.3035,60.0,8.833333333333334
2026-01-20T23:08:51+00:00,SAT-64436,250.64941658864103,34.99377915834955,3011.0025151020177,-6.742930772050665,236165.95820609998,10.5,10500236165.958206,47.655,-122.3035,60.0,8.85
2026-01-20T23:08:52+00:00,SAT-64436,250.6401587288397,35.05260927367584,3004.2775654786924,-6.743025645455859,236169.28107406397,10.5,10500236169.281075,47.655,-122.3035,60.0,8.866666666666667
2026-01-20T23:08:53+00:00,SAT-64436,250.63091317148042,35.11156930662851,2997.552521234958,-6.743113324436958,236172.3519628638,10.5,10500236172.351963,47.655,-122.3035,60.0,8.883333333333333
2026-01-20T23:08:54+00:00,SAT-64436,250.62168004557162,35.17066013804842,2990.8273895460525,-6.74319375000947,236175.168806613,10.5,10500236175.168806,47.655,-122.3035,60.0,8.9
2026-01-20T23:08:55+00:00,SAT-64436,250.612459481689,35.229882656503875,2984.1021776460434,-6.7432668732547025,236177.72989197206,10.5,10500236177.729893,47.655,-122.3035,60.0,8.916666666666666
2026-01-20T23:08:56+00:00,SAT-64436,250.60325161195996,35.289237758464914,2977.376892817784,-6.743332651075618,236180.0337095004,10.5,10500236180.033709,47.655,-122.3035,60.0,8.933333333333334
2026-01-20T23:08:57+00:00,SAT-64436,250.5940565701103,35.348726348450086,2970.651542387111,-6.743391056770855,236182.07932400343,10.5,10500236182.079325,47.655,-122.3035,60.0,8.95
2026-01-20T23:08:58+00:00,SAT-64436,250.58487449146153,35.40834933926348,2963.926133706492,-6.743441982803146,236183.8629690712,10.5,10500236183.862968,47.655,-122.3035,60.0,8.966666666666667
2026-01-20T23:08:59+00:00,SAT-64436,250.57570551299958,35.46810765136793,2957.200674235643,-6.743485441488689,236185.38507606898,10.5,10500236185.385077,47.655,-122.3035,60.0,8.983333333333333
2026-01-20T23:09:00+00:00,SAT-64436,250.56654977333625,35.52800221404901,2950.4751714219983,-6.74352134176111,236186.64245546717,10.5,10500236186.642456,47.655,-122.3035,60.0,9.0
2026-01-20T23:09:01+00:00,SAT-64436,250.55740741279612,35.588033964589755,2943.749632803815,-6.743549642730567,236187.63367513052,10.5,10500236187.633675,47.655,-122.3035,60.0,9.016666666666667
2026-01-20T23:09:02+00:00,SAT-64436,250.5482785733899,35.64820384881169,2937.024065960132,-6.743570286463567,236188.35670598308,10.5,10500236188.356707,47.655,-122.3035,60.0,9.033333333333333
2026-01-20T23:09:03+00:00,SAT-64436,250.53916339887593,35.70851282102501,2930.2984785277654,-6.743583231331827,236188.8100900263,10.5,10500236188.81009,47.655,-122.3035,60.0,9.05
2026-01-20T23:09:04+00:00,SAT-64436,250.53006203475383,35.76896184427332,2923.5728781850507,-6.743588423820316,236188.99195293736,10.5,10500236188.991953,47.655,-122.3035,60.0,9.066666666666666
2026-01-20T23:09:05+00:00,SAT-64436,250.52097462831816,35.829551890329505,2916.8472726636933,-6.743585797848772,236188.89998030607,10.5,10500236188.89998,47.655,-122.3035,60.0,9.083333333333334
2026-01-20T23:09:06+00:00,SAT-64436,250.51190132866222,35.890283939681176,2910.121669761306,-6.743575293393903,236188.53206986276,10.5,10500236188.53207,47.655,-122.3035,60.0,9.1
2026-01-20T23:09:07+00:00,SAT-64436,250.50284228673408,35.951158981693375,2903.396077335361,-6.743556888853824,236187.88746501808,10.5,10500236187.887465,47.655,-122.3035,60.0,9.116666666666667
2026-01-20T23:09:08+00:00,SAT-64436,250.49379765531552,36.01217801505923,2896.6705032648774,-6.743530493905688,236186.9630022838,10.5,10500236186.963003,47.655,-122.3035,60.0,9.133333333333333
2026-01-20T23:09:09+00:00,SAT-64436,250.4847675891027,36.07334204728432,2889.9449555189553,-6.74349606883974,236185.75729085642,10.5,10500236185.757292,47.655,-122.3035,60.0,9.15
2026-01-20T23:09:10+00:00,SAT-64436,250.47575224469114,36.13465209525353,2883.219442106299,-6.743453527643344,236184.26731820955,10.5,10500236184.267319,47.655,-122.3035,60.0,9.166666666666666
2026-01-20T23:09:11+00:00,SAT-64436,250.46675178064646,36.19610918491742,2876.4939711213965,-6.743402863785367,236182.4928555953,10.5,10500236182.492855,47.655,-122.3035,60.0,9.183333333333334
2026-01-20T23:09:12+00:00,SAT-64436,250.45776635747598,36.25771435213401,2869.768550665248,-6.743343984140128,236180.43064135837,10.5,10500236180.430641,47.655,-122.3035,60.0,9.2
2026-01-20T23:09:13+00:00,SAT-64436,250.44879613771747,36.319468641984756,2863.043188931732,-6.743276817734228,236178.07818971013,10.5,10500236178.07819,47.655,-122.3035,60.0,9.216666666666667
2026-01-20T23:09:14+00:00,SAT-64436,250.43984128593684,36.38137310909018,2856.3178941855117,-6.743201333144946,236175.434400094,10.5,10500236175.4344,47.655,-122.3035,60.0,9.233333333333333
2026-01-20T23:09:15+00:00,SAT-64436,250.43090196876256,36.44342881809309,2849.5926747225885,-6.743117469437749,236172.4971383248,10.5,10500236172.497139,47.655,-122.3035,60.0,9.25
2026-01-20T23:09:16+00:00,SAT-64436,250.42197835491373,36.50563684350205,2842.867538899736,-6.743025130646512,236169.263043263,10.5,10500236169.263042,47.655,-122.3035,60.0,9.266666666666667
2026-01-20T23:09:17+00:00,SAT-64436,250.41307061524725,36.56799826948279,2836.1424951694376,-6.742924294831392,236165.7313464824,10.5,10500236165.731346,47.655,-122.3035,60.0,9.283333333333333
2026-01-20T23:09:18+00:00,SAT-64436,250.4041789227757,36.63051419067096,2829.4175520060594,-6.742814875729702,236161.89902669893,10.5,10500236161.899027,47.655,-122.3035,60.0,9.3
2026-01-20T23:09:19+00:00,SAT-64436,250.3953034526976,36.693185711689544,2822.6927179699983,-6.742696821551818,236157.76427002074,10.5,10500236157.76427,47.655,-122.3035,60.0,9.316666666666666
2026-01-20T23:09:20+00:00,SAT-64436,250.386444382451,36.75601394759994,2815.9680016733037,-6.742570044349294,236153.32399612127,10.5,10500236153.323996,47.655,-122.3035,60.0,9.333333333333334
2026-01-20T23:09:21+00:00,SAT-64436,250.37760189172423,36.819000023681035,2809.2434118157394,-6.742434519393675,236148.57733890554,10.5,10500236148.57734,47.655,-122.3035,60.0,9.35
2026-01-20T23:09:22+00:00,SAT-64436,250.36877616249976,36.88214507615767,2802.5189571217306,-6.742290134487321,236143.5203687375,10.5,10500236143.520369,47.655,-122.3035,60.0,9.366666666666667
2026-01-20T23:09:23+00:00,SAT-64436,250.35996737909693,36.94545025149867,2795.794646427602,-6.7421368689802454,236138.15236236723,10.5,10500236138.152363,47.655,-122.3035,60.0,9.383333333333333
2026-01-20T23:09:24+00:00,SAT-64436,250.35117572818996,37.00891670741794,2789.070488590273,-6.741974609213669,236132.46933898356,10.5,10500236132.46934,47.655,-122.3035,60.0,9.4
2026-01-20T23:09:25+00:00,SAT-64436,250.34240139886725,37.07254561211985,2782.3464925800167,-6.741803326903637,236126.47030796282,10.5,10500236126.470308,47.655,-122.3035,60.0,9.416666666666666
2026-01-20T23:09:26+00:00,SAT-64436,250.33364458264657,37.13633814524766,2775.622667395318,-6.741622935729532,236120.15224599172,10.5,10500236120.152246,47.655,-122.3035,60.0,9.433333333333334
2026-01-20T23:09:27+00:00,SAT-64436,250.32490547352245,37.20029549746666,2768.8990221207505,-6.741433360039791,236113.5125034326,10.5,10500236113.512503,47.655,-122.3035,60.0,9.45
2026-01-20T23:09:28+00:00,SAT-64436,250.31618426801973,37.26441887070318,2762.1755659163377,-6.741234528533721,236106.54858303367,10.5,10500236106.548584,47.655,-122.3035,60.0,9.466666666666667
2026-01-20T23:09:29+00:00,SAT-64436,250.30748116520027,37.328709478321734,2755.4523080132135,-6.741026381468566,236099.2583923507,10.5,10500236099.258392,47.655,-122.3035,60.0,9.483333333333333
2026-01-20T23:09:30+00:00,SAT-64436,250.29879636673652,37.39316854538454,2748.7292577020953,-6.7408088399986,236091.63916987297,10.5,10500236091.63917,47.655,-122.3035,60.0,9.5
2026-01-20T23:09:31+00:00,SAT-64436,250.2901300769236,37.457797308604235,2742.0064243523366,-6.740581831065708,236083.68835679628,10.5,10500236083.688356,47.655,-122.3035,60.0,9.516666666666667
2026-01-20T23:09:32+00:00,SAT-64436,250.28148250274407,37.522597016551266,2735.283817406154,-6.7403452743457555,236075.4031398296,10.5,10500236075.40314,47.655,-122.3035,60.0,9.533333333333333
2026-01-20T23:09:33+00:00,SAT-64436,250.2728538538968,37.58756892972572,2728.561446385873,-6.740099111928118,236066.78149069793,10.5,10500236066.78149,47.655,-122.3035,60.0,9.55
2026-01-20T23:09:34+00:00,SAT-64436,250.2642443428464,37.65271432092844,2721.8393208715765,-6.739843261767825,236057.82053583936,10.5,10500236057.820536,47.655,-122.3035,60.0,9.566666666666666
2026-01-20T23:09:35+00:00,SAT-64436,250.25565418485544,37.71803447517608,2715.1174505251734,-6.739577623882297,236048.51677344102,10.5,10500236048.516773,47.655,-122.3035,60.0,9.583333333333334
2026-01-20T23:09:36+00:00,SAT-64436,250.2470835980568,37.7835306896784,2708.3958451082885,-6.739302131543801,236038.86786641547,10.5,10500236038.867867,47.655,-122.3035,60.0,9.6
2026-01-20T23:09:37+00:00,SAT-64436,250.23853280346444,37.849204274318275,2701.6745144490956,-6.73901673466677,236028.87206055428,10.5,10500236028.87206,47.655,-122.3035,60.0,9.616666666666667
2026-01-20T23:09:38+00:00,SAT-64436,250.23000202504403,37.915056551978736,2694.953468425721,-6.738721318835691,236018.5253485421,10.5,10500236018.525349,47.655,-122.3035,60.0,9.633333333333333
2026-01-20T23:09:39+00:00,SAT-64436,250.22149148975157,37.98108885806633,2688.2327170304025,-6.73841580877559,236007.82509393117,10.5,10500236007.825094,47.655,-122.3035,60.0,9.65
2026-01-20T23:09:40+00:00,SAT-64436,250.21300142758992,38.047302541058684,2681.51227033045,-6.738100133948105,235996.76882616943,10.5,10500235996.768826,47.655,-122.3035,60.0,9.666666666666666
2026-01-20T23:09:41+00:00,SAT-64436,250.20453207164223,38.11369896271742,2674.7921384635256,-6.737774211574909,235985.3536460098,10.5,10500235985.353645,47.655,-122.3035,60.0,9.683333333333334
2026-01-20T23:09:42+00:00,SAT-64436,250.1960836581367,38.18027949813602,2668.0723316498484,-6.737437945998369,235973.5762031174,10.5,10500235973.576202,47.655,-122.3035,60.0,9.7
2026-01-20T23:09:43+00:00,SAT-64436,250.18765642649058,38.24704553577711,2661.352860205039,-6.737091258137454,235961.43372773996,10.5,10500235961.433727,47.655,-122.3035,60.0,9.716666666666667
2026-01-20T23:09:44+00:00,SAT-64436,250.17925061937257,38.31399847781296,2654.63373452359,-6.73673405594086,235948.92299585146,10.5,10500235948.922997,47.655,-122.3035,60.0,9.733333333333333
2026-01-20T23:09:45+00:00,SAT-64436,250.17086648273613,38.3811397401663,2647.9149650917984,-6.73636627555179,235936.04177091672,10.5,10500235936.04177,47.655,-122.3035,60.0,9.75
2026-01-20T23:09:46+00:00,SAT-64436,250.1625042658987,38.44847075297612,2641.1965624596482,-6.735987788266637,235922.78554519103,10.5,10500235922.785545,47.655,-122.3035,60.0,9.766666666666667
2026-01-20T23:09:47+00:00,SAT-64436,250.15416422157605,38.51599296011677,2634.4785373054838,-6.735598550805914,235909.15280284366,10.5,10500235909.152803,47.655,-122.3035,60.0,9.783333333333333
2026-01-20T23:09:48+00:00,SAT-64436,250.14584660595187,38.583707820248705,2627.7609003508132,-6.735198420846738,235895.1385591253,10.5,10500235895.13856,47.655,-122.3035,60.0,9.8
2026-01-20T23:09:49+00:00,SAT-64436,250.13755167872947,38.6516168059928,2621.0436624590884,-6.734787370369431,235880.74183266822,10.5,10500235880.741833,47.655,-122.3035,60.0,9.816666666666666
2026-01-20T23:09:50+00:00,SAT-64436,250.1292797031934,38.71972140528926,2614.3268345217066,-6.734365242919046,235865.9571437584,10.5,10500235865.957144,47.655,-122.3035,60.0,9.833333333333334
2026-01-20T23:09:51+00:00,SAT-64436,250.12103094626428,38.788023120266,2607.6104275861026,-6.733931991091382,235850.78283210017,10.5,10500235850.782831,47.655,-122.3035,60.0,9.85
2026-01-20T23:09:52+00:00,SAT-64436,250.11280567857608,38.85652346855735,2600.8944527469876,-6.733487496379755,235835.21474708826,10.5,10500235835.214746,47.655,-122.3035,60.0,9.866666666666667
2026-01-20T23:09:53+00:00,SAT-64436,250.1046041745109,38.92522398276171,2594.178921217265,-6.733031674171673,235819.24992523514,10.5,10500235819.249926,47.655,-122.3035,60.0,9.883333333333333
2026-01-20T23:09:54+00:00,SAT-64436,250.0964267122926,38.994126210993755,2587.463844294224,-6.732564403836596,235802.88414154924,10.5,10500235802.884142,47.655,-122.3035,60.0,9.9
2026-01-20T23:09:55+00:00,SAT-64436,250.0882735740269,39.06323171670886,2580.749233395464,-6.732085621184849,235786.1151478364,10.5,10500235786.115149,47.655,-122.3035,60.0,9.916666666666666
2026-01-20T23:09:56+00:00,SAT-64436,250.08014504578887,39.132542079496076,2574.0351000026026,-6.73159519733545,235768.93843013962,10.5,10500235768.93843,47.655,-122.3035,60.0,9.933333333333334
2026-01-20T23:09:57+00:00,SAT-64436,250.0720414176693,39.20205889460936,2567.3214557257934,-6.73109305981118,235751.35145000007,10.5,10500235751.35145,47.655,-122.3035,60.0,9.95
2026-01-20T23:09:58+00:00,SAT-64436,250.06396298386574,39.271783773769776,2560.6083122474747,-6.730579065665065,235733.34920081007,10.5,10500235733.349201,47.655,-122.3035,60.0,9.966666666666667
2026-01-20T23:09:59+00:00,SAT-64436,250.0559100427351,39.34171834463556,2553.8956813926516,-6.730053151306109,235714.92945534387,10.5,10500235714.929455,47.655,-122.3035,60.0,9.983333333333333
2026-01-20T23:10:00+00:00,SAT-64436,250.0478828968803,39.411864251855384,2547.183575049749,-6.729515194058695,235696.08791698253,10.5,10500235696.087917,47.655,-122.3035,60.0,10.0
2026-01-20T23:10:01+00:00,SAT-64436,250.03988185320515,39.482223156664304,2540.472005229541,-6.728965076013808,235676.8204560536,10.5,10500235676.820456,47.655,-122.3035,60.0,10.016666666666667
2026-01-20T23:10:02+00:00,SAT-64436,250.03190722301542,39.55279673715593,2533.760984060397,-6.728402706118792,235657.12388350783,10.5,10500235657.123884,47.655,-122.3035,60.0,10.033333333333333
2026-01-20T23:10:03+00:00,SAT-64436,250.0239593220645,39.6235866887915,2527.050523761494,-6.727827969544948,235636.99417755852,10.5,10500235636.994177,47.655,-122.3035,60.0,10.05
2026-01-20T23:10:04+00:00,SAT-64436,250.0160384706658,39.69459472438018,2520.340636666535,-6.727240755150711,235616.42744555793,10.5,10500235616.427446,47.655,-122.3035,60.0,10.066666666666666
2026-01-20T23:10:05+00:00,SAT-64436,250.0081449937374,39.765822574345854,2513.6313352200646,-6.726640956585506,235595.419962659,10.5,10500235595.419962,47.655,-122.3035,60.0,10.083333333333334
2026-01-20T23:10:06+00:00,SAT-64436,250.0002792209145,39.837271987019044,2506.9226319726968,-6.72602843700455,235573.9669359787,10.5,10500235573.966936,47.655,-122.3035,60.0,10.1
2026-01-20T23:10:07+00:00,SAT-64436,249.99244148661097,39.90894472854356,2500.214539611524,-6.72540312151506,235552.0657424548,10.5,10500235552.065742,47.655,-122.3035,60.0,10.116666666666667
2026-01-20T23:10:08+00:00,SAT-64436,249.98463213011829,39.980842583792494,2493.507070898333,-6.724764858622814,235529.711076119,10.5,10500235529.711077,47.655,-122.3035,60.0,10.133333333333333
2026-01-20T23:10:09+00:00,SAT-64436,249.97685149567764,40.05296735578139,2486.8002387459996,-6.724113541831887,235506.89920703345,10.5,10500235506.899206,47.655,-122.3035,60.0,10.15
2026-01-20T23:10:10+00:00,SAT-64436,249.96909993259104,40.12532086641071,2480.094056173613,-6.723449039774075,235483.625534128,10.5,10500235483.625534,47.655,-122.3035,60.0,10.166666666666666
2026-01-20T23:10:11+00:00,SAT-64436,249.9613777952877,40.19790495644546,2473.3885363312784,-6.7227712653577925,235459.88700708683,10.5,10500235459.887007,47.655,-122.3035,60.0,10.183333333333334
2026-01-20T23:10:12+00:00,SAT-64436,249.95368544343867,40.27072148625923,2466.6836924559616,-6.722080060932757,235435.67810433026,10.5,10500235435.678104,47.655,-122.3035,60.0,10.2
2026-01-20T23:10:13+00:00,SAT-64436,249.94602324202293,40.34377233532023,2459.979537941858,-6.721375308009055,235410.9946758403,10.5,10500235410.994677,47.655,-122.3035,60.0,10.216666666666667
2026-01-20T23:10:14+00:00,SAT-64436,249.93839156146387,40.41705940289061,2453.2760863013364,-6.720656891196911,235385.8326801789,10.5,10500235385.83268,47.655,-122.3035,60.0,10.233333333333333
2026-01-20T23:10:15+00:00,SAT-64436,249.93079077768286,40.49058460832389,2446.5733511618496,-6.719924682895555,235360.18764822738,10.5,10500235360.187649,47.655,-122.3035,60.0,10.25
2026-01-20T23:10:16+00:00,SAT-64436,249.9232212722434,40.5643498912118,2439.8713462781084,-6.719178530257385,235334.05422661616,10.5,10500235334.054226,47.655,-122.3035,60.0,10.266666666666667
2026-01-20T23:10:17+00:00,SAT-64436,249.91568343242113,40.638357211374284,2433.1700855572653,-6.718418353393811,235307.42961730884,10.5,10500235307.429617,47.655,-122.3035,60.0,10.283333333333333
2026-01-20T23:10:18+00:00,SAT-64436,249.90817765133363,40.71260854995937,2426.469582986147,-6.717643938852019,235280.30634428503,10.5,10500235280.306345,47.655,-122.3035,60.0,10.3
2026-01-20T23:10:19+00:00,SAT-64436,249.90070432802014,40.78710590823155,2419.769852764465,-6.716855237547131,235252.68268838464,10.5,10500235252.682688,47.655,-122.3035,60.0,10.316666666666666
2026-01-20T23:10:20+00:00,SAT-64436,249.89326386758776,40.8618513097089,2413.070909140885,-6.716052043693337,235224.55144211816,10.5,10500235224.551441,47.655,-122.3035,60.0,10.333333333333334
2026-01-20T23:10:21+00:00,SAT-64436,249.88585668128206,40.93684679869161,2406.372766569308,-6.715234264717393,235195.90936317891,10.5,10500235195.909363,47.655,-122.3035,60.0,10.35
2026-01-20T23:10:22+00:00,SAT-64436,249.8784831866501,41.01209444184443,2399.6754395959633,-6.714401731204744,235166.7505179527,10.5,10500235166.750519,47.655,-122.3035,60.0,10.366666666666667
2026-01-20T23:10:23+00:00,SAT-64436,249.87114380761264,41.08759632762455,2392.9789429360417,-6.713554329305013,235137.07091891766,10.5,10500235137.070919,47.655,-122.3035,60.0,10.383333333333333
2026-01-20T23:10:24+00:00,SAT-64436,249.8638389746202,41.16335456722682,2386.2832914182814,-6.71269186871074,235106.8639007015,10.5,10500235106.863901,47.655,-122.3035,60.0,10.4
2026-01-20T23:10:25+00:00,SAT-64436,249.85656912474633,41.23937129401796,2379.5885000612207,-6.711814266045924,235076.12654312406,10.5,10500235076.126543,47.655,-122.3035,60.0,10.416666666666666
2026-01-20T23:10:26+00:00,SAT-64436,249.8493347018423,41.31564866508698,2372.8945839665507,-6.710921309818979,235044.85143885534,10.5,10500235044.851439,47.655,-122.3035,60.0,10.433333333333334
2026-01-20T23:10:27+00:00,SAT-64436,249.8421361566368,41.392188860089306,2366.2015584468913,-6.7100129011928455,235013.03512620347,10.5,10500235013.035126,47.655,-122.3035,60.0,10.45
2026-01-20T23:10:28+00:00,SAT-64436,249.83497394690067,41.46899408287827,2359.509438913435,-6.709088847408915,234980.6708539466,10.5,10500234980.670855,47.655,-122.3035,60.0,10.466666666666667
2026-01-20T23:10:29+00:00,SAT-64436,249.8278485375423,41.54606656074737,2352.818240969619,-6.708149011164503,234947.7538131639,10.5,10500234947.753813,47.655,-122.3035,60.0,10.483333333333333
2026-01-20T23:10:30+00:00,SAT-64436,249.8207604007859,41.62340854541427,2346.1279803558177,-6.707193252629038,234914.2791063973,10.5,10500234914.279106,47.655,-122.3035,60.0,10.5
2026-01-20T23:10:31+00:00,SAT-64436,249.81371001628048,41.701022313335095,2339.4386729518624,-6.706221373022012,234880.23977151263,10.5,10500234880.23977,47.655,-122.3035,60.0,10.516666666666667
2026-01-20T23:10:32+00:00,SAT-64436,249.80669787126433,41.77891016536229,2332.7503348358355,-6.705233250986137,234845.6315580642,10.5,10500234845.631557,47.655,-122.3035,60.0,10.533333333333333
2026-01-20T23:10:33+00:00,SAT-64436,249.79972446070266,41.857074428007564,2326.0629822068518,-6.704228700453007,234810.44794914947,10.5,10500234810.447948,47.655,-122.3035,60.0,10.55
2026-01-20T23:10:34+00:00,SAT-64436,249.7927902874451,41.93551745304117,2319.3766314495997,-6.703207561097582,234774.68332950727,10.5,10500234774.683329,47.655,-122.3035,60.0,10.566666666666666
2026-01-20T23:10:35+00:00,SAT-64436,249.78589586236495,42.0142416181559,2312.691299108665,-6.702169676815077,234738.33223168782,10.5,10500234738.332232,47.655,-122.3035,60.0,10.583333333333334
2026-01-20T23:10:36+00:00,SAT-64436,249.77904170455562,42.093249327398496,2306.0070018843217,-6.701114836838622,234701.38727374366,10.5,10500234701.387274,47.655,-122.3035,60.0,10.6
2026-01-20T23:10:37+00:00,SAT-64436,249.7722283414319,42.172543010879885,2299.323756687048,-6.700042919997444,234663.84421176187,10.5,10500234663.844212,47.655,-122.3035,60.0,10.616666666666667
2026-01-20T23:10:38+00:00,SAT-64436,249.76545630896354,42.252125126241395,2292.6415805481706,-6.698953722395806,234625.69590445122,10.5,10500234625.695904,47.655,-122.3035,60.0,10.633333333333333
2026-01-20T23:10:39+00:00,SAT-64436,249.75872615178886,42.331998158044975,2285.9604907023677,-6.6978470722007915,234586.93633349612,10.5,10500234586.936333,47.655,-122.3035,60.0,10.65
2026-01-20T23:10:40+00:00,SAT-64436,249.7520384234303,42.41216461855639,2279.280504555693,-6.696722789048508,234547.55918179013,10.5,10500234547.559181,47.655,-122.3035,60.0,10.666666666666666
2026-01-20T23:10:41+00:00,SAT-64436,249.7453936864391,42.4926270480399,2272.6016396940818,-6.695580690346773,234507.55805418265,10.5,10500234507.558054,47.655,-122.3035,60.0,10.683333333333334
2026-01-20T23:10:42+00:00,SAT-64436,249.73879251260792,42.57338801514152,2265.9239138855755,-6.694420590534894,234466.9264515533,10.5,10500234466.92645,47.655,-122.3035,60.0,10.7
2026-01-20T23:10:43+00:00,SAT-64436,249.73223548313328,42.65445011726284,2259.247345083282,-6.693242307490284,234425.6579951987,10.5,10500234425.657995,47.655,-122.3035,60.0,10.716666666666667
2026-01-20T23:10:44+00:00,SAT-64436,249.72572318882692,42.735815981028125,2252.5719514219454,-6.692045633226289,234383.74540054653,10.5,10500234383.745401,47.655,-122.3035,60.0,10.733333333333333
2026-01-20T23:10:45+00:00,SAT-64436,249.71925623028855,42.81748826238627,2245.8977512437414,-6.690830402977046,234341.18289679915,10.5,10500234341.182898,47.655,-122.3035,60.0,10.75
2026-01-20T23:10:46+00:00,SAT-64436,249.71283521814337,42.89946964758522,2239.224763055172,-6.689596374762856,234297.96200880408,10.5,10500234297.96201,47.655,-122.3035,60.0,10.766666666666667
2026-01-20T23:10:47+00:00,SAT-64436,249.70646077319333,42.981762852647044,2232.553005604075,-6.688343406622187,234254.07776446786,10.5,10500234254.077765,47.655,-122.3035,60.0,10.783333333333333
2026-01-20T23:10:48+00:00,SAT-64436,249.70013352669704,43.06437062506727,2225.8824977798704,-6.687071245338604,234209.5212950799,10.5,10500234209.521296,47.655,-122.3035,60.0,10.8
2026-01-20T23:10:49+00:00,SAT-64436,249.69385412051867,43.147295742875464,2219.2132587245196,-6.685779737337748,234164.28722181648,10.5,10500234164.287222,47.655,-122.3035,60.0,10.816666666666666
2026-01-20T23:10:50+00:00,SAT-64436,249.68762320741172,43.2305410163509,2212.545307733148,-6.684468612078737,234118.36606919154,10.5,10500234118.36607,47.655,-122.3035,60.0,10.833333333333334
2026-01-20T23:10:51+00:00,SAT-64436,249.68144145118174,43.314109287011995,2205.8786643707017,-6.68313772139035,234071.75264762223,10.5,10500234071.752647,47.655,-122.3035,60.0,10.85
2026-01-20T23:10:52+00:00,SAT-64436,249.67530952698297,43.39800342964598,2199.2133483499015,-6.681786811430536,234024.43806648607,10.5,10500234024.438066,47.655,-122.3035,60.0,10.866666666666667
2026-01-20T23:10:53+00:00,SAT-64436,249.66922812150716,43.48222635145005,2192.549379636635,-6.6804156823253535,233976.41532535222,10.5,10500233976.415325,47.655,-122.3035,60.0,10.883333333333333
2026-01-20T23:10:54+00:00,SAT-64436,249.66319793326568,43.56678099321207,2185.886778396129,-6.6790240853301945,233927.6757121323,10.5,10500233927.675713,47.655,-122.3035,60.0,10.9
2026-01-20T23:10:55+00:00,SAT-64436,249.6572196727999,43.651670329180256,2179.225565041693,-6.677611848200486,233878.21319409276,10.5,10500233878.213194,47.655,-122.3035,60.0,10.916666666666666
2026-01-20T23:10:56+00:00,SAT-64436,249.65129406300002,43.73689736856141,2172.565760158421,-6.676178698561434,233828.0182315162,10.5,10500233828.018232,47.655,-122.3035,60.0,10.933333333333334
2026-01-20T23:10:57+00:00,SAT-64436,249.6454218392965,43.82246515474072,2165.9073846030556,-6.674724440530144,233777.08396375508,10.5,10500233777.083963,47.655,-122.3035,60.0,10.95
2026-01-20T23:10:58+00:00,SAT-64436,249.63960375000107,43.908376766801716,2159.2504594277,-6.673248794994611,233725.40061512627,10.5,10500233725.400616,47.655,-122.3035,60.0,10.966666666666667
2026-01-20T23:10:59+00:00,SAT-64436,249.6338405565108,43.99463531896833,2152.595005962826,-6.67175158186055,233672.96187796618,10.5,10500233672.961878,47.655,-122.3035,60.0,10.983333333333333
2026-01-20T23:11:00+00:00,SAT-64436,249.62813303368011,44.08124396244966,2145.9410457185168,-6.670232526455761,233619.75813209248,10.5,10500233619.758133,47.655,-122.3035,60.0,11.0
2026-01-20T23:11:01+00:00,SAT-64436,249.62248197004058,44.16820588474611,2139.2886004787983,-6.668691373536012,233565.78043777248,10.5,10500233565.780437,47.655,-122.3035,60.0,11.016666666666667
2026-01-20T23:11:02+00:00,SAT-64436,249.61688816813404,44.255524310464125,2132.6376922822587,-6.667127908951723,233511.02129458205,10.5,10500233511.021294,47.655,-122.3035,60.0,11.033333333333333
2026-01-20T23:11:03+00:00,SAT-64436,249.61135244481568,44.34320250242439,2125.988343381064,-6.665541858945996,233455.4711143966,10.5,10500233455.471115,47.655,-122.3035,60.0,11.05
2026-01-20T23:11:04+00:00,SAT-64436,249.6058756315815,44.43124376145772,2119.3405763004084,-6.663932979350744,233399.1213454169,10.5,10500233399.121346,47.655,-122.3035,60.0,11.066666666666666
2026-01-20T23:11:05+00:00,SAT-64436,249.60045857487222,44.51965142738051,2112.694413809003,-6.66230098856774,233341.96212488197,10.5,10500233341.962126,47.655,-122.3035,60.0,11.083333333333334
2026-01-20T23:11:06+00:00,SAT-64436,249.5951021364217,44.608428879089665,2106.0498789564044,-6.660645651679263,233283.98522497943,10.5,10500233283.985226,47.655,-122.3035,60.0,11.1
2026-01-20T23:11:07+00:00,SAT-64436,249.5898071935951,44.69757953579713,2099.4069950264634,-6.658966702111083,233225.18130915213,10.5,10500233225.181309,47.655,-122.3035,60.0,11.116666666666667
2026-01-20T23:11:08+00:00,SAT-64436,249.58457463977214,44.78710685723093,2092.765785568891,-6.657263839972118,233165.53987394588,10.5,10500233165.539873,47.655,-122.3035,60.0,11.133333333333333
2026-01-20T23:11:09+00:00,SAT-64436,249.5794053846326,44.877014343789085,2086.1262744324918,-6.65553681875672,233105.05228569012,10.5,10500233105.052286,47.655,-122.3035,60.0,11.15
2026-01-20T23:11:10+00:00,SAT-64436,249.574300354613,44.96730553792242,2079.4884857119187,-6.653785336250989,233043.70795957575,10.5,10500233043.70796,47.655,-122.3035,60.0,11.166666666666666
2026-01-20T23:11:11+00:00,SAT-64436,249.569260493225,45.057984024006984,2072.852443803231,-6.652009120219635,232981.49736077138,10.5,10500232981.49736,47.655,-122.3035,60.0,11.183333333333334
2026-01-20T23:11:12+00:00,SAT-64436,249.56428676148974,45.14905342942063,2066.2181733739985,-6.650207899698683,232918.4109989724,10.5,10500232918.411,47.655,-122.3035,60.0,11.2
2026-01-20T23:11:13+00:00,SAT-64436,249.55938013833418,45.24051742523438,2059.5856993620323,-6.64838134825146,232854.4374409857,10.5,10500232854.43744,47.655,-122.3035,60.0,11.216666666666667
2026-01-20T23:11:14+00:00,SAT-64436,249.55454162097703,45.332379726113764,2052.9550470307095,-6.646529185846588,232789.56687892787,10.5,10500232789.56688,47.655,-122.3035,60.0,11.233333333333333
2026-01-20T23:11:15+00:00,SAT-64436,249.5497722253731,45.42464409165908,2046.326241922692,-6.6446511337542375,232723.7895505013,10.5,10500232723.78955,47.655,-122.3035,60.0,11.25
2026-01-20T23:11:16+00:00,SAT-64436,249.54507298668955,45.517314327136326,2039.6993098586279,-6.642746829073222,232657.0927453713,10.5,10500232657.092745,47.655,-122.3035,60.0,11.266666666666667
2026-01-20T23:11:17+00:00,SAT-64436,249.54044495965394,45.61039428299141,2033.0742770210986,-6.640816017571685,232589.4675592629,10.5,10500232589.46756,47.655,-122.3035,60.0,11.283333333333333
2026-01-20T23:11:18+00:00,SAT-64436,249.53588921914638,45.70388785712703,2026.4511698462406,-6.638858360688863,232520.90213434608,10.5,10500232520.902134,47.655,-122.3035,60.0,11.3
2026-01-20T23:11:19+00:00,SAT-64436,249.53140686057884,45.79779899443682,2019.8300151078467,-6.636873532309023,232451.38504866837,10.5,10500232451.385048,47.655,-122.3035,60.0,11.316666666666666
2026-01-20T23:11:20+00:00,SAT-64436,249.52699900042637,45.892131687738434,2013.2108399049575,-6.634861206489739,232380.90488634727,10.5,10500232380.904886,47.655,-122.3035,60.0,11.333333333333334
2026-01-20T23:11:21+00:00,SAT-64436,249.52266677670787,45.986889978530904,2006.593671661685,-6.632821063880446,232309.45046237513,10.5,10500232309.450462,47.655,-122.3035,60.0,11.35
2026-01-20T23:11:22+00:00,SAT-64436,249.5184113495439,46.082077957874674,1999.9785381206414,-6.630752757039748,232237.00960788465,10.5,10500232237.009607,47.655,-122.3035,60.0,11.366666666666667
2026-01-20T23:11:23+00:00,SAT-64436,249.51423390163745,46.177699766768356,1993.3654673709539,-6.628655967426423,232163.5711662147,10.5,10500232163.571167,47.655,-122.3035,60.0,11.383333333333333
2026-01-20T23:11:24+00:00,SAT-64436,249.51013563889438,46.27375959738224,1986.7544878194403,-6.626530319684848,232089.12199082374,10.5,10500232089.12199,47.655,-122.3035,60.0,11.4
2026-01-20T23:11:25+00:00,SAT-64436,249.50611779088274,46.370261693027146,1980.1456282472748,-6.6243754678939695,232013.64996609313,10.5,10500232013.649965,47.655,-122.3035,60.0,11.416666666666666
2026-01-20T23:11:26+00:00,SAT-64436,249.50218161152145,46.46721034943234,1973.5389177806287,-6.622191059475558,231937.14274324192,10.5,10500231937.142744,47.655,-122.3035,60.0,11.433333333333334
2026-01-20T23:11:27+00:00,SAT-64436,249.4983283796136,46.56460991547703,1966.9343858973116,-6.619976759210398,231859.5885814752,10.5,10500231859.588581,47.655,-122.3035,60.0,11.45
2026-01-20T23:11:28+00:00,SAT-64436,249.49455939951196,46.662464794321274,1960.3320624094592,-6.617732130329592,231780.9721832986,10.5,10500231780.972183,47.655,-122.3035,60.0,11.466666666666667
2026-01-20T23:11:29+00:00,SAT-64436,249.4908760016683,46.76077944274965,1953.7319775648104,-6.615456859476011,231701.28257362003,10.5,10500231701.282574,47.655,-122.3035,60.0,11.483333333333333
2026-01-20T23:11:30+00:00,SAT-64436,249.48727954339105,46.85955837391266,1947.1341619236264,-6.613150531823401,231620.50522346934,10.5,10500231620.505224,47.655,-122.3035,60.0,11.5
2026-01-20T23:11:31+00:00,SAT-64436,249.4837714094523,46.95880615670276,1940.5386464598878,-6.610812782386367,231538.62734951408,10.5,10500231538.62735,47.655,-122.3035,60.0,11.516666666666667
2026-01-20T23:11:32+00:00,SAT-64436,249.48035301280618,47.05852741742374,1933.945462511588,-6.608443195354486,231455.63438831439,10.5,10500231455.634388,47.655,-122.3035,60.0,11.533333333333333
2026-01-20T23:11:33+00:00,SAT-64436,249.47702579529505,47.15872683995209,1927.3546418314208,-6.606041393059228,231371.51311232086,10.5,10500231371.513113,47.655,-122.3035,60.0,11.55
2026-01-20T23:11:34+00:00,SAT-64436,249.47379122839715,47.25940916726564,1920.7662165487432,-6.6036069468995535,231286.248510112,10.5,10500231286.24851,47.655,-122.3035,60.0,11.566666666666666
2026-01-20T23:11:35+00:00,SAT-64436,249.4706508139676,47.360579201628546,1914.1802192203686,-6.601139471557461,231199.82708622157,10.5,10500231199.827085,47.655,-122.3035,60.0,11.583333333333334
2026-01-20T23:11:36+00:00,SAT-64436,249.46760608504195,47.46224180623531,1907.596682787402,-6.598638514176868,231112.232979714,10.5,10500231112.232979,47.655,-122.3035,60.0,11.6
2026-01-20T23:11:37+00:00,SAT-64436,249.46465860662818,47.56440190516926,1901.0156406425965,-6.596103664544629,231023.45182318965,10.5,10500231023.451822,47.655,-122.3035,60.0,11.616666666666667
2026-01-20T23:11:38+00:00,SAT-64436,249.46180997652624,47.66706448506423,1894.4371265878237,-6.59353450086756,230933.4688436671,10.5,10500230933.468843,47.655,-122.3035,60.0,11.633333333333333
2026-01-20T23:11:39+00:00,SAT-64436,249.4590618262614,47.77023459597884,1887.861174845625,-6.590930565299366,230842.2680054324,10.5,10500230842.268005,47.655,-122.3035,60.0,11.65
2026-01-20T23:11:40+00:00,SAT-64436,249.4564158218585,47.873917351856235,1881.2878200951668,-6.588291415807513,230749.83382663643,10.5,10500230749.833826,47.655,-122.3035,60.0,11.666666666666666
2026-01-20T23:11:41+00:00,SAT-64436,249.45387366484135,47.9781179318525,1874.717097456468,-6.585616591390682,230656.15016106298,10.5,10500230656.150162,47.655,-122.3035,60.0,11.683333333333334
2026-01-20T23:11:42+00:00,SAT-64436,249.45143709312384,48.08284158111112,1868.1490425093211,-6.58290564627051,230561.20139566806,10.5,10500230561.201395,47.655,-122.3035,60.0,11.7
2026-01-20T23:11:43+00:00,SAT-64436,249.44910788203995,48.18809361212042,1861.5836912781072,-6.580158098576899,230464.97065332255,10.5,10500230464.970654,47.655,-122.3035,60.0,11.716666666666667
2026-01-20T23:11:44+00:00,SAT-64436,249.4468878452826,48.29387940524584,1855.0210802677932,-6.577373459338647,230367.4408081867,10.5,10500230367.440807,47.655,-122.3035,60.0,11.733333333333333
2026-01-20T23:11:45+00:00,SAT-64436,249.44477883598725,48.40020440976164,1848.4612464710126,-6.574551264303098,230268.5956001686,10.5,10500230268.5956,47.655,-122.3035,60.0,11.75
2026-01-20T23:11:46+00:00,SAT-64436,249.44278274778276,48.50707414540549,1841.9042273434145,-6.571690997042224,230168.41694177428,10.5,10500230168.416943,47.655,-122.3035,60.0,11.766666666666667
2026-01-20T23:11:47+00:00,SAT-64436,249.44090151589353,48.61449420271079,1835.3500608556976,-6.5687921717429045,230066.88781777324,10.5,10500230066.887817,47.655,-122.3035,60.0,11.783333333333333
2026-01-20T23:11:48+00:00,SAT-64436,249.43913711830052,48.72247024470871,1828.7987854630796,-6.5658542607591786,229963.98974777202,10.5,10500229963.989748,47.655,-122.3035,60.0,11.8
2026-01-20T23:11:49+00:00,SAT-64436,249.43749157690303,48.83100800745582,1822.2504401470158,-6.562876789102754,229859.7060956714,10.5,10500229859.706095,47.655,-122.3035,60.0,11.816666666666666
2026-01-20T23:11:50+00:00,SAT-64436,249.4359669587987,48.94011330216123,1815.7050643626837,-6.559859156007548,229754.01582010195,10.5,10500229754.01582,47.655,-122.3035,60.0,11.833333333333334
2026-01-20T23:11:51+00:00,SAT-64436,249.43456537739155,49.049792014326876,1809.1626981644256,-6.556800891206628,229646.90245032645,10.5,10500229646.90245,47.655,-122.3035,60.0,11.85
2026-01-20T23:11:52+00:00,SAT-64436,249.43328899389576,49.160050107241844,1802.6233820755956,-6.553701398245652,229538.34509599087,10.5,10500229538.345097,47.655,-122.3035,60.0,11.866666666666667
2026-01-20T23:11:53+00:00,SAT-64436,249.43214001850282,49.270893621142505,1796.087157214412,-6.550560171631706,229428.32605259508,10.5,10500229428.326052,47.655,-122.3035,60.0,11.883333333333333
2026-01-20T23:11:54+00:00,SAT-64436,249.4311207119308,49.38232867609882,1789.5540652032378,-6.547376585236,229316.82339046034,10.5,10500229316.823391,47.655,-122.3035,60.0,11.9
2026-01-20T23:11:55+00:00,SAT-64436,249.43023338669468,49.49436147128637,1783.0241482888957,-6.544150131066704,229203.81931756402,10.5,10500229203.819317,47.655,-122.3035,60.0,11.916666666666666
2026-01-20T23:11:56+00:00,SAT-64436,249.42948040878883,49.606998288408214,1776.4974492248452,-6.540880158118688,229089.29103295263,10.5,10500229089.291033,47.655,-122.3035,60.0,11.933333333333334
2026-01-20T23:11:57+00:00,SAT-64436,249.4288641990292,49.72024549059955,1769.9740114138149,-6.537566138485531,228973.22004711028,10.5,10500228973.220047,47.655,-122.3035,60.0,11.95
2026-01-20T23:11:58+00:00,SAT-64436,249.42838723484925,49.834109526007886,1763.453878785032,-6.534207400974593,228855.58285203172,10.5,10500228855.582851,47.655,-122.3035,60.0,11.966666666666667
2026-01-20T23:11:59+00:00,SAT-64436,249.428052051746,49.948596926711566,1756.9370959371267,-6.530803385970356,228736.3598476141,10.5,10500228736.359848,47.655,-122.3035,60.0,11.983333333333333
2026-01-20T23:12:00+00:00,SAT-64436,249.42786124518148,50.063714312164244,1750.4237080268522,-6.52735344571267,228615.5283465571,10.5,10500228615.528347,47.655,-122.3035,60.0,12.0
2026-01-20T23:12:01+00:00,SAT-64436,249.42781747223586,50.17946838913,1743.913760856995,-6.523856938051882,228493.06585806358,10.5,10500228493.065859,47.655,-122.3035,60.0,12.016666666666667
2026-01-20T23:12:02+00:00,SAT-64436,249.42792345344634,50.29586595329019,1737.4073008707778,-6.520313215613078,228368.94970832564,10.5,10500228368.949709,47.655,-122.3035,60.0,12.033333333333333
2026-01-20T23:12:03+00:00,SAT-64436,249.42818197474097,50.41291389069799,1730.904375157073,-6.516721636201628,228243.15740497079,10.5,10500228243.157406,47.655,-122.3035,60.0,12.05
2026-01-20T23:12:04+00:00,SAT-64436,249.42859588941377,50.530619179447775,1724.4050314452345,-6.513081513165613,228115.66489854435,10.5,10500228115.664898,47.655,-122.3035,60.0,12.066666666666666
2026-01-20T23:12:05+00:00,SAT-64436,249.42916812013488,50.64898889046264,1717.9093181494375,-6.509392164258111,227986.44829387323,10.5,10500227986.448294,47.655,-122.3035,60.0,12.083333333333334
2026-01-20T23:12:06+00:00,SAT-64436,249.4299016610318,50.76803018918575,1711.4172843642841,-6.505652907154441,227855.48369306087,10.5,10500227855.483692,47.655,-122.3035,60.0,12.1
2026-01-20T23:12:07+00:00,SAT-64436,249.43079957999166,50.88775033725176,1704.9289798648817,-6.5018630354974825,227722.74635649295,10.5,10500227722.746357,47.655,-122.3035,60.0,12.116666666666667
2026-01-20T23:12:08+00:00,SAT-64436,249.43186502082222,51.00815669370452,1698.4444551308125,-6.498021820016007,227588.21074200628,10.5,10500227588.210743,47.655,-122.3035,60.0,12.133333333333333
2026-01-20T23:12:09+00:00,SAT-64436,249.4331012056483,51.129256716284516,1691.9637613689831,-6.494128529592171,227451.8512427614,10.5,10500227451.851242,47.655,-122.3035,60.0,12.15
2026-01-20T23:12:10+00:00,SAT-64436,249.4345114373421,51.25105796312049,1685.48695051547,-6.490182437041243,227313.64238967298,10.5,10500227313.64239,47.655,-122.3035,60.0,12.166666666666666
2026-01-20T23:12:11+00:00,SAT-64436,249.43609910213158,51.3735680945833,1679.014075231594,-6.486182768453531,227173.55707714995,10.5,10500227173.557077,47.655,-122.3035,60.0,12.183333333333334
2026-01-20T23:12:12+00:00,SAT-64436,249.4378676721155,51.49679487417624,1672.545188950523,-6.482128759009866,227031.56851798986,10.5,10500227031.568518,47.655,-122.3035,60.0,12.2
2026-01-20T23:12:13+00:00,SAT-64436,249.43982070809045,51.620746170541814,1666.080345868204,-6.4780196298619295,226887.64943363005,10.5,10500226887.649433,47.655,-122.3035,60.0,12.216666666666667
2026-01-20T23:12:14+00:00,SAT-64436,249.44196186234868,51.74542995904083,1659.619600957355,-6.473854555393493,226741.77090749785,10.5,10500226741.770908,47.655,-122.3035,60.0,12.233333333333333
2026-01-20T23:12:15+00:00,SAT-64436,249.44429488157772,51.870854322723616,1653.163010014109,-6.469632778188627,226593.9064116836,10.5,10500226593.906412,47.655,-122.3035,60.0,12.25
2026-01-20T23:12:16+00:00,SAT-64436,249.44682361011252,51.99702745559547,1646.7106295899957,-6.465353410875288,226444.0248666647,10.5,10500226444.024866,47.655,-122.3035,60.0,12.266666666666667
2026-01-20T23:12:17+00:00,SAT-64436,249.44955199283947,52.12395766199247,1640.2625171215495,-6.461015654916468,226292.0983042973,10.5,10500226292.098305,47.655,-122.3035,60.0,12.283333333333333
2026-01-20T23:12:18+00:00,SAT-64436,249.45248407874226,52.25165336032096,1633.8187308417127,-6.456618627557045,226138.095806763,10.5,10500226138.095806,47.655,-122.3035,60.0,12.3
2026-01-20T23:12:19+00:00,SAT-64436,249.45562402418687,52.38012308339367,1627.3793298638293,-6.452161482372242,225981.98772868575,10.5,10500225981.987728,47.655,-122.3035,60.0,12.316666666666666
2026-01-20T23:12:20+00:00,SAT-64436,249.45897609661137,52.509375481201815,1620.94437414541,-6.447643293648135,225823.7416476482,10.5,10500225823.741648,47.655,-122.3035,60.0,12.333333333333334
2026-01-20T23:12:21+00:00,SAT-64436,249.4625446781217,52.63941932138942,1614.5139245672117,-6.443063200607313,225663.32741558427,10.5,10500225663.327415,47.655,-122.3035,60.0,12.35
2026-01-20T23:12:22+00:00,SAT-64436,249.46633426950223,52.77026349267831,1608.0880428684725,-6.438420239443259,225500.71127591282,10.5,10500225500.711275,47.655,-122.3035,60.0,12.366666666666667
2026-01-20T23:12:23+00:00,SAT-64436,249.47034949410155,52.90191700491199,1601.666791749668,-6.4337135162520305,225335.86192033664,10.5,10500225335.86192,47.655,-122.3035,60.0,12.383333333333333
2026-01-20T23:12:24+00:00,SAT-64436,249.47459510217652,53.034388992665264,1595.2502348027924,-6.428942033259227,225168.74440257557,10.5,10500225168.744402,47.655,-122.3035,60.0,12.4
2026-01-20T23:12:25+00:00,SAT-64436,249.4790759750764,53.167688715302745,1588.8384366149553,-6.424104856821171,224999.32602247884,10.5,10500224999.326023,47.655,-122.3035,60.0,12.416666666666666
2026-01-20T23:12:26+00:00,SAT-64436,249.48379712998116,53.30182556056651,1582.431462704419,-6.419200970340017,224827.5711744896,10.5,10500224827.571175,47.655,-122.3035,60.0,12.433333333333334
2026-01-20T23:12:27+00:00,SAT-64436,249.48876372448626,53.43680904511395,1576.0293796033332,-6.414229398711266,224653.4457063236,10.5,10500224653.445705,47.655,-122.3035,60.0,12.45
2026-01-20T23:12:28+00:00,SAT-64436,249.4939810616788,53.57264881771617,1569.6322548163516,-6.4091890672272225,224476.91197717132,10.5,10500224476.911978,47.655,-122.3035,60.0,12.466666666666667
2026-01-20T23:12:29+00:00,SAT-64436,249.49945459509027,53.709354659482806,1563.2401569199703,-6.404078974102613,224297.93490027502,10.5,10500224297.9349,47.655,-122.3035,60.0,12.483333333333333
2026-01-20T23:12:30+00:00,SAT-64436,249.50518993427386,53.846936487808684,1556.8531554897988,-6.398898028152494,224116.4762577222,10.5,10500224116.476257,47.655,-122.3035,60.0,12.5
2026-01-20T23:12:31+00:00,SAT-64436,249.51119285024527,53.985404356876465,1550.4713211897213,-6.393645167206445,223932.4988478118,10.5,10500223932.498848,47.655,-122.3035,60.0,12.516666666666667
2026-01-20T23:12:32+00:00,SAT-64436,249.51746928144166,54.124768460748946,1544.094725742961,-6.388319260344359,223745.96306093785,10.5,10500223745.96306,47.655,-122.3035,60.0,12.533333333333333
