satellites_20260121_005943/SAT-49158.csv

timestamp,satellite,azimuth_deg,elevation_deg,distance_km,relative_velocity_kms,doppler_shift_hz,tx_freq_ghz,rx_freq_hz,ue_lat,ue_lon,ue_alt_m,time_minutes
2026-01-20T23:13:55+00:00,SAT-49158,203.11596124847026,30.00843159937157,1148.6709190168417,-1.6108524636857546,56418.867177440545,10.5,10500056418.867178,47.655,-122.3035,60.0,13.916666666666666
2026-01-20T23:13:56+00:00,SAT-49158,203.38456690062145,30.288245643995214,1147.064362159726,-1.5681153457284547,54922.03252874619,10.5,10500054922.032528,47.655,-122.3035,60.0,13.933333333333334
2026-01-20T23:13:57+00:00,SAT-49158,203.65577212633556,30.567996727967255,1145.5004284549193,-1.5252018624556245,53419.020820677404,10.5,10500053419.02082,47.655,-122.3035,60.0,13.95
2026-01-20T23:13:58+00:00,SAT-49158,203.92959783184696,30.84765048578423,1143.9792937974303,-1.4821159413438942,51909.96961007902,10.5,10500051909.96961,47.655,-122.3035,60.0,13.966666666666667
2026-01-20T23:13:59+00:00,SAT-49158,204.2060647718257,31.12717205138959,1142.5011301652632,-1.438861595689536,50395.01945956268,10.5,10500050395.019459,47.655,-122.3035,60.0,13.983333333333333
2026-01-20T23:14:00+00:00,SAT-49158,204.4851935312141,31.40652606584531,1141.066105533829,-1.3954429321043238,48874.31420004368,10.5,10500048874.3142,47.655,-122.3035,60.0,14.0
2026-01-20T23:14:01+00:00,SAT-49158,204.76700450794712,31.685676687146458,1139.674383782877,-1.351864144692224,47348.000726783976,10.5,10500047348.000727,47.655,-122.3035,60.0,14.016666666666667
2026-01-20T23:14:02+00:00,SAT-49158,205.05151789417243,31.964587599729427,1138.326124609237,-1.3081295159710544,45816.22903167254,10.5,10500045816.229033,47.655,-122.3035,60.0,14.033333333333333
2026-01-20T23:14:03+00:00,SAT-49158,205.3387536574679,32.243222025202066,1137.021483438642,-1.2642434049234716,44279.151784720525,10.5,10500044279.151785,47.655,-122.3035,60.0,14.05
2026-01-20T23:14:04+00:00,SAT-49158,205.6287315190681,32.52154273141995,1135.760611349465,-1.2202102683217482,42736.92508094502,10.5,10500042736.925081,47.655,-122.3035,60.0,14.066666666666666
2026-01-20T23:14:05+00:00,SAT-49158,205.92147093632792,32.79951204687737,1134.543654975192,-1.1760346329381868,41189.7074670603,10.5,10500041189.707466,47.655,-122.3035,60.0,14.083333333333334
2026-01-20T23:14:06+00:00,SAT-49158,206.21699107888782,33.07709187028627,1133.3707564346084,-1.1317211085126038,39637.66039565391,10.5,10500039637.660397,47.655,-122.3035,60.0,14.1
2026-01-20T23:14:07+00:00,SAT-49158,206.51531080763993,33.354243684069495,1132.2420532490519,-1.0872743901057649,38080.948307613966,10.5,10500038080.948307,47.655,-122.3035,60.0,14.116666666666667
2026-01-20T23:14:08+00:00,SAT-49158,206.8164486535864,33.63092856898995,1131.1576782573197,-1.0426992291805406,36519.73761926885,10.5,10500036519.73762,47.655,-122.3035,60.0,14.133333333333333
2026-01-20T23:14:09+00:00,SAT-49158,207.12042279031942,33.90710721403805,1130.117759559417,-0.9980004707676337,34954.198024088226,10.5,10500034954.198025,47.655,-122.3035,60.0,14.15
2026-01-20T23:14:10+00:00,SAT-49158,207.42725101439981,34.18273993495537,1129.122420423238,-0.9531830236099555,33384.50144701283,10.5,10500033384.501448,47.655,-122.3035,60.0,14.166666666666666
2026-01-20T23:14:11+00:00,SAT-49158,207.7369507191604,34.45778668781496,1128.1717792210243,-0.908251861805575,31810.822101997433,10.5,10500031810.822102,47.655,-122.3035,60.0,14.183333333333334
2026-01-20T23:14:12+00:00,SAT-49158,208.04953886828193,34.732207083676435,1127.2659493641836,-0.863212030329397,30233.336685403432,10.5,10500030233.336685,47.655,-122.3035,60.0,14.2
2026-01-20T23:14:13+00:00,SAT-49158,208.36503197115627,35.005960406039975,1126.405039232602,-0.8180686313155503,28652.22389555003,10.5,10500028652.223896,47.655,-122.3035,60.0,14.216666666666667
2026-01-20T23:14:14+00:00,SAT-49158,208.68344605377177,35.27900562556045,1125.5891521176366,-0.7728268383998569,27067.66493504816,10.5,10500027067.664934,47.655,-122.3035,60.0,14.233333333333333
2026-01-20T23:14:15+00:00,SAT-49158,209.00479663479172,35.55130142042555,1124.8183861508057,-0.727491871809186,25479.842638324317,10.5,10500025479.842638,47.655,-122.3035,60.0,14.25
2026-01-20T23:14:16+00:00,SAT-49158,209.32909869349868,35.822806190832495,1124.092834257321,-0.6820690174945304,23888.942141741834,10.5,10500023888.942142,47.655,-122.3035,60.0,14.266666666666667
2026-01-20T23:14:17+00:00,SAT-49158,209.65636664431486,36.093478080294545,1123.4125840905401,-0.6365636030477432,22295.15004010309,10.5,10500022295.15004,47.655,-122.3035,60.0,14.283333333333333
2026-01-20T23:14:18+00:00,SAT-49158,209.98661430358158,36.36327499141871,1122.7777179904338,-0.5909810195328794,20698.655151275463,10.5,10500020698.655151,47.655,-122.3035,60.0,14.3
2026-01-20T23:14:19+00:00,SAT-49158,210.3198548647411,36.63215460983965,1122.1883129202863,-0.5453266882017395,19099.647350428888,10.5,10500019099.64735,47.655,-122.3035,60.0,14.316666666666666
2026-01-20T23:14:20+00:00,SAT-49158,210.65610086082035,36.900074418672155,1121.6444404365866,-0.4996060865018904,17498.318480946742,10.5,10500017498.318481,47.655,-122.3035,60.0,14.333333333333334
2026-01-20T23:14:21+00:00,SAT-49158,210.995364138413,37.16699172346625,1121.146166632982,-0.4538247291541177,15894.861691678165,10.5,10500015894.861692,47.655,-122.3035,60.0,14.35
2026-01-20T23:14:22+00:00,SAT-49158,211.33765582466305,37.43286367234876,1120.6935521031055,-0.4079881625412983,14289.4712404127,10.5,10500014289.471241,47.655,-122.3035,60.0,14.366666666666667
2026-01-20T23:14:23+00:00,SAT-49158,211.6829862919105,37.69764727535366,1120.2866519089978,-0.3621019711415739,12682.342719197177,10.5,10500012682.34272,47.655,-122.3035,60.0,14.383333333333333
2026-01-20T23:14:24+00:00,SAT-49158,212.0313651268001,37.961299428192916,1119.9255155431126,-0.3161717711944074,11073.672832494265,10.5,10500011073.672832,47.655,-122.3035,60.0,14.4
2026-01-20T23:14:25+00:00,SAT-49158,212.38280109754967,38.22377693540704,1119.6101868966414,-0.27020320443474194,9463.65917772618,10.5,10500009463.659178,47.655,-122.3035,60.0,14.416666666666666
2026-01-20T23:14:26+00:00,SAT-49158,212.73730211907522,38.48503653265853,1119.340704234085,-0.224201933055526,7852.500068841035,10.5,10500007852.500069,47.655,-122.3035,60.0,14.433333333333334
2026-01-20T23:14:27+00:00,SAT-49158,213.09487521641267,38.7450349085867,1119.117100172851,-0.17817364358301663,6240.394672042332,10.5,10500006240.394672,47.655,-122.3035,60.0,14.45
2026-01-20T23:14:28+00:00,SAT-49158,213.4555264921247,39.00372873039766,1118.939401658984,-0.13212403873192216,4627.542720521617,10.5,10500004627.54272,47.655,-122.3035,60.0,14.466666666666667
2026-01-20T23:14:29+00:00,SAT-49158,213.81926109104452,39.261074668082095,1118.8076299510224,-0.08605883347444937,3014.14437677988,10.5,10500003014.144377,47.655,-122.3035,60.0,14.483333333333333
2026-01-20T23:14:30+00:00,SAT-49158,214.18608316413855,39.51702941860192,1118.7218006077705,-0.03998375192428115,1400.4001234912723,10.5,10500001400.400124,47.655,-122.3035,60.0,14.5
2026-01-20T23:14:31+00:00,SAT-49158,214.55599583144632,39.77154973005422,1118.6819234791844,0.006095472694806219,-213.48923759604818,10.5,10499999786.510763,47.655,-122.3035,60.0,14.516666666666667
2026-01-20T23:14:32+00:00,SAT-49158,214.9290011496877,40.02459242959258,1118.6880026972856,0.05217310848625236,-1827.3229512186388,10.5,10499998172.67705,47.655,-122.3035,60.0,14.533333333333333
2026-01-20T23:14:33+00:00,SAT-49158,215.30510007089867,40.27611444550347,1118.7400366774825,0.09824342087759276,-3440.900168391574,10.5,10499996559.099833,47.655,-122.3035,60.0,14.55
2026-01-20T23:14:34+00:00,SAT-49158,215.68429241074935,40.52607283642052,1118.8380181159043,0.1443006818437582,-5054.020269447408,10.5,10499994945.97973,47.655,-122.3035,60.0,14.566666666666666
2026-01-20T23:14:35+00:00,SAT-49158,216.06657680946094,40.774424815710205,1118.9819339959297,0.19033916951091734,-6666.482850161067,10.5,10499993333.517149,47.655,-122.3035,60.0,14.583333333333334
2026-01-20T23:14:36+00:00,SAT-49158,216.45195069714282,41.0211277791531,1119.171765594322,0.23635317521958826,-8278.087969129887,10.5,10499991721.912031,47.655,-122.3035,60.0,14.6
2026-01-20T23:14:37+00:00,SAT-49158,216.8404102557161,41.26613933046694,1119.4074884944077,0.2823370034148626,-9888.636143928803,10.5,10499990111.363855,47.655,-122.3035,60.0,14.616666666666667
2026-01-20T23:14:38+00:00,SAT-49158,217.2319503865188,41.50941731070127,1119.689072599147,0.3282849782527549,-11497.928582492645,10.5,10499988502.071417,47.655,-122.3035,60.0,14.633333333333333
2026-01-20T23:14:39+00:00,SAT-49158,217.62656467013417,41.75091982256263,1120.016482150791,0.3741914449576567,-13105.767230659938,10.5,10499986894.232769,47.655,-122.3035,60.0,14.65
2026-01-20T23:14:40+00:00,SAT-49158,218.024245334618,41.99060526013775,1120.3896757518953,0.42005077454141243,-14711.954937454864,10.5,10499985288.045063,47.655,-122.3035,60.0,14.666666666666666
2026-01-20T23:14:41+00:00,SAT-49158,218.42498321934326,42.22843233562735,1120.808606391038,0.46585736604939537,-16316.295533754394,10.5,10499983683.704466,47.655,-122.3035,60.0,14.683333333333334
2026-01-20T23:14:42+00:00,SAT-49158,218.82876774068157,42.464360107069375,1121.2732214707778,0.5116056499874345,-17918.593952313713,10.5,10499982081.406048,47.655,-122.3035,60.0,14.7
2026-01-20T23:14:43+00:00,SAT-49158,219.23558685657642,42.69834800511654,1121.7834628390322,0.5572900937159317,-19518.656416691058,10.5,10499980481.343584,47.655,-122.3035,60.0,14.716666666666667
2026-01-20T23:14:44+00:00,SAT-49158,219.64542703724342,42.93035586308637,1122.3392668258316,0.6029052024004872,-21116.29047454261,10.5,10499978883.709526,47.655,-122.3035,60.0,14.733333333333333
2026-01-20T23:14:45+00:00,SAT-49158,220.05827323065483,43.16034394342659,1122.9405642810254,0.6484455225980241,-22711.30512322379,10.5,10499977288.694878,47.655,-122.3035,60.0,14.75
2026-01-20T23:14:46+00:00,SAT-49158,220.47410883165475,43.388272965817286,1123.5872806155633,0.6939056442673075,-24303.510880206093,10.5,10499975696.48912,47.655,-122.3035,60.0,14.766666666666667
2026-01-20T23:14:47+00:00,SAT-49158,220.8929156499756,43.614104134047246,1124.279335844779,0.7392802082395198,-25892.72004472827,10.5,10499974107.279955,47.655,-122.3035,60.0,14.783333333333333
2026-01-20T23:14:48+00:00,SAT-49158,221.3146738849545,43.83779916594177,1125.01664463913,0.7845639052391757,-27478.746663504608,10.5,10499972521.253336,47.655,-122.3035,60.0,14.8
2026-01-20T23:14:49+00:00,SAT-49158,221.7393620952713,44.05932031964451,1125.7991163739553,0.8297514780518067,-29061.406606646422,10.5,10499970938.593393,47.655,-122.3035,60.0,14.816666666666666
2026-01-20T23:14:50+00:00,SAT-49158,222.1669571721308,44.278630421044376,1126.626655181399,0.8748377288382595,-30640.517823839735,10.5,10499969359.482176,47.655,-122.3035,60.0,14.833333333333334
2026-01-20T23:14:51+00:00,SAT-49158,222.59743431559735,44.495692891869034,1127.499160009627,0.9198175154196101,-32215.900214227226,10.5,10499967784.099785,47.655,-122.3035,60.0,14.85
2026-01-20T23:14:52+00:00,SAT-49158,223.03076700906558,44.71047177580164,1128.4165246783389,0.964685765054366,-33787.376108944154,10.5,10499966212.623892,47.655,-122.3035,60.0,14.866666666666667
2026-01-20T23:14:53+00:00,SAT-49158,223.46692700175083,44.92293176757531,1129.3786379480196,1.0094374589555517,-35354.76972884119,10.5,10499964645.23027,47.655,-122.3035,60.0,14.883333333333333
2026-01-20T23:14:54+00:00,SAT-49158,223.90588428233733,45.13303823641764,1130.3853835737514,1.0540676575682877,-36917.90806981215,10.5,10499963082.09193,47.655,-122.3035,60.0,14.9
2026-01-20T23:14:55+00:00,SAT-49158,224.34760706773807,45.3407572557872,1131.4366403842328,1.0985714804342523,-38476.62019756231,10.5,10499961523.379803,47.655,-122.3035,60.0,14.916666666666666
2026-01-20T23:14:56+00:00,SAT-49158,224.79206178135962,45.54605562656491,1132.5322823407191,1.1429441282265658,-40030.73801936318,10.5,10499959969.26198,47.655,-122.3035,60.0,14.933333333333334
2026-01-20T23:14:57+00:00,SAT-49158,225.2392130435534,45.748900904726376,1133.6721786179373,1.187180869136741,-41580.095807266036,10.5,10499958419.904192,47.655,-122.3035,60.0,14.95
2026-01-20T23:14:58+00:00,SAT-49158,225.6890236571501,45.94926142520207,1134.856193671423,1.2312770513291191,-43124.53063430885,10.5,10499956875.469366,47.655,-122.3035,60.0,14.966666666666667
2026-01-20T23:14:59+00:00,SAT-49158,226.14145459924265,46.14710632704647,1136.0841873172817,1.2752281039606117,-44663.88241023202,10.5,10499955336.11759,47.655,-122.3035,60.0,14.983333333333333
