satellites_20260121_005943/SAT-64222.csv

timestamp,satellite,azimuth_deg,elevation_deg,distance_km,relative_velocity_kms,doppler_shift_hz,tx_freq_ghz,rx_freq_hz,ue_lat,ue_lon,ue_alt_m,time_minutes
2026-01-20T23:00:00+00:00,SAT-64222,205.25764548257402,33.01966377729402,1179.3136199231783,-5.248376304307967,183820.33878662036,10.5,10500183820.338787,47.655,-122.3035,60.0,0.0
2026-01-20T23:00:01+00:00,SAT-64222,205.31457581820132,33.264709242943304,1174.0792392890153,-5.229893262514615,183172.98447982792,10.5,10500183172.98448,47.655,-122.3035,60.0,0.016666666666666666
2026-01-20T23:00:02+00:00,SAT-64222,205.37265063420386,33.511659531297106,1168.863292408534,-5.211155802039199,182516.71935459963,10.5,10500182516.719355,47.655,-122.3035,60.0,0.03333333333333333
2026-01-20T23:00:03+00:00,SAT-64222,205.431895134551,33.76053170742933,1163.666033021967,-5.192160293755504,181851.41630358424,10.5,10500181851.416304,47.655,-122.3035,60.0,0.05
2026-01-20T23:00:04+00:00,SAT-64222,205.49233526140574,34.01134283955387,1158.4877184889947,-5.172903080251069,181176.94722872658,10.5,10500181176.94723,47.655,-122.3035,60.0,0.06666666666666667
2026-01-20T23:00:05+00:00,SAT-64222,205.55399772207915,34.264109990634616,1153.3286098169576,-5.153380458740091,180493.182442805,10.5,10500180493.182444,47.655,-122.3035,60.0,0.08333333333333333
2026-01-20T23:00:06+00:00,SAT-64222,205.61691001701135,34.51885020877281,1148.1889717061074,-5.133588702481562,179799.99141958533,10.5,10500179799.991419,47.655,-122.3035,60.0,0.1
2026-01-20T23:00:07+00:00,SAT-64222,205.68110046918247,34.77558051807188,1143.0690725734994,-5.113524019578421,179097.2413507928,10.5,10500179097.24135,47.655,-122.3035,60.0,0.11666666666666667
2026-01-20T23:00:08+00:00,SAT-64222,205.7465982543103,35.03431790699162,1137.9691846179733,-5.093182638277783,178384.80013368692,10.5,10500178384.800133,47.655,-122.3035,60.0,0.13333333333333333
2026-01-20T23:00:09+00:00,SAT-64222,205.81343343347368,35.2950793203576,1132.889583800064,-5.072560666335483,177662.53144541272,10.5,10500177662.531445,47.655,-122.3035,60.0,0.15
2026-01-20T23:00:10+00:00,SAT-64222,205.8816369853396,35.55788164379756,1127.830549962172,-5.051654237472933,176930.29987253985,10.5,10500176930.299873,47.655,-122.3035,60.0,0.16666666666666666
2026-01-20T23:00:11+00:00,SAT-64222,205.95124084175293,35.82274169486141,1122.7923668026656,-5.03045943202332,176187.9681317562,10.5,10500176187.968132,47.655,-122.3035,60.0,0.18333333333333332
2026-01-20T23:00:12+00:00,SAT-64222,206.02227792386773,36.08967620958561,1117.7753219291278,-5.008972300933285,175435.39791050882,10.5,10500175435.397911,47.655,-122.3035,60.0,0.2
2026-01-20T23:00:13+00:00,SAT-64222,206.09478218022875,36.35870182959024,1112.779706887664,-4.987188856843939,174672.44955462276,10.5,10500174672.449554,47.655,-122.3035,60.0,0.21666666666666667
2026-01-20T23:00:14+00:00,SAT-64222,206.1687886264665,36.62983508805212,1107.8058172011047,-4.965105063688727,173898.9817039748,10.5,10500173898.981705,47.655,-122.3035,60.0,0.23333333333333334
2026-01-20T23:00:15+00:00,SAT-64222,206.24433338662132,36.90309239435646,1102.8539524175858,-4.942716896150329,173114.85337492533,10.5,10500173114.853374,47.655,-122.3035,60.0,0.25
2026-01-20T23:00:16+00:00,SAT-64222,206.3214537372737,37.178490021245,1097.924416099825,-4.92002024882717,172319.9207789453,10.5,10500172319.920778,47.655,-122.3035,60.0,0.26666666666666666
2026-01-20T23:00:17+00:00,SAT-64222,206.40018815232273,37.45604408625073,1093.017515904995,-4.897011028981493,171514.04057104627,10.5,10500171514.040571,47.655,-122.3035,60.0,0.2833333333333333
2026-01-20T23:00:18+00:00,SAT-64222,206.48057635129038,37.73577053740581,1088.1335635720907,-4.873685104615823,170697.06803119823,10.5,10500170697.068031,47.655,-122.3035,60.0,0.3
2026-01-20T23:00:19+00:00,SAT-64222,206.5626593490778,38.01768513526898,1083.2728749610872,-4.850038300593204,169868.8569284443,10.5,10500169868.856928,47.655,-122.3035,60.0,0.31666666666666665
2026-01-20T23:00:20+00:00,SAT-64222,206.64647950796862,38.30180343382619,1078.4357700959622,-4.826066430975112,169029.26065351075,10.5,10500169029.260654,47.655,-122.3035,60.0,0.3333333333333333
2026-01-20T23:00:21+00:00,SAT-64222,206.73208059264647,38.58814076228355,1073.6225731754696,-4.801765286070351,168178.131765205,10.5,10500168178.131765,47.655,-122.3035,60.0,0.35
2026-01-20T23:00:22+00:00,SAT-64222,206.81950782763377,38.8767122052255,1068.833612596829,-4.77713065352707,167315.32272914698,10.5,10500167315.32273,47.655,-122.3035,60.0,0.36666666666666664
2026-01-20T23:00:23+00:00,SAT-64222,206.90880795783636,39.16753258300372,1064.0692209583779,-4.7521582679914305,166440.6841546028,10.5,10500166440.684155,47.655,-122.3035,60.0,0.38333333333333336
2026-01-20T23:00:24+00:00,SAT-64222,207.0000293111359,39.460616428148796,1059.3297351124345,-4.726843864543616,165554.0666660399,10.5,10500165554.066666,47.655,-122.3035,60.0,0.4
2026-01-20T23:00:25+00:00,SAT-64222,207.0932218649758,39.755977963825146,1054.615496164863,-4.701183171368028,164655.3206464063,10.5,10500164655.320646,47.655,-122.3035,60.0,0.4166666666666667
2026-01-20T23:00:26+00:00,SAT-64222,207.18843731609294,40.05363108080749,1049.9268494819519,-4.675171892671768,163744.2956388635,10.5,10500163744.295639,47.655,-122.3035,60.0,0.43333333333333335
2026-01-20T23:00:27+00:00,SAT-64222,207.28572915335843,40.353589312226575,1045.2641447143271,-4.648805722333261,162820.840824819,10.5,10500162820.840824,47.655,-122.3035,60.0,0.45
2026-01-20T23:00:28+00:00,SAT-64222,207.3851527344776,40.65586580794588,1040.6277358072534,-4.622080359349846,161884.80556496652,10.5,10500161884.805565,47.655,-122.3035,60.0,0.4666666666666667
2026-01-20T23:00:29+00:00,SAT-64222,207.48676536687282,40.9604733086621,1036.0179809955287,-4.594991481814898,160936.03848785424,10.5,10500160936.038488,47.655,-122.3035,60.0,0.48333333333333334
2026-01-20T23:00:30+00:00,SAT-64222,207.5906263920536,41.267424117051974,1031.435242824332,-4.5675347823493775,159974.38873084812,10.5,10500159974.388731,47.655,-122.3035,60.0,0.5
2026-01-20T23:00:31+00:00,SAT-64222,207.6967972750397,41.57673006982715,1026.8798881347354,-4.539705938010523,158999.70488620663,10.5,10500158999.704885,47.655,-122.3035,60.0,0.5166666666666667
2026-01-20T23:00:32+00:00,SAT-64222,207.80534169768168,41.88840250643237,1022.3522880792262,-4.511500646738199,158011.83627758606,10.5,10500158011.836277,47.655,-122.3035,60.0,0.5333333333333333
2026-01-20T23:00:33+00:00,SAT-64222,207.9163256575674,42.202452238653315,1017.8528181008793,-4.48291460188444,157010.63206795757,10.5,10500157010.632069,47.655,-122.3035,60.0,0.55
2026-01-20T23:00:34+00:00,SAT-64222,208.0298175714797,42.518889517015886,1013.3818579379333,-4.453943507477073,155995.94179420374,10.5,10500155995.941793,47.655,-122.3035,60.0,0.5666666666666667
2026-01-20T23:00:35+00:00,SAT-64222,208.14588838455933,42.837723996592416,1008.9397916131428,-4.42458309476278,154967.61594652655,10.5,10500154967.615946,47.655,-122.3035,60.0,0.5833333333333334
2026-01-20T23:00:36+00:00,SAT-64222,208.26461168561386,43.158964702299414,1004.5270074066327,-4.394829092611677,153925.5049318906,10.5,10500153925.504932,47.655,-122.3035,60.0,0.6
2026-01-20T23:00:37+00:00,SAT-64222,208.38606382775382,43.4826199904144,1000.143897858268,-4.364677279754815,152869.4609036014,10.5,10500152869.460903,47.655,-122.3035,60.0,0.6166666666666667
2026-01-20T23:00:38+00:00,SAT-64222,208.51032405679084,43.808697511980434,995.7908597179259,-4.334123445110005,151799.33637174772,10.5,10500151799.336372,47.655,-122.3035,60.0,0.6333333333333333
2026-01-20T23:00:39+00:00,SAT-64222,208.63747464545523,44.137204171537256,991.4682939353362,-4.303163382842547,150714.9840302078,10.5,10500150714.98403,47.655,-122.3035,60.0,0.65
2026-01-20T23:00:40+00:00,SAT-64222,208.76760103458955,44.46814608338732,987.1766056548479,-4.271792980601088,149616.25984704198,10.5,10500149616.259848,47.655,-122.3035,60.0,0.6666666666666666
2026-01-20T23:00:41+00:00,SAT-64222,208.90079198464704,44.801528532499816,982.916204122195,-4.240008111269348,148503.01927318051,10.5,10500148503.019274,47.655,-122.3035,60.0,0.6833333333333333
2026-01-20T23:00:42+00:00,SAT-64222,209.03713973215636,45.13735592511318,978.6875026992224,-4.207804723436096,147375.12041106456,10.5,10500147375.12041,47.655,-122.3035,60.0,0.7
2026-01-20T23:00:43+00:00,SAT-64222,209.17674015758607,45.475631744020376,974.4909187883821,-4.1751788048405585,146232.42273435,10.5,10500146232.422735,47.655,-122.3035,60.0,0.7166666666666667
2026-01-20T23:00:44+00:00,SAT-64222,209.31969296131132,45.816358498722785,970.3268737936879,-4.14212637917508,145074.78697592297,10.5,10500145074.786976,47.655,-122.3035,60.0,0.7333333333333333
2026-01-20T23:00:45+00:00,SAT-64222,209.46610184920598,46.15953767285683,966.1957930848573,-4.108643576716996,143902.07760172692,10.5,10500143902.077602,47.655,-122.3035,60.0,0.75
2026-01-20T23:00:46+00:00,SAT-64222,209.61607473108864,46.505169674821595,962.0981058910115,-4.074726538618024,142714.15945857202,10.5,10500142714.159458,47.655,-122.3035,60.0,0.7666666666666667
2026-01-20T23:00:47+00:00,SAT-64222,209.7697239269813,46.853253778011705,958.0342452898298,-4.040371526513539,141510.90161311583,10.5,10500141510.901613,47.655,-122.3035,60.0,0.7833333333333333
2026-01-20T23:00:48+00:00,SAT-64222,209.92716638902158,47.203788067294504,954.004648087387,-4.005574826162586,140292.1739769289,10.5,10500140292.173977,47.655,-122.3035,60.0,0.8
2026-01-20T23:00:49+00:00,SAT-64222,210.08852393239684,47.55676937454246,950.0097547940941,-3.970332854228788,139057.85104641382,10.5,10500139057.851046,47.655,-122.3035,60.0,0.8166666666666667
2026-01-20T23:00:50+00:00,SAT-64222,210.25392348372833,47.91219322022241,946.0500094941433,-3.93464208154882,137807.8092153426,10.5,10500137807.809216,47.655,-122.3035,60.0,0.8333333333333334
2026-01-20T23:00:51+00:00,SAT-64222,210.42349734071206,48.27005374525699,942.1258597914787,-3.8984991082541502,136541.92940593782,10.5,10500136541.929405,47.655,-122.3035,60.0,0.85
2026-01-20T23:00:52+00:00,SAT-64222,210.59738345002535,48.630343646168036,938.2377566808465,-3.8619005917419416,135260.09454610894,10.5,10500135260.094545,47.655,-122.3035,60.0,0.8666666666666667
2026-01-20T23:00:53+00:00,SAT-64222,210.77572569834433,48.99305410031033,934.3861544906825,-3.824843331900462,133962.1925544066,10.5,10500133962.192554,47.655,-122.3035,60.0,0.8833333333333333
2026-01-20T23:00:54+00:00,SAT-64222,210.95867422427241,49.35817469512348,930.5715107410005,-3.7873242330697128,132648.11500772307,10.5,10500132648.115007,47.655,-122.3035,60.0,0.9
2026-01-20T23:00:55+00:00,SAT-64222,211.14638574706547,49.725693350188784,926.7942860392188,-3.7493403318347127,131317.75811473044,10.5,10500131317.758114,47.655,-122.3035,60.0,0.9166666666666666
2026-01-20T23:00:56+00:00,SAT-64222,211.33902391625895,50.095596237849826,923.0549439482692,-3.710888757967142,129971.02134789192,10.5,10500129971.021347,47.655,-122.3035,60.0,0.9333333333333333
2026-01-20T23:00:57+00:00,SAT-64222,211.53675968024422,50.467867695805076,919.3539508936565,-3.6719668335908473,128607.81091665721,10.5,10500128607.810917,47.655,-122.3035,60.0,0.95
2026-01-20T23:00:58+00:00,SAT-64222,211.7397716821502,50.84249014487869,915.6917759716218,-3.6325719754861145,127228.03634574491,10.5,10500127228.036346,47.655,-122.3035,60.0,0.9666666666666667
2026-01-20T23:00:59+00:00,SAT-64222,211.9482466746035,51.21944399259529,912.0688908547371,-3.592701782142504,125831.61352410102,10.5,10500125831.613523,47.655,-122.3035,60.0,0.9833333333333333
2026-01-20T23:01:00+00:00,SAT-64222,212.16237996438022,51.59870754033555,908.4857696106803,-3.552353997262068,124418.46342662736,10.5,10500124418.463427,47.655,-122.3035,60.0,1.0
2026-01-20T23:01:01+00:00,SAT-64222,212.3823758822985,51.98025688170442,904.9428885574109,-3.5115265335037624,122988.51294581103,10.5,10500122988.512945,47.655,-122.3035,60.0,1.0166666666666666
2026-01-20T23:01:02+00:00,SAT-64222,212.608448283253,52.36406579767191,901.4407260946631,-3.4702174803112924,121541.69516588896,10.5,10500121541.695166,47.655,-122.3035,60.0,1.0333333333333334
2026-01-20T23:01:03+00:00,SAT-64222,212.8408210776742,52.750105646775694,897.9797625276327,-3.428425125843312,120077.95013093617,10.5,10500120077.95013,47.655,-122.3035,60.0,1.05
2026-01-20T23:01:04+00:00,SAT-64222,213.07972879732793,53.138345251487245,894.5604798687916,-3.3861479134202552,118597.22331944948,10.5,10500118597.22332,47.655,-122.3035,60.0,1.0666666666666667
2026-01-20T23:01:05+00:00,SAT-64222,213.32541719329132,53.52875077315967,891.1833616831406,-3.3433845129184196,117099.46814487044,10.5,10500117099.468145,47.655,-122.3035,60.0,1.0833333333333333
2026-01-20T23:01:06+00:00,SAT-64222,213.57814387606558,53.92128558780337,887.8488928622565,-3.300133803850434,115584.64536299162,10.5,10500115584.645363,47.655,-122.3035,60.0,1.1
2026-01-20T23:01:07+00:00,SAT-64222,213.83817899464984,54.315910152684545,884.5575594152165,-3.256394870843887,114052.72291359915,10.5,10500114052.722914,47.655,-122.3035,60.0,1.1166666666666667
2026-01-20T23:01:08+00:00,SAT-64222,214.10580595768937,54.71258186436901,881.3098482640281,-3.212167016039852,112503.67635472152,10.5,10500112503.676355,47.655,-122.3035,60.0,1.1333333333333333
2026-01-20T23:01:09+00:00,SAT-64222,214.38132220070975,55.11125490969318,878.1062470266976,-3.167449791674098,110937.4900037613,10.5,10500110937.490004,47.655,-122.3035,60.0,1.15
2026-01-20T23:01:10+00:00,SAT-64222,214.66504000413855,55.51188011156929,874.9472437678013,-3.1222429787603163,109354.15619089165,10.5,10500109354.15619,47.655,-122.3035,60.0,1.1666666666666667
2026-01-20T23:01:11+00:00,SAT-64222,214.95728736084564,55.914404762620194,871.8333267703177,-3.0765466077119035,107753.67598131835,10.5,10500107753.675982,47.655,-122.3035,60.0,1.1833333333333333
2026-01-20T23:01:12+00:00,SAT-64222,215.25840889971096,56.31877245089874,868.7649842868931,-3.030360970797281,106136.0596115178,10.5,10500106136.059612,47.655,-122.3035,60.0,1.2
2026-01-20T23:01:13+00:00,SAT-64222,215.56876686807374,56.72492287615615,865.7427042786845,-2.9836866256661807,104501.32661274252,10.5,10500104501.326612,47.655,-122.3035,60.0,1.2166666666666666
2026-01-20T23:01:14+00:00,SAT-64222,215.88874217567482,57.132791654677646,862.7669741506869,-2.9365243919814152,102849.50569305135,10.5,10500102849.505693,47.655,-122.3035,60.0,1.2333333333333334
2026-01-20T23:01:15+00:00,SAT-64222,216.21873550282993,57.54231011087398,859.8382804904173,-2.8888753985626185,101180.63638848279,10.5,10500101180.636389,47.655,-122.3035,60.0,1.25
2026-01-20T23:01:16+00:00,SAT-64222,216.55916848191555,57.95340506155803,856.9571087595842,-2.840741009487023,99494.76647479153,10.5,10500099494.766476,47.655,-122.3035,60.0,1.2666666666666666
2026-01-20T23:01:17+00:00,SAT-64222,216.9104849424233,58.36599857525836,854.1239430594559,-2.7921229382047446,97791.9559642485,10.5,10500097791.955965,47.655,-122.3035,60.0,1.2833333333333334
2026-01-20T23:01:18+00:00,SAT-64222,217.27315224440036,58.78000773148332,851.3392657824197,-2.7430231804386556,96072.27475551063,10.5,10500096072.274755,47.655,-122.3035,60.0,1.3
2026-01-20T23:01:19+00:00,SAT-64222,217.6476626835857,59.19534435373908,848.6035573304622,-2.693444051815388,94335.80395161767,10.5,10500094335.803951,47.655,-122.3035,60.0,1.3166666666666667
2026-01-20T23:01:20+00:00,SAT-64222,218.03453498354938,59.61191472948886,845.9172957961183,-2.6433881457410338,92582.63438462102,10.5,10500092582.634384,47.655,-122.3035,60.0,1.3333333333333333
2026-01-20T23:01:21+00:00,SAT-64222,218.43431586735514,60.02961930383771,843.2809566854326,-2.5928584374322035,90812.87025919156,10.5,10500090812.870258,47.655,-122.3035,60.0,1.35
2026-01-20T23:01:22+00:00,SAT-64222,218.8475817324008,60.448352367763675,840.6950125371668,-2.5418581945777254,89026.62602361437,10.5,10500089026.626024,47.655,-122.3035,60.0,1.3666666666666667
2026-01-20T23:01:23+00:00,SAT-64222,219.2749404035155,60.86800170982143,838.159932631108,-2.490391030300228,87224.02822472737,10.5,10500087224.028225,47.655,-122.3035,60.0,1.3833333333333333
2026-01-20T23:01:24+00:00,SAT-64222,219.7170329857993,61.28844825115635,835.6761826435552,-2.438460900715796,85405.21542245022,10.5,10500085405.215422,47.655,-122.3035,60.0,1.4
2026-01-20T23:01:25+00:00,SAT-64222,220.17453581031853,61.709565653639025,833.2442243052413,-2.3860720962479856,83570.33788556431,10.5,10500083570.337885,47.655,-122.3035,60.0,1.4166666666666667
2026-01-20T23:01:26+00:00,SAT-64222,220.64816247033903,62.131219897769355,830.8645150679167,-2.333229283239589,81719.55904913286,10.5,10500081719.55905,47.655,-122.3035,60.0,1.4333333333333333
2026-01-20T23:01:27+00:00,SAT-64222,221.13866595557576,62.55326883696031,828.5375077294324,-2.2799374641993033,79853.05412217103,10.5,10500079853.054123,47.655,-122.3035,60.0,1.45
2026-01-20T23:01:28+00:00,SAT-64222,221.6468408651289,62.9755617119857,826.263650098471,-2.226202001262424,77971.01090933867,10.5,10500077971.01091,47.655,-122.3035,60.0,1.4666666666666666
2026-01-20T23:01:29+00:00,SAT-64222,222.1735257037385,63.397938633901916,824.0433846358786,-2.172028619423126,76073.62992414847,10.5,10500076073.629925,47.655,-122.3035,60.0,1.4833333333333334
2026-01-20T23:01:30+00:00,SAT-64222,222.7196052482119,63.82023002967853,821.877148092774,-2.1174234269408814,74161.12510368507,10.5,10500074161.125103,47.655,-122.3035,60.0,1.5
2026-01-20T23:01:31+00:00,SAT-64222,223.28601297497846,64.24225605144542,819.7653711283049,-2.0623928695226685,72233.72220387218,10.5,10500072233.722204,47.655,-122.3035,60.0,1.5166666666666666
2026-01-20T23:01:32+00:00,SAT-64222,223.87373351341128,64.66382593393341,817.7084779731009,-2.0069437786811037,70291.66049317889,10.5,10500070291.660494,47.655,-122.3035,60.0,1.5333333333333334
2026-01-20T23:01:33+00:00,SAT-64222,224.48380512380413,65.08473731561864,815.7068860444963,-1.9510833653957924,68335.19253061336,10.5,10500068335.19253,47.655,-122.3035,60.0,1.55
2026-01-20T23:01:34+00:00,SAT-64222,225.1173221565577,65.50477551103593,813.7610055680749,-1.8948191861700958,66364.58297688732,10.5,10500066364.582977,47.655,-122.3035,60.0,1.5666666666666667
2026-01-20T23:01:35+00:00,SAT-64222,225.7754374423807,65.92371272572306,811.871239233068,-1.8381591815522826,64380.1099435896,10.5,10500064380.109943,47.655,-122.3035,60.0,1.5833333333333333
2026-01-20T23:01:36+00:00,SAT-64222,226.4593645850918,66.34130722677776,810.0379818093332,-1.7811116601712036,62382.06443404803,10.5,10500062382.064434,47.655,-122.3035,60.0,1.6
2026-01-20T23:01:37+00:00,SAT-64222,227.1703800789385,66.75730245640156,808.2616197802557,-1.723685295907029,60370.750244236646,10.5,10500060370.750244,47.655,-122.3035,60.0,1.6166666666666667
2026-01-20T23:01:38+00:00,SAT-64222,227.90982517665827,67.17142608994278,806.5425309784712,-1.6658891325774212,58346.48412690529,10.5,10500058346.484127,47.655,-122.3035,60.0,1.6333333333333333
2026-01-20T23:01:39+00:00,SAT-64222,228.67910741740482,67.58338904010745,804.8810842169139,-1.6077325553478812,56309.59479024903,10.5,10500056309.59479,47.655,-122.3035,60.0,1.65
2026-01-20T23:01:40+00:00,SAT-64222,229.47970168518273,67.99288440014332,803.2776389483803,-1.5492253311387796,54260.42431313327,10.5,10500054260.424313,47.655,-122.3035,60.0,1.6666666666666667
2026-01-20T23:01:41+00:00,SAT-64222,230.31315069143207,68.39958634518077,801.7325448847912,-1.4903775731037177,52199.32690097573,10.5,10500052199.3269,47.655,-122.3035,60.0,1.6833333333333333
2026-01-20T23:01:42+00:00,SAT-64222,231.18106468459663,68.80314897771038,800.2461416518825,-1.4311997296123373,50126.66849987781,10.5,10500050126.668499,47.655,-122.3035,60.0,1.7
2026-01-20T23:01:43+00:00,SAT-64222,232.08512019969737,69.2032051291106,798.8187584548824,-1.371702598796335,48042.827306087594,10.5,10500048042.827307,47.655,-122.3035,60.0,1.7166666666666666
2026-01-20T23:01:44+00:00,SAT-64222,233.02705763436165,69.59936513358447,797.4507137296829,-1.3118973171382753,45948.19336633175,10.5,10500045948.193367,47.655,-122.3035,60.0,1.7333333333333334
2026-01-20T23:01:45+00:00,SAT-64222,234.00867737354838,69.99121558132833,796.1423148053904,-1.2517953407161215,43843.16792091973,10.5,10500043843.167921,47.655,-122.3035,60.0,1.75
2026-01-20T23:01:46+00:00,SAT-64222,235.03183414991247,70.37831806605519,794.8938575855827,-1.1914084430480034,41728.163328258364,10.5,10500041728.163328,47.655,-122.3035,60.0,1.7666666666666666
2026-01-20T23:01:47+00:00,SAT-64222,236.0984293021366,70.76020795447138,793.7056262317162,-1.1307487144465231,39603.603042236944,10.5,10500039603.603043,47.655,-122.3035,60.0,1.7833333333333334
2026-01-20T23:01:48+00:00,SAT-64222,237.210400545439,71.13639320793277,792.5778928471749,-1.069828533231409,37469.92060397261,10.5,10500037469.920605,47.655,-122.3035,60.0,1.8
2026-01-20T23:01:49+00:00,SAT-64222,238.36970880030424,71.50635328444379,791.510917190032,-1.0086605758045912,35327.55999468209,10.5,10500035327.559994,47.655,-122.3035,60.0,1.8166666666666667
2026-01-20T23:01:50+00:00,SAT-64222,239.57832165062052,71.86953817868908,790.504946375763,-0.947257783256734,33176.97446610117,10.5,10500033176.974466,47.655,-122.3035,60.0,1.8333333333333333
2026-01-20T23:01:51+00:00,SAT-64222,240.83819290307264,72.22536764129985,789.5602146132616,-0.8856333749998467,31018.627017956504,10.5,10500031018.627018,47.655,-122.3035,60.0,1.85
2026-01-20T23:01:52+00:00,SAT-64222,242.15123780708993,72.57323065936157,788.6769429272617,-0.8238008150203505,28852.989216005164,10.5,10500028852.989216,47.655,-122.3035,60.0,1.8666666666666667
2026-01-20T23:01:53+00:00,SAT-64222,243.5193034111374,72.91248525962072,787.8553389144148,-0.7617738046737913,26680.54093967504,10.5,10500026680.54094,47.655,-122.3035,60.0,1.8833333333333333
2026-01-20T23:01:54+00:00,SAT-64222,244.94413366426573,73.24245873257765,787.0955965065534,-0.6995662687650818,24501.769894536035,10.5,10500024501.769894,47.655,-122.3035,60.0,1.9
2026-01-20T23:01:55+00:00,SAT-64222,246.4273289387483,73.56244837633378,786.3978957478384,-0.6371923488983184,22317.171379382544,10.5,10500022317.17138,47.655,-122.3035,60.0,1.9166666666666667
2026-01-20T23:01:56+00:00,SAT-64222,247.97029983197996,73.87172287481263,785.7624025785371,-0.5746663747032847,20127.247278463856,10.5,10500020127.247278,47.655,-122.3035,60.0,1.9333333333333333
2026-01-20T23:01:57+00:00,SAT-64222,249.57421527432,74.1695244197925,785.1892686474997,-0.5120028556970726,17932.505776443726,10.5,10500017932.505777,47.655,-122.3035,60.0,1.95
2026-01-20T23:01:58+00:00,SAT-64222,251.23994535666662,74.45507170768882,784.6786311327511,-0.4492164624480623,15733.460698683268,10.5,10500015733.4607,47.655,-122.3035,60.0,1.9666666666666666
2026-01-20T23:01:59+00:00,SAT-64222,252.9679996301075,74.72756392659754,784.2306125808697,-0.3863220176788975,13530.631199629524,10.5,10500013530.631199,47.655,-122.3035,60.0,1.9833333333333334
2026-01-20T23:02:00+00:00,SAT-64222,254.7584621660713,74.98618584841705,783.8453207552379,-0.32333446559999823,11324.54068874535,10.5,10500011324.54069,47.655,-122.3035,60.0,2.0
2026-01-20T23:02:01+00:00,SAT-64222,256.61092510798704,75.23011410190378,783.5228485148795,-0.2602688660965425,9115.716626912928,10.5,10500009115.716627,47.655,-122.3035,60.0,2.0166666666666666
2026-01-20T23:02:02+00:00,SAT-64222,258.52442320931056,75.45852469516902,783.2632736990926,-0.19714036989722936,6904.689656738825,10.5,10500006904.689657,47.655,-122.3035,60.0,2.033333333333333
2026-01-20T23:02:03+00:00,SAT-64222,260.4973722961605,75.67060178331627,783.0666590368484,-0.1339642067596944,4691.993188757241,10.5,10500004691.993189,47.655,-122.3035,60.0,2.05
2026-01-20T23:02:04+00:00,SAT-64222,262.52751528586776,75.86554763571245,782.9330520679734,-0.07075566046876489,2478.1625257631777,10.5,10500002478.162525,47.655,-122.3035,60.0,2.066666666666667
2026-01-20T23:02:05+00:00,SAT-64222,264.611879632078,76.04259366216901,782.8624850892659,-0.007530056139605542,263.73441811487527,10.5,10500000263.734419,47.655,-122.3035,60.0,2.0833333333333335
2026-01-20T23:02:06+00:00,SAT-64222,266.7467504407477,76.20101229440526,782.8549751132759,0.05569726124097184,-1950.753687840287,10.5,10499998049.246313,47.655,-122.3035,60.0,2.1
2026-01-20T23:02:07+00:00,SAT-64222,268.92766319316263,76.34012941107741,782.910523848487,0.11891094453905404,-4164.764270554356,10.5,10499995835.23573,47.655,-122.3035,60.0,2.1166666666666667
2026-01-20T23:02:08+00:00,SAT-64222,271.1494195703011,76.45933691889381,783.0291176971739,0.18209566301348346,-6377.760382623022,10.5,10499993622.239618,47.655,-122.3035,60.0,2.1333333333333333
2026-01-20T23:02:09+00:00,SAT-64222,273.4061288948609,76.55810502666678,783.2107277717527,0.24523612054570137,-8589.20628927184,10.5,10499991410.79371,47.655,-122.3035,60.0,2.15
2026-01-20T23:02:10+00:00,SAT-64222,275.6912763156762,76.6359936983006,783.4553099293103,0.30831707436065814,-10798.5681240417,10.5,10499989201.431875,47.655,-122.3035,60.0,2.1666666666666665
2026-01-20T23:02:11+00:00,SAT-64222,277.9978171611386,76.69266275447153,783.7628048248059,0.37132335414527884,-13005.314558398357,10.5,10499986994.685442,47.655,-122.3035,60.0,2.183333333333333
2026-01-20T23:02:12+00:00,SAT-64222,280.318294981657,76.72788011501464,784.1331379833401,0.4342398792210818,-15208.917403190175,10.5,10499984791.082598,47.655,-122.3035,60.0,2.2
2026-01-20T23:02:13+00:00,SAT-64222,282.6449788987807,76.7415277398044,784.56621988955,0.49705167181773613,-17408.852073544258,10.5,10499982591.147926,47.655,-122.3035,60.0,2.216666666666667
2026-01-20T23:02:14+00:00,SAT-64222,284.9700142429776,76.73360493374163,785.0619460902429,0.5597438874208962,-19604.59865177599,10.5,10499980395.401348,47.655,-122.3035,60.0,2.2333333333333334
2026-01-20T23:02:15+00:00,SAT-64222,287.2855793713317,76.70422882000845,785.6201973272973,0.62230181465925,-21795.64188343299,10.5,10499978204.358116,47.655,-122.3035,60.0,2.25
2026-01-20T23:02:16+00:00,SAT-64222,289.58404075807056,76.65363194547824,786.2408396704508,0.68471090765563,-23981.472310367848,10.5,10499976018.527689,47.655,-122.3035,60.0,2.2666666666666666
2026-01-20T23:02:17+00:00,SAT-64222,291.8580989252149,76.58215714602606,786.9237246823527,0.7469567907740399,-26161.58643699909,10.5,10499973838.413563,47.655,-122.3035,60.0,2.283333333333333
2026-01-20T23:02:18+00:00,SAT-64222,294.1009183202874,76.49024995126938,787.6686895883514,0.8090252844505589,-28335.48763501872,10.5,10499971664.512365,47.655,-122.3035,60.0,2.3
2026-01-20T23:02:19+00:00,SAT-64222,296.3062358622207,76.37844892983095,788.4755574720433,0.8709024107193432,-30502.686336936145,10.5,10499969497.313663,47.655,-122.3035,60.0,2.316666666666667
2026-01-20T23:02:20+00:00,SAT-64222,298.4684444947986,76.24737446540146,789.3441374763341,0.9325744125943488,-32662.70071490812,10.5,10499967337.299286,47.655,-122.3035,60.0,2.3333333333333335
2026-01-20T23:02:21+00:00,SAT-64222,300.5826501233246,76.09771649322192,790.2742250238282,0.9940277703338883,-34815.057250392296,10.5,10499965184.942749,47.655,-122.3035,60.0,2.35
2026-01-20T23:02:22+00:00,SAT-64222,302.64470209279784,75.93022172841735,791.2656020534412,1.0552492150202646,-36959.29120976345,10.5,10499963040.70879,47.655,-122.3035,60.0,2.3666666666666667
2026-01-20T23:02:23+00:00,SAT-64222,304.6511989589735,75.7456808813357,792.3180372705548,1.1162257364572492,-39094.94692091659,10.5,10499960905.05308,47.655,-122.3035,60.0,2.3833333333333333
2026-01-20T23:02:24+00:00,SAT-64222,306.59947251216533,75.54491629081657,793.4312864050481,1.1769445950220252,-41221.578188372114,10.5,10499958778.421812,47.655,-122.3035,60.0,2.4
2026-01-20T23:02:25+00:00,SAT-64222,308.4875538134187,75.32877032183116,794.6050924811501,1.2373933452182475,-43338.74911820363,10.5,10499956661.250881,47.655,-122.3035,60.0,2.4166666666666665
2026-01-20T23:02:26+00:00,SAT-64222,310.31412536796506,75.09809478169328,795.8391861107812,1.2975598313857808,-45446.0339677748,10.5,10499954553.966032,47.655,-122.3035,60.0,2.433333333333333
2026-01-20T23:02:27+00:00,SAT-64222,312.07846349178527,74.8537415271948,797.1332857826164,1.3574322062568196,-47543.01779565317,10.5,10499952456.982204,47.655,-122.3035,60.0,2.45
2026-01-20T23:02:28+00:00,SAT-64222,313.7803747304272,74.59655434417056,798.4870981696567,1.4169989371475284,-49629.29667846764,10.5,10499950370.703321,47.655,-122.3035,60.0,2.466666666666667
2026-01-20T23:02:29+00:00,SAT-64222,315.42012965006825,74.32736211823091,799.9003184429718,1.476248818432425,-51704.47814781406,10.5,10499948295.521852,47.655,-122.3035,60.0,2.4833333333333334
2026-01-20T23:02:30+00:00,SAT-64222,316.99839677239174,74.04697325689328,801.3726305978884,1.535170978146661,-53768.181421495065,10.5,10499946231.818579,47.655,-122.3035,60.0,2.5
2026-01-20T23:02:31+00:00,SAT-64222,318.51617879725455,73.75617128534161,802.9037077867599,1.5937548750783714,-55820.037301681885,10.5,10499944179.962698,47.655,-122.3035,60.0,2.5166666666666666
2026-01-20T23:02:32+00:00,SAT-64222,319.9747526730426,73.45571151178405,804.4932126488382,1.6519903266818832,-57859.6891525529,10.5,10499942140.310848,47.655,-122.3035,60.0,2.533333333333333
2026-01-20T23:02:33+00:00,SAT-64222,321.3756145862096,73.14631863552877,806.1407976679822,1.7098674929865856,-59886.792336714316,10.5,10499940113.207663,47.655,-122.3035,60.0,2.55
2026-01-20T23:02:34+00:00,SAT-64222,322.7204304225394,72.82868517942272,807.8461055143209,1.7673768926978437,-61901.01477912216,10.5,10499938098.98522,47.655,-122.3035,60.0,2.566666666666667
2026-01-20T23:02:35+00:00,SAT-64222,324.0109919706615,72.50347061518144,809.6087694019715,1.8245094036693876,-63902.03698362742,10.5,10499936097.963017,47.655,-122.3035,60.0,2.5833333333333335
2026-01-20T23:02:36+00:00,SAT-64222,325.2491788166142,72.17130106574888,811.428413447231,1.881256270026392,-65889.55228245641,10.5,10499934110.447718,47.655,-122.3035,60.0,2.6
2026-01-20T23:02:37+00:00,SAT-64222,326.43692570091457,71.83276947446441,813.3046530338707,1.937609101302521,-67863.2668059864,10.5,10499932136.733194,47.655,-122.3035,60.0,2.6166666666666667
2026-01-20T23:02:38+00:00,SAT-64222,327.5761949665373,71.48843614502206,815.2370951775698,1.9935598833214212,-69822.89986386156,10.5,10499930177.100136,47.655,-122.3035,60.0,2.6333333333333333
2026-01-20T23:02:39+00:00,SAT-64222,328.668953658881,71.13882956507405,817.2253389012023,2.0491009414792405,-71768.18265899147,10.5,10499928231.81734,47.655,-122.3035,60.0,2.65
2026-01-20T23:02:40+00:00,SAT-64222,329.7171547677482,70.78444744887885,819.2689755735043,2.1042250124634587,-73698.86079944785,10.5,10499926301.1392,47.655,-122.3035,60.0,2.6666666666666665
2026-01-20T23:02:41+00:00,SAT-64222,330.72272217872785,70.42575791860645,821.3675893192678,2.1589251747975413,-75614.69186584468,10.5,10499924385.308134,47.655,-122.3035,60.0,2.683333333333333
2026-01-20T23:02:42+00:00,SAT-64222,331.68753877741506,70.06320079842905,823.520757360266,2.213194887588122,-77515.44676842832,10.5,10499922484.553232,47.655,-122.3035,60.0,2.7
2026-01-20T23:02:43+00:00,SAT-64222,332.6134373159068,69.6971889611103,825.7280503948206,2.2670279702945537,-79400.90903852161,10.5,10499920599.090961,47.655,-122.3035,60.0,2.716666666666667
2026-01-20T23:02:44+00:00,SAT-64222,333.50219359695956,69.328109704333,827.9890329571942,2.3204186157427626,-81270.87528432423,10.5,10499918729.124716,47.655,-122.3035,60.0,2.7333333333333334
2026-01-20T23:02:45+00:00,SAT-64222,334.355521618731,68.95632612521196,830.3032637899616,2.373361375765503,-83125.15468797344,10.5,10499916874.845312,47.655,-122.3035,60.0,2.75
2026-01-20T23:02:46+00:00,SAT-64222,335.17507033768277,68.58217847766389,832.6702962020586,2.4258511540395036,-84963.5687546709,10.5,10499915036.431246,47.655,-122.3035,60.0,2.7666666666666666
2026-01-20T23:02:47+00:00,SAT-64222,335.9624217649374,68.20598549633456,835.0896784196873,2.4778832305441814,-86785.9521693301,10.5,10499913214.04783,47.655,-122.3035,60.0,2.783333333333333
2026-01-20T23:02:48+00:00,SAT-64222,336.71909015575693,67.8280456713675,837.5609539616166,2.529453215243254,-88592.15117431062,10.5,10499911407.848825,47.655,-122.3035,60.0,2.8
2026-01-20T23:02:49+00:00,SAT-64222,337.4465220544624,67.44863847754564,840.0836619682859,2.580557079482937,-90382.02466911571,10.5,10499909617.97533,47.655,-122.3035,60.0,2.816666666666667
2026-01-20T23:02:50+00:00,SAT-64222,338.1460970390649,67.06802554076557,842.6573375622236,2.63119113348988,-92155.44342227496,10.5,10499907844.556578,47.655,-122.3035,60.0,2.8333333333333335
2026-01-20T23:02:51+00:00,SAT-64222,338.8191289949197,66.68645174746183,845.2815121860241,2.6813520288538197,-93912.29015829714,10.5,10499906087.70984,47.655,-122.3035,60.0,2.85
2026-01-20T23:02:52+00:00,SAT-64222,339.4668677976939,66.30414629197917,847.955713942801,2.731036732790568,-95652.45865625133,10.5,10499904347.541344,47.655,-122.3035,60.0,2.8666666666666667
2026-01-20T23:02:53+00:00,SAT-64222,340.0905012929016,65.92132366605387,850.6794679109707,2.78024256720518,-97375.85511792425,10.5,10499902624.144882,47.655,-122.3035,60.0,2.8833333333333333
2026-01-20T23:02:54+00:00,SAT-64222,340.6911575005893,65.53818458221063,853.4522964979968,2.8289671287018514,-99082.39536622846,10.5,10499900917.604633,47.655,-122.3035,60.0,2.9
2026-01-20T23:02:55+00:00,SAT-64222,341.26990694663635,65.15491684957152,856.2737197143554,2.8772083675231475,-100772.00760998813,10.5,10499899227.99239,47.655,-122.3035,60.0,2.9166666666666665
2026-01-20T23:02:56+00:00,SAT-64222,341.8277650995742,64.77169618202818,859.1432555262319,2.924964530467273,-102444.63044466038,10.5,10499897555.369555,47.655,-122.3035,60.0,2.933333333333333
2026-01-20T23:02:57+00:00,SAT-64222,342.3656948359928,64.3886869603597,862.0604201512846,2.9722341370197816,-104100.21201636668,10.5,10499895899.787983,47.655,-122.3035,60.0,2.95
2026-01-20T23:02:58+00:00,SAT-64222,342.88460890769994,64.00604294597149,865.0247283306056,3.019016024022281,-105738.71158638004,10.5,10499894261.288414,47.655,-122.3035,60.0,2.966666666666667
2026-01-20T23:02:59+00:00,SAT-64222,343.38537239442485,63.62390794016984,868.0356936452305,3.0653092930697854,-107360.09768875755,10.5,10499892639.902311,47.655,-122.3035,60.0,2.9833333333333334
2026-01-20T23:03:00+00:00,SAT-64222,343.86880510181464,63.24241640466029,871.0928287801854,3.111113344242399,-108964.34931176684,10.5,10499891035.650688,47.655,-122.3035,60.0,3.0
2026-01-20T23:03:01+00:00,SAT-64222,344.3356839038624,62.86169403487354,874.1956458221765,3.156427810064324,-110551.45358485103,10.5,10499889448.546415,47.655,-122.3035,60.0,3.0166666666666666
2026-01-20T23:03:02+00:00,SAT-64222,344.78674500127727,62.48185830142211,877.3436564914141,3.2012526055684565,-112121.40753210273,10.5,10499887878.592468,47.655,-122.3035,60.0,3.033333333333333
2026-01-20T23:03:03+00:00,SAT-64222,345.222686105987,62.10301894782631,880.5363724233675,3.245587899260397,-113674.21705530085,10.5,10499886325.782946,47.655,-122.3035,60.0,3.05
2026-01-20T23:03:04+00:00,SAT-64222,345.6441685330695,61.72527845701305,883.7733054215634,3.2894340888578157,-115209.89608420058,10.5,10499884790.103916,47.655,-122.3035,60.0,3.066666666666667
2026-01-20T23:03:05+00:00,SAT-64222,346.0518191985377,61.348732488146354,887.0539676861843,3.3327918113300834,-116728.4669281636,10.5,10499883271.533072,47.655,-122.3035,60.0,3.0833333333333335
2026-01-20T23:03:06+00:00,SAT-64222,346.4462325260677,60.9734702819948,890.3778720526841,3.3756619272950306,-118229.95972966678,10.5,10499881770.04027,47.655,-122.3035,60.0,3.1
2026-01-20T23:03:07+00:00,SAT-64222,346.82797225904426,60.59957504003508,893.7445322148396,3.4180455231062075,-119714.41253740672,10.5,10499880285.587463,47.655,-122.3035,60.0,3.1166666666666667
2026-01-20T23:03:08+00:00,SAT-64222,347.19757318111243,60.22712427726555,897.1534629498842,3.459943886380328,-121181.87044916736,10.5,10499878818.12955,47.655,-122.3035,60.0,3.1333333333333333
2026-01-20T23:03:09+00:00,SAT-64222,347.5555427440912,59.85619015354048,900.6041803192342,3.5013585056077106,-122632.38559817593,10.5,10499877367.614403,47.655,-122.3035,60.0,3.15
2026-01-20T23:03:10+00:00,SAT-64222,347.90236260863117,59.486839782429975,904.0962018688269,3.5422910715374383,-124066.0172016172,10.5,10499875933.982798,47.655,-122.3035,60.0,3.1666666666666665
2026-01-20T23:03:11+00:00,SAT-64222,348.23849010055517,59.119135519113726,907.6290468308403,3.582743447658555,-125482.83052676004,10.5,10499874517.169474,47.655,-122.3035,60.0,3.183333333333333
2026-01-20T23:03:12+00:00,SAT-64222,348.56435958303797,58.7531352320478,911.2022362959718,3.622717686745795,-126882.89747045889,10.5,10499873117.10253,47.655,-122.3035,60.0,3.2
2026-01-20T23:03:13+00:00,SAT-64222,348.8803837527935,58.388892554919586,914.8152934022196,3.66221599813023,-128266.29541283328,10.5,10499871733.704588,47.655,-122.3035,60.0,3.216666666666667
2026-01-20T23:03:14+00:00,SAT-64222,349.18695485904664,58.026457125282434,918.4677434910215,3.701240761792963,-129633.10771088881,10.5,10499870366.892288,47.655,-122.3035,60.0,3.2333333333333334
2026-01-20T23:03:15+00:00,SAT-64222,349.48444585335915,57.665874806247075,922.1591142774497,3.7397945138479627,-130983.42319006441,10.5,10499869016.57681,47.655,-122.3035,60.0,3.25
2026-01-20T23:03:16+00:00,SAT-64222,349.7732114712013,57.307187895255616,925.8889360059272,3.7778799177822866,-132317.33513694332,10.5,10499867682.664864,47.655,-122.3035,60.0,3.2666666666666666
2026-01-20T23:03:17+00:00,SAT-64222,350.05358924800015,56.950435322207134,929.6567415772622,3.8154997971985156,-133634.94244603184,10.5,10499866365.057554,47.655,-122.3035,60.0,3.283333333333333
2026-01-20T23:03:18+00:00,SAT-64222,350.32590047793104,56.59565283195424,933.4620667083349,3.8526570909244726,-134936.34804751145,10.5,10499865063.651953,47.655,-122.3035,60.0,3.3
2026-01-20T23:03:19+00:00,SAT-64222,350.5904511127927,56.24287315948967,937.3044500470169,3.8893548741204707,-136221.65964650433,10.5,10499863778.340353,47.655,-122.3035,60.0,3.316666666666667
2026-01-20T23:03:20+00:00,SAT-64222,350.8475326092418,55.8921261923083,941.1834333081397,3.925596332816874,-137490.98883127066,10.5,10499862509.01117,47.655,-122.3035,60.0,3.3333333333333335
2026-01-20T23:03:21+00:00,SAT-64222,351.09742272413735,55.54343912505974,945.0985613840691,3.9613847452878392,-138744.45042083852,10.5,10499861255.54958,47.655,-122.3035,60.0,3.35
2026-01-20T23:03:22+00:00,SAT-64222,351.34038626165454,55.19683660637165,949.0493824367027,3.9967235369960994,-139982.16438940252,10.5,10499860017.835611,47.655,-122.3035,60.0,3.3666666666666667
2026-01-20T23:03:23+00:00,SAT-64222,351.57667577961405,54.852340872070954,953.0354480442669,4.031616182559405,-141204.25243277385,10.5,10499858795.747568,47.655,-122.3035,60.0,3.3833333333333333
2026-01-20T23:03:24+00:00,SAT-64222,351.8065322480113,54.50997187880597,957.0563132503395,4.066066277372407,-142410.84047688174,10.5,10499857589.159523,47.655,-122.3035,60.0,3.4
2026-01-20T23:03:25+00:00,SAT-64222,352.0301856730527,54.169747423695014,961.1115366843055,4.100077483332346,-143602.0567768574,10.5,10499856397.943224,47.655,-122.3035,60.0,3.4166666666666665
2026-01-20T23:03:26+00:00,SAT-64222,352.2478556812832,53.83168326146656,965.2006806276823,4.133653554339493,-144778.03281016723,10.5,10499855221.96719,47.655,-122.3035,60.0,3.433333333333333
2026-01-20T23:03:27+00:00,SAT-64222,352.4597520708575,53.49579321268851,969.3233111058769,4.166798312626548,-145938.9024475684,10.5,10499854061.097553,47.655,-122.3035,60.0,3.45
2026-01-20T23:03:28+00:00,SAT-64222,352.66607532922995,53.16208926767746,973.4789979563365,4.199515611436891,-147084.8006459434,10.5,10499852915.199354,47.655,-122.3035,60.0,3.466666666666667
2026-01-20T23:03:29+00:00,SAT-64222,352.86701711890646,52.83058168738201,977.6673148594762,4.23180944249236,-148215.86721227583,10.5,10499851784.132788,47.655,-122.3035,60.0,3.4833333333333334
2026-01-20T23:03:30+00:00,SAT-64222,353.0627607401479,52.50127909017362,981.8878394767885,4.263683786150231,-149332.24155551445,10.5,10499850667.758444,47.655,-122.3035,60.0,3.5
2026-01-20T23:03:31+00:00,SAT-64222,353.2534815596876,52.17418854534079,986.140153439509,4.295142686257138,-150434.06530827386,10.5,10499849565.934692,47.655,-122.3035,60.0,3.5166666666666666
2026-01-20T23:03:32+00:00,SAT-64222,353.439347418393,51.8493156556019,990.4238424119361,4.326190247460458,-151521.4822326678,10.5,10499848478.517767,47.655,-122.3035,60.0,3.533333333333333
2026-01-20T23:03:33+00:00,SAT-64222,353.6205190153561,51.52666463528599,994.7384961520701,4.356830610079513,-152594.63734019248,10.5,10499847405.36266,47.655,-122.3035,60.0,3.55
2026-01-20T23:03:34+00:00,SAT-64222,353.7971502689423,51.20623838607736,999.0837085471894,4.387067948205975,-153653.67682519462,10.5,10499846346.323175,47.655,-122.3035,60.0,3.566666666666667
2026-01-20T23:03:35+00:00,SAT-64222,353.9693886572852,50.88803856876564,1003.4590776475335,4.416906454686728,-154698.7475389079,10.5,10499845301.25246,47.655,-122.3035,60.0,3.5833333333333335
2026-01-20T23:03:36+00:00,SAT-64222,354.137375538971,50.572065672158345,1007.8642056850077,4.446350365742549,-155729.99785170302,10.5,10499844270.002148,47.655,-122.3035,60.0,3.6
2026-01-20T23:03:37+00:00,SAT-64222,354.30124645669343,50.25831907654729,1012.2986991164416,4.4754039430102805,-156747.57702412896,10.5,10499843252.422976,47.655,-122.3035,60.0,3.6166666666666667
2026-01-20T23:03:38+00:00,SAT-64222,354.4611314231877,49.946797115038294,1016.7621686489373,4.504071476834198,-157751.63532219038,10.5,10499842248.364677,47.655,-122.3035,60.0,3.6333333333333333
2026-01-20T23:03:39+00:00,SAT-64222,354.61715519140193,49.63749713141104,1021.2542292684999,4.532357206383259,-158742.32121951587,10.5,10499841257.67878,47.655,-122.3035,60.0,3.65
2026-01-20T23:03:40+00:00,SAT-64222,354.76943750697103,49.33041554029291,1025.7745001889994,4.560265479038733,-159719.78697978685,10.5,10499840280.21302,47.655,-122.3035,60.0,3.6666666666666665
2026-01-20T23:03:41+00:00,SAT-64222,354.9180933523625,49.025547873483816,1030.3226049600942,4.587800588756814,-160684.18299551264,10.5,10499839315.817005,47.655,-122.3035,60.0,3.683333333333333
2026-01-20T23:03:42+00:00,SAT-64222,355.0632331721124,48.7228888345959,1034.8981714139475,4.614966846310684,-161635.66024820472,10.5,10499838364.339752,47.655,-122.3035,60.0,3.7
2026-01-20T23:03:43+00:00,SAT-64222,355.20496308827046,48.42243234620709,1039.5008316820013,4.641768571614876,-162574.37003954317,10.5,10499837425.629961,47.655,-122.3035,60.0,3.716666666666667
2026-01-20T23:03:44+00:00,SAT-64222,355.3433851039388,48.12417159506861,1044.130222204092,4.668210087905903,-163500.46378755794,10.5,10499836499.536213,47.655,-122.3035,60.0,3.7333333333333334
2026-01-20T23:03:45+00:00,SAT-64222,355.478597295703,47.82809907535817,1048.7859837317635,4.694295690604012,-164414.09193603572,10.5,10499835585.908064,47.655,-122.3035,60.0,3.75
2026-01-20T23:03:46+00:00,SAT-64222,355.6106939948907,47.53420663163955,1053.4677613005258,4.7200296958779,-165315.40565546165,10.5,10499834684.594345,47.655,-122.3035,60.0,3.7666666666666666
2026-01-20T23:03:47+00:00,SAT-64222,355.73976596068087,47.24248549660282,1058.175204250548,4.745416386777364,-166204.5549563569,10.5,10499833795.445044,47.655,-122.3035,60.0,3.783333333333333
2026-01-20T23:03:48+00:00,SAT-64222,355.86590054252855,46.95292633017248,1062.9079661936273,4.770460066677432,-167081.69056111824,10.5,10499832918.309439,47.655,-122.3035,60.0,3.8
2026-01-20T23:03:49+00:00,SAT-64222,355.9891818356023,46.66551925338901,1067.6657050334604,4.795164988789557,-167946.96143520175,10.5,10499832053.038565,47.655,-122.3035,60.0,3.816666666666667
2026-01-20T23:03:50+00:00,SAT-64222,356.10969082622273,46.38025388476829,1072.448082915613,4.819535410574158,-168800.51669288042,10.5,10499831199.483307,47.655,-122.3035,60.0,3.8333333333333335
2026-01-20T23:03:51+00:00,SAT-64222,356.2275055312573,46.09711937158992,1077.254766231759,4.843575562176372,-169642.50449173042,10.5,10499830357.495508,47.655,-122.3035,60.0,3.85
2026-01-20T23:03:52+00:00,SAT-64222,356.342701129544,45.816104421442134,1082.0854255924362,4.867289662290506,-170473.07258827146,10.5,10499829526.927412,47.655,-122.3035,60.0,3.8666666666666667
2026-01-20T23:03:53+00:00,SAT-64222,356.4553500870093,45.53719733125011,1086.9397358156273,4.890681911425747,-171292.3681021033,10.5,10499828707.631897,47.655,-122.3035,60.0,3.8833333333333333
2026-01-20T23:03:54+00:00,SAT-64222,356.56552227525646,45.260386015228306,1091.8173759086226,4.913756457506294,-172100.5363110772,10.5,10499827899.46369,47.655,-122.3035,60.0,3.9
2026-01-20T23:03:55+00:00,SAT-64222,356.67328508343735,44.98565803332711,1096.7180290155754,4.936517459961927,-172897.7228960184,10.5,10499827102.277103,47.655,-122.3035,60.0,3.9166666666666665
2026-01-20T23:03:56+00:00,SAT-64222,356.77870352595227,44.713000614695254,1101.6413824289777,4.958969030916703,-173684.0718809056,10.5,10499826315.92812,47.655,-122.3035,60.0,3.933333333333333
2026-01-20T23:03:57+00:00,SAT-64222,356.88184034350553,44.44240068318546,1106.5871275424786,4.981115270808539,-174459.7268804196,10.5,10499825540.273119,47.655,-122.3035,60.0,3.95
2026-01-20T23:03:58+00:00,SAT-64222,356.9827560999119,44.17384487963869,1111.5549598392315,5.002960212168556,-175224.82913085775,10.5,10499824775.17087,47.655,-122.3035,60.0,3.966666666666667
2026-01-20T23:03:59+00:00,SAT-64222,357.0815092730281,43.90731958603142,1116.5445788241675,5.024507894678273,-175979.52011895462,10.5,10499824020.479881,47.655,-122.3035,60.0,3.9833333333333334
2026-01-20T23:04:00+00:00,SAT-64222,357.17815634276616,43.64281094444363,1121.5556880311267,5.045762317854216,-176723.93992469704,10.5,10499823276.060076,47.655,-122.3035,60.0,4.0
2026-01-20T23:04:01+00:00,SAT-64222,357.2727518738816,43.38030487754512,1126.5879949828,5.066727439041725,-177458.22715105835,10.5,10499822541.772848,47.655,-122.3035,60.0,4.016666666666667
2026-01-20T23:04:02+00:00,SAT-64222,357.3653485947519,43.119787108137686,1131.6412111486711,5.087407181957625,-178182.51922319893,10.5,10499821817.480778,47.655,-122.3035,60.0,4.033333333333333
2026-01-20T23:04:03+00:00,SAT-64222,357.45599747256017,42.86124317726652,1136.7150519114768,5.107805447675509,-178896.95277321766,10.5,10499821103.047226,47.655,-122.3035,60.0,4.05
2026-01-20T23:04:04+00:00,SAT-64222,357.5447477850905,42.60465846086442,1141.809236544625,5.127926084910011,-179601.66259938106,10.5,10499820398.3374,47.655,-122.3035,60.0,4.066666666666666
2026-01-20T23:04:05+00:00,SAT-64222,357.63164718861674,42.35001818702054,1146.9234881599752,5.147772931093421,-180296.78310480018,10.5,10499819703.216896,47.655,-122.3035,60.0,4.083333333333333
2026-01-20T23:04:06+00:00,SAT-64222,357.71674178330255,42.09730745035715,1152.0575336965858,5.16734973463024,-180982.44557445645,10.5,10499819017.554426,47.655,-122.3035,60.0,4.1
2026-01-20T23:04:07+00:00,SAT-64222,357.80007617425576,41.84651122942754,1157.2111038319238,5.186660271132393,-181658.78224625025,10.5,10499818341.217754,47.655,-122.3035,60.0,4.116666666666666
2026-01-20T23:04:08+00:00,SAT-64222,357.8816935316844,41.59761439765629,1162.3839330089997,5.205708247830834,-182325.9229630912,10.5,10499817674.077038,47.655,-122.3035,60.0,4.133333333333334
2026-01-20T23:04:09+00:00,SAT-64222,357.9616356466908,41.35060173825711,1167.5757593681699,5.2244973191489255,-182983.99571834365,10.5,10499817016.004282,47.655,-122.3035,60.0,4.15
2026-01-20T23:04:10+00:00,SAT-64222,358.03994298479734,41.10545795763594,1172.7863246944678,5.243031109414778,-183633.12745130892,10.5,10499816366.87255,47.655,-122.3035,60.0,4.166666666666667
2026-01-20T23:04:11+00:00,SAT-64222,358.1166547374005,40.862167697044825,1178.0153743875908,5.261313224981026,-184273.44447171106,10.5,10499815726.555529,47.655,-122.3035,60.0,4.183333333333334
2026-01-20T23:04:12+00:00,SAT-64222,358.19180887104994,40.62071554308182,1183.2626574439716,5.279347201573002,-184905.07061560743,10.5,10499815094.929384,47.655,-122.3035,60.0,4.2
2026-01-20T23:04:13+00:00,SAT-64222,358.26544217375897,40.38108604002893,1188.5279263863406,5.297136560806077,-185528.12922486465,10.5,10499814471.870775,47.655,-122.3035,60.0,4.216666666666667
2026-01-20T23:04:14+00:00,SAT-64222,358.337590300046,40.14326369900145,1193.8109372496513,5.314684757365621,-186142.7412971777,10.5,10499813857.258703,47.655,-122.3035,60.0,4.233333333333333
2026-01-20T23:04:15+00:00,SAT-64222,358.4082878132554,39.90723300896063,1199.1114495143304,5.331995217894963,-186749.02684809073,10.5,10499813250.973152,47.655,-122.3035,60.0,4.25
2026-01-20T23:04:16+00:00,SAT-64222,358.4775682265363,39.672978445428825,1204.4292260783109,5.349071333855407,-187347.10466092438,10.5,10499812652.89534,47.655,-122.3035,60.0,4.266666666666667
2026-01-20T23:04:17+00:00,SAT-64222,358.54546404193974,39.440484479059634,1209.7640332219428,5.365916454012718,-187937.09202362105,10.5,10499812062.907976,47.655,-122.3035,60.0,4.283333333333333
2026-01-20T23:04:18+00:00,SAT-64222,358.61200678769933,39.209735584058684,1215.1156405654115,5.382533874260017,-188519.1043722994,10.5,10499811480.895628,47.655,-122.3035,60.0,4.3
2026-01-20T23:04:19+00:00,SAT-64222,358.67722705377,38.9807162465924,1220.483821016007,5.39892687063707,-189093.2564477297,10.5,10499810906.743553,47.655,-122.3035,60.0,4.316666666666666
2026-01-20T23:04:20+00:00,SAT-64222,358.74115452626745,38.75341097134049,1225.8683507483222,5.41509864237741,-189659.66030060305,10.5,10499810340.339699,47.655,-122.3035,60.0,4.333333333333333
2026-01-20T23:04:21+00:00,SAT-64222,358.8038180197235,38.52780429005834,1231.2690091276531,5.43105239312744,-190218.42813616787,10.5,10499809781.571863,47.655,-122.3035,60.0,4.35
2026-01-20T23:04:22+00:00,SAT-64222,358.8652455089482,38.30388076633221,1236.6855787143988,5.446791253561591,-190769.66960388547,10.5,10499809230.330397,47.655,-122.3035,60.0,4.366666666666666
2026-01-20T23:04:23+00:00,SAT-64222,358.9254641586395,38.08162500320763,1242.1178451912845,5.462318327086272,-191313.49339817566,10.5,10499808686.506601,47.655,-122.3035,60.0,4.383333333333334
2026-01-20T23:04:24+00:00,SAT-64222,358.9845003522602,37.86102164855473,1247.5655973361652,5.477636648764271,-191850.00581977563,10.5,10499808149.99418,47.655,-122.3035,60.0,4.4
2026-01-20T23:04:25+00:00,SAT-64222,359.04237971927955,37.64205540175596,1253.028626953866,5.492749263188519,-192379.31350320842,10.5,10499807620.686497,47.655,-122.3035,60.0,4.416666666666667
2026-01-20T23:04:26+00:00,SAT-64222,359.0991271621201,37.42471101694984,1258.506728885686,5.507659147896918,-192901.52073444636,10.5,10499807098.479265,47.655,-122.3035,60.0,4.433333333333334
2026-01-20T23:04:27+00:00,SAT-64222,359.1547668811521,37.208973309068305,1263.999700942522,5.52236923447084,-193416.73018986965,10.5,10499806583.26981,47.655,-122.3035,60.0,4.45
2026-01-20T23:04:28+00:00,SAT-64222,359.209322398905,36.99482715869974,1269.507343859034,5.536882391246499,-193925.04233074546,10.5,10499806074.957668,47.655,-122.3035,60.0,4.466666666666667
2026-01-20T23:04:29+00:00,SAT-64222,359.2628165831263,36.78225751732418,1275.0294612305706,5.551201507822244,-194426.55836303113,10.5,10499805573.441637,47.655,-122.3035,60.0,4.483333333333333
2026-01-20T23:04:30+00:00,SAT-64222,359.3152716697384,36.571249409050694,1280.565859534372,5.565329405988982,-194921.3771177803,10.5,10499805078.622883,47.655,-122.3035,60.0,4.5
2026-01-20T23:04:31+00:00,SAT-64222,359.3667092839924,36.36178793555953,1286.116348061945,5.579268829608218,-195409.59469662938,10.5,10499804590.405304,47.655,-122.3035,60.0,4.516666666666667
2026-01-20T23:04:32+00:00,SAT-64222,359.41715046067026,36.1538582811143,1291.680738841341,5.593022546358157,-195891.30803537642,10.5,10499804108.691965,47.655,-122.3035,60.0,4.533333333333333
2026-01-20T23:04:33+00:00,SAT-64222,359.4666156644775,35.94744571355145,1297.2588466609088,5.606593241265228,-196366.6111750046,10.5,10499803633.388824,47.655,-122.3035,60.0,4.55
2026-01-20T23:04:34+00:00,SAT-64222,359.5151248085935,35.74253558903546,1302.850488986864,5.619983585294939,-196835.59766402416,10.5,10499803164.402336,47.655,-122.3035,60.0,4.566666666666666
2026-01-20T23:04:35+00:00,SAT-64222,359.5626972731587,35.539113354061485,1308.4554859492648,5.633196196881934,-197298.35921109235,10.5,10499802701.640789,47.655,-122.3035,60.0,4.583333333333333
2026-01-20T23:04:36+00:00,SAT-64222,359.6093519226581,35.337164548678906,1314.0736602896218,5.646233651656301,-197754.98602566964,10.5,10499802245.013975,47.655,-122.3035,60.0,4.6
2026-01-20T23:04:37+00:00,SAT-64222,359.65510712274255,35.13667480915657,1319.704837318207,5.659098520913776,-198205.56816540944,10.5,10499801794.431835,47.655,-122.3035,60.0,4.616666666666666
2026-01-20T23:04:38+00:00,SAT-64222,359.6999807567137,34.937629869123946,1325.3488449097317,5.671793296935134,-198650.19292052672,10.5,10499801349.80708,47.655,-122.3035,60.0,4.633333333333334
2026-01-20T23:04:39+00:00,SAT-64222,359.7439902407424,34.740015563193126,1331.0055134245415,5.6843204526476345,-199088.94690339462,10.5,10499800911.053097,47.655,-122.3035,60.0,4.65
2026-01-20T23:04:40+00:00,SAT-64222,359.7871525390066,34.543817828287764,1336.6746756893156,5.696682421350353,-199521.9153384396,10.5,10499800478.084661,47.655,-122.3035,60.0,4.666666666666667
2026-01-20T23:04:41+00:00,SAT-64222,359.8294841780957,34.34902270555994,1342.3561669575422,5.708881638137397,-199949.18351295774,10.5,10499800050.816486,47.655,-122.3035,60.0,4.683333333333334
2026-01-20T23:04:42+00:00,SAT-64222,359.8710012611653,34.155616340757014,1348.0498249113114,5.720920439690946,-200370.8332674431,10.5,10499799629.166733,47.655,-122.3035,60.0,4.7
2026-01-20T23:04:43+00:00,SAT-64222,359.91171948081563,33.96358498785806,1353.755489563163,5.732801146423793,-200786.94587256704,10.5,10499799213.054127,47.655,-122.3035,60.0,4.716666666666667
2026-01-20T23:04:44+00:00,SAT-64222,359.9516541321003,33.772915009761086,1359.4730032398631,5.744526079031048,-201197.60260888885,10.5,10499798802.39739,47.655,-122.3035,60.0,4.733333333333333
2026-01-20T23:04:45+00:00,SAT-64222,359.9908201251705,33.58359287835044,1365.2022105826834,5.756097488015043,-201602.88229851983,10.5,10499798397.1177,47.655,-122.3035,60.0,4.75
2026-01-20T23:04:46+00:00,SAT-64222,0.02923199694123441,33.39560517678062,1370.942958477397,5.767517591477583,-202002.86262876773,10.5,10499797997.137371,47.655,-122.3035,60.0,4.766666666666667
2026-01-20T23:04:47+00:00,SAT-64222,0.06690392259637858,33.20893860039082,1376.695096021964,5.778788601410903,-202397.62107295732,10.5,10499797602.378927,47.655,-122.3035,60.0,4.783333333333333
2026-01-20T23:04:48+00:00,SAT-64222,0.10384972685323894,33.023579956671,1382.458474520438,5.789912669176367,-202787.2329808639,10.5,10499797212.76702,47.655,-122.3035,60.0,4.8
2026-01-20T23:04:49+00:00,SAT-64222,0.14008289444698369,32.83951616691314,1388.2329474224964,5.80089192605329,-203171.7729989043,10.5,10499796828.227001,47.655,-122.3035,60.0,4.816666666666666
2026-01-20T23:04:50+00:00,SAT-64222,0.1756165804996482,32.656734266438605,1394.0183703034136,5.81172844254197,-203551.31364475715,10.5,10499796448.686356,47.655,-122.3035,60.0,4.833333333333333
2026-01-20T23:04:51+00:00,SAT-64222,0.210463620270622,32.47522140603768,1399.814600803442,5.822424325666675,-203925.92871532508,10.5,10499796074.071285,47.655,-122.3035,60.0,4.85
2026-01-20T23:04:52+00:00,SAT-64222,0.2446365391505934,32.29496485029089,1405.6214986642403,5.832981566575539,-204295.68794903826,10.5,10499795704.312052,47.655,-122.3035,60.0,4.866666666666666
2026-01-20T23:04:53+00:00,SAT-64222,0.27814756136726754,32.11595198055318,1411.4389256133052,5.843402180528925,-204660.66192883917,10.5,10499795339.338072,47.655,-122.3035,60.0,4.883333333333334
2026-01-20T23:04:54+00:00,SAT-64222,0.31100861922743517,31.93817029352533,1417.2667453880192,5.853688131119038,-205020.91942803276,10.5,10499794979.080572,47.655,-122.3035,60.0,4.9
2026-01-20T23:04:55+00:00,SAT-64222,0.34323136158381085,31.76160740209635,1423.104823684122,5.8638413770484945,-205376.52904867005,10.5,10499794623.470951,47.655,-122.3035,60.0,4.916666666666667
2026-01-20T23:04:56+00:00,SAT-64222,0.37482716228735413,31.58625103471438,1428.9530281508316,5.8738638067077105,-205727.5569301712,10.5,10499794272.44307,47.655,-122.3035,60.0,4.933333333333334
2026-01-20T23:04:57+00:00,SAT-64222,0.405807127938376,31.41208903664922,1434.8112283207215,5.883757304368488,-206074.06906770525,10.5,10499793925.930933,47.655,-122.3035,60.0,4.95
2026-01-20T23:04:58+00:00,SAT-64222,0.43618210578415345,31.239109369219943,1440.6792956056115,5.893523709459855,-206416.1298858575,10.5,10499793583.870113,47.655,-122.3035,60.0,4.966666666666667
2026-01-20T23:04:59+00:00,SAT-64222,0.46596269108675686,31.06730011017531,1446.5571032518462,5.903164873353246,-206753.80422748686,10.5,10499793246.195772,47.655,-122.3035,60.0,4.983333333333333
2026-01-20T23:05:00+00:00,SAT-64222,0.49515923455999716,30.89664945238669,1452.4445263522039,5.912682543364634,-207087.15329098995,10.5,10499792912.846708,47.655,-122.3035,60.0,5.0
2026-01-20T23:05:01+00:00,SAT-64222,0.523781848924175,30.727145705834907,1458.3414417421195,5.922078529481883,-207416.24046979786,10.5,10499792583.759531,47.655,-122.3035,60.0,5.016666666666667
2026-01-20T23:05:02+00:00,SAT-64222,0.5518404161305924,30.55877729476519,1464.2477280621895,5.931354543409498,-207741.12571504293,10.5,10499792258.874285,47.655,-122.3035,60.0,5.033333333333333
2026-01-20T23:05:03+00:00,SAT-64222,0.5793445934782673,30.391532759412456,1470.16326566015,5.940512290352873,-208061.8687502311,10.5,10499791938.13125,47.655,-122.3035,60.0,5.05
2026-01-20T23:05:04+00:00,SAT-64222,0.6063038200330673,30.225400755059205,1476.087936584395,5.949553478153033,-208378.52939117912,10.5,10499791621.47061,47.655,-122.3035,60.0,5.066666666666666
2026-01-20T23:05:05+00:00,SAT-64222,0.6327273228365675,30.06037005082926,1482.0216245866063,5.9584797387989425,-208691.164797044,10.5,10499791308.835203,47.655,-122.3035,60.0,5.083333333333333
