satellites_20260121_005943/SAT-61877.csv

timestamp,satellite,azimuth_deg,elevation_deg,distance_km,relative_velocity_kms,doppler_shift_hz,tx_freq_ghz,rx_freq_hz,ue_lat,ue_lon,ue_alt_m,time_minutes
2026-01-20T23:09:23+00:00,SAT-61877,214.52555469658608,30.108022592313375,1349.3593054163803,-6.665431780421027,233451.61569882047,10.5,10500233451.6157,47.655,-122.3035,60.0,9.383333333333333
2026-01-20T23:09:24+00:00,SAT-61877,214.51215579558476,30.246286291798288,1342.7116481207072,-6.660691223233353,233285.5813335711,10.5,10500233285.581333,47.655,-122.3035,60.0,9.4
2026-01-20T23:09:25+00:00,SAT-61877,214.49884756454438,30.3856567465823,1336.0687187407357,-6.655871391642779,233116.77044340182,10.5,10500233116.770443,47.655,-122.3035,60.0,9.416666666666666
2026-01-20T23:09:26+00:00,SAT-61877,214.48563178145702,30.526149741654205,1329.4305963394704,-6.650970786798418,232945.13053221436,10.5,10500232945.130531,47.655,-122.3035,60.0,9.433333333333334
2026-01-20T23:09:27+00:00,SAT-61877,214.47251027027627,30.667781344588022,1322.7973614747702,-6.645987891613184,232770.60846520172,10.5,10500232770.608465,47.655,-122.3035,60.0,9.45
2026-01-20T23:09:28+00:00,SAT-61877,214.45948490240457,30.81056791173697,1316.1690962175348,-6.640921113892227,232593.14847696526,10.5,10500232593.148478,47.655,-122.3035,60.0,9.466666666666667
2026-01-20T23:09:29+00:00,SAT-61877,214.44655759825542,30.954526093341943,1309.545884226613,-6.635768870615585,232412.69512344984,10.5,10500232412.695124,47.655,-122.3035,60.0,9.483333333333333
2026-01-20T23:09:30+00:00,SAT-61877,214.43373032883653,31.099672840621963,1302.9278107396522,-6.630529539318077,232229.1915790617,10.5,10500232229.19158,47.655,-122.3035,60.0,9.5
2026-01-20T23:09:31+00:00,SAT-61877,214.42100511739676,31.24602541197283,1296.3149626124389,-6.625201422325364,232042.57838406434,10.5,10500232042.578384,47.655,-122.3035,60.0,9.516666666666667
2026-01-20T23:09:32+00:00,SAT-61877,214.40838404121857,31.393601378530104,1289.7074283939064,-6.619782786785657,231852.79484665822,10.5,10500231852.794847,47.655,-122.3035,60.0,9.533333333333333
2026-01-20T23:09:33+00:00,SAT-61877,214.39586923340673,31.542418630747907,1283.105298361219,-6.614271920059069,231659.78098294997,10.5,10500231659.780983,47.655,-122.3035,60.0,9.55
2026-01-20T23:09:34+00:00,SAT-61877,214.3834628847134,31.692495386427847,1276.5086644996134,-6.608666990794215,231463.47265126748,10.5,10500231463.47265,47.655,-122.3035,60.0,9.566666666666666
2026-01-20T23:09:35+00:00,SAT-61877,214.37116724555645,31.843850195766365,1269.9176206207947,-6.60296618531102,231263.80632886273,10.5,10500231263.80633,47.655,-122.3035,60.0,9.583333333333334
2026-01-20T23:09:36+00:00,SAT-61877,214.35898462801396,31.996501949674506,1263.332262345311,-6.597167579967421,231060.7146416536,10.5,10500231060.714642,47.655,-122.3035,60.0,9.6
2026-01-20T23:09:37+00:00,SAT-61877,214.3469174079822,32.15046988532988,1256.7526872122237,-6.59126928301977,230854.13133277552,10.5,10500230854.131332,47.655,-122.3035,60.0,9.616666666666667
2026-01-20T23:09:38+00:00,SAT-61877,214.3349680273334,32.305773595211114,1250.178994647292,-6.585269301506861,230643.9866002968,10.5,10500230643.9866,47.655,-122.3035,60.0,9.633333333333333
2026-01-20T23:09:39+00:00,SAT-61877,214.32313899624305,32.46243303320787,1243.6112860639223,-6.579165594683649,230430.20896869365,10.5,10500230430.20897,47.655,-122.3035,60.0,9.65
2026-01-20T23:09:40+00:00,SAT-61877,214.31143289560225,32.62046852214365,1237.0496649108245,-6.572956132745536,230212.72734562296,10.5,10500230212.727346,47.655,-122.3035,60.0,9.666666666666666
2026-01-20T23:09:41+00:00,SAT-61877,214.29985237944672,32.77990076293154,1230.4942366610996,-6.566638727263894,229991.4650830572,10.5,10500229991.465082,47.655,-122.3035,60.0,9.683333333333334
2026-01-20T23:09:42+00:00,SAT-61877,214.28840017766285,32.94075083980505,1223.9451089704419,-6.560211284386493,229766.34884543417,10.5,10500229766.348845,47.655,-122.3035,60.0,9.7
2026-01-20T23:09:43+00:00,SAT-61877,214.27707909857196,33.103040231929256,1217.4023915828136,-6.553671500259608,229537.29794205126,10.5,10500229537.297941,47.655,-122.3035,60.0,9.716666666666667
2026-01-20T23:09:44+00:00,SAT-61877,214.2658920319036,33.266790817727205,1210.866196539888,-6.547017140782683,229304.23412525665,10.5,10500229304.234125,47.655,-122.3035,60.0,9.733333333333333
2026-01-20T23:09:45+00:00,SAT-61877,214.25484195162997,33.43202488632167,1204.3366381114809,-6.540245846211541,229067.07474682762,10.5,10500229067.074747,47.655,-122.3035,60.0,9.75
2026-01-20T23:09:46+00:00,SAT-61877,214.2439319191343,33.598765144336944,1197.813832920859,-6.5333552092549985,228825.73549324405,10.5,10500228825.735493,47.655,-122.3035,60.0,9.766666666666667
2026-01-20T23:09:47+00:00,SAT-61877,214.23316508639346,33.767034724834204,1191.2978999921622,-6.52634282359308,228580.13208500174,10.5,10500228580.132086,47.655,-122.3035,60.0,9.783333333333333
2026-01-20T23:09:48+00:00,SAT-61877,214.22254469932815,33.936857197766216,1184.788960749432,-6.519206113588328,228330.17431238192,10.5,10500228330.174313,47.655,-122.3035,60.0,9.8
2026-01-20T23:09:49+00:00,SAT-61877,214.2120741013753,34.10825657620517,1178.2871391854799,-6.5119425610804,228075.77397875767,10.5,10500228075.77398,47.655,-122.3035,60.0,9.816666666666666
2026-01-20T23:09:50+00:00,SAT-61877,214.20175673709815,34.28125732873514,1171.7925618045624,-6.504549452718259,227816.83605109813,10.5,10500227816.836052,47.655,-122.3035,60.0,9.833333333333334
2026-01-20T23:09:51+00:00,SAT-61877,214.19159615609703,34.45588438537481,1165.3053578170516,-6.497024135223966,227553.26760038655,10.5,10500227553.267601,47.655,-122.3035,60.0,9.85
2026-01-20T23:09:52+00:00,SAT-61877,214.18159601697312,34.63216315055619,1158.8256590795215,-6.48936381571441,227284.9708080425,10.5,10500227284.970808,47.655,-122.3035,60.0,9.866666666666667
2026-01-20T23:09:53+00:00,SAT-61877,214.17176009154878,34.81011951097694,1152.3536002339822,-6.481565659953906,227011.8464071435,10.5,10500227011.846407,47.655,-122.3035,60.0,9.883333333333333
2026-01-20T23:09:54+00:00,SAT-61877,214.16209226928424,34.98977984634397,1145.8893187491217,-6.473626723892676,226733.79128461296,10.5,10500226733.791285,47.655,-122.3035,60.0,9.9
2026-01-20T23:09:55+00:00,SAT-61877,214.1525965618773,35.17117103845312,1139.432955029826,-6.465544028285196,226450.70109467048,10.5,10500226450.701096,47.655,-122.3035,60.0,9.916666666666666
2026-01-20T23:09:56+00:00,SAT-61877,214.14327710809647,35.354320482591525,1132.984652452283,-6.457314533675497,226162.46938271116,10.5,10500226162.469383,47.655,-122.3035,60.0,9.933333333333334
2026-01-20T23:09:57+00:00,SAT-61877,214.13413817880837,35.539256098522785,1126.5445574240305,-6.448935075534087,225868.9853135262,10.5,10500225868.985313,47.655,-122.3035,60.0,9.95
2026-01-20T23:09:58+00:00,SAT-61877,214.12518418232435,35.72600633985423,1120.1128195086978,-6.440402403800251,225570.1350562416,10.5,10500225570.135056,47.655,-122.3035,60.0,9.966666666666667
2026-01-20T23:09:59+00:00,SAT-61877,214.1164196699355,35.91460020472818,1113.6895915113078,-6.431713251100763,225265.80417362606,10.5,10500225265.804174,47.655,-122.3035,60.0,9.983333333333333
2026-01-20T23:10:00+00:00,SAT-61877,214.10784934173952,36.10506724881311,1107.275029495543,-6.4228642330839305,224955.87413136745,10.5,10500224955.874132,47.655,-122.3035,60.0,10.0
2026-01-20T23:10:01+00:00,SAT-61877,214.09947805275075,36.297437595642336,1100.8692929004142,-6.413851847671238,224640.2222718625,10.5,10500224640.222271,47.655,-122.3035,60.0,10.016666666666667
2026-01-20T23:10:02+00:00,SAT-61877,214.09131081935533,36.491741947126286,1094.47254465767,-6.404672540421273,224318.72410353753,10.5,10500224318.724104,47.655,-122.3035,60.0,10.033333333333333
2026-01-20T23:10:03+00:00,SAT-61877,214.08335282601527,36.68801159628482,1088.0849512440232,-6.395322650460726,223991.25140712387,10.5,10500223991.251408,47.655,-122.3035,60.0,10.05
2026-01-20T23:10:04+00:00,SAT-61877,214.07560943238903,36.88627843861989,1081.706682787297,-6.385798443109825,223657.67337833816,10.5,10500223657.673378,47.655,-122.3035,60.0,10.066666666666666
2026-01-20T23:10:05+00:00,SAT-61877,214.06808618074209,37.086574984744054,1075.3379131400354,-6.3760960563060465,223317.85475141433,10.5,10500223317.854752,47.655,-122.3035,60.0,10.083333333333334
2026-01-20T23:10:06+00:00,SAT-61877,214.0607888038084,37.28893437159574,1068.9788200065464,-6.366211559844892,222971.65787396615,10.5,10500222971.657873,47.655,-122.3035,60.0,10.1
2026-01-20T23:10:07+00:00,SAT-61877,214.05372323300347,37.49339037576814,1062.629585010861,-6.356140869656548,222618.93970459307,10.5,10500222618.939705,47.655,-122.3035,60.0,10.116666666666667
2026-01-20T23:10:08+00:00,SAT-61877,214.04689560710273,37.69997742434298,1056.2903938501902,-6.3458798801264935,222259.55644730793,10.5,10500222259.556448,47.655,-122.3035,60.0,10.133333333333333
2026-01-20T23:10:09+00:00,SAT-61877,214.04031228135244,37.90873061026653,1049.9614363164105,-6.335424305540721,221893.35799827753,10.5,10500221893.357998,47.655,-122.3035,60.0,10.15
2026-01-20T23:10:10+00:00,SAT-61877,214.03397983709917,38.11968570283353,1043.6429064756846,-6.324769775291425,221520.19128032887,10.5,10500221520.19128,47.655,-122.3035,60.0,10.166666666666666
2026-01-20T23:10:11+00:00,SAT-61877,214.02790509189177,38.33287916148685,1037.3350027531274,-6.313911826119288,221139.8999712412,10.5,10500221139.899971,47.655,-122.3035,60.0,10.183333333333334
2026-01-20T23:10:12+00:00,SAT-61877,214.02209511018248,38.54834814966668,1031.0379280252112,-6.302845825446751,220752.32181855253,10.5,10500220752.32182,47.655,-122.3035,60.0,10.2
2026-01-20T23:10:13+00:00,SAT-61877,214.01655721454736,38.76613054625646,1024.751889788632,-6.291567074229367,220357.29224184935,10.5,10500220357.292242,47.655,-122.3035,60.0,10.216666666666667
2026-01-20T23:10:14+00:00,SAT-61877,214.01129899761517,38.98626496079883,1018.4771002266008,-6.280070712171416,219954.64101301666,10.5,10500219954.641012,47.655,-122.3035,60.0,10.233333333333333
2026-01-20T23:10:15+00:00,SAT-61877,214.0063283345567,39.208790745641984,1012.2137763696618,-6.268351816284333,219544.19570817056,10.5,10500219544.195707,47.655,-122.3035,60.0,10.25
2026-01-20T23:10:16+00:00,SAT-61877,214.00165339639773,39.43374801183082,1005.9621401582209,-6.256405208233677,219125.77496013464,10.5,10500219125.77496,47.655,-122.3035,60.0,10.266666666666667
2026-01-20T23:10:17+00:00,SAT-61877,213.9972826639355,39.66117763824048,999.7224186972093,-6.244225706331901,218699.19728429243,10.5,10500218699.197285,47.655,-122.3035,60.0,10.283333333333333
2026-01-20T23:10:18+00:00,SAT-61877,213.9932249426156,39.8911212900061,993.4948442594275,-6.231807944862281,218264.27475054743,10.5,10500218264.27475,47.655,-122.3035,60.0,10.3
2026-01-20T23:10:19+00:00,SAT-61877,213.98948937815408,40.12362143065667,987.2796544690848,-6.219146386875772,217820.8134315227,10.5,10500217820.81343,47.655,-122.3035,60.0,10.316666666666666
2026-01-20T23:10:20+00:00,SAT-61877,213.98608547311557,40.35872133478188,981.0770924725741,-6.206235386675095,217368.6155910183,10.5,10500217368.615591,47.655,-122.3035,60.0,10.333333333333334
2026-01-20T23:10:21+00:00,SAT-61877,213.98302310445396,40.596465103199954,974.8874070469302,-6.1930691306584675,216907.47761210828,10.5,10500216907.477612,47.655,-122.3035,60.0,10.35
2026-01-20T23:10:22+00:00,SAT-61877,213.98031254213268,40.83689767605294,968.7108527672867,-6.179641683035752,216437.19159831366,10.5,10500216437.191599,47.655,-122.3035,60.0,10.366666666666667
2026-01-20T23:10:23+00:00,SAT-61877,213.97796446882884,41.08006484777737,962.5476901287391,-6.165946941804424,215957.54383169455,10.5,10500215957.54383,47.655,-122.3035,60.0,10.383333333333333
2026-01-20T23:10:24+00:00,SAT-61877,213.97599000087328,41.32601328050824,956.3981857121128,-6.151978573551328,215468.31248933202,10.5,10500215468.312489,47.655,-122.3035,60.0,10.4
2026-01-20T23:10:25+00:00,SAT-61877,213.97440071035467,41.57479051483852,950.2626124147577,-6.137730208156122,214969.27446266604,10.5,10500214969.274462,47.655,-122.3035,60.0,10.416666666666666
2026-01-20T23:10:26+00:00,SAT-61877,213.97320864883713,41.82644498852809,944.1412494871566,-6.123195209857453,214460.19733926482,10.5,10500214460.19734,47.655,-122.3035,60.0,10.433333333333334
2026-01-20T23:10:27+00:00,SAT-61877,213.972426372307,42.08102604597893,938.0343827978588,-6.108366816325774,213940.844273743,10.5,10500213940.844275,47.655,-122.3035,60.0,10.45
2026-01-20T23:10:28+00:00,SAT-61877,213.97206696787939,42.33858395335424,931.9423049597099,-6.093238047197,213410.97078422332,10.5,10500213410.970785,47.655,-122.3035,60.0,10.466666666666667
2026-01-20T23:10:29+00:00,SAT-61877,213.97214408206906,42.59916990982826,925.8653155473054,-6.077801776604231,212870.3272927047,10.5,10500212870.327293,47.655,-122.3035,60.0,10.483333333333333
2026-01-20T23:10:30+00:00,SAT-61877,213.9726719510467,42.86283606182976,919.8037212421054,-6.062050711891354,212318.65837952204,10.5,10500212318.658379,47.655,-122.3035,60.0,10.5
2026-01-20T23:10:31+00:00,SAT-61877,213.97366543279887,43.129635516338475,913.7578359987791,-6.045977290409869,211755.699168735,10.5,10500211755.69917,47.655,-122.3035,60.0,10.516666666666667
2026-01-20T23:10:32+00:00,SAT-61877,213.9751400413177,43.399622349422785,907.727981314477,-6.029573848875503,211181.1812597126,10.5,10500211181.18126,47.655,-122.3035,60.0,10.533333333333333
2026-01-20T23:10:33+00:00,SAT-61877,213.97711198330063,43.67285162205548,901.7144863291985,-6.012832440011794,210594.82630521624,10.5,10500210594.826305,47.655,-122.3035,60.0,10.55
2026-01-20T23:10:34+00:00,SAT-61877,213.97959819707634,43.94937938747905,895.7176881090268,-5.995744985865124,209996.3513811405,10.5,10500209996.351381,47.655,-122.3035,60.0,10.566666666666666
2026-01-20T23:10:35+00:00,SAT-61877,213.9826163944327,44.229262705177625,889.7379317764572,-5.978303141202118,209385.46420211226,10.5,10500209385.464203,47.655,-122.3035,60.0,10.583333333333334
2026-01-20T23:10:36+00:00,SAT-61877,213.98618510515325,44.512559648216204,883.775570776965,-5.960498384944975,208761.86632394278,10.5,10500208761.866323,47.655,-122.3035,60.0,10.6
2026-01-20T23:10:37+00:00,SAT-61877,213.99032372476708,44.79932931432572,877.8309670543799,-5.942321963565827,208125.25116105884,10.5,10500208125.251162,47.655,-122.3035,60.0,10.616666666666667
2026-01-20T23:10:38+00:00,SAT-61877,213.9950525656757,45.08963183385612,871.9044912827169,-5.923764889285487,207475.30392341496,10.5,10500207475.303923,47.655,-122.3035,60.0,10.633333333333333
2026-01-20T23:10:39+00:00,SAT-61877,214.00039291185735,45.38352837694956,865.9965230998029,-5.904817953490316,206811.7020864091,10.5,10500206811.702085,47.655,-122.3035,60.0,10.65
2026-01-20T23:10:40+00:00,SAT-61877,214.00636707765213,45.681081160687945,860.1074513275219,-5.885471740602052,206134.11587666275,10.5,10500206134.115877,47.655,-122.3035,60.0,10.666666666666666
2026-01-20T23:10:41+00:00,SAT-61877,214.0129984708494,45.98235345620135,854.237674178228,-5.8657165701662946,205442.20624371443,10.5,10500205442.206244,47.655,-122.3035,60.0,10.683333333333334
2026-01-20T23:10:42+00:00,SAT-61877,214.0203116603896,46.28740959197286,848.3875995189155,-5.845542494526509,204735.62477855379,10.5,10500204735.624779,47.655,-122.3035,60.0,10.7
2026-01-20T23:10:43+00:00,SAT-61877,214.0283324490896,46.59631495588319,842.5576451377078,-5.824939367902783,204014.01613305171,10.5,10500204014.016132,47.655,-122.3035,60.0,10.716666666666667
2026-01-20T23:10:44+00:00,SAT-61877,214.03708795217733,46.90913599981849,836.7482389414527,-5.803896773068295,203277.01545185997,10.5,10500203277.015451,47.655,-122.3035,60.0,10.733333333333333
2026-01-20T23:10:45+00:00,SAT-61877,214.04660668164632,47.225940239207304,830.959819226446,-5.782404056203903,202524.24959316684,10.5,10500202524.249594,47.655,-122.3035,60.0,10.75
2026-01-20T23:10:46+00:00,SAT-61877,214.05691863737323,47.54679625307774,825.1928349143919,-5.760450231219442,201755.33377762343,10.5,10500201755.333778,47.655,-122.3035,60.0,10.766666666666667
2026-01-20T23:10:47+00:00,SAT-61877,214.06805540506625,47.87177367718963,819.447745883789,-5.7380241620647165,200969.87797364642,10.5,10500200969.877974,47.655,-122.3035,60.0,10.783333333333333
2026-01-20T23:10:48+00:00,SAT-61877,214.08005026281762,48.200943205778266,813.72502311949,-5.715114343810405,200167.4792299453,10.5,10500200167.47923,47.655,-122.3035,60.0,10.8
2026-01-20T23:10:49+00:00,SAT-61877,214.09293829546058,48.53437657908121,808.0251490805963,-5.691709046646166,199347.72671894485,10.5,10500199347.726719,47.655,-122.3035,60.0,10.816666666666666
2026-01-20T23:10:50+00:00,SAT-61877,214.10675651896722,48.87214657698759,802.3486179247411,-5.667796259484765,198510.19976156316,10.5,10500198510.199762,47.655,-122.3035,60.0,10.833333333333334
2026-01-20T23:10:51+00:00,SAT-61877,214.12154401499777,49.2143270072803,796.695935788615,-5.643363668402108,197654.4670720907,10.5,10500197654.467072,47.655,-122.3035,60.0,10.85
2026-01-20T23:10:52+00:00,SAT-61877,214.13734207679508,49.560992690085776,791.0676210899953,-5.618398723137936,196780.08908732564,10.5,10500196780.089087,47.655,-122.3035,60.0,10.866666666666667
2026-01-20T23:10:53+00:00,SAT-61877,214.15419436793022,49.91221944377117,785.4642047634524,-5.5928885413277785,195886.61461237184,10.5,10500195886.614613,47.655,-122.3035,60.0,10.883333333333333
2026-01-20T23:10:54+00:00,SAT-61877,214.1721470944667,50.268084062052075,779.8862305915682,-5.566819989319296,194973.58365116915,10.5,10500194973.58365,47.655,-122.3035,60.0,10.9
2026-01-20T23:10:55+00:00,SAT-61877,214.1912491927385,50.62866429298821,774.3342554555537,-5.540179579136571,194040.52379774678,10.5,10500194040.523798,47.655,-122.3035,60.0,10.916666666666666
2026-01-20T23:10:56+00:00,SAT-61877,214.2115525334853,50.99403880789294,768.8088496886282,-5.5129536314575445,193086.95594438276,10.5,10500193086.955944,47.655,-122.3035,60.0,10.933333333333334
2026-01-20T23:10:57+00:00,SAT-61877,214.23311214548218,51.36428717724286,763.3105972668545,-5.485128096330598,192112.38800234022,10.5,10500192112.388002,47.655,-122.3035,60.0,10.95
2026-01-20T23:10:58+00:00,SAT-61877,214.2559864589029,51.739489830799016,757.8400961787808,-5.456688643669061,191116.31807136768,10.5,10500191116.318071,47.655,-122.3035,60.0,10.966666666666667
2026-01-20T23:10:59+00:00,SAT-61877,214.2802375720092,52.119728019216446,752.3979587048282,-5.427620672574115,190098.23476622684,10.5,10500190098.234766,47.655,-122.3035,60.0,10.983333333333333
2026-01-20T23:11:00+00:00,SAT-61877,214.30593154345854,52.50508377173588,746.984811687381,-5.397909275081064,189057.61594693342,10.5,10500189057.615948,47.655,-122.3035,60.0,11.0
2026-01-20T23:11:01+00:00,SAT-61877,214.3331387126704,52.895639846261204,741.6012968370335,-5.3675392386872245,187993.9288072946,10.5,10500187993.928808,47.655,-122.3035,60.0,11.016666666666667
2026-01-20T23:11:02+00:00,SAT-61877,214.3619340518232,53.29147967403211,736.2480710363161,-5.336495086796557,186906.63129145114,10.5,10500186906.631292,47.655,-122.3035,60.0,11.033333333333333
2026-01-20T23:11:03+00:00,SAT-61877,214.39239755336047,53.692687301304126,730.9258066030843,-5.304761043908395,185795.1708746394,10.5,10500185795.170876,47.655,-122.3035,60.0,11.05
2026-01-20T23:11:04+00:00,SAT-61877,214.42461465682226,54.099347322170594,725.6351915886264,-5.272321042083018,184658.98478964297,10.5,10500184658.984789,47.655,-122.3035,60.0,11.066666666666666
2026-01-20T23:11:05+00:00,SAT-61877,214.45867671981603,54.511544804818875,720.3769300693223,-5.239158744737632,183497.5008602289,10.5,10500183497.50086,47.655,-122.3035,60.0,11.083333333333334
2026-01-20T23:11:06+00:00,SAT-61877,214.49468153894045,54.92936521222093,715.1517424145705,-5.205257551174376,182310.1376597371,10.5,10500182310.13766,47.655,-122.3035,60.0,11.1
2026-01-20T23:11:07+00:00,SAT-61877,214.53273392654611,55.352894315227815,709.9603655501993,-5.170600587948441,181096.30420875576,10.5,10500181096.304209,47.655,-122.3035,60.0,11.116666666666667
2026-01-20T23:11:08+00:00,SAT-61877,214.57294635051716,55.78221809640973,704.8035532304854,-5.135170719497501,179855.4003474089,10.5,10500179855.400347,47.655,-122.3035,60.0,11.133333333333333
2026-01-20T23:11:09+00:00,SAT-61877,214.61543964511907,56.217422645367066,699.6820762995732,-5.098950560412672,178586.81716513715,10.5,10500178586.817165,47.655,-122.3035,60.0,11.15
2026-01-20T23:11:10+00:00,SAT-61877,214.6603438026565,56.658594045133306,694.596722940655,-5.0619225017085245,177289.93792078487,10.5,10500177289.937922,47.655,-122.3035,60.0,11.166666666666666
2026-01-20T23:11:11+00:00,SAT-61877,214.70779885667594,57.10581825006869,689.5482988989511,-5.024068727907518,175964.1386409692,10.5,10500175964.138641,47.655,-122.3035,60.0,11.183333333333334
2026-01-20T23:11:12+00:00,SAT-61877,214.75795586940873,57.559180953907834,684.5376276876513,-4.985371173306175,174608.78658833654,10.5,10500174608.786589,47.655,-122.3035,60.0,11.2
2026-01-20T23:11:13+00:00,SAT-61877,214.81097803705924,58.018767441375296,679.5655508374738,-4.945811588344256,173223.24258609163,10.5,10500173223.242586,47.655,-122.3035,60.0,11.216666666666667
2026-01-20T23:11:14+00:00,SAT-61877,214.86704193124413,58.48466243224267,674.6329280800319,-4.9053715975669725,171806.8630480798,10.5,10500171806.863049,47.655,-122.3035,60.0,11.233333333333333
2026-01-20T23:11:15+00:00,SAT-61877,214.9263388963973,58.956949916706485,669.7406374733918,-4.864032609990521,170358.9968394084,10.5,10500170358.99684,47.655,-122.3035,60.0,11.25
2026-01-20T23:11:16+00:00,SAT-61877,214.98907662412782,59.43571296672563,664.8895756170278,-4.821775922530142,168878.98889893515,10.5,10500168878.9889,47.655,-122.3035,60.0,11.266666666666667
2026-01-20T23:11:17+00:00,SAT-61877,215.05548093418193,59.92103354030588,660.0806577636245,-4.778582736155531,167366.1808050991,10.5,10500167366.180805,47.655,-122.3035,60.0,11.283333333333333
2026-01-20T23:11:18+00:00,SAT-61877,215.1257977929914,60.41299226952066,655.3148179147653,-4.734434169523466,165819.9112533925,10.5,10500165819.911253,47.655,-122.3035,60.0,11.3
2026-01-20T23:11:19+00:00,SAT-61877,215.20029560721494,60.91166823034167,650.5930089030272,-4.689311273591401,164239.51656819103,10.5,10500164239.51657,47.655,-122.3035,60.0,11.316666666666666
2026-01-20T23:11:20+00:00,SAT-61877,215.2792678370601,61.41713869264128,645.9162024594988,-4.643195074505881,162624.33220488738,10.5,10500162624.332205,47.655,-122.3035,60.0,11.333333333333334
2026-01-20T23:11:21+00:00,SAT-61877,215.36303598285673,61.929478851358425,641.285389238525,-4.5960666468387945,160973.69531493465,10.5,10500160973.695314,47.655,-122.3035,60.0,11.35
2026-01-20T23:11:22+00:00,SAT-61877,215.45195300938084,62.44876154059018,636.7015787694111,-4.547907077099217,159286.94346787664,10.5,10500159286.943468,47.655,-122.3035,60.0,11.366666666666667
2026-01-20T23:11:23+00:00,SAT-61877,215.5464072814489,62.97505691588052,632.1657994445173,-4.498697565785605,157563.41822564747,10.5,10500157563.418226,47.655,-122.3035,60.0,11.383333333333333
2026-01-20T23:11:24+00:00,SAT-61877,215.64682710566083,63.50843211750795,627.6790984055739,-4.448419424296061,155802.465034356,10.5,10500155802.465034,47.655,-122.3035,60.0,11.4
2026-01-20T23:11:25+00:00,SAT-61877,215.75368598646875,64.04895089965615,623.2425414330759,-4.397054185254214,154003.43708836482,10.5,10500154003.437088,47.655,-122.3035,60.0,11.416666666666666
2026-01-20T23:11:26+00:00,SAT-61877,215.86750873461997,64.59667323551182,618.8572127256491,-4.3445835585198775,152165.6937895973,10.5,10500152165.69379,47.655,-122.3035,60.0,11.433333333333334
2026-01-20T23:11:27+00:00,SAT-61877,215.98887858748853,65.15165487485457,614.5242147232852,-4.29098957617283,150288.60582548316,10.5,10500150288.605825,47.655,-122.3035,60.0,11.45
2026-01-20T23:11:28+00:00,SAT-61877,216.1184455487956,65.71394687252439,610.2446677859823,-4.236254589991807,148371.55508066172,10.5,10500148371.55508,47.655,-122.3035,60.0,11.466666666666667
2026-01-20T23:11:29+00:00,SAT-61877,216.25693619183826,66.28359506313163,606.019709874897,-4.180361348680767,146413.9373417728,10.5,10500146413.937342,47.655,-122.3035,60.0,11.483333333333333
2026-01-20T23:11:30+00:00,SAT-61877,216.40516523674157,66.8606394843084,601.8504961564795,-4.123293081145412,144415.1652141523,10.5,10500144415.165215,47.655,-122.3035,60.0,11.5
2026-01-20T23:11:31+00:00,SAT-61877,216.56404928694485,67.44511374050637,597.7381985235504,-4.065033494178621,142374.6680407668,10.5,10500142374.668041,47.655,-122.3035,60.0,11.516666666666667
2026-01-20T23:11:32+00:00,SAT-61877,216.73462320324865,68.03704428331547,593.6840051186896,-4.005566947372929,140291.8980283879,10.5,10500140291.89803,47.655,-122.3035,60.0,11.533333333333333
2026-01-20T23:11:33+00:00,SAT-61877,216.91805973255214,68.63644961918934,589.6891196831764,-3.94487842076509,138166.32911436833,10.5,10500138166.329115,47.655,-122.3035,60.0,11.55
2026-01-20T23:11:34+00:00,SAT-61877,217.1156931561834,69.24333939609552,585.7547609382,-3.882953683874553,135997.46288708437,10.5,10500135997.462887,47.655,-122.3035,60.0,11.566666666666666
2026-01-20T23:11:35+00:00,SAT-61877,217.32904795961693,69.85771337530551,581.8821617974824,-3.8197792705511473,133784.82770499532,10.5,10500133784.827705,47.655,-122.3035,60.0,11.583333333333334
2026-01-20T23:11:36+00:00,SAT-61877,217.55987379251744,70.47956022787419,578.072568604986,-3.755342674275568,131527.98553689252,10.5,10500131527.985537,47.655,-122.3035,60.0,11.6
2026-01-20T23:11:37+00:00,SAT-61877,217.81018839725874,71.10885615092573,574.3272401778419,-3.689632345501056,129226.531868794,10.5,10500129226.531868,47.655,-122.3035,60.0,11.616666666666667
2026-01-20T23:11:38+00:00,SAT-61877,218.0823306776772,71.7455632196249,570.6474468519289,-3.622637836503662,126880.10077721319,10.5,10500126880.100777,47.655,-122.3035,60.0,11.633333333333333
2026-01-20T23:11:39+00:00,SAT-61877,218.37902681071984,72.38962742956642,567.0344693829892,-3.554349823951269,124488.3657196217,10.5,10500124488.365719,47.655,-122.3035,60.0,11.65
2026-01-20T23:11:40+00:00,SAT-61877,218.70347325728932,73.04097631458423,563.4895978252351,-3.4847602937574162,122051.04600881209,10.5,10500122051.04601,47.655,-122.3035,60.0,11.666666666666666
2026-01-20T23:11:41+00:00,SAT-61877,219.05944191101096,73.69951604223061,560.0141302255944,-3.413862545331917,119567.90696177262,10.5,10500119567.906961,47.655,-122.3035,60.0,11.683333333333334
2026-01-20T23:11:42+00:00,SAT-61877,219.45141450275187,74.36512777935442,556.6093713137168,-3.341651350527363,117038.76546666597,10.5,10500117038.765467,47.655,-122.3035,60.0,11.7
2026-01-20T23:11:43+00:00,SAT-61877,219.88475613735835,75.03766311314202,553.2766310334573,-3.2681230034232427,114463.49172647981,10.5,10500114463.491726,47.655,-122.3035,60.0,11.716666666666667
2026-01-20T23:11:44+00:00,SAT-61877,220.36594175236414,75.71693816373886,550.01722302471,-3.1932754450210377,111842.01362637647,10.5,10500111842.013626,47.655,-122.3035,60.0,11.733333333333333
2026-01-20T23:11:45+00:00,SAT-61877,220.9028550877875,76.40272591212796,546.8324629808757,-3.1171083568229134,109174.32001121453,10.5,10500109174.320011,47.655,-122.3035,60.0,11.75
2026-01-20T23:11:46+00:00,SAT-61877,221.50518834358968,77.09474602341346,543.7236669130042,-3.039623233330794,106460.4632247731,10.5,10500106460.463224,47.655,-122.3035,60.0,11.766666666666667
2026-01-20T23:11:47+00:00,SAT-61877,222.18498370809368,77.7926511054578,540.692149341629,-2.960823500803412,103700.5632691261,10.5,10500103700.563269,47.655,-122.3035,60.0,11.783333333333333
2026-01-20T23:11:48+00:00,SAT-61877,222.95737795702019,78.49600782370189,537.7392213701611,-2.880714593118781,100894.8104616668,10.5,10500100894.810461,47.655,-122.3035,60.0,11.8
2026-01-20T23:11:49+00:00,SAT-61877,223.84164261718797,79.20427042193336,534.8661886826239,-2.799304053883169,98043.46901139613,10.5,10500098043.469011,47.655,-122.3035,60.0,11.816666666666666
2026-01-20T23:11:50+00:00,SAT-61877,224.86266209084613,79.91674282361744,532.0743494395512,-2.7166015976846034,95146.8791642795,10.5,10500095146.879164,47.655,-122.3035,60.0,11.833333333333334
2026-01-20T23:11:51+00:00,SAT-61877,226.05307302764854,80.63252314731378,529.3649921127937,-2.6326192111077784,92205.4607412161,10.5,10500092205.460741,47.655,-122.3035,60.0,11.85
2026-01-20T23:11:52+00:00,SAT-61877,227.4564216422257,81.3504205009291,526.7393932195821,-2.5473712259985057,89219.7157040699,10.5,10500089219.715704,47.655,-122.3035,60.0,11.866666666666667
2026-01-20T23:11:53+00:00,SAT-61877,229.13191836566116,82.0688268760504,524.1988149835197,-2.460874370659933,86190.22994877775,10.5,10500086190.229948,47.655,-122.3035,60.0,11.883333333333333
2026-01-20T23:11:54+00:00,SAT-61877,231.16174262258437,82.78551424782967,521.7445029445148,-2.3731478407014923,83117.67578677938,10.5,10500083117.675787,47.655,-122.3035,60.0,11.9
2026-01-20T23:11:55+00:00,SAT-61877,233.66246711307247,83.497303419598,519.3776834980553,-2.2842133686469666,80002.81438298608,10.5,10500080002.814383,47.655,-122.3035,60.0,11.916666666666666
2026-01-20T23:11:56+00:00,SAT-61877,236.80312470056512,84.19950666674693,517.099561365058,-2.1940952422494586,76846.49639724864,10.5,10500076846.496397,47.655,-122.3035,60.0,11.933333333333334
2026-01-20T23:11:57+00:00,SAT-61877,240.83360680628238,84.88496247352418,514.9113170434545,-2.1028203426923677,73649.663322317,10.5,10500073649.663322,47.655,-122.3035,60.0,11.95
2026-01-20T23:11:58+00:00,SAT-61877,246.12706221884042,85.54233128741379,512.814104221676,-2.010418184653558,70413.34888705693,10.5,10500070413.348886,47.655,-122.3035,60.0,11.966666666666667
2026-01-20T23:11:59+00:00,SAT-61877,253.23185726681646,86.15310994292514,510.8090471521815,-1.916920919109018,67138.679154646,10.5,10500067138.679155,47.655,-122.3035,60.0,11.983333333333333
2026-01-20T23:12:00+00:00,SAT-61877,262.88673229705165,86.68682503463954,508.8972380221901,-1.8223633381823563,63826.872692423574,10.5,10500063826.872692,47.655,-122.3035,60.0,12.0
2026-01-20T23:12:01+00:00,SAT-61877,275.81762648194905,87.09557738606236,507.07973431957623,-1.726782837607374,60479.239257171124,10.5,10500060479.239258,47.655,-122.3035,60.0,12.016666666666667
2026-01-20T23:12:02+00:00,SAT-61877,291.9693510071321,87.31632036719932,505.35755623620247,-1.630219447554894,57097.18087479834,10.5,10500057097.180874,47.655,-122.3035,60.0,12.033333333333333
2026-01-20T23:12:03+00:00,SAT-61877,309.481775775551,87.29756931876666,503.7316840405078,-1.5327157304389787,53682.18826108453,10.5,10500053682.188261,47.655,-122.3035,60.0,12.05
2026-01-20T23:12:04+00:00,SAT-61877,325.4098743412751,87.03962789247642,502.2030555520166,-1.4343167659538612,50235.84029760863,10.5,10500050235.840298,47.655,-122.3035,60.0,12.066666666666666
2026-01-20T23:12:05+00:00,SAT-61877,338.0536016711007,86.59298954123382,500.7725636307719,-1.3350700798494197,46759.801537165105,10.5,10500046759.801537,47.655,-122.3035,60.0,12.083333333333334
2026-01-20T23:12:06+00:00,SAT-61877,347.4669627673794,86.01794501948581,499.4410537378021,-1.2350255467046078,43255.81879847819,10.5,10500043255.818798,47.655,-122.3035,60.0,12.1
2026-01-20T23:12:07+00:00,SAT-61877,354.3962856906877,85.35984855538035,498.2093215925554,-1.1342353161233998,39725.71858127164,10.5,10500039725.718582,47.655,-122.3035,60.0,12.116666666666667
2026-01-20T23:12:08+00:00,SAT-61877,359.56724670639204,84.64755915106672,497.07811090394165,-1.0327536766529106,36171.402300105765,10.5,10500036171.4023,47.655,-122.3035,60.0,12.133333333333333
2026-01-20T23:12:09+00:00,SAT-61877,3.512009586275685,83.89870647769153,496.04811123709317,-0.9306369556321479,32594.84277665702,10.5,10500032594.842777,47.655,-122.3035,60.0,12.15
2026-01-20T23:12:10+00:00,SAT-61877,6.591587148870827,83.12420502908303,495.1199559800094,-0.827943367193644,28998.078916092218,10.5,10500028998.078917,47.655,-122.3035,60.0,12.166666666666666
2026-01-20T23:12:11+00:00,SAT-61877,9.04778621411229,82.33104718422287,494.2942204617949,-0.7247328653263847,25383.21056071077,10.5,10500025383.21056,47.655,-122.3035,60.0,12.183333333333334
2026-01-20T23:12:12+00:00,SAT-61877,11.044396636389974,81.52390047731211,493.5714202174427,-0.6210669840857963,21752.392893422493,10.5,10500021752.392893,47.655,-122.3035,60.0,12.2
2026-01-20T23:12:13+00:00,SAT-61877,12.694575584791163,80.70601530347375,492.9520094119812,-0.5170086639144044,18107.830354762445,10.5,10500018107.830355,47.655,-122.3035,60.0,12.216666666666667
2026-01-20T23:12:14+00:00,SAT-61877,14.078240831744576,79.87975079663006,492.4363794378372,-0.412622064367169,14451.770083739979,10.5,10500014451.770084,47.655,-122.3035,60.0,12.233333333333333
2026-01-20T23:12:15+00:00,SAT-61877,15.253074334800997,79.04688809934031,492.02485769897504,-0.3079723780597241,10786.495401519085,10.5,10500010786.495401,47.655,-122.3035,60.0,12.25
2026-01-20T23:12:16+00:00,SAT-61877,16.26156721660769,78.20882256186583,491.7177065805901,-0.20312562604632955,7114.31864468872,10.5,10500007114.318645,47.655,-122.3035,60.0,12.266666666666667
2026-01-20T23:12:17+00:00,SAT-61877,17.135612675934397,77.36668507254785,491.5151226228799,-0.09814845620756413,3437.574103947016,10.5,10500003437.574104,47.655,-122.3035,60.0,12.283333333333333
2026-01-20T23:12:18+00:00,SAT-61877,17.899561040325278,76.52142066293912,491.4172358958889,0.006892069710401258,-241.38943468422144,10.5,10499999758.610565,47.655,-122.3035,60.0,12.3
2026-01-20T23:12:19+00:00,SAT-61877,18.57229324888865,75.67384064996156,491.42410958674674,0.11192868769501015,-3920.216100958772,10.5,10499996079.7839,47.655,-122.3035,60.0,12.316666666666666
2026-01-20T23:12:20+00:00,SAT-61877,19.168655687539022,74.82465794076701,491.53573979794123,0.21689414678421795,-7596.550481714548,10.5,10499992403.449518,47.655,-122.3035,60.0,12.333333333333334
2026-01-20T23:12:21+00:00,SAT-61877,19.70047137155021,73.97451136480096,491.752055560334,0.32172142387370867,-11268.045144330952,10.5,10499988731.954855,47.655,-122.3035,60.0,12.35
2026-01-20T23:12:22+00:00,SAT-61877,20.17726477870899,73.12398270106684,492.07291906041075,0.42634393665487896,-14932.36809471781,10.5,10499985067.631905,47.655,-122.3035,60.0,12.366666666666667
2026-01-20T23:12:23+00:00,SAT-61877,20.606789666223015,72.2736087467535,492.49812607990117,0.5306957542099933,-18587.210153248518,10.5,10499981412.789846,47.655,-122.3035,60.0,12.383333333333333
2026-01-20T23:12:24+00:00,SAT-61877,20.9954190602553,71.42388995168653,493.0274066454333,0.6347117950160027,-22230.29188969133,10.5,10499977769.70811,47.655,-122.3035,60.0,12.4
2026-01-20T23:12:25+00:00,SAT-61877,21.348437301223072,70.57529665561157,493.6604258756626,0.738328040782142,-25859.371112706547,10.5,10499974140.628887,47.655,-122.3035,60.0,12.416666666666666
2026-01-20T23:12:26+00:00,SAT-61877,21.670261488207746,69.72827359055663,494.3967850416693,0.8414817097170413,-29472.248938393685,10.5,10499970527.751062,47.655,-122.3035,60.0,12.433333333333334
2026-01-20T23:12:27+00:00,SAT-61877,21.964611315051197,68.88324317466494,495.23602280016047,0.9441114536974764,-33066.776695975124,10.5,10499966933.223305,47.655,-122.3035,60.0,12.45
2026-01-20T23:12:28+00:00,SAT-61877,22.234640732930067,68.04060789206642,496.17761662331475,1.0461575153611964,-36640.86142985146,10.5,10499963359.13857,47.655,-122.3035,60.0,12.466666666666667
2026-01-20T23:12:29+00:00,SAT-61877,22.483041023055495,67.20075203368033,497.2209843853017,1.1475619029850272,-40192.472024572366,10.5,10499959807.527975,47.655,-122.3035,60.0,12.483333333333333
2026-01-20T23:12:30+00:00,SAT-61877,22.712122239949252,66.36404294467174,498.365486123212,1.2482685338354367,-43719.64422557984,10.5,10499956280.355774,47.655,-122.3035,60.0,12.5
2026-01-20T23:12:31+00:00,SAT-61877,22.923878111610698,65.53083192643199,499.6104259409572,1.3482233636653456,-47220.4851747342,10.5,10499952779.514826,47.655,-122.3035,60.0,12.516666666666667
2026-01-20T23:12:32+00:00,SAT-61877,23.120038172707627,64.70145488416865,500.9550540423195,1.4473745189545622,-50693.17804193361,10.5,10499949306.821959,47.655,-122.3035,60.0,12.533333333333333
2026-01-20T23:12:33+00:00,SAT-61877,23.302109957656118,63.87623278150603,502.39856889589015,1.545672400009342,-54135.98563609659,10.5,10499945864.014364,47.655,-122.3035,60.0,12.55
2026-01-20T23:12:34+00:00,SAT-61877,23.471413386549663,63.05547196545458,503.94011950283283,1.6430697753133874,-57547.25370973331,10.5,10499942452.74629,47.655,-122.3035,60.0,12.566666666666666
2026-01-20T23:12:35+00:00,SAT-61877,23.629108973513645,62.23946439854061,505.5788077587453,1.7395218699263233,-60925.414055034016,10.5,10499939074.585945,47.655,-122.3035,60.0,12.583333333333334
2026-01-20T23:12:36+00:00,SAT-61877,23.776221111065286,61.428487825173406,507.31369090368526,1.8349864109096503,-64268.986094878106,10.5,10499935731.013905,47.655,-122.3035,60.0,12.6
2026-01-20T23:12:37+00:00,SAT-61877,23.91365739979612,60.62280590917001,509.1437840174991,1.929423697905449,-67576.5793547989,10.5,10499932423.420645,47.655,-122.3035,60.0,12.616666666666667
2026-01-20T23:12:38+00:00,SAT-61877,24.042224785816213,59.8226683415646,511.0680625855435,2.0227966451401693,-70846.89493413399,10.5,10499929153.105066,47.655,-122.3035,60.0,12.633333333333333
2026-01-20T23:12:39+00:00,SAT-61877,24.162643101588635,59.02831094116889,513.0854651062966,2.1150707700889826,-74078.72510900296,10.5,10499925921.27489,47.655,-122.3035,60.0,12.65
2026-01-20T23:12:40+00:00,SAT-61877,24.275556482045506,58.239955771985855,515.1948956876653,2.206214257798867,-77270.95558517388,10.5,10499922729.044415,47.655,-122.3035,60.0,12.666666666666666
2026-01-20T23:12:41+00:00,SAT-61877,24.38154303790845,57.45781125125982,517.3952267074434,2.2961978923643227,-80422.56309805295,10.5,10499919577.436901,47.655,-122.3035,60.0,12.683333333333334
2026-01-20T23:12:42+00:00,SAT-61877,24.481123083299256,56.68207229819945,519.685301405428,2.3849951209100806,-83532.61765362971,10.5,10499916467.382347,47.655,-122.3035,60.0,12.7
2026-01-20T23:12:43+00:00,SAT-61877,24.574766168422844,55.91292047574274,522.0639365393491,2.4725819478073134,-86600.27882348125,10.5,10499913399.721176,47.655,-122.3035,60.0,12.716666666666667
2026-01-20T23:12:44+00:00,SAT-61877,24.66289710920863,55.150524181935126,524.5299249352956,2.5589369706394027,-89624.79700444543,10.5,10499910375.202995,47.655,-122.3035,60.0,12.733333333333333
2026-01-20T23:12:45+00:00,SAT-61877,24.745901181253696,54.39503884199016,527.0820380740133,2.6440412837200302,-92605.51003941639,10.5,10499907394.48996,47.655,-122.3035,60.0,12.75
2026-01-20T23:12:46+00:00,SAT-61877,24.824128606512076,53.64660714059201,529.7190285809768,2.7278784353116228,-95541.8417189536,10.5,10499904458.158281,47.655,-122.3035,60.0,12.766666666666667
2026-01-20T23:12:47+00:00,SAT-61877,24.897898443989675,52.90535927392584,532.4396326737942,2.810434397235208,-98433.30071689023,10.5,10499901566.699284,47.655,-122.3035,60.0,12.783333333333333
2026-01-20T23:12:48+00:00,SAT-61877,24.967501975087078,52.17141321630813,535.2425725793034,2.8916974522318846,-101279.47664525567,10.5,10499898720.523355,47.655,-122.3035,60.0,12.8
2026-01-20T23:12:49+00:00,SAT-61877,25.0332056567117,51.44487502059185,538.1265588383294,2.9716581587488515,-104080.03882093306,10.5,10499895919.96118,47.655,-122.3035,60.0,12.816666666666666
2026-01-20T23:12:50+00:00,SAT-61877,25.09525370699501,50.72583912803808,541.0902925753215,3.050309203759657,-106834.731110802,10.5,10499893165.268888,47.655,-122.3035,60.0,12.833333333333334
2026-01-20T23:12:51+00:00,SAT-61877,25.15387037361522,50.014388712659795,544.1324676212046,3.1276454307694617,-109543.37291260125,10.5,10499890456.627087,47.655,-122.3035,60.0,12.85
2026-01-20T23:12:52+00:00,SAT-61877,25.20926193232528,49.310596014920634,547.2517726641586,3.2036636274793566,-112205.85171803503,10.5,10499887794.148281,47.655,-122.3035,60.0,12.866666666666667
2026-01-20T23:12:53+00:00,SAT-61877,25.26161844857003,48.61452271869924,550.4468931886313,3.278362529934708,-114822.12325806555,10.5,10499885177.876741,47.655,-122.3035,60.0,12.883333333333333
2026-01-20T23:12:54+00:00,SAT-61877,25.31111533756774,47.926220318148985,553.7165134184862,3.3517426562444785,-117392.20567906022,10.5,10499882607.794321,47.655,-122.3035,60.0,12.9
2026-01-20T23:12:55+00:00,SAT-61877,25.35791474686982,47.24573051027976,557.0593180943141,3.4238062784723544,-119916.17855830022,10.5,10499880083.821442,47.655,-122.3035,60.0,12.916666666666666
2026-01-20T23:12:56+00:00,SAT-61877,25.402166786273167,46.57308558104828,560.4739942227105,3.494557291140598,-122394.17829842897,10.5,10499877605.821701,47.655,-122.3035,60.0,12.933333333333334
2026-01-20T23:12:57+00:00,SAT-61877,25.4440106230806,45.9083088048648,563.959232694408,3.564001085966581,-124826.39374019577,10.5,10499875173.60626,47.655,-122.3035,60.0,12.95
2026-01-20T23:12:58+00:00,SAT-61877,25.483575459897626,45.251414852511424,567.5137297774787,3.632144528067299,-127213.0653290372,10.5,10499872786.934671,47.655,-122.3035,60.0,12.966666666666667
2026-01-20T23:12:59+00:00,SAT-61877,25.52098141008114,44.60241018735535,571.1361885868045,3.6989957984890647,-129554.47959980094,10.5,10499870445.520401,47.655,-122.3035,60.0,12.983333333333333
2026-01-20T23:13:00+00:00,SAT-61877,25.55634028213529,43.961293472996395,574.8253203964977,3.764564357719615,-131850.96789878534,10.5,10499868149.0321,47.655,-122.3035,60.0,13.0
2026-01-20T23:13:01+00:00,SAT-61877,25.589756284646338,43.328055969219434,578.57984591593,3.82886076701678,-134102.90012591373,10.5,10499865897.099874,47.655,-122.3035,60.0,13.016666666666667
2026-01-20T23:13:02+00:00,SAT-61877,25.621326660254123,42.702681938962094,582.398496387568,3.89189671128206,-136310.6855358637,10.5,10499863689.314465,47.655,-122.3035,60.0,13.033333333333333
2026-01-20T23:13:03+00:00,SAT-61877,25.651142257853014,42.08514903190384,586.28001470762,3.953684816238855,-138474.7663348755,10.5,10499861525.233665,47.655,-122.3035,60.0,13.05
2026-01-20T23:13:04+00:00,SAT-61877,25.679288048814232,41.475428677657526,590.2231563643488,4.01423862153836,-140595.61673880662,10.5,10499859404.38326,47.655,-122.3035,60.0,13.066666666666666
2026-01-20T23:13:05+00:00,SAT-61877,25.70584359435636,40.87348646238203,594.2266903495631,4.073572458994688,-142673.73870841082,10.5,10499857326.261292,47.655,-122.3035,60.0,13.083333333333334
2026-01-20T23:13:06+00:00,SAT-61877,25.730883468891367,40.279282503227094,598.2893999486671,4.131701425590265,-144709.6610038728,10.5,10499855290.338997,47.655,-122.3035,60.0,13.1
2026-01-20T23:13:07+00:00,SAT-61877,25.754477644432388,39.69277180613161,602.4100835037891,4.188641263645867,-146703.93498785616,10.5,10499853296.065012,47.655,-122.3035,60.0,13.116666666666667
2026-01-20T23:13:08+00:00,SAT-61877,25.776691839850915,39.11390462028014,606.5875550573986,4.244408266561864,-148657.13132416285,10.5,10499851342.868675,47.655,-122.3035,60.0,13.133333333333333
2026-01-20T23:13:09+00:00,SAT-61877,25.797587838780366,38.54262678460294,610.8206449019164,4.299019311219264,-150569.84111255483,10.5,10499849430.158888,47.655,-122.3035,60.0,13.15
2026-01-20T23:13:10+00:00,SAT-61877,25.81722377978281,37.978880049603234,615.108200161639,4.352491671266879,-152442.6693492811,10.5,10499847557.33065,47.655,-122.3035,60.0,13.166666666666666
2026-01-20T23:13:11+00:00,SAT-61877,25.83565442079125,37.42260240410638,619.4490851884492,4.404843048000896,-154276.23600861037,10.5,10499845723.763992,47.655,-122.3035,60.0,13.183333333333334
2026-01-20T23:13:12+00:00,SAT-61877,25.852931381243305,36.87372837775808,623.8421819883221,4.456091434208088,-156071.17127404493,10.5,10499843928.828726,47.655,-122.3035,60.0,13.2
2026-01-20T23:13:13+00:00,SAT-61877,25.869103363438125,36.33218934141328,628.2863905120389,4.506255134523453,-157828.11625133097,10.5,10499842171.883749,47.655,-122.3035,60.0,13.216666666666667
2026-01-20T23:13:14+00:00,SAT-61877,25.884216355631676,35.79791378589395,632.7806289662036,4.555352654790137,-159547.71909337502,10.5,10499840452.280907,47.655,-122.3035,60.0,13.233333333333333
2026-01-20T23:13:15+00:00,SAT-61877,25.898313818282666,35.27082759569196,637.3238340139144,4.603402700843511,-161230.6349576575,10.5,10499838769.365042,47.655,-122.3035,60.0,13.25
2026-01-20T23:13:16+00:00,SAT-61877,25.91143685529033,34.75085430478258,641.9149609742223,4.650424058267909,-162877.52179480458,10.5,10499837122.478205,47.655,-122.3035,60.0,13.266666666666667
2026-01-20T23:13:17+00:00,SAT-61877,25.923624371345042,34.237915348695196,646.5529839016682,4.696435635253259,-164489.04184960923,10.5,10499835510.95815,47.655,-122.3035,60.0,13.283333333333333
2026-01-20T23:13:18+00:00,SAT-61877,25.934913217021805,33.73193029474142,651.2368957085607,4.741456411824205,-166065.85988281984,10.5,10499833934.140118,47.655,-122.3035,60.0,13.3
2026-01-20T23:13:19+00:00,SAT-61877,25.945338322439277,33.23281706214123,655.9657082366201,4.785505308804898,-167608.6385817332,10.5,10499832391.361418,47.655,-122.3035,60.0,13.316666666666666
2026-01-20T23:13:20+00:00,SAT-61877,25.954932820627466,32.74049214002775,660.7384521979349,4.82860127035605,-169118.04145099115,10.5,10499830881.95855,47.655,-122.3035,60.0,13.333333333333334
2026-01-20T23:13:21+00:00,SAT-61877,25.963728161555157,32.25487078181361,665.5541771982366,4.870763159973352,-170594.72917000533,10.5,10499829405.27083,47.655,-122.3035,60.0,13.35
2026-01-20T23:13:22+00:00,SAT-61877,25.9717542175552,31.77586719586782,670.41195165645,4.912009806003764,-172039.36118713004,10.5,10499827960.638813,47.655,-122.3035,60.0,13.366666666666667
2026-01-20T23:13:23+00:00,SAT-61877,25.97903938093767,31.303394718121098,675.3108627696379,4.952359851522468,-173452.5904617184,10.5,10499826547.409538,47.655,-122.3035,60.0,13.383333333333333
2026-01-20T23:13:24+00:00,SAT-61877,25.98561065443687,30.83736598592032,680.2500163282228,4.991831849280154,-174835.06678957757,10.5,10499825164.93321,47.655,-122.3035,60.0,13.4
2026-01-20T23:13:25+00:00,SAT-61877,25.991493735139077,30.377693090190956,685.228536625905,5.0304441997931955,-176187.43463462498,10.5,10499823812.565365,47.655,-122.3035,60.0,13.416666666666666
