satellites_20260121_005943/SAT-55665.csv

timestamp,satellite,azimuth_deg,elevation_deg,distance_km,relative_velocity_kms,doppler_shift_hz,tx_freq_ghz,rx_freq_hz,ue_lat,ue_lon,ue_alt_m,time_minutes
2026-01-20T23:00:00+00:00,SAT-55665,294.55513431379205,45.789577982321916,2425.440624087978,3.90613707532965,-136809.4433214905,10.5,10499863190.556679,47.655,-122.3035,60.0,0.0
2026-01-20T23:00:01+00:00,SAT-55665,294.7499480332578,45.73668074534861,2429.3363447977736,3.918520317487777,-137243.1568429305,10.5,10499862756.843157,47.655,-122.3035,60.0,0.016666666666666666
2026-01-20T23:00:02+00:00,SAT-55665,294.9437458291296,45.68344764643195,2433.244415727748,3.930839315852819,-137674.6202749857,10.5,10499862325.379725,47.655,-122.3035,60.0,0.03333333333333333
2026-01-20T23:00:03+00:00,SAT-55665,295.1365297780543,45.62988375169461,2437.1647728054254,3.94309431243598,-138103.84209391216,10.5,10499861896.157906,47.655,-122.3035,60.0,0.05
2026-01-20T23:00:04+00:00,SAT-55665,295.32830204338785,45.57599408623882,2441.097352199695,3.9552854849601875,-138530.82852431855,10.5,10499861469.171476,47.655,-122.3035,60.0,0.06666666666666667
2026-01-20T23:00:05+00:00,SAT-55665,295.5190648697064,45.521783634843196,2445.0420902566952,3.967413072173368,-138955.58792816717,10.5,10499861044.412071,47.655,-122.3035,60.0,0.08333333333333333
2026-01-20T23:00:06+00:00,SAT-55665,295.70882058367226,45.467257340960394,2448.9989235606763,3.9794772478053657,-139378.12639021204,10.5,10499860621.87361,47.655,-122.3035,60.0,0.1
2026-01-20T23:00:07+00:00,SAT-55665,295.89757158861244,45.41242010746332,2452.9677888691535,3.9914782536574913,-139798.4523793579,10.5,10499860201.54762,47.655,-122.3035,60.0,0.11666666666666667
2026-01-20T23:00:08+00:00,SAT-55665,296.08532036575207,45.35727679557248,2456.9486231808014,4.00341629970684,-140216.57324989082,10.5,10499859783.42675,47.655,-122.3035,60.0,0.13333333333333333
2026-01-20T23:00:09+00:00,SAT-55665,296.2720694705111,45.30183222517579,2460.941363703709,4.015291590342631,-140632.49616038584,10.5,10499859367.50384,47.655,-122.3035,60.0,0.15
2026-01-20T23:00:10+00:00,SAT-55665,296.4578215301111,45.24609117480504,2464.945947849811,4.027104331187535,-141046.2283126186,10.5,10499858953.771687,47.655,-122.3035,60.0,0.16666666666666666
2026-01-20T23:00:11+00:00,SAT-55665,296.64257924161245,45.19005838153167,2468.9623132361153,4.038854766334425,-141457.77825575406,10.5,10499858542.221745,47.655,-122.3035,60.0,0.18333333333333332
2026-01-20T23:00:12+00:00,SAT-55665,296.82634537168803,45.13373854035391,2472.990397723073,4.050543100576553,-141867.15316251817,10.5,10499858132.846838,47.655,-122.3035,60.0,0.2
2026-01-20T23:00:13+00:00,SAT-55665,297.00912275271935,45.07713630468559,2477.030139375381,4.062169546426523,-142274.3604760013,10.5,10499857725.639524,47.655,-122.3035,60.0,0.21666666666666667
2026-01-20T23:00:14+00:00,SAT-55665,297.19091428118014,45.02025628620308,2481.081476469684,4.073734334687771,-142679.40827991607,10.5,10499857320.59172,47.655,-122.3035,60.0,0.23333333333333334
2026-01-20T23:00:15+00:00,SAT-55665,297.3717229165473,44.96310305455337,2485.144347512812,4.08523768350245,-143082.30421452338,10.5,10499856917.695786,47.655,-122.3035,60.0,0.25
2026-01-20T23:00:16+00:00,SAT-55665,297.5515516787396,44.90568113751294,2489.218691229159,4.09667981213893,-143483.05595952907,10.5,10499856516.94404,47.655,-122.3035,60.0,0.26666666666666666
2026-01-20T23:00:17+00:00,SAT-55665,297.7304036463014,44.84799502096225,2493.304446561799,4.108060957972436,-143881.67182881758,10.5,10499856118.32817,47.655,-122.3035,60.0,0.2833333333333333
2026-01-20T23:00:18+00:00,SAT-55665,297.90828195530787,44.790049148634985,2497.40155269055,4.119381321434172,-144278.15884233755,10.5,10499855721.841158,47.655,-122.3035,60.0,0.3
2026-01-20T23:00:19+00:00,SAT-55665,298.0851897958707,44.73184792265624,2501.5099489951267,4.130641155723289,-144672.52586819427,10.5,10499855327.474133,47.655,-122.3035,60.0,0.31666666666666665
2026-01-20T23:00:20+00:00,SAT-55665,298.2611304126694,44.673395702822205,2505.6295751077687,4.141840662967434,-145064.77998575286,10.5,10499854935.220015,47.655,-122.3035,60.0,0.3333333333333333
2026-01-20T23:00:21+00:00,SAT-55665,298.4361071008884,44.61469680736306,2509.7603708623014,4.1529800876579195,-145454.9297581334,10.5,10499854545.070242,47.655,-122.3035,60.0,0.35
2026-01-20T23:00:22+00:00,SAT-55665,298.6101232063111,44.55575551239133,2513.902276336392,4.1640596475064395,-145842.98281052025,10.5,10499854157.017189,47.655,-122.3035,60.0,0.36666666666666664
2026-01-20T23:00:23+00:00,SAT-55665,298.7831821224241,44.49657605234109,2518.0552318248388,4.175079567642155,-146228.94702788896,10.5,10499853771.052973,47.655,-122.3035,60.0,0.38333333333333336
2026-01-20T23:00:24+00:00,SAT-55665,298.95528728902065,44.437162619934206,2522.219177846967,4.186040098766318,-146612.83119085783,10.5,10499853387.16881,47.655,-122.3035,60.0,0.4
2026-01-20T23:00:25+00:00,SAT-55665,299.1264421916325,44.37751936589321,2526.3940551721366,4.196941446331855,-146994.6424952574,10.5,10499853005.357504,47.655,-122.3035,60.0,0.4166666666666667
2026-01-20T23:00:26+00:00,SAT-55665,299.296650357908,44.31765039967895,2530.5798047746116,4.207783855387088,-147374.3895237165,10.5,10499852625.610476,47.655,-122.3035,60.0,0.43333333333333335
2026-01-20T23:00:27+00:00,SAT-55665,299.46591535771825,44.2575597890218,2534.776367873051,4.218567553823355,-147752.08025795376,10.5,10499852247.919743,47.655,-122.3035,60.0,0.45
2026-01-20T23:00:28+00:00,SAT-55665,299.6342408007944,44.19725156027554,2538.9836859133975,4.229292777300128,-148127.7229517607,10.5,10499851872.277048,47.655,-122.3035,60.0,0.4666666666666667
2026-01-20T23:00:29+00:00,SAT-55665,299.8016303355138,44.136729698421526,2543.2017005766247,4.239959747699044,-148501.32537637075,10.5,10499851498.674623,47.655,-122.3035,60.0,0.48333333333333334
2026-01-20T23:00:30+00:00,SAT-55665,299.96808764677303,44.075998147392205,2547.4303537649967,4.250568705338425,-148872.89594874822,10.5,10499851127.104052,47.655,-122.3035,60.0,0.5
2026-01-20T23:00:31+00:00,SAT-55665,300.13361645525595,44.01506080993743,2551.6695876204544,4.261119898137024,-149242.44335205643,10.5,10499850757.556648,47.655,-122.3035,60.0,0.5166666666666667
2026-01-20T23:00:32+00:00,SAT-55665,300.29822051623074,43.953921547656975,2555.9193445321957,4.271613527855039,-149609.97465279102,10.5,10499850390.025347,47.655,-122.3035,60.0,0.5333333333333333
2026-01-20T23:00:33+00:00,SAT-55665,300.4619036162379,43.89258418181241,2560.1795670906436,4.282049857796051,-149975.4990729571,10.5,10499850024.500927,47.655,-122.3035,60.0,0.55
2026-01-20T23:00:34+00:00,SAT-55665,300.6246695741605,43.83105249259545,2564.450198148819,4.292429093782457,-150339.02382132574,10.5,10499849660.97618,47.655,-122.3035,60.0,0.5666666666666667
2026-01-20T23:00:35+00:00,SAT-55665,300.78652223749543,43.76933022012033,2568.731180765018,4.302751518430189,-150700.5587963023,10.5,10499849299.441204,47.655,-122.3035,60.0,0.5833333333333334
2026-01-20T23:00:36+00:00,SAT-55665,300.94746548405533,43.7074210634807,2573.022458279399,4.313017319934554,-151060.11058928244,10.5,10499848939.88941,47.655,-122.3035,60.0,0.6
2026-01-20T23:00:37+00:00,SAT-55665,301.1075032168644,43.645328682293325,2577.3239742198134,4.323226759724814,-151417.68835662486,10.5,10499848582.311644,47.655,-122.3035,60.0,0.6166666666666667
2026-01-20T23:00:38+00:00,SAT-55665,301.26663936574454,43.583056695818165,2581.635672374846,4.333380055591436,-151773.29972627293,10.5,10499848226.700274,47.655,-122.3035,60.0,0.6333333333333333
2026-01-20T23:00:39+00:00,SAT-55665,301.4248778843127,43.52060868377822,2585.957496750289,4.343477473302868,-152126.95400656183,10.5,10499847873.045994,47.655,-122.3035,60.0,0.65
2026-01-20T23:00:40+00:00,SAT-55665,301.5822227505675,43.457988185857026,2590.2893916169965,4.353519212629627,-152478.65819430017,10.5,10499847521.341806,47.655,-122.3035,60.0,0.6666666666666666
2026-01-20T23:00:41+00:00,SAT-55665,301.7386779631125,43.39519870285525,2594.631301445059,4.363505536285758,-152828.42149084504,10.5,10499847171.578508,47.655,-122.3035,60.0,0.6833333333333333
2026-01-20T23:00:42+00:00,SAT-55665,301.89424754237325,43.33224369597921,2598.9831709665814,4.373436677352027,-153176.25205967083,10.5,10499846823.74794,47.655,-122.3035,60.0,0.7
2026-01-20T23:00:43+00:00,SAT-55665,302.04893552823756,43.26912658748236,2603.344945146127,4.383312861891195,-153522.15781845167,10.5,10499846477.842182,47.655,-122.3035,60.0,0.7166666666666667
2026-01-20T23:00:44+00:00,SAT-55665,302.2027459786778,43.20585076097891,2607.7165691737196,4.393134338083744,-153866.14745951784,10.5,10499846133.852541,47.655,-122.3035,60.0,0.7333333333333333
2026-01-20T23:00:45+00:00,SAT-55665,302.3556829694109,43.14241956134185,2612.0979884869025,4.402901335873711,-154208.2290364822,10.5,10499845791.770964,47.655,-122.3035,60.0,0.75
2026-01-20T23:00:46+00:00,SAT-55665,302.5077505921316,43.078836295189,2616.489148752547,4.412614107402644,-154548.41138040824,10.5,10499845451.58862,47.655,-122.3035,60.0,0.7666666666666667
2026-01-20T23:00:47+00:00,SAT-55665,302.658952954216,43.01510423078832,2620.8899958889965,4.422272867636322,-154886.70202030693,10.5,10499845113.29798,47.655,-122.3035,60.0,0.7833333333333333
2026-01-20T23:00:48+00:00,SAT-55665,302.80929417633536,42.95122659882767,2625.300476028986,4.4318778726433115,-155223.1099247826,10.5,10499844776.890076,47.655,-122.3035,60.0,0.8
2026-01-20T23:00:49+00:00,SAT-55665,302.9587783928808,42.887206592051804,2629.720535560635,4.441429340937782,-155557.64274712582,10.5,10499844442.357252,47.655,-122.3035,60.0,0.8166666666666667
2026-01-20T23:00:50+00:00,SAT-55665,303.1074097496295,42.82304736604608,2634.1501210899974,4.450927539853496,-155890.3098504957,10.5,10499844109.69015,47.655,-122.3035,60.0,0.8333333333333334
2026-01-20T23:00:51+00:00,SAT-55665,303.2551924044492,42.758752038768364,2638.5891794897443,4.4603726690024095,-156221.1182261473,10.5,10499843778.881773,47.655,-122.3035,60.0,0.85
2026-01-20T23:00:52+00:00,SAT-55665,303.40213052399224,42.69432369177607,2643.0376578316295,4.469764991808548,-156550.07710030436,10.5,10499843449.9229,47.655,-122.3035,60.0,0.8666666666666667
2026-01-20T23:00:53+00:00,SAT-55665,303.5482282849479,42.62976536954749,2647.4955034501268,4.479104730202844,-156877.19424592686,10.5,10499843122.805754,47.655,-122.3035,60.0,0.8833333333333333
2026-01-20T23:00:54+00:00,SAT-55665,303.6934898717114,42.56508008033271,2651.962663901049,4.488392151388959,-157202.47902161724,10.5,10499842797.520979,47.655,-122.3035,60.0,0.9
2026-01-20T23:00:55+00:00,SAT-55665,303.83791947700104,42.50027079575052,2656.439087006701,4.497627446586612,-157525.938124699,10.5,10499842474.061874,47.655,-122.3035,60.0,0.9166666666666666
2026-01-20T23:00:56+00:00,SAT-55665,303.9815212984288,42.43534045214521,2660.9247207800963,4.506810886386236,-157847.58103239367,10.5,10499842152.418968,47.655,-122.3035,60.0,0.9333333333333333
2026-01-20T23:00:57+00:00,SAT-55665,304.12429954031245,42.37029194969241,2665.419513504119,4.515942688302337,-158167.41536297934,10.5,10499841832.584637,47.655,-122.3035,60.0,0.95
2026-01-20T23:00:58+00:00,SAT-55665,304.2662584110805,42.3051281534273,2669.923413678586,4.525023099658032,-158485.44977875773,10.5,10499841514.55022,47.655,-122.3035,60.0,0.9666666666666667
2026-01-20T23:00:59+00:00,SAT-55665,304.4074021234217,42.239851893075276,2674.436370049978,4.534052352789544,-158801.69241712615,10.5,10499841198.307583,47.655,-122.3035,60.0,0.9833333333333333
2026-01-20T23:01:00+00:00,SAT-55665,304.5477348930332,42.17446596353038,2678.9583315964937,4.543030686903214,-159116.1516561025,10.5,10499840883.848345,47.655,-122.3035,60.0,1.0
2026-01-20T23:01:01+00:00,SAT-55665,304.6872609380357,42.108973125022615,2683.4892475348984,4.551958326110238,-159428.8353450089,10.5,10499840571.164656,47.655,-122.3035,60.0,1.0166666666666666
2026-01-20T23:01:02+00:00,SAT-55665,304.82598447777747,42.04337610360043,2688.0290673054724,4.560835520646339,-159739.75224815882,10.5,10499840260.247751,47.655,-122.3035,60.0,1.0333333333333334
2026-01-20T23:01:03+00:00,SAT-55665,304.9639097329098,41.977677591021745,2692.577740598064,4.569662486070902,-160048.90991535372,10.5,10499839951.090084,47.655,-122.3035,60.0,1.05
2026-01-20T23:01:04+00:00,SAT-55665,305.1010409235904,41.91188024552395,2697.135217317505,4.578439479988327,-160356.3173689894,10.5,10499839643.68263,47.655,-122.3035,60.0,1.0666666666666667
2026-01-20T23:01:05+00:00,SAT-55665,305.23738227011114,41.8459866914857,2701.7014476255467,4.5871667249084105,-160661.98240230014,10.5,10499839338.017597,47.655,-122.3035,60.0,1.0833333333333333
2026-01-20T23:01:06+00:00,SAT-55665,305.3729379911266,41.779999520205244,2706.2763819058555,4.595844446621507,-160965.9129234193,10.5,10499839034.087076,47.655,-122.3035,60.0,1.1
2026-01-20T23:01:07+00:00,SAT-55665,305.50771230309493,41.713921290125626,2710.859970767286,4.604472894309296,-161268.11765974315,10.5,10499838731.88234,47.655,-122.3035,60.0,1.1166666666666667
2026-01-20T23:01:08+00:00,SAT-55665,305.6417094203898,41.64775452676683,2715.4521650672104,4.613052281138963,-161568.60407728842,10.5,10499838431.395924,47.655,-122.3035,60.0,1.1333333333333333
2026-01-20T23:01:09+00:00,SAT-55665,305.77493355354693,41.58150172352189,2720.0529158756,4.621582867160978,-161867.38128412244,10.5,10499838132.618715,47.655,-122.3035,60.0,1.15
2026-01-20T23:01:10+00:00,SAT-55665,305.90738891011637,41.51516534125183,2724.6621745217817,4.630064853043882,-162164.45630850646,10.5,10499837835.543692,47.655,-122.3035,60.0,1.1666666666666667
2026-01-20T23:01:11+00:00,SAT-55665,306.0390796922624,41.448747809417334,2729.279892535217,4.63849850193574,-162459.8383669988,10.5,10499837540.161633,47.655,-122.3035,60.0,1.1833333333333333
2026-01-20T23:01:12+00:00,SAT-55665,306.17001009809456,41.38225152545139,2733.9060217078145,4.646884021368094,-162753.53472823187,10.5,10499837246.465271,47.655,-122.3035,60.0,1.2
2026-01-20T23:01:13+00:00,SAT-55665,306.30018431944035,41.31567885583659,2738.540514038459,4.655221646104935,-163045.55361463368,10.5,10499836954.446384,47.655,-122.3035,60.0,1.2166666666666666
2026-01-20T23:01:14+00:00,SAT-55665,306.4296065421413,41.249032135985125,2743.1833217601743,4.663511610189596,-163335.90322339186,10.5,10499836664.096777,47.655,-122.3035,60.0,1.2333333333333334
2026-01-20T23:01:15+00:00,SAT-55665,306.55828094550003,41.18231367052656,2747.8343973394035,4.671754151420142,-163624.5918832004,10.5,10499836375.408117,47.655,-122.3035,60.0,1.25
2026-01-20T23:01:16+00:00,SAT-55665,306.6862117018972,41.11552573352554,2752.493693479753,4.679949494963339,-163911.62748035198,10.5,10499836088.37252,47.655,-122.3035,60.0,1.2666666666666666
2026-01-20T23:01:17+00:00,SAT-55665,306.81340297591737,41.04867056894094,2757.1611631093965,4.688097849777305,-164197.01733344377,10.5,10499835802.982666,47.655,-122.3035,60.0,1.2833333333333334
2026-01-20T23:01:18+00:00,SAT-55665,306.9398589234556,40.98175039112895,2761.8367593649077,4.696199467748969,-164480.77026462147,10.5,10499835519.229736,47.655,-122.3035,60.0,1.3
2026-01-20T23:01:19+00:00,SAT-55665,307.06558369245414,40.914767384503065,2766.520435634076,4.704254564631346,-164762.8938304683,10.5,10499835237.106169,47.655,-122.3035,60.0,1.3166666666666667
2026-01-20T23:01:20+00:00,SAT-55665,307.19058142145843,40.847723704324665,2771.2121455198685,4.712263391457047,-165043.39682320826,10.5,10499834956.603176,47.655,-122.3035,60.0,1.3333333333333333
2026-01-20T23:01:21+00:00,SAT-55665,307.3148562401591,40.780621476470515,2775.9118428756146,4.720226122684198,-165322.2853531028,10.5,10499834677.714647,47.655,-122.3035,60.0,1.35
2026-01-20T23:01:22+00:00,SAT-55665,307.43841226687164,40.71346279880089,2780.6194817286387,4.728143036166204,-165599.5691517534,10.5,10499834400.43085,47.655,-122.3035,60.0,1.3666666666666667
2026-01-20T23:01:23+00:00,SAT-55665,307.5612536109885,40.64624973995152,2785.335016383375,4.736014329254963,-165875.25513125854,10.5,10499834124.74487,47.655,-122.3035,60.0,1.3833333333333333
2026-01-20T23:01:24+00:00,SAT-55665,307.6833843703861,40.578984340755845,2790.0584013410853,4.743840250661541,-166149.35200253164,10.5,10499833850.647997,47.655,-122.3035,60.0,1.4
2026-01-20T23:01:25+00:00,SAT-55665,307.8048086324357,40.511668613781175,2794.7895913510783,4.751620988266657,-166421.86634595023,10.5,10499833578.133654,47.655,-122.3035,60.0,1.4166666666666667
2026-01-20T23:01:26+00:00,SAT-55665,307.92553047203097,40.444304544465346,2799.528541350043,4.759356797754149,-166692.8071166439,10.5,10499833307.192883,47.655,-122.3035,60.0,1.4333333333333333
2026-01-20T23:01:27+00:00,SAT-55665,308.0455539530394,40.37689409041799,2804.27520652967,4.767047877601626,-166962.18126613804,10.5,10499833037.818733,47.655,-122.3035,60.0,1.45
2026-01-20T23:01:28+00:00,SAT-55665,308.1648831264639,40.309439182503056,2809.029542279598,4.774694474240787,-167229.9974255132,10.5,10499832770.002575,47.655,-122.3035,60.0,1.4666666666666666
2026-01-20T23:01:29+00:00,SAT-55665,308.28352203136797,40.24194172442224,2813.7915042352406,4.78229679711205,-167496.26293025864,10.5,10499832503.73707,47.655,-122.3035,60.0,1.4833333333333334
2026-01-20T23:01:30+00:00,SAT-55665,308.40147469361295,40.17440359350619,2818.561048240894,4.789855058750378,-167760.98522424794,10.5,10499832239.014776,47.655,-122.3035,60.0,1.5
2026-01-20T23:01:31+00:00,SAT-55665,308.51874512563114,40.10682664093381,2823.338130352821,4.797369495667531,-168024.17259112326,10.5,10499831975.82741,47.655,-122.3035,60.0,1.5166666666666666
2026-01-20T23:01:32+00:00,SAT-55665,308.63533732677234,40.0392126916552,2828.122706863167,4.804840306865089,-168285.8320007618,10.5,10499831714.168,47.655,-122.3035,60.0,1.5333333333333334
2026-01-20T23:01:33+00:00,SAT-55665,308.75125528205206,39.9715635451838,2832.9147342625465,4.812267735644121,-168545.97197459606,10.5,10499831454.028025,47.655,-122.3035,60.0,1.55
2026-01-20T23:01:34+00:00,SAT-55665,308.86650296303304,39.90388097523053,2837.7141692842292,4.819651983600161,-168804.59957335447,10.5,10499831195.400427,47.655,-122.3035,60.0,1.5666666666666667
2026-01-20T23:01:35+00:00,SAT-55665,308.98108432649263,39.83616673055178,2842.5209688625396,4.826993280523252,-169061.72284525633,10.5,10499830938.277155,47.655,-122.3035,60.0,1.5833333333333333
2026-01-20T23:01:36+00:00,SAT-55665,309.0950033149127,39.76842253480894,2847.3350901609815,4.834291818270423,-169317.3485099463,10.5,10499830682.65149,47.655,-122.3035,60.0,1.6
2026-01-20T23:01:37+00:00,SAT-55665,309.2082638552847,39.70065008735862,2852.1564905344035,4.841547833289904,-169571.48484884165,10.5,10499830428.515152,47.655,-122.3035,60.0,1.6166666666666667
2026-01-20T23:01:38+00:00,SAT-55665,309.3208698600122,39.63285106287889,2856.985127573471,4.84876154894886,-169824.13968520527,10.5,10499830175.860315,47.655,-122.3035,60.0,1.6333333333333333
2026-01-20T23:01:39+00:00,SAT-55665,309.43282522634854,39.56502711180777,2861.8209590916226,4.8559331592454456,-170075.31981367315,10.5,10499829924.680187,47.655,-122.3035,60.0,1.65
2026-01-20T23:01:40+00:00,SAT-55665,309.54413383549314,39.497179861006316,2866.6639430957766,4.863062885879356,-170325.03299910648,10.5,10499829674.967001,47.655,-122.3035,60.0,1.6666666666666667
2026-01-20T23:01:41+00:00,SAT-55665,309.6547995530657,39.42931091362047,2871.5140378139604,4.870150933611826,-170573.28641310974,10.5,10499829426.713587,47.655,-122.3035,60.0,1.6833333333333333
2026-01-20T23:01:42+00:00,SAT-55665,309.7648262285248,39.36142184956537,2876.371201678416,4.877197539354077,-170820.0883533161,10.5,10499829179.911646,47.655,-122.3035,60.0,1.7
2026-01-20T23:01:43+00:00,SAT-55665,309.8742176957339,39.29351422532393,2881.235393357665,4.884202885564119,-171065.44521017687,10.5,10499828934.55479,47.655,-122.3035,60.0,1.7166666666666666
2026-01-20T23:01:44+00:00,SAT-55665,309.98297777152834,39.225589574952636,2886.106571702201,4.8911672035246365,-171309.36508418998,10.5,10499828690.634916,47.655,-122.3035,60.0,1.7333333333333334
2026-01-20T23:01:45+00:00,SAT-55665,310.0911102566852,39.157649409642595,2890.984695793183,4.898090678296746,-171551.85445697847,10.5,10499828448.145542,47.655,-122.3035,60.0,1.75
2026-01-20T23:01:46+00:00,SAT-55665,310.19861893471847,39.0896952186061,2895.8697248963376,4.9049735645402235,-171792.922247805,10.5,10499828207.077753,47.655,-122.3035,60.0,1.7666666666666666
2026-01-20T23:01:47+00:00,SAT-55665,310.30550757331423,39.02172846834829,2900.7616185313723,4.9118160122759535,-172032.5737110355,10.5,10499827967.426289,47.655,-122.3035,60.0,1.7833333333333334
2026-01-20T23:01:48+00:00,SAT-55665,310.41177992181923,38.95375060436012,2905.6603363676154,4.918618279018893,-172270.81786593303,10.5,10499827729.182135,47.655,-122.3035,60.0,1.8
2026-01-20T23:01:49+00:00,SAT-55665,310.51743971355194,38.88576304986146,2910.565838331224,4.925380538040983,-172507.66078121393,10.5,10499827492.339218,47.655,-122.3035,60.0,1.8166666666666667
2026-01-20T23:01:50+00:00,SAT-55665,310.6224906637811,38.81776720720521,2915.478084521163,4.932103020192413,-172743.1105422283,10.5,10499827256.889458,47.655,-122.3035,60.0,1.8333333333333333
2026-01-20T23:01:51+00:00,SAT-55665,310.7269364708943,38.74976445731257,2920.397035266635,4.938785897274843,-172977.173166197,10.5,10499827022.826834,47.655,-122.3035,60.0,1.85
2026-01-20T23:01:52+00:00,SAT-55665,310.8307808149999,38.68175616072007,2925.322651068184,4.945429415267147,-173209.85726834074,10.5,10499826790.14273,47.655,-122.3035,60.0,1.8666666666666667
2026-01-20T23:01:53+00:00,SAT-55665,310.934027359445,38.61374365678486,2930.254892671677,4.9520337399135155,-173441.16865372212,10.5,10499826558.831347,47.655,-122.3035,60.0,1.8833333333333333
2026-01-20T23:01:54+00:00,SAT-55665,311.036679748978,38.545728265019896,2935.1937209882844,4.958599107414168,-173671.11559507195,10.5,10499826328.884405,47.655,-122.3035,60.0,1.9
2026-01-20T23:01:55+00:00,SAT-55665,311.1387416111834,38.47771128434769,2940.1390971647456,4.965125694398341,-173899.7042786933,10.5,10499826100.295721,47.655,-122.3035,60.0,1.9166666666666667
2026-01-20T23:01:56+00:00,SAT-55665,311.24021655512644,38.40969399414498,2945.0909825239587,4.971613705874778,-174126.94188485947,10.5,10499825873.058115,47.655,-122.3035,60.0,1.9333333333333333
2026-01-20T23:01:57+00:00,SAT-55665,311.341108171884,38.34167765407369,2950.049338593284,4.978063354894287,-174352.83587551097,10.5,10499825647.164125,47.655,-122.3035,60.0,1.95
2026-01-20T23:01:58+00:00,SAT-55665,311.4414200346526,38.27366350419043,2955.0141271125653,4.984474819391215,-174577.3924826613,10.5,10499825422.607517,47.655,-122.3035,60.0,1.9666666666666666
2026-01-20T23:01:59+00:00,SAT-55665,311.54115569793794,38.20565276564723,2959.985309999105,4.990848327591305,-174800.61969974142,10.5,10499825199.3803,47.655,-122.3035,60.0,1.9833333333333334
2026-01-20T23:02:00+00:00,SAT-55665,311.64031869856717,38.13764664021806,2964.9628493978225,4.997184043114895,-175022.52325742765,10.5,10499824977.476742,47.655,-122.3035,60.0,2.0
2026-01-20T23:02:01+00:00,SAT-55665,311.7389125542698,38.06964631139778,2969.946707616823,5.003482196880785,-175243.11124347313,10.5,10499824756.888756,47.655,-122.3035,60.0,2.0166666666666666
2026-01-20T23:02:02+00:00,SAT-55665,311.8369407650567,38.00165294369407,2974.9368471945118,5.009742959153271,-175462.38962125374,10.5,10499824537.610378,47.655,-122.3035,60.0,2.033333333333333
2026-01-20T23:02:03+00:00,SAT-55665,311.93440681189924,37.933667683667466,2979.933230839107,5.015966529363379,-175680.3653756876,10.5,10499824319.634624,47.655,-122.3035,60.0,2.05
2026-01-20T23:02:04+00:00,SAT-55665,312.0313141573252,37.86569165973987,2984.935821457726,5.022153105984143,-175897.0454581399,10.5,10499824102.954542,47.655,-122.3035,60.0,2.066666666666667
2026-01-20T23:02:05+00:00,SAT-55665,312.1276662453457,37.79772598241609,2989.9445821554273,5.028302895316196,-176112.4370941315,10.5,10499823887.562906,47.655,-122.3035,60.0,2.0833333333333335
2026-01-20T23:02:06+00:00,SAT-55665,312.2234665016022,37.72977174438236,2994.959476243023,5.034416064091708,-176326.5461233282,10.5,10499823673.453876,47.655,-122.3035,60.0,2.1
2026-01-20T23:02:07+00:00,SAT-55665,312.31871833254024,37.661830021245564,2999.98046719761,5.040492825566298,-176539.38001484392,10.5,10499823460.619986,47.655,-122.3035,60.0,2.1166666666666667
2026-01-20T23:02:08+00:00,SAT-55665,312.4134251263385,37.59390187110371,3005.007518708975,5.046533357575214,-176750.94499722117,10.5,10499823249.055002,47.655,-122.3035,60.0,2.1333333333333333
2026-01-20T23:02:09+00:00,SAT-55665,312.5075902521762,37.52598833522491,3010.0405946442634,5.052537850185022,-176961.2477273952,10.5,10499823038.752272,47.655,-122.3035,60.0,2.15
2026-01-20T23:02:10+00:00,SAT-55665,312.60121706049244,37.458090438077875,3015.0796590601813,5.05850649667831,-177170.2949749398,10.5,10499822829.705025,47.655,-122.3035,60.0,2.1666666666666665
2026-01-20T23:02:11+00:00,SAT-55665,312.6943088830236,37.39020918748476,3020.124676206202,5.064439498402093,-177378.0937918791,10.5,10499822621.906208,47.655,-122.3035,60.0,2.183333333333333
2026-01-20T23:02:12+00:00,SAT-55665,312.78686903297864,37.32234557470603,3025.175610532608,5.070337016722246,-177584.64982992862,10.5,10499822415.35017,47.655,-122.3035,60.0,2.2
2026-01-20T23:02:13+00:00,SAT-55665,312.87890080425433,37.25450057516923,3030.2324266506193,5.076199259878769,-177789.97038253403,10.5,10499822210.029617,47.655,-122.3035,60.0,2.216666666666667
2026-01-20T23:02:14+00:00,SAT-55665,312.9704074723665,37.1866751480288,3035.295089379138,5.082026400445309,-177994.06149395442,10.5,10499822005.938505,47.655,-122.3035,60.0,2.2333333333333334
2026-01-20T23:02:15+00:00,SAT-55665,313.06139229376555,37.11887023683199,3040.363563709182,5.087818623284774,-178196.92963887082,10.5,10499821803.07036,47.655,-122.3035,60.0,2.25
2026-01-20T23:02:16+00:00,SAT-55665,313.15185850609714,37.051086769539495,3045.437814816138,5.093576125299289,-178398.58171362846,10.5,10499821601.418287,47.655,-122.3035,60.0,2.2666666666666666
2026-01-20T23:02:17+00:00,SAT-55665,313.24180932844183,36.983325658549155,3050.5178080717697,5.099299072342818,-178599.02352713488,10.5,10499821400.976473,47.655,-122.3035,60.0,2.283333333333333
2026-01-20T23:02:18+00:00,SAT-55665,313.33124796076726,36.91558780129144,3055.603509013253,5.10498765498202,-178798.26175384043,10.5,10499821201.738247,47.655,-122.3035,60.0,2.3
2026-01-20T23:02:19+00:00,SAT-55665,313.4201775844004,36.8478740800804,3060.694883367822,5.110642063560952,-178996.3030603992,10.5,10499821003.69694,47.655,-122.3035,60.0,2.316666666666667
2026-01-20T23:02:20+00:00,SAT-55665,313.50860136206956,36.780185362294986,3065.7918970525466,5.1162624740766285,-179193.1536109711,10.5,10499820806.84639,47.655,-122.3035,60.0,2.3333333333333335
2026-01-20T23:02:21+00:00,SAT-55665,313.5965224376518,36.71252250074626,3070.894516160026,5.1218490399265475,-179388.81877818538,10.5,10499820611.181221,47.655,-122.3035,60.0,2.35
2026-01-20T23:02:22+00:00,SAT-55665,313.68394393582656,36.64488633415025,3076.0027069358457,5.127401979094807,-179583.3061967672,10.5,10499820416.693804,47.655,-122.3035,60.0,2.3666666666666667
2026-01-20T23:02:23+00:00,SAT-55665,313.77086896326335,36.577277686445306,3081.1164358429965,5.132921452198165,-179776.62149219488,10.5,10499820223.378508,47.655,-122.3035,60.0,2.3833333333333333
2026-01-20T23:02:24+00:00,SAT-55665,313.8573006076344,36.509697367722886,3086.2356695046556,5.1384076272108805,-179968.77054763745,10.5,10499820031.229452,47.655,-122.3035,60.0,2.4
2026-01-20T23:02:25+00:00,SAT-55665,313.9432419377942,36.44214617429765,3091.360374711527,5.143860693582034,-180159.75999840314,10.5,10499819840.240002,47.655,-122.3035,60.0,2.4166666666666665
2026-01-20T23:02:26+00:00,SAT-55665,314.0286960042129,36.374624888591704,3096.4905184432596,5.149280826453815,-180349.59597871223,10.5,10499819650.404022,47.655,-122.3035,60.0,2.433333333333333
2026-01-20T23:02:27+00:00,SAT-55665,314.11366583875514,36.30713427948875,3101.626067854176,5.154668191580577,-180538.28429398334,10.5,10499819461.715706,47.655,-122.3035,60.0,2.45
2026-01-20T23:02:28+00:00,SAT-55665,314.19815445459045,36.23967510261987,3106.7669902639122,5.160022966677115,-180725.8311685403,10.5,10499819274.16883,47.655,-122.3035,60.0,2.466666666666667
2026-01-20T23:02:29+00:00,SAT-55665,314.2821648464352,36.17224810036921,3111.9132531693454,5.165345315970074,-180912.24235429495,10.5,10499819087.757647,47.655,-122.3035,60.0,2.4833333333333334
2026-01-20T23:02:30+00:00,SAT-55665,314.3656999903982,36.10485400220857,3117.0648242311395,5.170635432901114,-181097.52462639235,10.5,10499818902.475374,47.655,-122.3035,60.0,2.5
2026-01-20T23:02:31+00:00,SAT-55665,314.44876284451504,36.03749352447515,3122.221671302886,5.175893475423411,-181281.68351702104,10.5,10499818718.316483,47.655,-122.3035,60.0,2.5166666666666666
2026-01-20T23:02:32+00:00,SAT-55665,314.5313563482222,35.97016737099135,3127.3837623957083,5.18111960466347,-181464.72466951265,10.5,10499818535.27533,47.655,-122.3035,60.0,2.533333333333333
2026-01-20T23:02:33+00:00,SAT-55665,314.6134834224645,35.90287623317629,3132.551065681426,5.186314007681234,-181646.65463549772,10.5,10499818353.345364,47.655,-122.3035,60.0,2.55
2026-01-20T23:02:34+00:00,SAT-55665,314.69514697020014,35.83562078986209,3137.72354951842,5.191476834876209,-181827.47868260313,10.5,10499818172.521317,47.655,-122.3035,60.0,2.566666666666667
2026-01-20T23:02:35+00:00,SAT-55665,314.77634987585174,35.76840170792056,3142.90118241507,5.196608271907177,-182007.20331338476,10.5,10499817992.796686,47.655,-122.3035,60.0,2.5833333333333335
2026-01-20T23:02:36+00:00,SAT-55665,314.85709500596585,35.70121964195554,3148.0839330649187,5.201708471603445,-182185.8338805714,10.5,10499817814.166119,47.655,-122.3035,60.0,2.6
2026-01-20T23:02:37+00:00,SAT-55665,314.93738520872665,35.63407523487571,3153.271770313931,5.206777600194044,-182363.37620620683,10.5,10499817636.623795,47.655,-122.3035,60.0,2.6166666666666667
2026-01-20T23:02:38+00:00,SAT-55665,315.01722331426964,35.566969117866286,3158.4646631738583,5.211815822171417,-182539.83605151225,10.5,10499817460.163948,47.655,-122.3035,60.0,2.6333333333333333
2026-01-20T23:02:39+00:00,SAT-55665,315.0966121347057,35.499901910555636,3163.6625808205035,5.216823324354609,-182715.21995968086,10.5,10499817284.78004,47.655,-122.3035,60.0,2.65
2026-01-20T23:02:40+00:00,SAT-55665,315.17555446457,35.43287422087125,3168.8654926159934,5.221800251676716,-182889.53300688276,10.5,10499817110.466993,47.655,-122.3035,60.0,2.6666666666666665
2026-01-20T23:02:41+00:00,SAT-55665,315.25405308021,35.36588664571969,3174.073368066999,5.226746749190269,-183062.78027347111,10.5,10499816937.219727,47.655,-122.3035,60.0,2.683333333333333
2026-01-20T23:02:42+00:00,SAT-55665,315.3321107398814,35.29893977112255,3179.286176824858,5.231663009357583,-183234.9685002904,10.5,10499816765.0315,47.655,-122.3035,60.0,2.7
2026-01-20T23:02:43+00:00,SAT-55665,315.40973018457333,35.23203417174582,3184.5038887328574,5.236549170379373,-183406.1025277141,10.5,10499816593.897472,47.655,-122.3035,60.0,2.716666666666667
2026-01-20T23:02:44+00:00,SAT-55665,315.4869141372269,35.16517041173204,3189.7264737721157,5.241405405851311,-183576.18843579703,10.5,10499816423.811563,47.655,-122.3035,60.0,2.7333333333333334
2026-01-20T23:02:45+00:00,SAT-55665,315.56366530338505,35.098349044380875,3194.9539020968846,5.246231874556499,-183745.2317857951,10.5,10499816254.768213,47.655,-122.3035,60.0,2.75
2026-01-20T23:02:46+00:00,SAT-55665,315.6399863710228,35.03157061247178,3200.1861440197754,5.251028730294437,-183913.23796441732,10.5,10499816086.762035,47.655,-122.3035,60.0,2.7666666666666666
2026-01-20T23:02:47+00:00,SAT-55665,315.7158800105746,34.96483564845842,3205.4231700067894,5.255796112284307,-184080.21184770842,10.5,10499815919.788153,47.655,-122.3035,60.0,2.783333333333333
2026-01-20T23:02:48+00:00,SAT-55665,315.7913488747864,34.89814467478227,3210.6649506627746,5.260534208699053,-184246.16002628076,10.5,10499815753.839973,47.655,-122.3035,60.0,2.8
2026-01-20T23:02:49+00:00,SAT-55665,315.8663955995493,34.83149820337954,3215.9114567802503,5.265243165897836,-184411.08762625133,10.5,10499815588.912374,47.655,-122.3035,60.0,2.816666666666667
2026-01-20T23:02:50+00:00,SAT-55665,315.94102280334687,34.76489673633916,3221.1626592977054,5.2699231389130965,-184575.000077512,10.5,10499815424.999922,47.655,-122.3035,60.0,2.8333333333333335
2026-01-20T23:02:51+00:00,SAT-55665,316.01523308748017,34.69834076591667,3226.4185293082483,5.274574259050018,-184737.90197892569,10.5,10499815262.09802,47.655,-122.3035,60.0,2.85
2026-01-20T23:02:52+00:00,SAT-55665,316.08902903579377,34.63183077495726,3231.6790380359407,5.279196711147115,-184899.79980431896,10.5,10499815100.200195,47.655,-122.3035,60.0,2.8666666666666667
2026-01-20T23:02:53+00:00,SAT-55665,316.162413215576,34.56536723634162,3236.944156889191,5.283790624823806,-185060.69809351227,10.5,10499814939.301907,47.655,-122.3035,60.0,2.8833333333333333
2026-01-20T23:02:54+00:00,SAT-55665,316.2353881768122,34.49895061380275,3242.2138574056826,5.288356174330352,-185220.6029494868,10.5,10499814779.39705,47.655,-122.3035,60.0,2.9
2026-01-20T23:02:55+00:00,SAT-55665,316.3079564529485,34.43258136148346,3247.4881112968815,5.292893474008073,-185379.5183769592,10.5,10499814620.481623,47.655,-122.3035,60.0,2.9166666666666665
2026-01-20T23:02:56+00:00,SAT-55665,316.3801205600997,34.36625992480535,3252.766890388292,5.297402710049885,-185537.45089719296,10.5,10499814462.549103,47.655,-122.3035,60.0,2.933333333333333
2026-01-20T23:02:57+00:00,SAT-55665,316.45188299818744,34.29998673968364,3258.050166691115,5.301884026852205,-185694.40556756154,10.5,10499814305.594433,47.655,-122.3035,60.0,2.95
2026-01-20T23:02:58+00:00,SAT-55665,316.52324625042223,34.23376223316636,3263.3379123605623,5.306337550128277,-185850.38679107433,10.5,10499814149.613209,47.655,-122.3035,60.0,2.966666666666667
2026-01-20T23:02:59+00:00,SAT-55665,316.5942127831417,34.16758682378013,3268.630099677224,5.31076344977241,-186005.40051814882,10.5,10499813994.599482,47.655,-122.3035,60.0,2.9833333333333334
2026-01-20T23:03:00+00:00,SAT-55665,316.66478504651803,34.101460921089505,3273.92670109113,5.315161854505492,-186159.4512571349,10.5,10499813840.548742,47.655,-122.3035,60.0,3.0
2026-01-20T23:03:01+00:00,SAT-55665,316.734965474089,34.03538492632148,3279.2276891806905,5.319532928024093,-186312.54474137898,10.5,10499813687.45526,47.655,-122.3035,60.0,3.0166666666666666
2026-01-20T23:03:02+00:00,SAT-55665,316.8047564833228,33.96935923203791,3284.533036687573,5.323876801880391,-186464.68557839474,10.5,10499813535.31442,47.655,-122.3035,60.0,3.033333333333333
2026-01-20T23:03:03+00:00,SAT-55665,316.87416047528455,33.90338422264371,3289.842716484648,5.328193620134873,-186615.87881378978,10.5,10499813384.121185,47.655,-122.3035,60.0,3.05
2026-01-20T23:03:04+00:00,SAT-55665,316.9431798348877,33.83746027433611,3295.1567015884625,5.332483535374422,-186766.12979180226,10.5,10499813233.870209,47.655,-122.3035,60.0,3.066666666666667
2026-01-20T23:03:05+00:00,SAT-55665,317.0118169311238,33.77158775510501,3300.4749651677425,5.336746690003236,-186915.44350002953,10.5,10499813084.5565,47.655,-122.3035,60.0,3.0833333333333335
2026-01-20T23:03:06+00:00,SAT-55665,317.08007411700476,33.70576702496207,3305.7974805332396,5.340983212457597,-187063.82443685347,10.5,10499812936.175564,47.655,-122.3035,60.0,3.1
2026-01-20T23:03:07+00:00,SAT-55665,317.1479537294767,33.639998436215045,3311.124221123797,5.345193257223102,-187211.27801301316,10.5,10499812788.721987,47.655,-122.3035,60.0,3.1166666666666667
2026-01-20T23:03:08+00:00,SAT-55665,317.2154580898677,33.57428233324702,3316.4551605323345,5.349376960070153,-187357.80898376237,10.5,10499812642.191017,47.655,-122.3035,60.0,3.1333333333333333
2026-01-20T23:03:09+00:00,SAT-55665,317.2825895037372,33.508619052847195,3321.7902724871774,5.353534469463974,-187503.42254898133,10.5,10499812496.577452,47.655,-122.3035,60.0,3.15
2026-01-20T23:03:10+00:00,SAT-55665,317.34935026112805,33.44300892415278,3327.129530864723,5.357665892135292,-187648.1224468314,10.5,10499812351.877554,47.655,-122.3035,60.0,3.1666666666666665
2026-01-20T23:03:11+00:00,SAT-55665,317.4157426361338,33.37745226925663,3332.4729096478127,5.36177141165512,-187791.91510674614,10.5,10499812208.084894,47.655,-122.3035,60.0,3.183333333333333
2026-01-20T23:03:12+00:00,SAT-55665,317.4817688879862,33.31194940236332,3337.82038300237,5.365851133150748,-187934.80421072786,10.5,10499812065.19579,47.655,-122.3035,60.0,3.2
2026-01-20T23:03:13+00:00,SAT-55665,317.547431260141,33.246500630842625,3343.1719251991653,5.369905197416333,-188076.7946899835,10.5,10499811923.20531,47.655,-122.3035,60.0,3.216666666666667
2026-01-20T23:03:14+00:00,SAT-55665,317.61273198083256,33.18110625488576,3348.5275106493887,5.373933749433254,-188217.89162237418,10.5,10499811782.108377,47.655,-122.3035,60.0,3.2333333333333334
2026-01-20T23:03:15+00:00,SAT-55665,317.67767326322814,33.11576656754816,3353.8871139088237,5.377936919051151,-188358.0995557836,10.5,10499811641.900444,47.655,-122.3035,60.0,3.25
2026-01-20T23:03:16+00:00,SAT-55665,317.7422573053293,33.05048185502345,3359.2507096627573,5.381914849726236,-188497.42351465518,10.5,10499811502.576485,47.655,-122.3035,60.0,3.2666666666666666
2026-01-20T23:03:17+00:00,SAT-55665,317.8064862902484,32.98525239656823,3364.6182727395512,5.385867642372151,-188635.86703341146,10.5,10499811364.132967,47.655,-122.3035,60.0,3.283333333333333
2026-01-20T23:03:18+00:00,SAT-55665,317.87036238575655,32.920078465105426,3369.98977806821,5.389795466479171,-188773.43604831878,10.5,10499811226.563951,47.655,-122.3035,60.0,3.3
2026-01-20T23:03:19+00:00,SAT-55665,317.93388774526574,32.85496032648156,3375.3652007467786,5.393698449020923,-188910.13500653073,10.5,10499811089.864994,47.655,-122.3035,60.0,3.316666666666667
2026-01-20T23:03:20+00:00,SAT-55665,317.99706450736704,32.78989824006824,3380.7445159999356,5.397576702808984,-189045.96785918588,10.5,10499810954.03214,47.655,-122.3035,60.0,3.3333333333333335
2026-01-20T23:03:21+00:00,SAT-55665,318.0598947957757,32.72489245901659,3386.12769916487,5.40143036701527,-189180.93948067343,10.5,10499810819.06052,47.655,-122.3035,60.0,3.35
2026-01-20T23:03:22+00:00,SAT-55665,318.1223807197383,32.6599432300234,3391.5147257175736,5.405259566744176,-189315.05425267853,10.5,10499810684.945747,47.655,-122.3035,60.0,3.3666666666666667
2026-01-20T23:03:23+00:00,SAT-55665,318.1845243739747,32.595050793583056,3396.905571258806,5.409064439824395,-189448.317002545,10.5,10499810551.682997,47.655,-122.3035,60.0,3.3833333333333333
2026-01-20T23:03:24+00:00,SAT-55665,318.24632783891695,32.53021538391672,3402.300211526791,5.412845119097968,-189580.73238296297,10.5,10499810419.267616,47.655,-122.3035,60.0,3.4
2026-01-20T23:03:25+00:00,SAT-55665,318.3077931807494,32.465437229113384,3407.698622392238,5.416601708495838,-189712.30403403376,10.5,10499810287.695967,47.655,-122.3035,60.0,3.4166666666666665
2026-01-20T23:03:26+00:00,SAT-55665,318.36892245115797,32.40071655155374,3413.1007798295113,5.420334339337417,-189843.03655511868,10.5,10499810156.963446,47.655,-122.3035,60.0,3.433333333333333
2026-01-20T23:03:27+00:00,SAT-55665,318.4297176877657,32.33605356766123,3418.5066599439438,5.424043179100433,-189972.93581199614,10.5,10499810027.064188,47.655,-122.3035,60.0,3.45
2026-01-20T23:03:28+00:00,SAT-55665,318.4901809146407,32.2714484875504,3423.9162390079,5.42772829263576,-190102.0040760181,10.5,10499809897.995924,47.655,-122.3035,60.0,3.466666666666667
2026-01-20T23:03:29+00:00,SAT-55665,318.5503141411944,32.20690151632328,3429.329493358422,5.431389845974224,-190230.24716228637,10.5,10499809769.752838,47.655,-122.3035,60.0,3.4833333333333334
2026-01-20T23:03:30+00:00,SAT-55665,318.6101193634582,32.142412852941895,3434.7463994981404,5.43502793967981,-190357.6685929771,10.5,10499809642.331408,47.655,-122.3035,60.0,3.5
2026-01-20T23:03:31+00:00,SAT-55665,318.6695985634256,32.0779826910803,3440.166934029981,5.4386427103858805,-190484.2731535686,10.5,10499809515.726847,47.655,-122.3035,60.0,3.5166666666666666
2026-01-20T23:03:32+00:00,SAT-55665,318.7287537095585,32.013611218769384,3445.5910736931396,5.442234276122915,-190610.06497798755,10.5,10499809389.935022,47.655,-122.3035,60.0,3.533333333333333
2026-01-20T23:03:33+00:00,SAT-55665,318.7875867566694,31.949298618690644,3451.018795344526,5.445802757794875,-190735.0483008021,10.5,10499809264.951698,47.655,-122.3035,60.0,3.55
2026-01-20T23:03:34+00:00,SAT-55665,318.8460996460531,31.88504506821166,3456.4500759616335,5.449348281419934,-190859.22753570176,10.5,10499809140.772465,47.655,-122.3035,60.0,3.566666666666667
2026-01-20T23:03:35+00:00,SAT-55665,318.9042943056414,31.82085073939821,3461.884892647636,5.452870957269077,-190982.60654484277,10.5,10499809017.393456,47.655,-122.3035,60.0,3.5833333333333335
2026-01-20T23:03:36+00:00,SAT-55665,318.9621726499105,31.756715799267315,3467.3232226156856,5.456370900565886,-191105.18936384248,10.5,10499808894.810637,47.655,-122.3035,60.0,3.6
2026-01-20T23:03:37+00:00,SAT-55665,319.01973658004835,31.692640409797423,3472.76504319385,5.459848257437269,-191226.98111068335,10.5,10499808773.018888,47.655,-122.3035,60.0,3.6166666666666667
2026-01-20T23:03:38+00:00,SAT-55665,319.07698798437906,31.62862472763404,3478.210331855935,5.4633031184383345,-191347.98495698816,10.5,10499808652.015043,47.655,-122.3035,60.0,3.6333333333333333
2026-01-20T23:03:39+00:00,SAT-55665,319.1339287378494,31.564668904807746,3483.6590661660566,5.46673560513169,-191468.20516039382,10.5,10499808531.79484,47.655,-122.3035,60.0,3.65
2026-01-20T23:03:40+00:00,SAT-55665,319.1905607024561,31.500773088435256,3489.1112238095748,5.470145848427634,-191587.64630593263,10.5,10499808412.353695,47.655,-122.3035,60.0,3.6666666666666665
2026-01-20T23:03:41+00:00,SAT-55665,319.2468857274564,31.43693742067661,3494.5667826024064,5.4735339453376985,-191706.31179135878,10.5,10499808293.68821,47.655,-122.3035,60.0,3.683333333333333
2026-01-20T23:03:42+00:00,SAT-55665,319.3029056490767,31.37316203919343,3500.0257204572235,5.476900030054771,-191824.20631667488,10.5,10499808175.793684,47.655,-122.3035,60.0,3.7
2026-01-20T23:03:43+00:00,SAT-55665,319.3586222910175,31.309447076779723,3505.4880154205316,5.480244202889236,-191941.33339517494,10.5,10499808058.666605,47.655,-122.3035,60.0,3.716666666666667
2026-01-20T23:03:44+00:00,SAT-55665,319.4140374641758,31.245792661816655,3510.95364563888,5.4835665825480175,-192057.69718447747,10.5,10499807942.302816,47.655,-122.3035,60.0,3.7333333333333334
2026-01-20T23:03:45+00:00,SAT-55665,319.4691529669426,31.18219891812144,3516.4225893772077,5.486867272917336,-192173.30132311743,10.5,10499807826.698677,47.655,-122.3035,60.0,3.75
2026-01-20T23:03:46+00:00,SAT-55665,319.523970585123,31.118665965177993,3521.8948250040635,5.490146414724769,-192288.15073996983,10.5,10499807711.84926,47.655,-122.3035,60.0,3.7666666666666666
2026-01-20T23:03:47+00:00,SAT-55665,319.5784920924377,31.05519391777228,3527.370331028349,5.493404091617193,-192402.2483647021,10.5,10499807597.751635,47.655,-122.3035,60.0,3.783333333333333
2026-01-20T23:03:48+00:00,SAT-55665,319.63271924998753,30.9917828867085,3532.849086042389,5.496640419454483,-192515.5982552172,10.5,10499807484.401745,47.655,-122.3035,60.0,3.8
2026-01-20T23:03:49+00:00,SAT-55665,319.68665380670757,30.92843297849581,3538.331068754058,5.499855513509525,-192628.20444885912,10.5,10499807371.795551,47.655,-122.3035,60.0,3.816666666666667
2026-01-20T23:03:50+00:00,SAT-55665,319.74029749943566,30.865144295411852,3543.8162579861983,5.503049498202647,-192740.0713033541,10.5,10499807259.928698,47.655,-122.3035,60.0,3.8333333333333335
2026-01-20T23:03:51+00:00,SAT-55665,319.793652053099,30.801916935456383,3549.3046326857393,5.506222454165966,-192851.20164277998,10.5,10499807148.798357,47.655,-122.3035,60.0,3.85
2026-01-20T23:03:52+00:00,SAT-55665,319.84671918035343,30.738750992905803,3554.7961718800275,5.509374513768878,-192961.60010327285,10.5,10499807038.399897,47.655,-122.3035,60.0,3.8666666666666667
2026-01-20T23:03:53+00:00,SAT-55665,319.8995005822099,30.67564655777707,3560.290854728426,5.512505761226448,-193071.26963440055,10.5,10499806928.730366,47.655,-122.3035,60.0,3.8833333333333333
2026-01-20T23:03:54+00:00,SAT-55665,319.95199794761777,30.612603716431007,3565.7886604742894,5.515616341898678,-193180.21532728523,10.5,10499806819.784672,47.655,-122.3035,60.0,3.9
2026-01-20T23:03:55+00:00,SAT-55665,320.0042129541914,30.549622550929566,3571.289568505943,5.51870631498758,-193288.43925543182,10.5,10499806711.560745,47.655,-122.3035,60.0,3.9166666666666665
2026-01-20T23:03:56+00:00,SAT-55665,320.0561472674076,30.48670314006774,3576.793558270757,5.521775819823128,-193395.9462987653,10.5,10499806604.053701,47.655,-122.3035,60.0,3.933333333333333
2026-01-20T23:03:57+00:00,SAT-55665,320.10780254152155,30.423845558514692,3582.3006093550607,5.524824957121267,-193502.7399847841,10.5,10499806497.260015,47.655,-122.3035,60.0,3.95
2026-01-20T23:03:58+00:00,SAT-55665,320.15918041924334,30.361049877303863,3587.81070144563,5.527853822125939,-193608.823649334,10.5,10499806391.176352,47.655,-122.3035,60.0,3.966666666666667
2026-01-20T23:03:59+00:00,SAT-55665,320.21028253179145,30.298316163944364,3593.32381432423,5.530862518994754,-193714.200940455,10.5,10499806285.799059,47.655,-122.3035,60.0,3.9833333333333334
2026-01-20T23:04:00+00:00,SAT-55665,320.2611104990539,30.235644482369302,3598.8399278765073,5.533851160922989,-193818.8758227246,10.5,10499806181.124178,47.655,-122.3035,60.0,4.0
2026-01-20T23:04:01+00:00,SAT-55665,320.31166592976774,30.173034892883127,3604.3590221010013,5.536819855440294,-193922.85206228602,10.5,10499806077.147938,47.655,-122.3035,60.0,4.016666666666667
2026-01-20T23:04:02+00:00,SAT-55665,320.36195042154566,30.110487452273944,3609.8810771034937,5.539768676541942,-194026.1322507666,10.5,10499805973.86775,47.655,-122.3035,60.0,4.033333333333333
2026-01-20T23:04:03+00:00,SAT-55665,320.41196556064193,30.04800221423796,3615.406073063565,5.542697754222417,-194128.72094112315,10.5,10499805871.279058,47.655,-122.3035,60.0,4.05
