satellites_20260121_005943/SAT-65523.csv

timestamp,satellite,azimuth_deg,elevation_deg,distance_km,relative_velocity_kms,doppler_shift_hz,tx_freq_ghz,rx_freq_hz,ue_lat,ue_lon,ue_alt_m,time_minutes
2026-01-20T23:00:00+00:00,SAT-65523,294.4971883689972,32.348534954081906,4144.992443203228,-2.784461143632543,97523.6075089711,10.5,10500097523.60751,47.655,-122.3035,60.0,0.0
2026-01-20T23:00:01+00:00,SAT-65523,294.38107650426883,32.3753506652389,4142.215407289312,-2.7749665785359445,97191.06767731767,10.5,10500097191.067677,47.655,-122.3035,60.0,0.016666666666666666
2026-01-20T23:00:02+00:00,SAT-65523,294.26473004923105,32.40199400291471,4139.447840621651,-2.7654495763725944,96857.74200467793,10.5,10500096857.742004,47.655,-122.3035,60.0,0.03333333333333333
2026-01-20T23:00:03+00:00,SAT-65523,294.14814950673036,32.42846407551204,4136.689765577483,-2.7559101552671352,96523.63112585348,10.5,10500096523.631126,47.655,-122.3035,60.0,0.05
2026-01-20T23:00:04+00:00,SAT-65523,294.0313353904528,32.454759991399584,4133.941204515962,-2.7463483541624147,96188.73640478757,10.5,10500096188.736404,47.655,-122.3035,60.0,0.06666666666666667
2026-01-20T23:00:05+00:00,SAT-65523,293.9142882241392,32.480880859158255,4131.202179757412,-2.736764162681092,95853.0574780219,10.5,10500095853.057478,47.655,-122.3035,60.0,0.08333333333333333
2026-01-20T23:00:06+00:00,SAT-65523,293.7970085436871,32.50682578715803,4128.472713632498,-2.727157636882351,95516.59630898615,10.5,10500095516.59631,47.655,-122.3035,60.0,0.1
2026-01-20T23:00:07+00:00,SAT-65523,293.6794968944842,32.532593884238636,4125.752828415981,-2.7175287699362243,95179.352658466,10.5,10500095179.35266,47.655,-122.3035,60.0,0.11666666666666667
2026-01-20T23:00:08+00:00,SAT-65523,293.5617538340688,32.55818425916079,4123.042546389431,-2.70787761661559,94841.32844483931,10.5,10500094841.328445,47.655,-122.3035,60.0,0.13333333333333333
2026-01-20T23:00:09+00:00,SAT-65523,293.4437799296499,32.58359602123694,4120.341889779793,-2.6982041624925963,94502.52316278171,10.5,10500094502.523163,47.655,-122.3035,60.0,0.15
2026-01-20T23:00:10+00:00,SAT-65523,293.3255757610573,32.60882827972972,4117.6508808284,-2.688508465643042,94162.93884635331,10.5,10500094162.938847,47.655,-122.3035,60.0,0.16666666666666666
2026-01-20T23:00:11+00:00,SAT-65523,293.2071419177774,32.63388014458272,4114.969541718666,-2.6787905309590507,93822.57566689697,10.5,10500093822.575666,47.655,-122.3035,60.0,0.18333333333333332
2026-01-20T23:00:12+00:00,SAT-65523,293.08847900125096,32.65875072597137,4112.297894629122,-2.669050395175762,93481.43491103269,10.5,10500093481.434912,47.655,-122.3035,60.0,0.2
2026-01-20T23:00:13+00:00,SAT-65523,292.96958762359486,32.68343913465205,4109.635961701667,-2.659288077883524,93139.51726489732,10.5,10500093139.517265,47.655,-122.3035,60.0,0.21666666666666667
2026-01-20T23:00:14+00:00,SAT-65523,292.8504684083967,32.70794448185321,4106.983765058658,-2.6495036059498847,92796.82366950602,10.5,10500092796.82367,47.655,-122.3035,60.0,0.23333333333333334
2026-01-20T23:00:15+00:00,SAT-65523,292.73112199047745,32.7322658793943,4104.341326795658,-2.6396970156530943,92453.35539547658,10.5,10500092453.355396,47.655,-122.3035,60.0,0.25
2026-01-20T23:00:16+00:00,SAT-65523,292.61154901552874,32.7564024398247,4101.708668972045,-2.629868324038335,92109.11303980341,10.5,10500092109.113039,47.655,-122.3035,60.0,0.26666666666666666
2026-01-20T23:00:17+00:00,SAT-65523,292.4917501410346,32.78035327629869,4099.085813630205,-2.6200175599247175,91764.09761185365,10.5,10500091764.097612,47.655,-122.3035,60.0,0.2833333333333333
2026-01-20T23:00:18+00:00,SAT-65523,292.3717260358042,32.804117502737675,4096.472782783773,-2.6101447656703276,91418.31059518663,10.5,10500091418.310595,47.655,-122.3035,60.0,0.3
2026-01-20T23:00:19+00:00,SAT-65523,292.2514773794527,32.82769423400502,4093.8695984041447,-2.6002499581958336,91071.75258243573,10.5,10500091071.752583,47.655,-122.3035,60.0,0.31666666666666665
2026-01-20T23:00:20+00:00,SAT-65523,292.1310048635666,32.8510825857293,4091.2762824458373,-2.5903331724128837,90724.42479635455,10.5,10500090724.424797,47.655,-122.3035,60.0,0.3333333333333333
2026-01-20T23:00:21+00:00,SAT-65523,292.01030919098883,32.87428167452129,4088.692856828551,-2.58039443961816,90376.32833308529,10.5,10500090376.328333,47.655,-122.3035,60.0,0.35
2026-01-20T23:00:22+00:00,SAT-65523,291.8893910760237,32.89729061799605,4086.119343440772,-2.5704337915987763,90027.46430594711,10.5,10500090027.464306,47.655,-122.3035,60.0,0.36666666666666664
2026-01-20T23:00:23+00:00,SAT-65523,291.7682512444812,32.92010853483147,4083.555764139284,-2.560451260879273,89677.83385408705,10.5,10500089677.833855,47.655,-122.3035,60.0,0.38333333333333336
2026-01-20T23:00:24+00:00,SAT-65523,291.64689043369793,32.94273454483094,4081.0021407484337,-2.5504468827072313,89327.43821202443,10.5,10500089327.438211,47.655,-122.3035,60.0,0.4
2026-01-20T23:00:25+00:00,SAT-65523,291.5253093924779,32.96516776900225,4078.458495057414,-2.5404206824163915,88976.27826705405,10.5,10500088976.278267,47.655,-122.3035,60.0,0.4166666666666667
2026-01-20T23:00:26+00:00,SAT-65523,291.403508881591,32.98740732952689,4075.9248488301505,-2.5303727092009023,88624.35574216304,10.5,10500088624.355742,47.655,-122.3035,60.0,0.43333333333333335
2026-01-20T23:00:27+00:00,SAT-65523,291.2814896727476,33.009452350025974,4073.4012237815073,-2.520302985455467,88271.67142170868,10.5,10500088271.671421,47.655,-122.3035,60.0,0.45
2026-01-20T23:00:28+00:00,SAT-65523,291.1592525498704,33.03130195538222,4070.8876416040134,-2.5102115490485577,87918.22663200505,10.5,10500087918.226631,47.655,-122.3035,60.0,0.4666666666666667
2026-01-20T23:00:29+00:00,SAT-65523,291.03679830845635,33.052955271932284,4068.384123952429,-2.5000984405376356,87564.02279354598,10.5,10500087564.022793,47.655,-122.3035,60.0,0.48333333333333334
2026-01-20T23:00:30+00:00,SAT-65523,290.9141277554846,33.07441142754798,4065.8906924410658,-2.489963698957538,87209.06127349657,10.5,10500087209.061274,47.655,-122.3035,60.0,0.5
2026-01-20T23:00:31+00:00,SAT-65523,290.7912417095439,33.09566955167997,4063.4073686453057,-2.47980734958,86853.34295697992,10.5,10500086853.342957,47.655,-122.3035,60.0,0.5166666666666667
2026-01-20T23:00:32+00:00,SAT-65523,290.6681410015399,33.116728775299194,4060.9341741153244,-2.469629449349522,86496.8698384333,10.5,10500086496.869839,47.655,-122.3035,60.0,0.5333333333333333
2026-01-20T23:00:33+00:00,SAT-65523,290.54482647323135,33.13758823122457,4058.4711303445065,-2.4594300145708106,86139.64248891649,10.5,10500086139.642488,47.655,-122.3035,60.0,0.55
2026-01-20T23:00:34+00:00,SAT-65523,290.4212989792388,33.158247053838494,4056.018258809974,-2.449209109583981,85781.66316189249,10.5,10500085781.663162,47.655,-122.3035,60.0,0.5666666666666667
2026-01-20T23:00:35+00:00,SAT-65523,290.29755938476103,33.17870437955103,4053.575580924683,-2.4389667521284437,85422.9324786705,10.5,10500085422.932478,47.655,-122.3035,60.0,0.5833333333333334
2026-01-20T23:00:36+00:00,SAT-65523,290.173608567898,33.198959346467696,4051.143118083893,-2.4287029975589878,85063.45237800936,10.5,10500085063.452377,47.655,-122.3035,60.0,0.6
2026-01-20T23:00:37+00:00,SAT-65523,290.04944741785505,33.21901109476494,4048.7208916276613,-2.418417885414602,84703.22424473174,10.5,10500084703.224245,47.655,-122.3035,60.0,0.6166666666666667
2026-01-20T23:00:38+00:00,SAT-65523,289.9250768357633,33.23885876661772,4046.3089228566078,-2.4081114559971155,84342.24949037816,10.5,10500084342.24949,47.655,-122.3035,60.0,0.6333333333333333
2026-01-20T23:00:39+00:00,SAT-65523,289.80049773468505,33.25850150626689,4043.9072330311596,-2.3977837482905415,83980.52948033364,10.5,10500083980.52948,47.655,-122.3035,60.0,0.65
2026-01-20T23:00:40+00:00,SAT-65523,289.67571103973467,33.27793846007005,4041.5158433728648,-2.387434812016053,83618.06595604401,10.5,10500083618.065956,47.655,-122.3035,60.0,0.6666666666666666
2026-01-20T23:00:41+00:00,SAT-65523,289.5507176875686,33.297168776650146,4039.134775053681,-2.3770646894539764,83254.86039834515,10.5,10500083254.8604,47.655,-122.3035,60.0,0.6833333333333333
2026-01-20T23:00:42+00:00,SAT-65523,289.42551862682035,33.3161916068963,4036.764049203399,-2.366673427643609,82890.91445475222,10.5,10500082890.914455,47.655,-122.3035,60.0,0.7
2026-01-20T23:00:43+00:00,SAT-65523,289.3001148178754,33.33500610406389,4034.4036869048955,-2.356261066331296,82526.22951735032,10.5,10500082526.229517,47.655,-122.3035,60.0,0.7166666666666667
2026-01-20T23:00:44+00:00,SAT-65523,289.17450723330523,33.35361142377895,4032.0537092014074,-2.3458276598030374,82160.80748746486,10.5,10500082160.807487,47.655,-122.3035,60.0,0.7333333333333333
2026-01-20T23:00:45+00:00,SAT-65523,289.048696857147,33.37200672421601,4029.714137082031,-2.335373249182962,81794.64980543674,10.5,10500081794.649805,47.655,-122.3035,60.0,0.75
2026-01-20T23:00:46+00:00,SAT-65523,288.92268468562247,33.390191166056596,4027.3849914948455,-2.3248978842054564,81427.75821317456,10.5,10500081427.758213,47.655,-122.3035,60.0,0.7666666666666667
2026-01-20T23:00:47+00:00,SAT-65523,288.7964717267289,33.4081639126199,4025.0662933383314,-2.314401615216295,81060.13447400034,10.5,10500081060.134474,47.655,-122.3035,60.0,0.7833333333333333
2026-01-20T23:00:48+00:00,SAT-65523,288.6700590002447,33.42592412993092,4022.7580634607557,-2.303884485532065,80691.78010504413,10.5,10500080691.780106,47.655,-122.3035,60.0,0.8
2026-01-20T23:00:49+00:00,SAT-65523,288.54344753812154,33.443470986729444,4020.460322667185,-2.2933465526807035,80322.6971211777,10.5,10500080322.69712,47.655,-122.3035,60.0,0.8166666666666667
2026-01-20T23:00:50+00:00,SAT-65523,288.41663838378577,33.46080365464291,4018.1730917053114,-2.2827878594695616,79952.88702169551,10.5,10500079952.887022,47.655,-122.3035,60.0,0.8333333333333334
2026-01-20T23:00:51+00:00,SAT-65523,288.289632592927,33.47792130813831,4015.8963912801337,-2.2722084628370407,79582.35180082126,10.5,10500079582.3518,47.655,-122.3035,60.0,0.85
2026-01-20T23:00:52+00:00,SAT-65523,288.16243123280134,33.49482312469314,4013.6302420398642,-2.261608414624099,79211.09327424453,10.5,10500079211.093275,47.655,-122.3035,60.0,0.8666666666666667
2026-01-20T23:00:53+00:00,SAT-65523,288.0350353825046,33.5115082848212,4011.3746645810124,-2.2509877636086526,78839.11315037435,10.5,10500078839.11315,47.655,-122.3035,60.0,0.8833333333333333
2026-01-20T23:00:54+00:00,SAT-65523,287.9074461331905,33.527975972114334,4009.1296794514406,-2.2403465630912662,78466.41329602191,10.5,10500078466.413296,47.655,-122.3035,60.0,0.9
2026-01-20T23:00:55+00:00,SAT-65523,287.7796645878378,33.54422537334197,4006.895307145851,-2.229684874523333,78092.995863475,10.5,10500078092.995863,47.655,-122.3035,60.0,0.9166666666666666
2026-01-20T23:00:56+00:00,SAT-65523,287.6516918608363,33.56025567857365,4004.6715680976595,-2.219002741325627,77718.86237351267,10.5,10500077718.862373,47.655,-122.3035,60.0,0.9333333333333333
2026-01-20T23:00:57+00:00,SAT-65523,287.5235290789926,33.57606608111517,4002.4584826969776,-2.2083002282016375,77344.01509232495,10.5,10500077344.015093,47.655,-122.3035,60.0,0.95
2026-01-20T23:00:58+00:00,SAT-65523,287.39517738039694,33.591655777726054,4000.256071269384,-2.1975773837798656,76968.45572308757,10.5,10500076968.455723,47.655,-122.3035,60.0,0.9666666666666667
2026-01-20T23:00:59+00:00,SAT-65523,287.2666379153096,33.60702396857127,3998.064354091961,-2.1868342740435005,76592.18657681093,10.5,10500076592.186577,47.655,-122.3035,60.0,0.9833333333333333
2026-01-20T23:01:00+00:00,SAT-65523,287.13791184524206,33.622169857408444,3995.883351375982,-2.1760709436101724,76215.2092161932,10.5,10500076215.209217,47.655,-122.3035,60.0,1.0
2026-01-20T23:01:01+00:00,SAT-65523,287.009000344146,33.637092651504965,3993.7130832882212,-2.1652874616394433,75837.52606349475,10.5,10500075837.526064,47.655,-122.3035,60.0,1.0166666666666666
2026-01-20T23:01:02+00:00,SAT-65523,286.87990459707737,33.651791561874795,3991.553569926479,-2.154483886951653,75459.13917885271,10.5,10500075459.13918,47.655,-122.3035,60.0,1.0333333333333334
2026-01-20T23:01:03+00:00,SAT-65523,286.7506258007672,33.66626580327119,3989.4048313298927,-2.143660270069945,75080.05033180128,10.5,10500075080.050331,47.655,-122.3035,60.0,1.05
2026-01-20T23:01:04+00:00,SAT-65523,286.62116516413073,33.68051459419836,3987.2668874872097,-2.1328166803099053,74700.26195006548,10.5,10500074700.26195,47.655,-122.3035,60.0,1.0666666666666667
2026-01-20T23:01:05+00:00,SAT-65523,286.4915239071953,33.694537157104115,3985.1397583180474,-2.1219531732570545,74319.77598048537,10.5,10500074319.77598,47.655,-122.3035,60.0,1.0833333333333333
2026-01-20T23:01:06+00:00,SAT-65523,286.36170326191177,33.708332718354335,3983.0234636865857,-2.111069808861505,73938.59452276748,10.5,10500073938.594522,47.655,-122.3035,60.0,1.1
2026-01-20T23:01:07+00:00,SAT-65523,286.2317044719007,33.721900508329725,3980.9180233972147,-2.1001666601895046,73556.72013600088,10.5,10500073556.720137,47.655,-122.3035,60.0,1.1166666666666667
2026-01-20T23:01:08+00:00,SAT-65523,286.1015287917125,33.73523976157548,3978.8234571814523,-2.08924378142592,73174.15471796879,10.5,10500073174.154718,47.655,-122.3035,60.0,1.1333333333333333
2026-01-20T23:01:09+00:00,SAT-65523,285.971177487917,33.74834971674696,3976.7397847167767,-2.078301232946752,72790.90038329415,10.5,10500072790.900383,47.655,-122.3035,60.0,1.15
2026-01-20T23:01:10+00:00,SAT-65523,285.840651838781,33.76122961671781,3974.667025620451,-2.067339089809961,72406.95976082423,10.5,10500072406.95976,47.655,-122.3035,60.0,1.1666666666666667
2026-01-20T23:01:11+00:00,SAT-65523,285.70995313336925,33.77387870873725,3972.6051994348804,-2.0563574119600694,72022.3349500698,10.5,10500072022.33495,47.655,-122.3035,60.0,1.1833333333333333
2026-01-20T23:01:12+00:00,SAT-65523,285.5790826724709,33.78629624440272,3970.554325642686,-2.045356261914715,71637.02814066294,10.5,10500071637.028141,47.655,-122.3035,60.0,1.2
2026-01-20T23:01:13+00:00,SAT-65523,285.4480417684389,33.79848147974401,3968.5144236641363,-2.0343357115554865,71251.04185020094,10.5,10500071251.041851,47.655,-122.3035,60.0,1.2166666666666666
2026-01-20T23:01:14+00:00,SAT-65523,285.3168317446323,33.81043367534623,3966.4855128478116,-2.0232958265037193,70864.37837702058,10.5,10500070864.378378,47.655,-122.3035,60.0,1.2333333333333334
2026-01-20T23:01:15+00:00,SAT-65523,285.1854539357864,33.822152096378666,3964.4676124768453,-2.0122366782440815,70477.04022481732,10.5,10500070477.040224,47.655,-122.3035,60.0,1.25
2026-01-20T23:01:16+00:00,SAT-65523,285.05390968766136,33.83363601269634,3962.4607417630764,-2.0011583270768485,70089.02950556185,10.5,10500070089.029505,47.655,-122.3035,60.0,1.2666666666666666
2026-01-20T23:01:17+00:00,SAT-65523,284.9222003577173,33.84488469884247,3960.464919858205,-1.9900608460006752,69700.34877597584,10.5,10500069700.348776,47.655,-122.3035,60.0,1.2833333333333334
2026-01-20T23:01:18+00:00,SAT-65523,284.7903273143509,33.8558974341891,3958.4801658411275,-1.9789443152334785,69311.00084563009,10.5,10500069311.000845,47.655,-122.3035,60.0,1.3
2026-01-20T23:01:19+00:00,SAT-65523,284.65829193639416,33.866673503042115,3956.5064987107344,-1.9678087906524966,68920.98767158184,10.5,10500068920.98767,47.655,-122.3035,60.0,1.3166666666666667
2026-01-20T23:01:20+00:00,SAT-65523,284.52609561467546,33.877212194573694,3954.54393741019,-1.956654355585443,68530.31217232006,10.5,10500068530.312172,47.655,-122.3035,60.0,1.3333333333333333
2026-01-20T23:01:21+00:00,SAT-65523,284.3937397502531,33.887512803039805,3952.592500799553,-1.9454810691794424,68138.97641942729,10.5,10500068138.97642,47.655,-122.3035,60.0,1.35
2026-01-20T23:01:22+00:00,SAT-65523,284.26122575596196,33.89757462771731,3950.6522076798915,-1.934289020977736,67746.98354908657,10.5,10500067746.98355,47.655,-122.3035,60.0,1.3666666666666667
2026-01-20T23:01:23+00:00,SAT-65523,284.1285550544352,33.907396973130425,3948.7230767629694,-1.923078271653124,67354.33568631604,10.5,10500067354.335686,47.655,-122.3035,60.0,1.3833333333333333
2026-01-20T23:01:24+00:00,SAT-65523,283.9957290799732,33.916979148966426,3946.805126700041,-1.9118489054506569,66961.0357817337,10.5,10500066961.035782,47.655,-122.3035,60.0,1.4
2026-01-20T23:01:25+00:00,SAT-65523,283.86274927697275,33.92632047026338,3944.8983760583383,-1.9006009846912917,66567.0860180831,10.5,10500066567.086018,47.655,-122.3035,60.0,1.4166666666666667
2026-01-20T23:01:26+00:00,SAT-65523,283.72961710138213,33.935420257367035,3943.0028433429393,-1.8893346030084222,66172.48967480173,10.5,10500066172.489676,47.655,-122.3035,60.0,1.4333333333333333
2026-01-20T23:01:27+00:00,SAT-65523,283.59633401858355,33.94427783614978,3941.118546965539,-1.8780498225481779,65777.24892850996,10.5,10500065777.248928,47.655,-122.3035,60.0,1.45
2026-01-20T23:01:28+00:00,SAT-65523,283.46290150548816,33.95289253792436,3939.2455052758505,-1.8667467239243787,65381.36660264474,10.5,10500065381.366602,47.655,-122.3035,60.0,1.4666666666666666
2026-01-20T23:01:29+00:00,SAT-65523,283.32932104927164,33.96126369959966,3937.38373654319,-1.8554253868253756,64984.84548822921,10.5,10500064984.845488,47.655,-122.3035,60.0,1.4833333333333334
2026-01-20T23:01:30+00:00,SAT-65523,283.195594147433,33.969390663740604,3935.5332589573964,-1.8440858946718865,64587.68850700977,10.5,10500064587.688507,47.655,-122.3035,60.0,1.5
2026-01-20T23:01:31+00:00,SAT-65523,283.061722307488,33.97727277864961,3933.69409062511,-1.8327283191091768,64189.898168306674,10.5,10500064189.898169,47.655,-122.3035,60.0,1.5166666666666666
2026-01-20T23:01:32+00:00,SAT-65523,282.92770704777587,33.984909398380196,3931.866249581519,-1.8213527434812224,63791.47739117852,10.5,10500063791.47739,47.655,-122.3035,60.0,1.5333333333333334
2026-01-20T23:01:33+00:00,SAT-65523,282.7935498966136,33.99229988285427,3930.049753778687,-1.8099592471602628,63392.428955576856,10.5,10500063392.428955,47.655,-122.3035,60.0,1.55
2026-01-20T23:01:34+00:00,SAT-65523,282.6592523925648,33.999443597909796,3928.244621089519,-1.7985479193795237,62992.75598682673,10.5,10500062992.755987,47.655,-122.3035,60.0,1.5666666666666667
2026-01-20T23:01:35+00:00,SAT-65523,282.52481608369015,34.00633991540444,3926.4508692979243,-1.787118830249956,62592.46094051018,10.5,10500062592.460941,47.655,-122.3035,60.0,1.5833333333333333
2026-01-20T23:01:36+00:00,SAT-65523,282.3902425288981,34.012988213204785,3924.6685161178884,-1.7756720674049107,62191.546885917865,10.5,10500062191.546886,47.655,-122.3035,60.0,1.6
2026-01-20T23:01:37+00:00,SAT-65523,282.2555332966528,34.01938787532134,3922.8975791759967,-1.764207720617344,61790.016967278454,10.5,10500061790.016968,47.655,-122.3035,60.0,1.6166666666666667
2026-01-20T23:01:38+00:00,SAT-65523,282.1206899648012,34.025538291976986,3921.138076009301,-1.7527258697224826,61387.87398075927,10.5,10500061387.873981,47.655,-122.3035,60.0,1.6333333333333333
2026-01-20T23:01:39+00:00,SAT-65523,281.98571412123283,34.03143885963472,3919.390024075231,-1.7412265999091405,60985.12091003296,10.5,10500060985.12091,47.655,-122.3035,60.0,1.65
2026-01-20T23:01:40+00:00,SAT-65523,281.85060736347896,34.03708898108108,3917.653440746255,-1.7297099910979263,60581.760554257264,10.5,10500060581.760553,47.655,-122.3035,60.0,1.6666666666666667
2026-01-20T23:01:41+00:00,SAT-65523,281.71537129905346,34.04248806547282,3915.928343315133,-1.71817614311794,60177.79640986956,10.5,10500060177.79641,47.655,-122.3035,60.0,1.6833333333333333
2026-01-20T23:01:42+00:00,SAT-65523,281.58000754396,34.047635528464376,3914.2147489750637,-1.7066251343163419,59773.23122091881,10.5,10500059773.23122,47.655,-122.3035,60.0,1.7
2026-01-20T23:01:43+00:00,SAT-65523,281.4445177242146,34.05253079219978,3912.5126748411053,-1.695057049801647,59368.06796826521,10.5,10500059368.067968,47.655,-122.3035,60.0,1.7166666666666666
2026-01-20T23:01:44+00:00,SAT-65523,281.308903475344,34.057173285399756,3910.8221379434367,-1.6834719883204474,58962.310110432125,10.5,10500058962.31011,47.655,-122.3035,60.0,1.7333333333333334
2026-01-20T23:01:45+00:00,SAT-65523,281.1731664412833,34.06156244346157,3909.143155213752,-1.67187003057042,58555.96047379354,10.5,10500058555.960474,47.655,-122.3035,60.0,1.75
2026-01-20T23:01:46+00:00,SAT-65523,281.0373082757268,34.06569770846966,3907.475743503263,-1.6602512694073814,58149.02231055294,10.5,10500058149.02231,47.655,-122.3035,60.0,1.7666666666666666
2026-01-20T23:01:47+00:00,SAT-65523,280.9013306411282,34.06957852929076,3905.8199195705743,-1.648615794202287,57741.49875085921,10.5,10500057741.49875,47.655,-122.3035,60.0,1.7833333333333334
2026-01-20T23:01:48+00:00,SAT-65523,280.7652352089572,34.07320436162603,3904.175700085156,-1.6369636991501122,57333.39309381885,10.5,10500057333.393093,47.655,-122.3035,60.0,1.8
2026-01-20T23:01:49+00:00,SAT-65523,280.62902365925106,34.076574668082756,3902.543101622537,-1.6252950777221298,56924.7086131912,10.5,10500056924.708612,47.655,-122.3035,60.0,1.8166666666666667
2026-01-20T23:01:50+00:00,SAT-65523,280.49269768063607,34.0796889182316,3900.922140665022,-1.6136100143371999,56515.44826568184,10.5,10500056515.448265,47.655,-122.3035,60.0,1.8333333333333333
2026-01-20T23:01:51+00:00,SAT-65523,280.3562589709747,34.08254658864812,3899.3128336107234,-1.601908613630658,56105.615716062835,10.5,10500056105.615717,47.655,-122.3035,60.0,1.85
2026-01-20T23:01:52+00:00,SAT-65523,280.2197092357507,34.085147163014334,3897.7151967533955,-1.5901909600330546,55695.21392144919,10.5,10500055695.21392,47.655,-122.3035,60.0,1.8666666666666667
2026-01-20T23:01:53+00:00,SAT-65523,280.0830501895801,34.087490132136566,3896.1292463025893,-1.5784571552798223,55284.246445046105,10.5,10500055284.246445,47.655,-122.3035,60.0,1.8833333333333333
2026-01-20T23:01:54+00:00,SAT-65523,279.9462835548122,34.08957499403694,3894.5549983663905,-1.5667072894300456,54872.71644110366,10.5,10500054872.71644,47.655,-122.3035,60.0,1.9
2026-01-20T23:01:55+00:00,SAT-65523,279.8094110623849,34.09140125399104,3892.992468963065,-1.5549414641114152,54460.62746905347,10.5,10500054460.627468,47.655,-122.3035,60.0,1.9166666666666667
2026-01-20T23:01:56+00:00,SAT-65523,279.672434450857,34.09296842460318,3891.441674009525,-1.543159770803489,54047.98273289662,10.5,10500054047.982733,47.655,-122.3035,60.0,1.9333333333333333
2026-01-20T23:01:57+00:00,SAT-65523,279.53535546715824,34.094276025849695,3889.9026293314437,-1.5313623150492828,53634.78592919596,10.5,10500053634.785929,47.655,-122.3035,60.0,1.95
2026-01-20T23:01:58+00:00,SAT-65523,279.39817586538413,34.09532358515148,3888.3753506492344,-1.5195491831739905,53221.04008142493,10.5,10500053221.040081,47.655,-122.3035,60.0,1.9666666666666666
2026-01-20T23:01:59+00:00,SAT-65523,279.26089740832987,34.09611063741153,3886.8598535972155,-1.507720483302892,52806.74897658822,10.5,10500052806.748976,47.655,-122.3035,60.0,1.9833333333333334
2026-01-20T23:02:00+00:00,SAT-65523,279.12352186561554,34.09663672509071,3885.3561537018677,-1.4958763136311617,52391.91605389619,10.5,10500052391.916054,47.655,-122.3035,60.0,2.0
2026-01-20T23:02:01+00:00,SAT-65523,278.98605101443644,34.096901398252676,3883.8642663917403,-1.4840167705701228,51976.544690081195,10.5,10500051976.54469,47.655,-122.3035,60.0,2.0166666666666666
2026-01-20T23:02:02+00:00,SAT-65523,278.8484866396866,34.09690421461989,3882.3842069992247,-1.47214195882372,51560.63855231828,10.5,10500051560.638552,47.655,-122.3035,60.0,2.033333333333333
2026-01-20T23:02:03+00:00,SAT-65523,278.7108305331504,34.096644739630264,3880.9159907522912,-1.4602519799307052,51144.201196924056,10.5,10500051144.201197,47.655,-122.3035,60.0,2.05
2026-01-20T23:02:04+00:00,SAT-65523,278.57308449373573,34.09612254648907,3879.4596327776403,-1.4483469323332478,50727.2360717597,10.5,10500050727.236073,47.655,-122.3035,60.0,2.066666666666667
2026-01-20T23:02:05+00:00,SAT-65523,278.4352503276617,34.09533721622275,3878.0151481037933,-1.436426926361794,50309.74704106411,10.5,10500050309.747042,47.655,-122.3035,60.0,2.0833333333333335
2026-01-20T23:02:06+00:00,SAT-65523,278.29732984735494,34.094288337728834,3876.582551649235,-1.4244920519087314,49891.737253248975,10.5,10500049891.737253,47.655,-122.3035,60.0,2.1
2026-01-20T23:02:07+00:00,SAT-65523,278.15932487319463,34.09297550783546,3875.161858242798,-1.412542430424863,49473.21096203515,10.5,10500049473.210962,47.655,-122.3035,60.0,2.1166666666666667
2026-01-20T23:02:08+00:00,SAT-65523,278.0212372306234,34.091398331337686,3873.753082592188,-1.4005781530451735,49054.171359355285,10.5,10500049054.17136,47.655,-122.3035,60.0,2.1333333333333333
2026-01-20T23:02:09+00:00,SAT-65523,277.8830687527908,34.08955642106424,3872.3562393142174,-1.3885993317472498,48634.622367138145,10.5,10500048634.622368,47.655,-122.3035,60.0,2.15
2026-01-20T23:02:10+00:00,SAT-65523,277.7448212786227,34.08744939791539,3870.9713429140215,-1.3766060710266663,48214.567645260766,10.5,10500048214.567646,47.655,-122.3035,60.0,2.1666666666666665
2026-01-20T23:02:11+00:00,SAT-65523,277.60649665339525,34.08507689091617,3869.5984077925173,-1.3645984801333941,47794.01102011925,10.5,10500047794.01102,47.655,-122.3035,60.0,2.183333333333333
2026-01-20T23:02:12+00:00,SAT-65523,277.46809672825526,34.082438537259826,3868.2374482416644,-1.3525766593020931,47372.95600235539,10.5,10500047372.956003,47.655,-122.3035,60.0,2.2
2026-01-20T23:02:13+00:00,SAT-65523,277.3296233609628,34.07953398236993,3866.8884784534534,-1.340540725985401,46951.40670565739,10.5,10500046951.406706,47.655,-122.3035,60.0,2.216666666666667
2026-01-20T23:02:14+00:00,SAT-65523,277.19107841421896,34.07636287992059,3865.5515125027378,-1.3284907794432133,46529.36660652664,10.5,10500046529.366606,47.655,-122.3035,60.0,2.2333333333333334
2026-01-20T23:02:15+00:00,SAT-65523,277.0524637572977,34.072924891913964,3864.226564365373,-1.3164269393501038,46106.83989647294,10.5,10500046106.839897,47.655,-122.3035,60.0,2.25
2026-01-20T23:02:16+00:00,SAT-65523,276.9137812640205,34.06921968868703,3862.913647897861,-1.3043493029691713,45683.829982061456,10.5,10500045683.829983,47.655,-122.3035,60.0,2.2666666666666666
2026-01-20T23:02:17+00:00,SAT-65523,276.7750328148486,34.065246949005896,3861.6127768597,-1.2922579933815892,45260.34117411548,10.5,10500045260.341173,47.655,-122.3035,60.0,2.283333333333333
2026-01-20T23:02:18+00:00,SAT-65523,276.63622029429484,34.061006360050385,3860.323964887634,-1.2801531114176499,44836.37700413838,10.5,10500044836.377005,47.655,-122.3035,60.0,2.3
2026-01-20T23:02:19+00:00,SAT-65523,276.49734559299986,34.05649761751189,3859.0472255178465,-1.268034778945405,44411.94174046484,10.5,10500044411.94174,47.655,-122.3035,60.0,2.316666666666667
2026-01-20T23:02:20+00:00,SAT-65523,276.3584106056046,34.05172042558074,3857.782572164979,-1.255903098258313,43987.038965844455,10.5,10500043987.038965,47.655,-122.3035,60.0,2.3333333333333335
2026-01-20T23:02:21+00:00,SAT-65523,276.219417232597,34.04667449704596,3856.530018141649,-1.2437581878391732,43561.67283004604,10.5,10500043561.67283,47.655,-122.3035,60.0,2.35
2026-01-20T23:02:22+00:00,SAT-65523,276.08036737862386,34.04135955328805,3855.2895766423107,-1.2316001590287724,43135.84723269493,10.5,10500043135.847233,47.655,-122.3035,60.0,2.3666666666666667
2026-01-20T23:02:23+00:00,SAT-65523,275.9412629531161,34.035775324342275,3854.061260750373,-1.2194291313827619,42709.566361135745,10.5,10500042709.56636,47.655,-122.3035,60.0,2.3833333333333333
2026-01-20T23:02:24+00:00,SAT-65523,275.80210586936926,34.0299215489081,3852.845083430007,-1.2072452088707089,42282.83385682252,10.5,10500042282.833857,47.655,-122.3035,60.0,2.4
2026-01-20T23:02:25+00:00,SAT-65523,275.66289804607146,34.023797974451824,3851.641057541693,-1.1950485195914389,41855.65420631798,10.5,10500041855.654207,47.655,-122.3035,60.0,2.4166666666666665
2026-01-20T23:02:26+00:00,SAT-65523,275.5236414047029,34.017404357144336,3850.4491958181543,-1.1828391668030118,41428.031026156175,10.5,10500041428.031027,47.655,-122.3035,60.0,2.433333333333333
2026-01-20T23:02:27+00:00,SAT-65523,275.38433787206156,34.010740462008485,3849.2695108891294,-1.170617279511425,40999.96883467282,10.5,10500040999.968834,47.655,-122.3035,60.0,2.45
2026-01-20T23:02:28+00:00,SAT-65523,275.24498937744664,34.00380606283691,3848.1020152556966,-1.1583829623321933,40571.471295945776,10.5,10500040571.471296,47.655,-122.3035,60.0,2.466666666666667
2026-01-20T23:02:29+00:00,SAT-65523,275.10559785517836,33.99660094234766,3846.9467213145967,-1.1461363453075746,40142.542964604974,10.5,10500040142.542965,47.655,-122.3035,60.0,2.4833333333333334
2026-01-20T23:02:30+00:00,SAT-65523,274.96616524178165,33.98912489209045,3845.803641332877,-1.1338775373089158,39713.18765378553,10.5,10500039713.187654,47.655,-122.3035,60.0,2.5
2026-01-20T23:02:31+00:00,SAT-65523,274.82669347816534,33.98137771259087,3844.672787469001,-1.1216066592630451,39283.409598856466,10.5,10500039283.4096,47.655,-122.3035,60.0,2.5166666666666666
2026-01-20T23:02:32+00:00,SAT-65523,274.68718450826213,33.973359213324606,3843.5541717608294,-1.1093238314828615,38853.21301368444,10.5,10500038853.213015,47.655,-122.3035,60.0,2.533333333333333
2026-01-20T23:02:33+00:00,SAT-65523,274.54764027897255,33.96506921274955,3842.4478061262303,-1.097029177749863,38422.60223362111,10.5,10500038422.602234,47.655,-122.3035,60.0,2.55
2026-01-20T23:02:34+00:00,SAT-65523,274.4080627396844,33.9565075383147,3841.3537023596214,-1.0847228096716521,37991.5811676368,10.5,10500037991.581167,47.655,-122.3035,60.0,2.566666666666667
2026-01-20T23:02:35+00:00,SAT-65523,274.2684538435755,33.9476740265739,3840.271872144109,-1.0724048552083105,37560.15429743486,10.5,10500037560.154297,47.655,-122.3035,60.0,2.5833333333333335
2026-01-20T23:02:36+00:00,SAT-65523,274.12881554567554,33.9385685231093,3839.2023270351806,-1.0600754355702524,37128.32586831671,10.5,10500037128.325869,47.655,-122.3035,60.0,2.6
2026-01-20T23:02:37+00:00,SAT-65523,273.98914980347433,33.92919088259798,3838.145078467439,-1.0477346683478437,36696.09999879436,10.5,10500036696.099998,47.655,-122.3035,60.0,2.6166666666666667
2026-01-20T23:02:38+00:00,SAT-65523,273.84945857736176,33.9195409688803,3837.1001377582065,-1.0353826796949521,36263.481107309904,10.5,10500036263.481108,47.655,-122.3035,60.0,2.6333333333333333
2026-01-20T23:02:39+00:00,SAT-65523,273.7097438294304,33.9096186549142,3836.067516098991,-1.0230195929199244,35830.47351264323,10.5,10500035830.473513,47.655,-122.3035,60.0,2.65
2026-01-20T23:02:40+00:00,SAT-65523,273.5700075237986,33.89942382283018,3835.0472245583187,-1.0106455287158072,35397.08144197536,10.5,10500035397.081442,47.655,-122.3035,60.0,2.6666666666666665
2026-01-20T23:02:41+00:00,SAT-65523,273.4302516267692,33.888956363974586,3834.039274084346,-0.9982606151118,34963.30937943042,10.5,10500034963.30938,47.655,-122.3035,60.0,2.683333333333333
2026-01-20T23:02:42+00:00,SAT-65523,273.2904781059034,33.878216178878965,3833.0436754975412,-0.9858649721982015,34529.16153107866,10.5,10500034529.161531,47.655,-122.3035,60.0,2.7
2026-01-20T23:02:43+00:00,SAT-65523,273.1506889308699,33.86720317735095,3832.0604394986026,-0.973458732129938,34094.64252554462,10.5,10500034094.642525,47.655,-122.3035,60.0,2.716666666666667
2026-01-20T23:02:44+00:00,SAT-65523,273.01088607181794,33.85591727838186,3831.089576656425,-0.9610420120277811,33659.75646489313,10.5,10500033659.756464,47.655,-122.3035,60.0,2.7333333333333334
2026-01-20T23:02:45+00:00,SAT-65523,272.87107150127,33.844358410326066,3830.1310974230955,-0.948614945760883,33224.50803778817,10.5,10500033224.508038,47.655,-122.3035,60.0,2.75
2026-01-20T23:02:46+00:00,SAT-65523,272.73124719179737,33.83252651074526,3829.18501211719,-0.9361776540873425,32788.90147368917,10.5,10500032788.901474,47.655,-122.3035,60.0,2.7666666666666666
2026-01-20T23:02:47+00:00,SAT-65523,272.59141511769,33.82042152657226,3828.251330936847,-0.9237302683692651,32352.941373452708,10.5,10500032352.941374,47.655,-122.3035,60.0,2.783333333333333
2026-01-20T23:02:48+00:00,SAT-65523,272.45157725343034,33.808043414013135,3827.330063949193,-0.9112729122488964,31916.632067553255,10.5,10500031916.632067,47.655,-122.3035,60.0,2.8
2026-01-20T23:02:49+00:00,SAT-65523,272.3117355746724,33.79539213865945,3826.421221098044,-0.8988057202403202,31479.978267243012,10.5,10500031479.978268,47.655,-122.3035,60.0,2.816666666666667
2026-01-20T23:02:50+00:00,SAT-65523,272.17189205661253,33.78246767536873,3825.5248121930576,-0.8863288129481537,31042.984196605816,10.5,10500031042.984196,47.655,-122.3035,60.0,2.8333333333333335
2026-01-20T23:02:51+00:00,SAT-65523,272.03204867587027,33.76927000846132,3824.6408469236108,-0.8738423250496185,30605.654572607673,10.5,10500030605.654573,47.655,-122.3035,60.0,2.85
2026-01-20T23:02:52+00:00,SAT-65523,271.8922074083985,33.75579913155663,3823.769334844761,-0.8613463860909502,30167.993932505724,10.5,10500030167.993933,47.655,-122.3035,60.0,2.8666666666666667
2026-01-20T23:02:53+00:00,SAT-65523,271.75237023013693,33.74205504765377,3822.910285382366,-0.8488411220959131,29730.006690185273,10.5,10500029730.006691,47.655,-122.3035,60.0,2.8833333333333333
2026-01-20T23:02:54+00:00,SAT-65523,271.6125391173936,33.728037769195666,3822.0637078365958,-0.836326665979223,29291.697500881895,10.5,10500029291.6975,47.655,-122.3035,60.0,2.9
2026-01-20T23:02:55+00:00,SAT-65523,271.472716045809,33.71374731799162,3821.2296113750594,-0.823803150787225,28853.071024441393,10.5,10500028853.071024,47.655,-122.3035,60.0,2.9166666666666665
2026-01-20T23:02:56+00:00,SAT-65523,271.33290299018074,33.69918372521934,3820.4080050326743,-0.8112707034193459,28414.131705418462,10.5,10500028414.131706,47.655,-122.3035,60.0,2.933333333333333
2026-01-20T23:02:57+00:00,SAT-65523,271.19310192533027,33.684347031536284,3819.598897717797,-0.7987294592932842,27974.884286713725,10.5,10500027974.884287,47.655,-122.3035,60.0,2.95
2026-01-20T23:02:58+00:00,SAT-65523,271.05331482470024,33.66923728695585,3818.802298203729,-0.7861795484924634,27535.333324398925,10.5,10500027535.333324,47.655,-122.3035,60.0,2.966666666666667
2026-01-20T23:02:59+00:00,SAT-65523,270.9135436611084,33.65385455094557,3818.0182151340327,-0.7736211035570416,27095.483460591047,10.5,10500027095.483461,47.655,-122.3035,60.0,2.9833333333333334
2026-01-20T23:03:00+00:00,SAT-65523,270.7737904062352,33.638198892393916,3817.246657020085,-0.7610542598086636,26655.339434826503,10.5,10500026655.339436,47.655,-122.3035,60.0,3.0
2026-01-20T23:03:01+00:00,SAT-65523,270.6340570301526,33.62227038957517,3816.4876322383025,-0.748479149099358,26214.905865121058,10.5,10500026214.905865,47.655,-122.3035,60.0,3.0166666666666666
2026-01-20T23:03:02+00:00,SAT-65523,270.49434550170565,33.606069130209015,3815.7411490336003,-0.7358959033731411,25774.187372712295,10.5,10500025774.187372,47.655,-122.3035,60.0,3.033333333333333
2026-01-20T23:03:03+00:00,SAT-65523,270.3546577884937,33.58959521147832,3815.007215519303,-0.7233046609308417,25333.18880148025,10.5,10500025333.1888,47.655,-122.3035,60.0,3.05
2026-01-20T23:03:04+00:00,SAT-65523,270.2149958556775,33.57284873990687,3814.2858396708016,-0.7107055550246341,24891.914818479712,10.5,10500024891.914818,47.655,-122.3035,60.0,3.066666666666667
2026-01-20T23:03:05+00:00,SAT-65523,270.0753616667454,33.55582983146122,3813.5770293305904,-0.6980987173373092,24450.370035799056,10.5,10500024450.370035,47.655,-122.3035,60.0,3.0833333333333335
2026-01-20T23:03:06+00:00,SAT-65523,269.9357571836803,33.53853861158947,3812.8807922098326,-0.6854842874280489,24008.55934139115,10.5,10500024008.559341,47.655,-122.3035,60.0,3.1
2026-01-20T23:03:07+00:00,SAT-65523,269.7961843655769,33.520975215068184,3812.1971358805044,-0.6728624008848046,23566.487484119592,10.5,10500023566.487484,47.655,-122.3035,60.0,3.1166666666666667
2026-01-20T23:03:08+00:00,SAT-65523,269.6566451691557,33.50313978607421,3811.5260677793553,-0.6602331907844148,23124.159124898182,10.5,10500023124.159124,47.655,-122.3035,60.0,3.1333333333333333
2026-01-20T23:03:09+00:00,SAT-65523,269.5171415491812,33.485032478251675,3810.867595210413,-0.6475967955115646,22681.57911054396,10.5,10500022681.579111,47.655,-122.3035,60.0,3.15
2026-01-20T23:03:10+00:00,SAT-65523,269.3776754573922,33.46665345458964,3810.2217253396893,-0.6349533538107591,22238.752300476386,10.5,10500022238.7523,47.655,-122.3035,60.0,3.1666666666666665
2026-01-20T23:03:11+00:00,SAT-65523,269.2382488423716,33.448002887411484,3809.5884651948218,-0.6223029992096275,21795.683371397852,10.5,10500021795.68337,47.655,-122.3035,60.0,3.183333333333333
2026-01-20T23:03:12+00:00,SAT-65523,269.09886365038204,33.4290809584971,3808.967821670277,-0.6096458717654062,21352.37722870522,10.5,10500021352.377228,47.655,-122.3035,60.0,3.2
2026-01-20T23:03:13+00:00,SAT-65523,268.9595218241121,33.40988785892431,3808.3598015208363,-0.5969821093062802,20908.838699724532,10.5,10500020908.8387,47.655,-122.3035,60.0,3.216666666666667
2026-01-20T23:03:14+00:00,SAT-65523,268.82022530295956,33.39042378911442,3807.7644113638216,-0.584311848495086,20465.072570966422,10.5,10500020465.07257,47.655,-122.3035,60.0,3.2333333333333334
2026-01-20T23:03:15+00:00,SAT-65523,268.68097602322655,33.37068895886857,3807.1816576802557,-0.5716352304954548,20021.083786578365,10.5,10500020021.083786,47.655,-122.3035,60.0,3.25
2026-01-20T23:03:16+00:00,SAT-65523,268.5417759170641,33.35068358722333,3806.6115468103744,-0.5589523910122294,19576.877099517988,10.5,10500019576.8771,47.655,-122.3035,60.0,3.2666666666666666
2026-01-20T23:03:17+00:00,SAT-65523,268.40262691357,33.33040790261417,3806.054084959072,-0.5462634708715826,19132.45744211356,10.5,10500019132.457441,47.655,-122.3035,60.0,3.283333333333333
2026-01-20T23:03:18+00:00,SAT-65523,268.2635309376127,33.30986214271362,3805.5092781907892,-0.5335686101627689,18687.82972088335,10.5,10500018687.829721,47.655,-122.3035,60.0,3.3
2026-01-20T23:03:19+00:00,SAT-65523,268.12448990993033,33.28904655444578,3804.9771324302537,-0.5208679495310355,18242.998861818844,10.5,10500018242.998861,47.655,-122.3035,60.0,3.316666666666667
2026-01-20T23:03:20+00:00,SAT-65523,267.9855057468486,33.26796139394736,3804.4576534619214,-0.5081616251899528,17797.969635695452,10.5,10500017797.969635,47.655,-122.3035,60.0,3.3333333333333335
2026-01-20T23:03:21+00:00,SAT-65523,267.8465803612805,33.246606926721924,3803.9508469343987,-0.49544978137889767,17352.747094386297,10.5,10500017352.747095,47.655,-122.3035,60.0,3.35
2026-01-20T23:03:22+00:00,SAT-65523,267.70771566076235,33.22498342734475,3803.4567183524364,-0.48273255642156954,16907.336082572434,10.5,10500016907.336082,47.655,-122.3035,60.0,3.3666666666666667
2026-01-20T23:03:23+00:00,SAT-65523,267.56891354879014,33.20309117966523,3802.9752730828322,-0.4700100935215934,16461.74161585056,10.5,10500016461.741615,47.655,-122.3035,60.0,3.3833333333333333
2026-01-20T23:03:24+00:00,SAT-65523,267.43017592353914,33.18093047660834,3802.50651634956,-0.45728253068858843,16015.968527901321,10.5,10500016015.968529,47.655,-122.3035,60.0,3.4
2026-01-20T23:03:25+00:00,SAT-65523,267.2915046790739,33.15850162036602,3802.050453238953,-0.4445500125146364,15570.021882951043,10.5,10500015570.021883,47.655,-122.3035,60.0,3.4166666666666665
2026-01-20T23:03:26+00:00,SAT-65523,267.1529017036351,33.135804922119924,3801.607088693139,-0.4318126789726093,15123.906583441794,10.5,10500015123.906584,47.655,-122.3035,60.0,3.433333333333333
2026-01-20T23:03:27+00:00,SAT-65523,267.01436888073926,33.11284070221516,3801.1764275146434,-0.4190706727706181,14677.62762761527,10.5,10500014677.627628,47.655,-122.3035,60.0,3.45
2026-01-20T23:03:28+00:00,SAT-65523,266.87590808835074,33.08960929002338,3800.758474363667,-0.4063241353335191,14231.189968768162,10.5,10500014231.189968,47.655,-122.3035,60.0,3.466666666666667
2026-01-20T23:03:29+00:00,SAT-65523,266.7375211992135,33.066111023990764,3800.353233759361,-0.39357320940449003,13784.598606370362,10.5,10500013784.598606,47.655,-122.3035,60.0,3.4833333333333334
2026-01-20T23:03:30+00:00,SAT-65523,266.59921008035445,33.04234625155193,3799.9607100785147,-0.38081803696488786,13337.85851320957,10.5,10500013337.858513,47.655,-122.3035,60.0,3.5
2026-01-20T23:03:31+00:00,SAT-65523,266.4609765933046,33.01831532915975,3799.5809075563147,-0.36805876340876487,12890.974781600515,10.5,10500012890.974781,47.655,-122.3035,60.0,3.5166666666666666
2026-01-20T23:03:32+00:00,SAT-65523,266.3228225929421,32.99401862207685,3799.213830282942,-0.35529552858752883,12443.952309731063,10.5,10500012443.95231,47.655,-122.3035,60.0,3.533333333333333
2026-01-20T23:03:33+00:00,SAT-65523,266.1847499291559,32.969456504660386,3798.8594822090977,-0.3425284773361903,11996.79617033594,10.5,10500011996.796171,47.655,-122.3035,60.0,3.55
2026-01-20T23:03:34+00:00,SAT-65523,266.04676044513974,32.94462936004983,3798.517867141034,-0.32975775307030214,11549.511386434455,10.5,10500011549.511387,47.655,-122.3035,60.0,3.566666666666667
2026-01-20T23:03:35+00:00,SAT-65523,265.90885597794477,32.919537580258236,3798.188988741972,-0.31698349944987114,11102.10298960772,10.5,10500011102.10299,47.655,-122.3035,60.0,3.5833333333333335
2026-01-20T23:03:36+00:00,SAT-65523,265.77103835810556,32.894181566090666,3797.872850531854,-0.304205859629225,10654.57599372584,10.5,10500010654.575994,47.655,-122.3035,60.0,3.6
2026-01-20T23:03:37+00:00,SAT-65523,265.63330940998105,32.868561727198,3797.5694558878504,-0.2914249782202658,10206.935463709335,10.5,10500010206.935463,47.655,-122.3035,60.0,3.6166666666666667
2026-01-20T23:03:38+00:00,SAT-65523,265.4956709509311,32.84267848191019,3797.278808042906,-0.27864099975510564,9759.186461684134,10.5,10500009759.186462,47.655,-122.3035,60.0,3.6333333333333333
2026-01-20T23:03:39+00:00,SAT-65523,265.35812479155305,32.81653225726723,3797.0009100858165,-0.2658540676487889,9311.334010651739,10.5,10500009311.334011,47.655,-122.3035,60.0,3.65
2026-01-20T23:03:40+00:00,SAT-65523,265.22067273574953,32.79012348901842,3796.735764962348,-0.25306432657369593,8863.38317765088,10.5,10500008863.383177,47.655,-122.3035,60.0,3.6666666666666665
2026-01-20T23:03:41+00:00,SAT-65523,265.0833165804073,32.76345262154529,3796.4833754739784,-0.24027192190558344,8415.339054355483,10.5,10500008415.339054,47.655,-122.3035,60.0,3.683333333333333
2026-01-20T23:03:42+00:00,SAT-65523,264.94605811492295,32.73652010775396,3796.243744277198,-0.22747699790822284,7967.206693493069,10.5,10500007967.206694,47.655,-122.3035,60.0,3.7
2026-01-20T23:03:43+00:00,SAT-65523,264.80889912164656,32.70932640914403,3796.016873884618,-0.21467969908780676,7518.991156281761,10.5,10500007518.991156,47.655,-122.3035,60.0,3.716666666666667
2026-01-20T23:03:44+00:00,SAT-65523,264.67184137564357,32.68187199574451,3795.802766664727,-0.20188017031085556,7070.697516559884,10.5,10500007070.697517,47.655,-122.3035,60.0,3.7333333333333334
2026-01-20T23:03:45+00:00,SAT-65523,264.53488664458564,32.6541573460742,3795.601424841537,-0.18907855851996724,6622.3309208787905,10.5,10500006622.330921,47.655,-122.3035,60.0,3.75
2026-01-20T23:03:46+00:00,SAT-65523,264.3980366877336,32.626182946916636,3795.4128504925065,-0.17627500662958995,6173.896374706979,10.5,10500006173.896376,47.655,-122.3035,60.0,3.7666666666666666
2026-01-20T23:03:47+00:00,SAT-65523,264.2612932576083,32.59794929363627,3795.2370455525615,-0.16346966101972246,5725.3990048911965,10.5,10500005725.399004,47.655,-122.3035,60.0,3.783333333333333
2026-01-20T23:03:48+00:00,SAT-65523,264.12465809841933,32.5694568898409,3795.074011810638,-0.1506626672673764,5276.843910154178,10.5,10500005276.84391,47.655,-122.3035,60.0,3.8
2026-01-20T23:03:49+00:00,SAT-65523,263.98813294630247,32.540706247401715,3794.9237509104832,-0.13785417123619925,4828.236199257862,10.5,10500004828.236198,47.655,-122.3035,60.0,3.816666666666667
2026-01-20T23:03:50+00:00,SAT-65523,263.85171952908433,32.51169788638243,3794.78626435037,-0.12504431695414864,4379.58091667056,10.5,10500004379.580917,47.655,-122.3035,60.0,3.8333333333333335
2026-01-20T23:03:51+00:00,SAT-65523,263.71541956739236,32.48243233525416,3794.661553484928,-0.11223325187255064,3930.8832267614343,10.5,10500003930.883226,47.655,-122.3035,60.0,3.85
2026-01-20T23:03:52+00:00,SAT-65523,263.5792347724462,32.452910130395175,3794.5496195217274,-0.09942112115777527,3482.1482138708116,10.5,10500003482.148214,47.655,-122.3035,60.0,3.8666666666666667
2026-01-20T23:03:53+00:00,SAT-65523,263.44316684739266,32.4231318163501,3794.4504635235594,-0.08660806969768801,3033.380952584618,10.5,10500003033.380953,47.655,-122.3035,60.0,3.8833333333333333
2026-01-20T23:03:54+00:00,SAT-65523,263.3072174874013,32.39309794583004,3794.364086408714,-0.07379424478809969,2584.586601825209,10.5,10500002584.586601,47.655,-122.3035,60.0,3.9
2026-01-20T23:03:55+00:00,SAT-65523,263.1713883781549,32.362809079348345,3794.2904889485785,-0.06097979080001636,2135.7702180759056,10.5,10500002135.770218,47.655,-122.3035,60.0,3.9166666666666665
2026-01-20T23:03:56+00:00,SAT-65523,263.0356811975886,32.3322657855822,3794.229671770554,-0.04816485520356818,1686.9369663644636,10.5,10500001686.936966,47.655,-122.3035,60.0,3.933333333333333
2026-01-20T23:03:57+00:00,SAT-65523,262.9000976137291,32.30146864085435,3794.1816353549643,-0.03534958317071556,1238.0919312270134,10.5,10500001238.09193,47.655,-122.3035,60.0,3.95
2026-01-20T23:03:58+00:00,SAT-65523,262.7646392862176,32.27041822944908,3794.1463800373485,-0.022534120199695952,789.2402086272881,10.5,10500000789.24021,47.655,-122.3035,60.0,3.966666666666667
2026-01-20T23:03:59+00:00,SAT-65523,262.62930786611884,32.23911514353741,3794.1239060081366,-0.00971861298153866,340.3869363056356,10.5,10500000340.386936,47.655,-122.3035,60.0,3.9833333333333334
2026-01-20T23:04:00+00:00,SAT-65523,262.4941049947179,32.207559982870485,3794.1142133114563,0.0030967924767908534,-108.46277195640445,10.5,10499999891.537228,47.655,-122.3035,60.0,4.0
2026-01-20T23:04:01+00:00,SAT-65523,262.3590323040903,32.175753354874665,3794.11730184582,0.015911950897622488,-557.3038279203013,10.5,10499999442.696173,47.655,-122.3035,60.0,4.016666666666667
2026-01-20T23:04:02+00:00,SAT-65523,262.2240914177659,32.14369587477669,3794.133171364848,0.028726715360719846,-1006.1310858179041,10.5,10499998993.868914,47.655,-122.3035,60.0,4.033333333333333
2026-01-20T23:04:03+00:00,SAT-65523,262.0892839487932,32.111388165109325,3794.1618214756345,0.04154094069513899,-1454.9394611486837,10.5,10499998545.06054,47.655,-122.3035,60.0,4.05
2026-01-20T23:04:04+00:00,SAT-65523,261.9546115015937,32.07883085611893,3794.203251640488,0.05435448030590415,-1903.723819536493,10.5,10499998096.27618,47.655,-122.3035,60.0,4.066666666666666
2026-01-20T23:04:05+00:00,SAT-65523,261.82007567026426,32.04602458531836,3794.257461175513,0.06716718903325224,-2352.479076872403,10.5,10499997647.520924,47.655,-122.3035,60.0,4.083333333333333
2026-01-20T23:04:06+00:00,SAT-65523,261.6856780404213,32.01296999790228,3794.324449252042,0.07997892028830614,-2801.200098993866,10.5,10499997198.7999,47.655,-122.3035,60.0,4.1
2026-01-20T23:04:07+00:00,SAT-65523,261.5514201865319,31.979667746051454,3794.40421489521,0.09278952870903127,-3249.8817947075518,10.5,10499996750.118206,47.655,-122.3035,60.0,4.116666666666666
2026-01-20T23:04:08+00:00,SAT-65523,261.4173036739861,31.946118489404267,3794.4967569851756,0.10559886835148143,-3698.519052439121,10.5,10499996301.480947,47.655,-122.3035,60.0,4.133333333333334
2026-01-20T23:04:09+00:00,SAT-65523,261.2833300581549,31.912322894785724,3794.6020742565443,0.11840679360256144,-4147.106772202038,10.5,10499995852.893229,47.655,-122.3035,60.0,4.15
2026-01-20T23:04:10+00:00,SAT-65523,261.1495008848449,31.87828163628129,3794.7201652986973,0.13121315871297323,-4595.639849239366,10.5,10499995404.360151,47.655,-122.3035,60.0,4.166666666666667
2026-01-20T23:04:11+00:00,SAT-65523,261.01581768882573,31.84399539481957,3794.851028555654,0.1440178182515644,-5044.113189936973,10.5,10499994955.88681,47.655,-122.3035,60.0,4.183333333333334
2026-01-20T23:04:12+00:00,SAT-65523,260.8822819954642,31.809464858548274,3794.9946623263904,0.15682062663471652,-5492.521695340726,10.5,10499994507.478304,47.655,-122.3035,60.0,4.2
2026-01-20T23:04:13+00:00,SAT-65523,260.7488953195922,31.774690722498228,3795.1510647646874,0.16962143845668806,-5940.86027272649,10.5,10499994059.139727,47.655,-122.3035,60.0,4.216666666666667
2026-01-20T23:04:14+00:00,SAT-65523,260.6156591661636,31.73967368871465,3795.320233879308,0.18242010847284326,-6389.123835012735,10.5,10499993610.876165,47.655,-122.3035,60.0,4.233333333333333
2026-01-20T23:04:15+00:00,SAT-65523,260.4825750292364,31.70441446594077,3795.502167534158,0.1952164917907426,-6837.307307453335,10.5,10499993162.692692,47.655,-122.3035,60.0,4.25
2026-01-20T23:04:16+00:00,SAT-65523,260.34964439242015,31.668913769690725,3795.6968634486375,0.2080104427779785,-7285.405589385356,10.5,10499992714.59441,47.655,-122.3035,60.0,4.266666666666667
2026-01-20T23:04:17+00:00,SAT-65523,260.21686872915154,31.633172322277726,3795.9043191969013,0.22080181676217073,-7733.413613770072,10.5,10499992266.586386,47.655,-122.3035,60.0,4.283333333333333
2026-01-20T23:04:18+00:00,SAT-65523,260.08424950249884,31.597190852714302,3796.124532208819,0.23359046884071527,-8181.3263055053585,10.5,10499991818.673695,47.655,-122.3035,60.0,4.3
2026-01-20T23:04:19+00:00,SAT-65523,259.9517881643609,31.56097009645052,3796.3574997697424,0.24637625475492267,-8629.138612041694,10.5,10499991370.861387,47.655,-122.3035,60.0,4.316666666666666
2026-01-20T23:04:20+00:00,SAT-65523,259.8194861559324,31.524510795444144,3796.6032190211517,0.25915902925100925,-9076.845445977155,10.5,10499990923.154554,47.655,-122.3035,60.0,4.333333333333333
2026-01-20T23:04:21+00:00,SAT-65523,259.6873449081858,31.487813698248846,3796.8616869596576,0.2719386484011365,-9524.441766350017,10.5,10499990475.558233,47.655,-122.3035,60.0,4.35
2026-01-20T23:04:22+00:00,SAT-65523,259.5553658408342,31.450879559678416,3797.13290043833,0.28471496779313266,-9971.922515235165,10.5,10499990028.077484,47.655,-122.3035,60.0,4.366666666666666
2026-01-20T23:04:23+00:00,SAT-65523,259.42355036282726,31.413709140888148,3797.416856166209,0.2974878435560798,-10419.282653664484,10.5,10499989580.717346,47.655,-122.3035,60.0,4.383333333333334
2026-01-20T23:04:24+00:00,SAT-65523,259.2918998720609,31.37630320924552,3797.713550708849,0.31025713098557994,-10866.517113477848,10.5,10499989133.482887,47.655,-122.3035,60.0,4.4
2026-01-20T23:04:25+00:00,SAT-65523,259.1604157558745,31.338662538417438,3798.0229804874853,0.3230226877795896,-11313.620910655767,10.5,10499988686.37909,47.655,-122.3035,60.0,4.416666666666667
2026-01-20T23:04:26+00:00,SAT-65523,259.0290993898119,31.300787907959993,3798.345141781431,0.33578436913816523,-11760.588973691709,10.5,10499988239.411026,47.655,-122.3035,60.0,4.433333333333334
2026-01-20T23:04:27+00:00,SAT-65523,258.8979521389618,31.262680103652848,3798.680030725585,0.34854203218954916,-12207.416298612376,10.5,10499987792.583702,47.655,-122.3035,60.0,4.45
2026-01-20T23:04:28+00:00,SAT-65523,258.76697535705193,31.22433991718063,3799.027643312355,0.36129553371995177,-12654.09786946506,10.5,10499987345.90213,47.655,-122.3035,60.0,4.466666666666667
2026-01-20T23:04:29+00:00,SAT-65523,258.6361703866224,31.185768146127106,3799.3879753913184,0.37404473067008215,-13100.628675708256,10.5,10499986899.371325,47.655,-122.3035,60.0,4.483333333333333
2026-01-20T23:04:30+00:00,SAT-65523,258.5055385589654,31.14696559390431,3799.7610226693732,0.3867894805391833,-13547.003726362671,10.5,10499986452.996273,47.655,-122.3035,60.0,4.5
2026-01-20T23:04:31+00:00,SAT-65523,258.3750811939938,31.10793306964982,3800.1467807112977,0.3995296404397424,-13993.218016903196,10.5,10499986006.781982,47.655,-122.3035,60.0,4.516666666666667
2026-01-20T23:04:32+00:00,SAT-65523,258.24479960059773,31.06867138828037,3800.545244939363,0.4122650685840345,-14439.266581323946,10.5,10499985560.73342,47.655,-122.3035,60.0,4.533333333333333
2026-01-20T23:04:33+00:00,SAT-65523,258.1146950758901,31.029181370203936,3800.9564106344305,0.42499562246825306,-14885.144428538817,10.5,10499985114.855572,47.655,-122.3035,60.0,4.55
2026-01-20T23:04:34+00:00,SAT-65523,257.98476890588074,30.989463841466012,3801.380272935239,0.43772116013391144,-15330.846586561129,10.5,10499984669.153414,47.655,-122.3035,60.0,4.566666666666666
2026-01-20T23:04:35+00:00,SAT-65523,257.8550223651435,30.949519633586092,3801.816826838946,0.4504415404575277,-15776.368112649589,10.5,10499984223.631887,47.655,-122.3035,60.0,4.583333333333333
2026-01-20T23:04:36+00:00,SAT-65523,257.7254567165552,30.90934958341914,3802.2660672019624,0.4631566227542138,-16221.704079424324,10.5,10499983778.295921,47.655,-122.3035,60.0,4.6
2026-01-20T23:04:37+00:00,SAT-65523,257.59607321127044,30.86895453308111,3802.7279887403893,0.4758662636607637,-16666.84946569943,10.5,10499983333.150534,47.655,-122.3035,60.0,4.616666666666666
2026-01-20T23:04:38+00:00,SAT-65523,257.466873089832,30.828335330237582,3803.202586027347,0.48857032508522646,-17111.79943491066,10.5,10499982888.200565,47.655,-122.3035,60.0,4.633333333333334
2026-01-20T23:04:39+00:00,SAT-65523,257.3378575800615,30.78749282737816,3803.6898534982315,0.5012686640099853,-17556.54897797611,10.5,10499982443.451021,47.655,-122.3035,60.0,4.65
2026-01-20T23:04:40+00:00,SAT-65523,257.2090278992023,30.746427882429526,3804.1897854458043,0.5139611438560596,-18001.093311322147,10.5,10499981998.906689,47.655,-122.3035,60.0,4.666666666666667
2026-01-20T23:04:41+00:00,SAT-65523,257.0803852515194,30.705141357923424,3804.70237602661,0.5266476197625196,-18445.427361306254,10.5,10499981554.57264,47.655,-122.3035,60.0,4.683333333333334
2026-01-20T23:04:42+00:00,SAT-65523,256.9519308312671,30.66363412189026,3805.2276192527197,0.5393279559238952,-18889.546371446406,10.5,10499981110.453629,47.655,-122.3035,60.0,4.7
2026-01-20T23:04:43+00:00,SAT-65523,256.8236658197725,30.621907046846797,3805.7655090007615,0.5520020111653745,-19333.445397203526,10.5,10499980666.554604,47.655,-122.3035,60.0,4.716666666666667
2026-01-20T23:04:44+00:00,SAT-65523,256.6955913872682,30.579961010326603,3806.3160390065636,0.5646696477934509,-19777.11961596857,10.5,10499980222.880384,47.655,-122.3035,60.0,4.733333333333333
2026-01-20T23:04:45+00:00,SAT-65523,256.56770869173914,30.537796894438095,3806.87920286863,0.5773307257971358,-20220.564123964476,10.5,10499979779.435877,47.655,-122.3035,60.0,4.75
2026-01-20T23:04:46+00:00,SAT-65523,256.4400188799316,30.49541558612448,3807.4549940458246,0.5899851066092932,-20663.77406798398,10.5,10499979336.225931,47.655,-122.3035,60.0,4.766666666666667
2026-01-20T23:04:47+00:00,SAT-65523,256.31252308672265,30.452817976893563,3808.0434058588166,0.6026326530100768,-21106.74464200766,10.5,10499978893.255358,47.655,-122.3035,60.0,4.783333333333333
2026-01-20T23:04:48+00:00,SAT-65523,256.18522243508727,30.410004962733606,3808.6444314914183,0.6152732279199102,-21549.47104492888,10.5,10499978450.528955,47.655,-122.3035,60.0,4.8
2026-01-20T23:04:49+00:00,SAT-65523,256.0581180359019,30.366977443977678,3809.258063990731,0.6279066924209852,-21991.94841125838,10.5,10499978008.051588,47.655,-122.3035,60.0,4.816666666666666
2026-01-20T23:04:50+00:00,SAT-65523,255.9312109887274,30.32373632549983,3809.8842962653052,0.640532909972946,-22434.171958775336,10.5,10499977565.828041,47.655,-122.3035,60.0,4.833333333333333
2026-01-20T23:04:51+00:00,SAT-65523,255.80450238110149,30.280282516402952,3810.523121087518,0.6531517439586956,-22876.13690257112,10.5,10499977123.863098,47.655,-122.3035,60.0,4.85
2026-01-20T23:04:52+00:00,SAT-65523,255.6779932887111,30.236616930010467,3811.174531093493,0.6657630577550382,-23317.838457523507,10.5,10499976682.161543,47.655,-122.3035,60.0,4.866666666666666
2026-01-20T23:04:53+00:00,SAT-65523,255.55168477550504,30.192740483826906,3811.838518783094,0.6783667168412834,-23759.271912148888,10.5,10499976240.728088,47.655,-122.3035,60.0,4.883333333333334
2026-01-20T23:04:54+00:00,SAT-65523,255.4255778931649,30.148654099288294,3812.5150765220237,0.6909625831346284,-24200.432430203426,10.5,10499975799.56757,47.655,-122.3035,60.0,4.9
2026-01-20T23:04:55+00:00,SAT-65523,255.29967368211663,30.10435870204092,3813.20419653827,0.7035505231028703,-24641.31533482452,10.5,10499975358.684666,47.655,-122.3035,60.0,4.916666666666667
2026-01-20T23:04:56+00:00,SAT-65523,255.17397317052107,30.059855221510844,3813.9058709266446,0.7161304020875906,-25081.915909704778,10.5,10499974918.084091,47.655,-122.3035,60.0,4.933333333333334
2026-01-20T23:04:57+00:00,SAT-65523,255.04847737465826,30.01514459096979,3814.62009164766,0.7287020840032906,-25522.229388554366,10.5,10499974477.77061,47.655,-122.3035,60.0,4.95
