satellites_20260121_005943/SAT-56317.csv

timestamp,satellite,azimuth_deg,elevation_deg,distance_km,relative_velocity_kms,doppler_shift_hz,tx_freq_ghz,rx_freq_hz,ue_lat,ue_lon,ue_alt_m,time_minutes
2026-01-20T23:04:08+00:00,SAT-56317,345.302151762044,30.070822942690675,2327.2686584455823,0.4115507952612342,-14414.24970818632,10.5,10499985585.750292,47.655,-122.3035,60.0,4.133333333333334
2026-01-20T23:04:09+00:00,SAT-56317,345.11802682095697,30.17669930340154,2327.6791117720563,0.4342192909642084,-15208.196315346227,10.5,10499984791.803684,47.655,-122.3035,60.0,4.15
2026-01-20T23:04:10+00:00,SAT-56317,344.9334479808036,30.28212713542836,2328.112173144911,0.4568750187747671,-16001.695736905613,10.5,10499983998.304262,47.655,-122.3035,60.0,4.166666666666667
2026-01-20T23:04:11+00:00,SAT-56317,344.7484181564773,30.387102639770376,2328.5678298303023,0.47951730149159355,-16794.724254409804,10.5,10499983205.275745,47.655,-122.3035,60.0,4.183333333333334
2026-01-20T23:04:12+00:00,SAT-56317,344.56294031669296,30.49162204546493,2329.0460684189898,0.5021454622904703,-17587.258162611743,10.5,10499982412.741837,47.655,-122.3035,60.0,4.2
2026-01-20T23:04:13+00:00,SAT-56317,344.37701748464735,30.595681609856094,2329.5468748267144,0.5247588263825996,-18379.27382755338,10.5,10499981620.726171,47.655,-122.3035,60.0,4.216666666666667
2026-01-20T23:04:14+00:00,SAT-56317,344.1906527378752,30.699277619299696,2330.0702342962268,0.5473567229692178,-19170.747755024535,10.5,10499980829.252245,47.655,-122.3035,60.0,4.233333333333333
2026-01-20T23:04:15+00:00,SAT-56317,344.0038492079798,30.802406389928876,2330.616131401268,0.569938477667595,-19961.65632528937,10.5,10499980038.343676,47.655,-122.3035,60.0,4.25
2026-01-20T23:04:16+00:00,SAT-56317,343.8166100818232,30.90506426760367,2331.1845500429954,0.5925034266370037,-20751.976287837566,10.5,10499979248.023712,47.655,-122.3035,60.0,4.266666666666667
2026-01-20T23:04:17+00:00,SAT-56317,343.6289385998691,31.007247629406297,2331.7754734604946,0.6150509043504438,-21541.6843330984,10.5,10499978458.315666,47.655,-122.3035,60.0,4.283333333333333
2026-01-20T23:04:18+00:00,SAT-56317,343.4408380567364,31.108952883922235,2332.3888842291,0.6375802468802824,-22330.757207517763,10.5,10499977669.242792,47.655,-122.3035,60.0,4.3
2026-01-20T23:04:19+00:00,SAT-56317,343.25231180177775,31.21017647147485,2333.0247642619884,0.6600907947778278,-23119.171814413,10.5,10499976880.828186,47.655,-122.3035,60.0,4.316666666666666
2026-01-20T23:04:20+00:00,SAT-56317,343.0633632382524,31.31091486514027,2333.683094814647,0.6825818879403092,-23906.90503419284,10.5,10499976093.094965,47.655,-122.3035,60.0,4.333333333333333
2026-01-20T23:04:21+00:00,SAT-56317,342.8739958241813,31.41116457082226,2334.3638564842195,0.7050528752502809,-24693.934061970132,10.5,10499975306.065939,47.655,-122.3035,60.0,4.35
2026-01-20T23:04:22+00:00,SAT-56317,342.68421307086464,31.510922128558047,2335.0670292184686,0.7275031059775615,-25480.236106421315,10.5,10499974519.763893,47.655,-122.3035,60.0,4.366666666666666
2026-01-20T23:04:23+00:00,SAT-56317,342.494018543408,31.610184112749888,2335.7925923161642,0.7499319232414935,-26265.788160807173,10.5,10499973734.21184,47.655,-122.3035,60.0,4.383333333333334
2026-01-20T23:04:24+00:00,SAT-56317,342.3034158622796,31.70894713185503,2336.5405244209437,0.7723386936315162,-27050.568040410544,10.5,10499972949.43196,47.655,-122.3035,60.0,4.4
2026-01-20T23:04:25+00:00,SAT-56317,342.11240869934426,31.8072078309186,2337.3108035447253,0.7947227625646343,-27834.552818966047,10.5,10499972165.447182,47.655,-122.3035,60.0,4.416666666666667
2026-01-20T23:04:26+00:00,SAT-56317,341.92100078216976,31.904962889830923,2338.10340704659,0.8170834977117787,-28617.720349634936,10.5,10499971382.27965,47.655,-122.3035,60.0,4.433333333333334
2026-01-20T23:04:27+00:00,SAT-56317,341.72919589047564,32.00220902559135,2338.9183116549743,0.8394202601466801,-29400.048254516598,10.5,10499970599.951746,47.655,-122.3035,60.0,4.45
2026-01-20T23:04:28+00:00,SAT-56317,341.5369978576471,32.09894299198285,2339.755493461094,0.8617324199614287,-30181.514471571536,10.5,10499969818.485529,47.655,-122.3035,60.0,4.466666666666667
2026-01-20T23:04:29+00:00,SAT-56317,341.34441056961475,32.195161580557134,2340.6149279279357,0.8840193463688947,-30962.096907966225,10.5,10499969037.903091,47.655,-122.3035,60.0,4.483333333333333
2026-01-20T23:04:30+00:00,SAT-56317,341.1514379654042,32.29086162076228,2341.4965898893806,0.9062804127549409,-31741.77361702301,10.5,10499968258.226383,47.655,-122.3035,60.0,4.5
2026-01-20T23:04:31+00:00,SAT-56317,340.95808403677313,32.38603998053327,2342.4004535543686,0.9285149955227303,-32520.522757742852,10.5,10499967479.477242,47.655,-122.3035,60.0,4.516666666666667
2026-01-20T23:04:32+00:00,SAT-56317,340.76435282794324,32.48069356680274,2343.326492509903,0.9507224817561731,-33298.32286321165,10.5,10499966701.677137,47.655,-122.3035,60.0,4.533333333333333
2026-01-20T23:04:33+00:00,SAT-56317,340.57024843442406,32.57481932642985,2344.274679731708,0.9729022527297196,-34075.15226304344,10.5,10499965924.847736,47.655,-122.3035,60.0,4.55
2026-01-20T23:04:34+00:00,SAT-56317,340.3757750041188,32.66841424601655,2345.24498757843,0.9950536998700171,-34850.98964242516,10.5,10499965149.010357,47.655,-122.3035,60.0,4.566666666666666
2026-01-20T23:04:35+00:00,SAT-56317,340.18093673611173,32.76147535283061,2346.2373878017675,1.0171762114369967,-35625.81357563193,10.5,10499964374.186424,47.655,-122.3035,60.0,4.583333333333333
2026-01-20T23:04:36+00:00,SAT-56317,339.9857378814454,32.85399971475233,2347.251851543307,1.0392691937786382,-36399.603270458865,10.5,10499963600.39673,47.655,-122.3035,60.0,4.6
2026-01-20T23:04:37+00:00,SAT-56317,339.7901827405909,32.94598444177457,2348.2883493525687,1.0613320417866328,-37172.33753345338,10.5,10499962827.662466,47.655,-122.3035,60.0,4.616666666666666
2026-01-20T23:04:38+00:00,SAT-56317,339.5942756654643,33.03742668534451,2349.3468511755773,1.083364159380686,-37943.99548736214,10.5,10499962056.004513,47.655,-122.3035,60.0,4.633333333333334
2026-01-20T23:04:39+00:00,SAT-56317,339.3980210584507,33.12832363909094,2350.4273263638665,1.105364962980678,-38714.556692740814,10.5,10499961285.443308,47.655,-122.3035,60.0,4.65
2026-01-20T23:04:40+00:00,SAT-56317,339.2014233705772,33.21867253993203,2351.529743686946,1.1273338607555403,-39484.000421161945,10.5,10499960515.999578,47.655,-122.3035,60.0,4.666666666666667
2026-01-20T23:04:41+00:00,SAT-56317,339.00448710320717,33.30847066752973,2352.654071324073,1.1492702705939082,-40252.3062846232,10.5,10499959747.693716,47.655,-122.3035,60.0,4.683333333333334
2026-01-20T23:04:42+00:00,SAT-56317,338.8072168066532,33.397715345158,2353.800276873945,1.1711736196970353,-41019.454221289554,10.5,10499958980.545778,47.655,-122.3035,60.0,4.7
2026-01-20T23:04:43+00:00,SAT-56317,338.60961707913316,33.48640394038429,2354.96832736399,1.193043333965641,-41785.42412377576,10.5,10499958214.575876,47.655,-122.3035,60.0,4.716666666666667
2026-01-20T23:04:44+00:00,SAT-56317,338.41169256710356,33.57453386510852,2356.158189249065,1.2148788446403103,-42550.19607172125,10.5,10499957449.803928,47.655,-122.3035,60.0,4.733333333333333
2026-01-20T23:04:45+00:00,SAT-56317,338.2134479648141,33.66210257593371,2357.3698284167863,1.2366795836533144,-43313.75016899125,10.5,10499956686.24983,47.655,-122.3035,60.0,4.75
2026-01-20T23:04:46+00:00,SAT-56317,338.0148880141388,33.74910757442731,2358.603210188216,1.2584449998713165,-44076.067112565,10.5,10499955923.932888,47.655,-122.3035,60.0,4.766666666666667
2026-01-20T23:04:47+00:00,SAT-56317,337.8160175026576,33.83554640808699,2359.8582993347545,1.2801745321612465,-44837.1272491888,10.5,10499955162.872751,47.655,-122.3035,60.0,4.783333333333333
2026-01-20T23:04:48+00:00,SAT-56317,337.6168412648832,33.92141666995242,2361.1350600681635,1.301867638020864,-45596.91157813941,10.5,10499954403.088423,47.655,-122.3035,60.0,4.8
2026-01-20T23:04:49+00:00,SAT-56317,337.4173641801597,34.00671599961369,2362.4334560591496,1.323523764568047,-46355.40073514623,10.5,10499953644.599264,47.655,-122.3035,60.0,4.816666666666666
2026-01-20T23:04:50+00:00,SAT-56317,337.21759117385733,34.0914420828143,2363.753450427012,1.345142377310098,-47112.57600001407,10.5,10499952887.424,47.655,-122.3035,60.0,4.833333333333333
2026-01-20T23:04:51+00:00,SAT-56317,337.0175272152318,34.17559265244033,2365.095005757983,1.3667229386531623,-47868.418543932166,10.5,10499952131.581455,47.655,-122.3035,60.0,4.85
2026-01-20T23:04:52+00:00,SAT-56317,336.8171773177912,34.25916548843136,2366.458084102133,1.3882649223209318,-48622.90993447802,10.5,10499951377.090065,47.655,-122.3035,60.0,4.866666666666666
2026-01-20T23:04:53+00:00,SAT-56317,336.6165465379132,34.34215841841794,2367.842646984661,1.4097677999991365,-49376.031667851144,10.5,10499950623.968332,47.655,-122.3035,60.0,4.883333333333334
2026-01-20T23:04:54+00:00,SAT-56317,336.4156399752025,34.424569317597644,2369.24865540386,1.4312310514643654,-50127.76552362714,10.5,10499949872.234476,47.655,-122.3035,60.0,4.9
2026-01-20T23:04:55+00:00,SAT-56317,336.2144627713746,34.506396109230444,2370.6760698391868,1.4526541689730523,-50878.093718478565,10.5,10499949121.906282,47.655,-122.3035,60.0,4.916666666666667
2026-01-20T23:04:56+00:00,SAT-56317,336.01302010882074,34.58763676522038,2372.1248502637095,1.474036629085771,-51626.997919342575,10.5,10499948373.00208,47.655,-122.3035,60.0,4.933333333333334
2026-01-20T23:04:57+00:00,SAT-56317,335.81131721236835,34.66828930540428,2373.594956128451,1.4953779386062378,-52374.46085239909,10.5,10499947625.539148,47.655,-122.3035,60.0,4.95
2026-01-20T23:04:58+00:00,SAT-56317,335.609359345709,34.74835179895795,2375.0863463925543,1.5166775997809627,-53120.46508421539,10.5,10499946879.534916,47.655,-122.3035,60.0,4.966666666666667
2026-01-20T23:04:59+00:00,SAT-56317,335.40715181182884,34.82782236417599,2376.5989795187356,1.537935113404471,-53864.993130504125,10.5,10499946135.00687,47.655,-122.3035,60.0,4.983333333333333
2026-01-20T23:05:00+00:00,SAT-56317,335.20469995313545,34.90669916837162,2378.132813471838,1.559149989412637,-54608.02782714664,10.5,10499945391.972174,47.655,-122.3035,60.0,5.0
2026-01-20T23:05:01+00:00,SAT-56317,335.00200915024806,34.98498042828766,2379.6878057279455,1.580321747596226,-55349.552355184234,10.5,10499944650.447645,47.655,-122.3035,60.0,5.016666666666667
2026-01-20T23:05:02+00:00,SAT-56317,334.7990848207872,35.062664410479066,2381.2639132842146,1.6014499130716358,-56089.55008218444,10.5,10499943910.449919,47.655,-122.3035,60.0,5.033333333333333
2026-01-20T23:05:03+00:00,SAT-56317,334.5959324186102,35.13974943150026,2382.861092664185,1.6225340064478653,-56828.00421784655,10.5,10499943171.995783,47.655,-122.3035,60.0,5.05
2026-01-20T23:05:04+00:00,SAT-56317,334.3925574342235,35.21623385764283,2384.4792999132824,1.6435735725704048,-57564.89882073434,10.5,10499942435.10118,47.655,-122.3035,60.0,5.066666666666666
2026-01-20T23:05:05+00:00,SAT-56317,334.1889653918508,35.29211610590479,2386.118490622993,1.6645681354086015,-58300.217218240745,10.5,10499941699.782782,47.655,-122.3035,60.0,5.083333333333333
2026-01-20T23:05:06+00:00,SAT-56317,333.985161851628,35.367394643036064,2387.77861991004,1.6855172510558651,-59033.94386287925,10.5,10499940966.056137,47.655,-122.3035,60.0,5.1
2026-01-20T23:05:07+00:00,SAT-56317,333.7811524058204,35.44206798677932,2389.459642448426,1.7064204635892593,-59766.062786300055,10.5,10499940233.937214,47.655,-122.3035,60.0,5.116666666666666
2026-01-20T23:05:08+00:00,SAT-56317,333.5769426800072,35.51613470526231,2391.1615124574464,1.7272773311279574,-60496.55851196749,10.5,10499939503.441488,47.655,-122.3035,60.0,5.133333333333334
2026-01-20T23:05:09+00:00,SAT-56317,333.37253833124447,35.58959341748719,2392.884183715691,1.7480874069579644,-61225.4153940678,10.5,10499938774.584606,47.655,-122.3035,60.0,5.15
2026-01-20T23:05:10+00:00,SAT-56317,333.167945048394,35.66244279301301,2394.6276095562303,1.7688502719097794,-61952.61875151203,10.5,10499938047.381248,47.655,-122.3035,60.0,5.166666666666667
2026-01-20T23:05:11+00:00,SAT-56317,332.9631685489558,35.73468155287049,2396.3917428940817,1.7895654873145257,-62678.15322026053,10.5,10499937321.846779,47.655,-122.3035,60.0,5.183333333333334
2026-01-20T23:05:12+00:00,SAT-56317,332.75821458085244,35.80630846870503,2398.1765362067636,1.8102326306672571,-63402.004002402886,10.5,10499936597.995998,47.655,-122.3035,60.0,5.2
2026-01-20T23:05:13+00:00,SAT-56317,332.55308892037914,35.87732236326558,2399.9819415504153,1.8308512979317324,-64124.15694688087,10.5,10499935875.843054,47.655,-122.3035,60.0,5.216666666666667
2026-01-20T23:05:14+00:00,SAT-56317,332.34779737019005,35.94772211083372,2401.80791057822,1.8514210628589498,-64844.59712465139,10.5,10499935155.402876,47.655,-122.3035,60.0,5.233333333333333
2026-01-20T23:05:15+00:00,SAT-56317,332.14234576100756,36.01750663639071,2403.654394518244,1.87194152581741,-65563.31053892891,10.5,10499934436.68946,47.655,-122.3035,60.0,5.25
2026-01-20T23:05:16+00:00,SAT-56317,331.93673994876144,36.08667491631081,2405.5213441999927,1.8924122961756766,-66280.28350814818,10.5,10499933719.716492,47.655,-122.3035,60.0,5.266666666666667
2026-01-20T23:05:17+00:00,SAT-56317,331.7309858133157,36.15522597849034,2407.4087100633787,1.9128329687804428,-66995.50184212656,10.5,10499933004.498158,47.655,-122.3035,60.0,5.283333333333333
2026-01-20T23:05:18+00:00,SAT-56317,331.5250892595369,36.22315890169438,2409.316442144242,1.9332031643599996,-67708.9522571645,10.5,10499932291.047743,47.655,-122.3035,60.0,5.3
2026-01-20T23:05:19+00:00,SAT-56317,331.3190562143561,36.29047281621802,2411.244490100164,1.953522496530105,-68420.62122045146,10.5,10499931579.37878,47.655,-122.3035,60.0,5.316666666666666
2026-01-20T23:05:20+00:00,SAT-56317,331.1128926271644,36.35716690342105,2413.1928032033697,1.9737905884823916,-69130.4955345645,10.5,10499930869.504465,47.655,-122.3035,60.0,5.333333333333333
2026-01-20T23:05:21+00:00,SAT-56317,330.90660446832413,36.42324039588858,2415.161330350283,1.9940070743153986,-69838.56238408668,10.5,10499930161.437616,47.655,-122.3035,60.0,5.35
2026-01-20T23:05:22+00:00,SAT-56317,330.7001977279092,36.48869257746981,2417.1500200724004,2.0141715909767433,-70544.80905338787,10.5,10499929455.190947,47.655,-122.3035,60.0,5.366666666666666
2026-01-20T23:05:23+00:00,SAT-56317,330.4936784148545,36.553522783193785,2419.1588205391345,2.0342837694246736,-71249.22261706488,10.5,10499928750.777384,47.655,-122.3035,60.0,5.383333333333334
2026-01-20T23:05:24+00:00,SAT-56317,330.28705255717273,36.61773039883203,2421.1876795518406,2.05434326764609,-71951.79109637221,10.5,10499928048.208904,47.655,-122.3035,60.0,5.4
2026-01-20T23:05:25+00:00,SAT-56317,330.08032619893686,36.68131486145348,2423.236544570773,2.074349738890776,-72652.50234665058,10.5,10499927347.497654,47.655,-122.3035,60.0,5.416666666666667
2026-01-20T23:05:26+00:00,SAT-56317,329.8735054003019,36.74427565902001,2425.30536271036,2.094302831009696,-73351.34403415115,10.5,10499926648.655966,47.655,-122.3035,60.0,5.433333333333334
2026-01-20T23:05:27+00:00,SAT-56317,329.66659623748546,36.80661232999588,2427.3940807338204,2.114202218059152,-74048.30474294686,10.5,10499925951.695257,47.655,-122.3035,60.0,5.45
2026-01-20T23:05:28+00:00,SAT-56317,329.4596047999299,36.8683244637879,2429.502645079298,2.134047576354481,-74743.37313623163,10.5,10499925256.626863,47.655,-122.3035,60.0,5.466666666666667
2026-01-20T23:05:29+00:00,SAT-56317,329.25253718961244,36.92941170052031,2431.6310018621157,2.153838567277999,-75436.53735418184,10.5,10499924563.462646,47.655,-122.3035,60.0,5.483333333333333
2026-01-20T23:05:30+00:00,SAT-56317,329.04539952186514,36.989873730367144,2433.779096859881,2.173574878519511,-76127.78645837338,10.5,10499923872.213541,47.655,-122.3035,60.0,5.5
2026-01-20T23:05:31+00:00,SAT-56317,328.838197922495,37.04971029395416,2435.9468755387243,2.1932562080836497,-76817.109871651,10.5,10499923182.89013,47.655,-122.3035,60.0,5.516666666666667
2026-01-20T23:05:32+00:00,SAT-56317,328.6309385264409,37.10892118228409,2438.1342830635863,2.2128822363261,-77504.49639871878,10.5,10499922495.503601,47.655,-122.3035,60.0,5.533333333333333
2026-01-20T23:05:33+00:00,SAT-56317,328.42362747871545,37.16750623600911,2440.3412642806156,2.232452670760795,-78189.93579547736,10.5,10499921810.064205,47.655,-122.3035,60.0,5.55
2026-01-20T23:05:34+00:00,SAT-56317,328.21627093154785,37.22546534577434,2442.5677637442545,2.251967216661942,-78873.41773938286,10.5,10499921126.58226,47.655,-122.3035,60.0,5.566666666666666
2026-01-20T23:05:35+00:00,SAT-56317,328.008875043987,37.282798451846844,2444.813725715005,2.271425581931247,-79554.9319999174,10.5,10499920445.068,47.655,-122.3035,60.0,5.583333333333333
2026-01-20T23:05:36+00:00,SAT-56317,327.801445981209,37.339505543813644,2447.0790941620517,2.2908274810447447,-80234.46857682397,10.5,10499919765.531424,47.655,-122.3035,60.0,5.6
2026-01-20T23:05:37+00:00,SAT-56317,327.5939899132803,37.395586660442206,2449.3638127698136,2.310172649366303,-80912.01820142582,10.5,10499919087.981798,47.655,-122.3035,60.0,5.616666666666666
2026-01-20T23:05:38+00:00,SAT-56317,327.3865130129562,37.45104188975543,2451.6678249587812,2.329460805388927,-81587.57101415719,10.5,10499918412.428986,47.655,-122.3035,60.0,5.633333333333334
2026-01-20T23:05:39+00:00,SAT-56317,327.17902145644456,37.50587136831988,2453.991073868689,2.3486916773573423,-82261.11749699885,10.5,10499917738.882504,47.655,-122.3035,60.0,5.65
2026-01-20T23:05:40+00:00,SAT-56317,326.9715214220404,37.56007528109994,2456.3335023682403,2.3678650236440495,-82932.64918713372,10.5,10499917067.350813,47.655,-122.3035,60.0,5.666666666666667
2026-01-20T23:05:41+00:00,SAT-56317,326.7640190870376,37.61365386173207,2458.695053085155,2.386980573998614,-83602.15661924837,10.5,10499916397.84338,47.655,-122.3035,60.0,5.683333333333334
2026-01-20T23:05:42+00:00,SAT-56317,326.55652062954556,37.666607391519854,2461.0756683776226,2.4060380877515297,-84269.63136407876,10.5,10499915730.368635,47.655,-122.3035,60.0,5.7
2026-01-20T23:05:43+00:00,SAT-56317,326.3490322253947,37.71893619969593,2463.475290363807,2.4250373227726714,-84935.0649412036,10.5,10499915064.935059,47.655,-122.3035,60.0,5.716666666666667
2026-01-20T23:05:44+00:00,SAT-56317,326.14156004778584,37.77064066295216,2465.8938609203856,2.443978034882259,-85598.44879841412,10.5,10499914401.5512,47.655,-122.3035,60.0,5.733333333333333
2026-01-20T23:05:45+00:00,SAT-56317,325.9341102667026,37.82172120505198,2468.331321680508,2.462859997536249,-86259.77500117969,10.5,10499913740.224998,47.655,-122.3035,60.0,5.75
2026-01-20T23:05:46+00:00,SAT-56317,325.7266890470594,37.872178296714395,2470.7876140513845,2.4816829910734177,-86919.03585603507,10.5,10499913080.964144,47.655,-122.3035,60.0,5.766666666666667
2026-01-20T23:05:47+00:00,SAT-56317,325.519302547453,37.92201245536066,2473.262679221148,2.500446784347284,-87576.22326725272,10.5,10499912423.776733,47.655,-122.3035,60.0,5.783333333333333
2026-01-20T23:05:48+00:00,SAT-56317,325.3119569204719,37.9712242444754,2475.756458147404,2.51915116715561,-88231.32987266112,10.5,10499911768.670128,47.655,-122.3035,60.0,5.8
2026-01-20T23:05:49+00:00,SAT-56317,325.10465831046866,38.01981427355829,2478.2688915781137,2.5377959259932377,-88884.34819440653,10.5,10499911115.651806,47.655,-122.3035,60.0,5.816666666666666
2026-01-20T23:05:50+00:00,SAT-56317,324.8974128532048,38.06778319763451,2480.7999200483046,2.556380868201676,-89535.27148477364,10.5,10499910464.728516,47.655,-122.3035,60.0,5.833333333333333
2026-01-20T23:05:51+00:00,SAT-56317,324.69022667362094,38.11513171718233,2483.349483900857,2.5749057872734467,-90184.09251099701,10.5,10499909815.90749,47.655,-122.3035,60.0,5.85
2026-01-20T23:05:52+00:00,SAT-56317,324.48310588633495,38.161860577429174,2485.917523272698,2.5933704923816814,-90830.80458951257,10.5,10499909169.19541,47.655,-122.3035,60.0,5.866666666666666
2026-01-20T23:05:53+00:00,SAT-56317,324.2760565937501,38.207970568197865,2488.5039781104338,2.611774801311298,-91475.40133837731,10.5,10499908524.598661,47.655,-122.3035,60.0,5.883333333333334
2026-01-20T23:05:54+00:00,SAT-56317,324.0690848848861,38.25346252355826,2491.1087881789413,2.630118518378881,-92117.87590393035,10.5,10499907882.124096,47.655,-122.3035,60.0,5.9
2026-01-20T23:05:55+00:00,SAT-56317,323.8621968356776,38.2983373211777,2493.731893047938,2.648401481190936,-92758.22259846453,10.5,10499907241.777401,47.655,-122.3035,60.0,5.916666666666667
2026-01-20T23:05:56+00:00,SAT-56317,323.65539850598407,38.34259588235663,2496.373232125179,2.666623514112809,-93396.43527051136,10.5,10499906603.56473,47.655,-122.3035,60.0,5.933333333333334
2026-01-20T23:05:57+00:00,SAT-56317,323.44869593989165,38.38623917135949,2499.0327446432543,2.6847844519806987,-94032.50813533587,10.5,10499905967.491865,47.655,-122.3035,60.0,5.95
2026-01-20T23:05:58+00:00,SAT-56317,323.24209516441323,38.429268195076425,2501.710369670029,2.702884133815993,-94666.43555478613,10.5,10499905333.564445,47.655,-122.3035,60.0,5.966666666666667
2026-01-20T23:05:59+00:00,SAT-56317,323.0356021884544,38.47168400263774,2504.406046112822,2.72092240756747,-95298.21220338516,10.5,10499904701.787796,47.655,-122.3035,60.0,5.983333333333333
2026-01-20T23:06:00+00:00,SAT-56317,322.8292230017095,38.513487685012144,2507.1197127273026,2.738899116051902,-95927.83257591147,10.5,10499904072.167423,47.655,-122.3035,60.0,6.0
2026-01-20T23:06:01+00:00,SAT-56317,322.62296357430995,38.554680374471445,2509.8513081123783,2.7568141196333666,-96555.29178172439,10.5,10499903444.708218,47.655,-122.3035,60.0,6.016666666666667
2026-01-20T23:06:02+00:00,SAT-56317,322.4168298550578,38.59526324432052,2512.6007707276926,2.7746672859948154,-97180.58518652114,10.5,10499902819.414814,47.655,-122.3035,60.0,6.033333333333333
2026-01-20T23:06:03+00:00,SAT-56317,322.210827770278,38.635237508498754,2515.368038900925,2.792458469336127,-97803.7076837648,10.5,10499902196.292316,47.655,-122.3035,60.0,6.05
2026-01-20T23:06:04+00:00,SAT-56317,322.0049632242195,38.67460442087712,2518.153050814343,2.8101875398041023,-98424.654725447,10.5,10499901575.345274,47.655,-122.3035,60.0,6.066666666666666
2026-01-20T23:06:05+00:00,SAT-56317,321.79924209724766,38.71336527499497,2520.9557445207074,2.8278543862373553,-99043.42241822585,10.5,10499900956.577581,47.655,-122.3035,60.0,6.083333333333333
2026-01-20T23:06:06+00:00,SAT-56317,321.5936702441363,38.75152140373389,2523.776057961915,2.845458879320892,-99660.0062329432,10.5,10499900339.993767,47.655,-122.3035,60.0,6.1
2026-01-20T23:06:07+00:00,SAT-56317,321.3882534945874,38.78907417860898,2526.613928950891,2.863000908028003,-100274.4022809741,10.5,10499899725.59772,47.655,-122.3035,60.0,6.116666666666666
2026-01-20T23:06:08+00:00,SAT-56317,321.1829976515399,38.826025009439626,2529.4692951898305,2.880480365439923,-100886.60681757108,10.5,10499899113.393183,47.655,-122.3035,60.0,6.133333333333334
2026-01-20T23:06:09+00:00,SAT-56317,320.97790849022937,38.86237534389678,2532.342094274296,2.897897137559909,-101496.615850086,10.5,10499898503.38415,47.655,-122.3035,60.0,6.15
2026-01-20T23:06:10+00:00,SAT-56317,320.7729917581558,38.89812666687966,2535.232263686156,2.9152511403314603,-102104.42643450467,10.5,10499897895.573566,47.655,-122.3035,60.0,6.166666666666667
2026-01-20T23:06:11+00:00,SAT-56317,320.56825317254714,38.93328050031975,2538.139740823446,2.932542269359121,-102710.03491445661,10.5,10499897289.965086,47.655,-122.3035,60.0,6.183333333333334
2026-01-20T23:06:12+00:00,SAT-56317,320.3636984211446,38.96783840242046,2541.0644629800872,2.949770440038022,-103313.43832672144,10.5,10499896686.561674,47.655,-122.3035,60.0,6.2
2026-01-20T23:06:13+00:00,SAT-56317,320.15933316035824,39.00180196733785,2544.0063673656186,2.966935554919564,-103914.63325823701,10.5,10499896085.366741,47.655,-122.3035,60.0,6.216666666666667
2026-01-20T23:06:14+00:00,SAT-56317,319.9551630155878,39.03517282450189,2546.9653910923917,2.984037562192774,-104513.61789436385,10.5,10499895486.382105,47.655,-122.3035,60.0,6.233333333333333
2026-01-20T23:06:15+00:00,SAT-56317,319.7511935777583,39.067952638537776,2549.941471221085,3.001076352988338,-105110.38842203812,10.5,10499894889.611578,47.655,-122.3035,60.0,6.25
2026-01-20T23:06:16+00:00,SAT-56317,319.5474304064522,39.10014310814964,2552.934544703799,3.0180518747969898,-105704.94300216317,10.5,10499894295.056997,47.655,-122.3035,60.0,6.266666666666667
2026-01-20T23:06:17+00:00,SAT-56317,319.3438790258225,39.13174596612802,2555.944548440263,3.034964064154786,-106297.27941196323,10.5,10499893702.720589,47.655,-122.3035,60.0,6.283333333333333
2026-01-20T23:06:18+00:00,SAT-56317,319.1405449248026,39.16276297868899,2558.9714192669135,3.0518128569172758,-106887.39540482836,10.5,10499893112.604595,47.655,-122.3035,60.0,6.3
2026-01-20T23:06:19+00:00,SAT-56317,318.93743355663935,39.19319594491649,2562.0150939562127,3.0685981777647657,-107475.28834274423,10.5,10499892524.711657,47.655,-122.3035,60.0,6.316666666666666
2026-01-20T23:06:20+00:00,SAT-56317,318.7345503391346,39.22304669611038,2565.075509205503,3.0853200056325627,-108060.95748793623,10.5,10499891939.042513,47.655,-122.3035,60.0,6.333333333333333
2026-01-20T23:06:21+00:00,SAT-56317,318.5319006507813,39.252317095719015,2568.1526016911207,3.1019782716695934,-108644.40042894853,10.5,10499891355.599571,47.655,-122.3035,60.0,6.35
2026-01-20T23:06:22+00:00,SAT-56317,318.3294898333164,39.28100903834581,2571.246308020732,3.1185729399259166,-109225.61590666209,10.5,10499890774.384094,47.655,-122.3035,60.0,6.366666666666666
2026-01-20T23:06:23+00:00,SAT-56317,318.12732318918546,39.30912444949296,2574.3565647661517,3.1351039634425333,-109804.60227637415,10.5,10499890195.397724,47.655,-122.3035,60.0,6.383333333333334
2026-01-20T23:06:24+00:00,SAT-56317,317.92540598185144,39.33666528489338,2577.4833084523584,3.151571312063715,-110381.35848190353,10.5,10499889618.641518,47.655,-122.3035,60.0,6.4
2026-01-20T23:06:25+00:00,SAT-56317,317.7237434342537,39.36363353011185,2580.626475574257,3.167974963860288,-110955.88375519782,10.5,10499889044.116245,47.655,-122.3035,60.0,6.416666666666667
2026-01-20T23:06:26+00:00,SAT-56317,317.522340728028,39.390031200013865,2583.7860026048797,3.184314872711816,-111528.17648092423,10.5,10499888471.823519,47.655,-122.3035,60.0,6.433333333333334
2026-01-20T23:06:27+00:00,SAT-56317,317.32120300441517,39.41586033805392,2586.9618259712643,3.2005910360182463,-112098.23656801796,10.5,10499887901.763432,47.655,-122.3035,60.0,6.45
2026-01-20T23:06:28+00:00,SAT-56317,317.1203353614104,39.44112301600919,2590.1538820978535,3.2168034241330874,-112666.06297813341,10.5,10499887333.937021,47.655,-122.3035,60.0,6.466666666666667
2026-01-20T23:06:29+00:00,SAT-56317,316.91974285487134,39.46582133324601,2593.362107379522,3.2329520263130815,-113231.65533499632,10.5,10499886768.344666,47.655,-122.3035,60.0,6.483333333333333
2026-01-20T23:06:30+00:00,SAT-56317,316.71943049713934,39.48995741626798,2596.586438200432,3.2490368293516294,-113795.01317605565,10.5,10499886204.986824,47.655,-122.3035,60.0,6.5
2026-01-20T23:06:31+00:00,SAT-56317,316.519403256741,39.51353341816104,2599.826810931572,3.2650578358269313,-114356.1365916109,10.5,10499885643.863409,47.655,-122.3035,60.0,6.516666666666667
2026-01-20T23:06:32+00:00,SAT-56317,316.31966605719253,39.53655151812002,2603.0831619465034,3.281015035158358,-114915.02521108372,10.5,10499885084.974789,47.655,-122.3035,60.0,6.533333333333333
2026-01-20T23:06:33+00:00,SAT-56317,316.1202237773801,39.559013920812255,2606.3554276082345,3.2969084351094757,-115471.67930638701,10.5,10499884528.320694,47.655,-122.3035,60.0,6.55
2026-01-20T23:06:34+00:00,SAT-56317,315.92108125024396,39.58092285592304,2609.643544287517,3.3127380269104436,-116026.09857036383,10.5,10499883973.90143,47.655,-122.3035,60.0,6.566666666666666
2026-01-20T23:06:35+00:00,SAT-56317,315.72224326333424,39.602280577513966,2612.9474483463555,3.328503849048237,-116578.28435099087,10.5,10499883421.715649,47.655,-122.3035,60.0,6.583333333333333
2026-01-20T23:06:36+00:00,SAT-56317,315.5237145559511,39.62308936371603,2616.26707618514,3.344205883085659,-117128.23600251951,10.5,10499882871.763998,47.655,-122.3035,60.0,6.6
2026-01-20T23:06:37+00:00,SAT-56317,315.3254998219526,39.64335151587406,2619.6023641858706,3.3598441721675187,-117675.95503606346,10.5,10499882324.044964,47.655,-122.3035,60.0,6.616666666666666
2026-01-20T23:06:38+00:00,SAT-56317,315.1276037061269,39.663069358311844,2622.953248773579,3.3754187109529346,-118221.44126456247,10.5,10499881778.558735,47.655,-122.3035,60.0,6.633333333333334
2026-01-20T23:06:39+00:00,SAT-56317,314.93003080656854,39.68224523753409,2626.3196663679696,3.3909295559152866,-118764.69666595318,10.5,10499881235.303333,47.655,-122.3035,60.0,6.65
2026-01-20T23:06:40+00:00,SAT-56317,314.73278567108827,39.70088152197579,2629.701553445069,3.406376705963428,-119305.721202019,10.5,10499880694.278797,47.655,-122.3035,60.0,6.666666666666667
2026-01-20T23:06:41+00:00,SAT-56317,314.5358728000808,39.71898060117473,2633.0988464798165,3.421760204150179,-119844.51638065185,10.5,10499880155.48362,47.655,-122.3035,60.0,6.683333333333334
2026-01-20T23:06:42+00:00,SAT-56317,314.33929664392014,39.73654488543915,2636.5114819900887,3.437080094714038,-120381.08375127101,10.5,10499879618.916248,47.655,-122.3035,60.0,6.7
2026-01-20T23:06:43+00:00,SAT-56317,314.14306160272076,39.7535768052872,2639.9393965378836,3.4523363954797976,-120915.42393817617,10.5,10499879084.576061,47.655,-122.3035,60.0,6.716666666666667
2026-01-20T23:06:44+00:00,SAT-56317,313.9471720275353,39.770078810800186,2643.3825267029756,3.467529168886829,-121447.5391282582,10.5,10499878552.460873,47.655,-122.3035,60.0,6.733333333333333
2026-01-20T23:06:45+00:00,SAT-56317,313.7516322177769,39.7860533712697,2646.840809127412,3.4826584488466055,-121977.43050924037,10.5,10499878022.56949,47.655,-122.3035,60.0,6.75
2026-01-20T23:06:46+00:00,SAT-56317,313.55644642263456,39.80150297452458,2650.314180487062,3.497724280564767,-122505.09966441535,10.5,10499877494.900335,47.655,-122.3035,60.0,6.766666666666667
2026-01-20T23:06:47+00:00,SAT-56317,313.36161884023477,39.81643012646055,2653.802577502878,3.5127267343616504,-123030.54905669884,10.5,10499876969.450943,47.655,-122.3035,60.0,6.783333333333333
2026-01-20T23:06:48+00:00,SAT-56317,313.16715361627377,39.83083735057566,2657.3059369659486,3.5276658502951364,-123553.78008908726,10.5,10499876446.219912,47.655,-122.3035,60.0,6.8
2026-01-20T23:06:49+00:00,SAT-56317,312.97305484541573,39.84472718733903,2660.824195707309,3.5425416807149115,-124074.79459508808,10.5,10499875925.205404,47.655,-122.3035,60.0,6.816666666666666
2026-01-20T23:06:50+00:00,SAT-56317,312.77932657055715,39.858102193706536,2664.357290610209,3.557354302143119,-124593.59525483043,10.5,10499875406.404745,47.655,-122.3035,60.0,6.833333333333333
2026-01-20T23:06:51+00:00,SAT-56317,312.58597278146453,39.87096494267223,2667.905158634213,3.572103776421463,-125110.18423427237,10.5,10499874889.815765,47.655,-122.3035,60.0,6.85
2026-01-20T23:06:52+00:00,SAT-56317,312.3929974154858,39.88331802268982,2671.467736800564,3.5867901650109935,-125624.56368603987,10.5,10499874375.436314,47.655,-122.3035,60.0,6.866666666666666
2026-01-20T23:06:53+00:00,SAT-56317,312.2004043574457,39.8951640371587,2675.0449621918015,3.6014135416732036,-126136.73619357242,10.5,10499873863.263807,47.655,-122.3035,60.0,6.883333333333334
2026-01-20T23:06:54+00:00,SAT-56317,312.0081974389916,39.90650560394013,2678.6367719640302,3.6159739801340107,-126646.7043390635,10.5,10499873353.29566,47.655,-122.3035,60.0,6.9
2026-01-20T23:06:55+00:00,SAT-56317,311.8163804385399,39.91734535484112,2682.2431033468843,3.6304715570039865,-127154.47080573942,10.5,10499872845.529194,47.655,-122.3035,60.0,6.916666666666667
2026-01-20T23:06:56+00:00,SAT-56317,311.6249570810989,39.927685935112514,2685.8638936464026,3.6449063454108734,-127660.03815484302,10.5,10499872339.961845,47.655,-122.3035,60.0,6.933333333333334
2026-01-20T23:06:57+00:00,SAT-56317,311.43393103840185,39.93753000293775,2689.499080241559,3.6592784465071775,-128163.40992916295,10.5,10499871836.59007,47.655,-122.3035,60.0,6.95
2026-01-20T23:06:58+00:00,SAT-56317,311.24330592755445,39.94688022898414,2693.148600612209,3.6735879202836683,-128664.58822982971,10.5,10499871335.41177,47.655,-122.3035,60.0,6.966666666666667
2026-01-20T23:06:59+00:00,SAT-56317,311.0530853130073,39.95573929582391,2696.8123922980385,3.687834882850266,-129163.57712350386,10.5,10499870836.422876,47.655,-122.3035,60.0,6.983333333333333
2026-01-20T23:07:00+00:00,SAT-56317,310.8632727038804,39.964109897545534,2700.4903929545344,3.7020193966255066,-129660.37879634657,10.5,10499870339.621204,47.655,-122.3035,60.0,7.0
2026-01-20T23:07:01+00:00,SAT-56317,310.6738715565733,39.971994739160635,2704.1825402994355,3.7161415640253295,-130154.99683539724,10.5,10499869845.003164,47.655,-122.3035,60.0,7.016666666666667
2026-01-20T23:07:02+00:00,SAT-56317,310.48488527286554,39.97939653619812,2707.8887721526235,3.73020149680523,-130647.43515480604,10.5,10499869352.564846,47.655,-122.3035,60.0,7.033333333333333
2026-01-20T23:07:03+00:00,SAT-56317,310.2963171995342,39.98631801422371,2711.6090264454374,3.744199277481801,-131137.69664465313,10.5,10499868862.303356,47.655,-122.3035,60.0,7.05
2026-01-20T23:07:04+00:00,SAT-56317,310.1081706298184,39.99276190832049,2715.3432411915123,3.7581350006113654,-131625.78461670084,10.5,10499868374.215384,47.655,-122.3035,60.0,7.066666666666666
2026-01-20T23:07:05+00:00,SAT-56317,309.92044880290985,39.99873096263389,2719.0913544987893,3.772008785523921,-132111.70325039054,10.5,10499867888.29675,47.655,-122.3035,60.0,7.083333333333333
2026-01-20T23:07:06+00:00,SAT-56317,309.7331549028743,40.004227929932235,2722.853304594218,3.7858207317731165,-132595.4560325121,10.5,10499867404.543968,47.655,-122.3035,60.0,7.1
2026-01-20T23:07:07+00:00,SAT-56317,309.5462920597005,40.00925557111444,2726.62902980404,3.799570954084482,-133077.04698123882,10.5,10499866922.953018,47.655,-122.3035,60.0,7.116666666666666
2026-01-20T23:07:08+00:00,SAT-56317,309.3598633486816,40.01381665476469,2730.418468568914,3.8132595436555143,-133556.47929069283,10.5,10499866443.52071,47.655,-122.3035,60.0,7.133333333333334
2026-01-20T23:07:09+00:00,SAT-56317,309.1738717916374,40.017913956679436,2734.2215594204526,3.8268866360507863,-134033.75770891894,10.5,10499865966.24229,47.655,-122.3035,60.0,7.15
2026-01-20T23:07:10+00:00,SAT-56317,308.98832035499225,40.02155025944888,2738.038241025474,3.84045233362576,-134508.88582083836,10.5,10499865491.11418,47.655,-122.3035,60.0,7.166666666666667
2026-01-20T23:07:11+00:00,SAT-56317,308.8032119514618,40.02472835198354,2741.8684521528767,3.8539567536887374,-134981.86773508406,10.5,10499865018.132265,47.655,-122.3035,60.0,7.183333333333334
2026-01-20T23:07:12+00:00,SAT-56317,308.6185494395022,40.027451029087196,2745.712131688556,3.867400022497774,-135452.7078737472,10.5,10499864547.292126,47.655,-122.3035,60.0,7.2
2026-01-20T23:07:13+00:00,SAT-56317,308.434335623096,40.02972109101798,2749.5692186443266,3.8807822620418757,-135921.4105093988,10.5,10499864078.58949,47.655,-122.3035,60.0,7.216666666666667
2026-01-20T23:07:14+00:00,SAT-56317,308.250573252116,40.03154134305259,2753.43965215367,3.8941035860829887,-136387.9796264634,10.5,10499863612.020374,47.655,-122.3035,60.0,7.233333333333333
2026-01-20T23:07:15+00:00,SAT-56317,308.0672650228621,40.03291459506583,2757.3233714635235,3.907364130660366,-136852.41998961108,10.5,10499863147.58001,47.655,-122.3035,60.0,7.25
2026-01-20T23:07:16+00:00,SAT-56317,307.88441357728004,40.03384366110371,2761.220315956502,3.920564027243852,-137314.73620347196,10.5,10499862685.263796,47.655,-122.3035,60.0,7.266666666666667
2026-01-20T23:07:17+00:00,SAT-56317,307.70202150339503,40.034331358963904,2765.1304251463393,3.93370338237664,-137774.9319996393,10.5,10499862225.068,47.655,-122.3035,60.0,7.283333333333333
2026-01-20T23:07:18+00:00,SAT-56317,307.52009133657,40.034380509796144,2769.0536386530302,3.9467823581833774,-138233.01305640404,10.5,10499861766.986944,47.655,-122.3035,60.0,7.3
2026-01-20T23:07:19+00:00,SAT-56317,307.3386255573568,40.03399393767436,2772.9898962582583,3.9598010751802506,-138688.98359475285,10.5,10499861311.016405,47.655,-122.3035,60.0,7.316666666666666
2026-01-20T23:07:20+00:00,SAT-56317,307.15762659351293,40.03317446920951,2776.9391378639048,3.9727596625369044,-139142.848138753,10.5,10499860857.151861,47.655,-122.3035,60.0,7.333333333333333
2026-01-20T23:07:21+00:00,SAT-56317,306.9770968198885,40.031924933150094,2780.9013035006747,3.9856582710802604,-139594.6119710014,10.5,10499860405.38803,47.655,-122.3035,60.0,7.35
2026-01-20T23:07:22+00:00,SAT-56317,306.79703855771965,40.03024815998388,2784.8763333496986,3.998497030446,-140044.27963188788,10.5,10499859955.720367,47.655,-122.3035,60.0,7.366666666666666
2026-01-20T23:07:23+00:00,SAT-56317,306.61745407585073,40.028146981555444,2788.864167721397,4.0112760814541994,-140491.85605352718,10.5,10499859508.143946,47.655,-122.3035,60.0,7.383333333333334
2026-01-20T23:07:24+00:00,SAT-56317,306.43834559046115,40.025624230689665,2792.8647470666338,4.023995570722194,-140937.34637107863,10.5,10499859062.65363,47.655,-122.3035,60.0,7.4
2026-01-20T23:07:25+00:00,SAT-56317,306.2597152651754,40.022682740800406,2796.878011982501,4.036655656257545,-141380.7561186353,10.5,10499858619.243881,47.655,-122.3035,60.0,7.416666666666667
2026-01-20T23:07:26+00:00,SAT-56317,306.08156521081224,40.019325345515256,2800.903903223675,4.049256453831696,-141822.089351003,10.5,10499858177.910648,47.655,-122.3035,60.0,7.433333333333334
2026-01-20T23:07:27+00:00,SAT-56317,305.9038974874991,40.01555487835044,2804.9423616602967,4.061798138409977,-142261.35219620756,10.5,10499857738.647804,47.655,-122.3035,60.0,7.45
2026-01-20T23:07:28+00:00,SAT-56317,305.7267141024618,40.01137417229319,2808.9933283370037,4.074280839112228,-142698.54917657198,10.5,10499857301.450823,47.655,-122.3035,60.0,7.466666666666667
2026-01-20T23:07:29+00:00,SAT-56317,305.5500170122838,40.00678605949405,2813.056744427212,4.08670472735386,-143133.6862957891,10.5,10499856866.313704,47.655,-122.3035,60.0,7.483333333333333
2026-01-20T23:07:30+00:00,SAT-56317,305.3738081214437,40.001793370871155,2817.132551275293,4.0990699420318455,-143566.76841861836,10.5,10499856433.23158,47.655,-122.3035,60.0,7.5
2026-01-20T23:07:31+00:00,SAT-56317,305.1980892840168,39.99639893580429,2821.2206903641463,4.1113766474058595,-143997.80129812847,10.5,10499856002.198702,47.655,-122.3035,60.0,7.516666666666667
2026-01-20T23:07:32+00:00,SAT-56317,305.02286230293555,39.99060558176628,2825.3211033404923,4.123624971205762,-144426.78940795938,10.5,10499855573.210592,47.655,-122.3035,60.0,7.533333333333333
2026-01-20T23:07:33+00:00,SAT-56317,304.8481289318425,39.984416134046235,2829.4337319784418,4.1358151153797955,-144853.73982119275,10.5,10499855146.26018,47.655,-122.3035,60.0,7.55
2026-01-20T23:07:34+00:00,SAT-56317,304.6738908724214,39.97783341530078,2833.5585182535137,4.147947203371998,-145278.656861361,10.5,10499854721.343138,47.655,-122.3035,60.0,7.566666666666666
2026-01-20T23:07:35+00:00,SAT-56317,304.50014977792875,39.97086024536497,2837.695404264343,4.160021401573013,-145701.54635616828,10.5,10499854298.453644,47.655,-122.3035,60.0,7.583333333333333
2026-01-20T23:07:36+00:00,SAT-56317,304.3269072518045,39.96349944086503,2841.844332275512,4.172037877825469,-146122.41418417345,10.5,10499853877.585815,47.655,-122.3035,60.0,7.6
2026-01-20T23:07:37+00:00,SAT-56317,304.15416484800943,39.95575381490243,2846.0052447189964,4.183996794254523,-146541.26602368525,10.5,10499853458.733976,47.655,-122.3035,60.0,7.616666666666666
2026-01-20T23:07:38+00:00,SAT-56317,303.9819240716131,39.947626176757886,2850.1780841884665,4.195898300186321,-146958.107104737,10.5,10499853041.892895,47.655,-122.3035,60.0,7.633333333333334
2026-01-20T23:07:39+00:00,SAT-56317,303.8101863796827,39.93911933161997,2854.3627934265187,4.207742581209002,-147372.94392741035,10.5,10499852627.056072,47.655,-122.3035,60.0,7.65
2026-01-20T23:07:40+00:00,SAT-56317,303.6389531802327,39.93023608021529,2858.5593153608447,4.219529796143785,-147785.7820542962,10.5,10499852214.217945,47.655,-122.3035,60.0,7.666666666666667
2026-01-20T23:07:41+00:00,SAT-56317,303.4682258336874,39.92097921857249,2862.767593077532,4.231260090206337,-148196.62657146147,10.5,10499851803.373428,47.655,-122.3035,60.0,7.683333333333334
2026-01-20T23:07:42+00:00,SAT-56317,303.2980056537335,39.91135153778256,2866.987569807498,4.242933667326448,-148605.48462138997,10.5,10499851394.515379,47.655,-122.3035,60.0,7.7
2026-01-20T23:07:43+00:00,SAT-56317,303.1282939055556,39.901355823567194,2871.2191889850446,4.25455066404193,-149012.36098621355,10.5,10499850987.639013,47.655,-122.3035,60.0,7.716666666666667
2026-01-20T23:07:44+00:00,SAT-56317,302.95909180871627,39.89099485618396,2875.4623941806494,4.266111275767351,-149417.26251017692,10.5,10499850582.73749,47.655,-122.3035,60.0,7.733333333333333
2026-01-20T23:07:45+00:00,SAT-56317,302.79040053541263,39.88027141000023,2879.717129159681,4.277615662760668,-149820.1948061916,10.5,10499850179.805193,47.655,-122.3035,60.0,7.75
2026-01-20T23:07:46+00:00,SAT-56317,302.6222212121638,39.86918825332693,2883.9833378473413,4.289063993526209,-150221.163775992,10.5,10499849778.836224,47.655,-122.3035,60.0,7.766666666666667
2026-01-20T23:07:47+00:00,SAT-56317,302.4545549199347,39.857748148139954,2888.2609643368846,4.300456437221876,-150620.1753442033,10.5,10499849379.824656,47.655,-122.3035,60.0,7.783333333333333
2026-01-20T23:07:48+00:00,SAT-56317,302.2874026944983,39.84595384983185,2892.549952890274,4.311793189914283,-151017.23637790774,10.5,10499848982.763622,47.655,-122.3035,60.0,7.8
2026-01-20T23:07:49+00:00,SAT-56317,302.12076552593254,39.83380810687773,2896.850247965015,4.323074397076762,-151412.35197219672,10.5,10499848587.648027,47.655,-122.3035,60.0,7.816666666666666
2026-01-20T23:07:50+00:00,SAT-56317,301.95464436082096,39.82131366075392,2901.1617941636996,4.334300260155433,-151805.5291825655,10.5,10499848194.470818,47.655,-122.3035,60.0,7.833333333333333
2026-01-20T23:07:51+00:00,SAT-56317,301.78904010071324,39.80847324552596,2905.4845362898277,4.3454709410172745,-152196.7736782804,10.5,10499847803.226322,47.655,-122.3035,60.0,7.85
2026-01-20T23:07:52+00:00,SAT-56317,301.6239536039416,39.79528958774367,2909.818419308336,4.356586628094934,-152586.09205904976,10.5,10499847413.907942,47.655,-122.3035,60.0,7.866666666666666
2026-01-20T23:07:53+00:00,SAT-56317,301.45938568513225,39.78176540613014,2914.1633883720892,4.3676474700228685,-152973.489530681,10.5,10499847026.51047,47.655,-122.3035,60.0,7.883333333333334
2026-01-20T23:07:54+00:00,SAT-56317,301.29533711702555,39.7679034114944,2918.519388782192,4.3786536899863,-153358.97391006467,10.5,10499846641.02609,47.655,-122.3035,60.0,7.9
2026-01-20T23:07:55+00:00,SAT-56317,301.1318086283095,39.75370630626591,2922.8863660623383,4.389605441794892,-153742.55058426573,10.5,10499846257.449415,47.655,-122.3035,60.0,7.916666666666667
2026-01-20T23:07:56+00:00,SAT-56317,300.96880090648966,39.739176784517355,2927.2642658896216,4.40050290212159,-154124.22574111822,10.5,10499845875.77426,47.655,-122.3035,60.0,7.933333333333334
2026-01-20T23:07:57+00:00,SAT-56317,300.80631459753477,39.724317531683305,2931.653034117338,4.411346263077533,-154504.0061091667,10.5,10499845495.99389,47.655,-122.3035,60.0,7.95
2026-01-20T23:07:58+00:00,SAT-56317,300.64435030578073,39.70913122430611,2936.0526167903804,4.422135702609773,-154881.8979208697,10.5,10499845118.10208,47.655,-122.3035,60.0,7.966666666666667
2026-01-20T23:07:59+00:00,SAT-56317,300.482908594876,39.69362052988997,2940.4629601311167,4.4328713992747195,-155257.907430028,10.5,10499844742.09257,47.655,-122.3035,60.0,7.983333333333333
2026-01-20T23:08:00+00:00,SAT-56317,300.32198998819547,39.67778810670869,2944.884010539993,4.4435535509817905,-155632.04156826652,10.5,10499844367.958431,47.655,-122.3035,60.0,8.0
2026-01-20T23:08:01+00:00,SAT-56317,300.1615949686566,39.66163660354683,2949.315714614839,4.45418231871163,-156004.30597380843,10.5,10499843995.694027,47.655,-122.3035,60.0,8.016666666666667
2026-01-20T23:08:02+00:00,SAT-56317,300.00172398039575,39.645168659659944,2953.758019114034,4.464757901429228,-156374.70761524924,10.5,10499843625.292385,47.655,-122.3035,60.0,8.033333333333333
2026-01-20T23:08:03+00:00,SAT-56317,299.84237742795597,39.628386904452846,2958.2108709943927,4.475280480070478,-156743.25282972935,10.5,10499843256.74717,47.655,-122.3035,60.0,8.05
2026-01-20T23:08:04+00:00,SAT-56317,299.6835556773478,39.611293957376596,2962.674217393183,4.485750239592817,-157109.94809524054,10.5,10499842890.051905,47.655,-122.3035,60.0,8.066666666666666
2026-01-20T23:08:05+00:00,SAT-56317,299.5252590563576,39.59389242774756,2967.148005632137,4.496167357853853,-157474.79964110855,10.5,10499842525.20036,47.655,-122.3035,60.0,8.083333333333334
2026-01-20T23:08:06+00:00,SAT-56317,299.3674878552319,39.5761849146154,2971.63218321037,4.5065320475649004,-157837.81491738345,10.5,10499842162.185083,47.655,-122.3035,60.0,8.1
2026-01-20T23:08:07+00:00,SAT-56317,299.2102423260209,39.5581740064586,2976.1266978391413,4.516844468470109,-158198.99951898103,10.5,10499841801.00048,47.655,-122.3035,60.0,8.116666666666667
2026-01-20T23:08:08+00:00,SAT-56317,299.0535226847293,39.539862281252006,2980.631497389029,4.5271047959673,-158558.35958907494,10.5,10499841441.640411,47.655,-122.3035,60.0,8.133333333333333
2026-01-20T23:08:09+00:00,SAT-56317,298.89732911128726,39.5212523062563,2985.1465299055403,4.537313255272539,-158915.90301568448,10.5,10499841084.096985,47.655,-122.3035,60.0,8.15
2026-01-20T23:08:10+00:00,SAT-56317,298.74166174835926,39.50234663766208,2989.6717436587987,4.547470018955405,-159271.63584292625,10.5,10499840728.364157,47.655,-122.3035,60.0,8.166666666666666
2026-01-20T23:08:11+00:00,SAT-56317,298.5865207035604,39.48314782066829,2994.207087091037,4.557575263215187,-159625.5642420446,10.5,10499840374.435759,47.655,-122.3035,60.0,8.183333333333334
2026-01-20T23:08:12+00:00,SAT-56317,298.4319060497233,39.46365838933987,2998.752508820217,4.56762917260325,-159977.69467680916,10.5,10499840022.305323,47.655,-122.3035,60.0,8.2
2026-01-20T23:08:13+00:00,SAT-56317,298.27781782514205,39.44388086643641,3003.3079576483597,4.57763197002123,-160328.0349541779,10.5,10499839671.965046,47.655,-122.3035,60.0,8.216666666666667
2026-01-20T23:08:14+00:00,SAT-56317,298.1242560327637,39.423817763116915,3007.8733825997942,4.587583806084119,-160676.5903493251,10.5,10499839323.40965,47.655,-122.3035,60.0,8.233333333333333
2026-01-20T23:08:15+00:00,SAT-56317,297.9712206429771,39.40347157913585,3012.4487328490623,4.597484884986997,-161023.3680140261,10.5,10499838976.631987,47.655,-122.3035,60.0,8.25
2026-01-20T23:08:16+00:00,SAT-56317,297.8187115923252,39.38284480248971,3017.033957774356,4.607335407894429,-161368.37499391497,10.5,10499838631.625006,47.655,-122.3035,60.0,8.266666666666667
2026-01-20T23:08:17+00:00,SAT-56317,297.6667287841122,39.36193990930863,3021.629006954496,4.617135537075907,-161711.61697235564,10.5,10499838288.383028,47.655,-122.3035,60.0,8.283333333333333
2026-01-20T23:08:18+00:00,SAT-56317,297.5152720900093,39.34075936393119,3026.2338301301397,4.626885489466561,-162053.10154733408,10.5,10499837946.898453,47.655,-122.3035,60.0,8.3
2026-01-20T23:08:19+00:00,SAT-56317,297.3643413488545,39.31930561854004,3030.8483772583013,4.636585439440152,-162392.83482615696,10.5,10499837607.165174,47.655,-122.3035,60.0,8.316666666666666
2026-01-20T23:08:20+00:00,SAT-56317,297.21393636838616,39.29758111325986,3035.4725984699026,4.646235577006838,-162730.82346378372,10.5,10499837269.176537,47.655,-122.3035,60.0,8.333333333333334
2026-01-20T23:08:21+00:00,SAT-56317,297.0640569252255,39.27558827598589,3040.1064440853706,4.655836104084874,-163067.07453224584,10.5,10499836932.925468,47.655,-122.3035,60.0,8.35
2026-01-20T23:08:22+00:00,SAT-56317,296.9147027649516,39.25332952223012,3044.7498646265117,4.665387199433448,-163401.59429244619,10.5,10499836598.405708,47.655,-122.3035,60.0,8.366666666666667
2026-01-20T23:08:23+00:00,SAT-56317,296.7658736032676,39.23080725514112,3049.402810793413,4.6748890611673,-163734.38968320092,10.5,10499836265.610317,47.655,-122.3035,60.0,8.383333333333333
2026-01-20T23:08:24+00:00,SAT-56317,296.6175691258297,39.20802386532498,3054.065233483751,4.684341864191786,-164065.4668304356,10.5,10499835934.533169,47.655,-122.3035,60.0,8.4
2026-01-20T23:08:25+00:00,SAT-56317,296.4697889894098,39.18498173087476,3058.737083769638,4.6937458265611385,-164394.83337133168,10.5,10499835605.166628,47.655,-122.3035,60.0,8.416666666666666
2026-01-20T23:08:26+00:00,SAT-56317,296.32253282102556,39.1616832170751,3063.418312940662,4.703101107507219,-164722.4948828626,10.5,10499835277.505117,47.655,-122.3035,60.0,8.433333333333334
2026-01-20T23:08:27+00:00,SAT-56317,296.1758002201525,39.138130676620506,3068.1088724452156,4.712407921245168,-165048.45886774865,10.5,10499834951.541132,47.655,-122.3035,60.0,8.45
2026-01-20T23:08:28+00:00,SAT-56317,296.02959075749476,39.11432644926617,3072.8087139453373,4.721666454706857,-165372.73187313467,10.5,10499834627.268127,47.655,-122.3035,60.0,8.466666666666667
2026-01-20T23:08:29+00:00,SAT-56317,295.88390397627234,39.090272861893276,3077.517789289498,4.730876890612535,-165695.3202986568,10.5,10499834304.6797,47.655,-122.3035,60.0,8.483333333333333
2026-01-20T23:08:30+00:00,SAT-56317,295.73873939273057,39.06597222846697,3082.2360505084025,4.740039423636806,-166016.23096264302,10.5,10499833983.769037,47.655,-122.3035,60.0,8.5
2026-01-20T23:08:31+00:00,SAT-56317,295.59409649624524,39.041426849911666,3086.9634498269097,4.7491542404010145,-166335.47040136228,10.5,10499833664.529598,47.655,-122.3035,60.0,8.516666666666667
2026-01-20T23:08:32+00:00,SAT-56317,295.4499747499627,39.01663901409384,3091.6999396560027,4.7582215436055675,-166653.0457142403,10.5,10499833346.954287,47.655,-122.3035,60.0,8.533333333333333
2026-01-20T23:08:33+00:00,SAT-56317,295.3063735907893,38.9916109956777,3096.4454726088256,4.767241507738575,-166968.96301258865,10.5,10499833031.036987,47.655,-122.3035,60.0,8.55
2026-01-20T23:08:34+00:00,SAT-56317,295.16329243058556,38.9663450562256,3101.2000014725436,4.776214339378158,-167283.22953164706,10.5,10499832716.770468,47.655,-122.3035,60.0,8.566666666666666
2026-01-20T23:08:35+00:00,SAT-56317,295.0207306557095,38.94084344397289,3105.96347924035,4.785140220894407,-167595.85165878746,10.5,10499832404.148342,47.655,-122.3035,60.0,8.583333333333334
2026-01-20T23:08:36+00:00,SAT-56317,294.8786876280843,38.91510839391253,3110.735859087322,4.794019326545716,-167906.83549727598,10.5,10499832093.164503,47.655,-122.3035,60.0,8.6
2026-01-20T23:08:37+00:00,SAT-56317,294.73716268585986,38.88914212779666,3115.51709436233,4.802851882598133,-168216.18897190667,10.5,10499831783.811028,47.655,-122.3035,60.0,8.616666666666667
2026-01-20T23:08:38+00:00,SAT-56317,294.59615514235145,38.862946853809596,3120.3071386399083,4.811638051053824,-168523.9177566807,10.5,10499831476.082243,47.655,-122.3035,60.0,8.633333333333333
2026-01-20T23:08:39+00:00,SAT-56317,294.4556642882626,38.8365247668816,3125.105945656159,4.820378025775759,-168830.0286414993,10.5,10499831169.97136,47.655,-122.3035,60.0,8.65
2026-01-20T23:08:40+00:00,SAT-56317,294.3156893911773,38.809878048480755,3129.913469340533,4.829072012727118,-169134.5288400642,10.5,10499830865.47116,47.655,-122.3035,60.0,8.666666666666666
2026-01-20T23:08:41+00:00,SAT-56317,294.1762296956558,38.78300886650952,3134.7296638278926,4.837720173044058,-169437.4239960453,10.5,10499830562.576004,47.655,-122.3035,60.0,8.683333333333334
2026-01-20T23:08:42+00:00,SAT-56317,294.03728442482816,38.75591937552962,3139.5544834138086,4.8463227165222404,-169738.7214573741,10.5,10499830261.278543,47.655,-122.3035,60.0,8.7
2026-01-20T23:08:43+00:00,SAT-56317,293.89885277950685,38.72861171645816,3144.387882603087,4.854879840364151,-170038.42813091577,10.5,10499829961.571869,47.655,-122.3035,60.0,8.716666666666667
2026-01-20T23:08:44+00:00,SAT-56317,293.76093393888004,38.70108801661501,3149.22981609721,4.863391713329245,-170336.54992734027,10.5,10499829663.450073,47.655,-122.3035,60.0,8.733333333333333
2026-01-20T23:08:45+00:00,SAT-56317,293.62352706170395,38.67335038986294,3154.0802387659705,4.871858532255103,-170633.09374073238,10.5,10499829366.90626,47.655,-122.3035,60.0,8.75
2026-01-20T23:08:46+00:00,SAT-56317,293.48663128589976,38.64540093642869,3158.939105675473,4.880280481630583,-170928.06603267227,10.5,10499829071.933968,47.655,-122.3035,60.0,8.766666666666667
2026-01-20T23:08:47+00:00,SAT-56317,293.3502457292981,38.617241742957205,3163.806372075819,4.888657757833332,-171221.47368113574,10.5,10499828778.52632,47.655,-122.3035,60.0,8.783333333333333
2026-01-20T23:08:48+00:00,SAT-56317,293.2143694896734,38.58887488242794,3168.681993412965,4.8969905489920755,-171513.3232751866,10.5,10499828486.676725,47.655,-122.3035,60.0,8.8
2026-01-20T23:08:49+00:00,SAT-56317,293.079001645374,38.560302414190176,3173.565925320493,4.905279034616134,-171803.62110200053,10.5,10499828196.378899,47.655,-122.3035,60.0,8.816666666666666
2026-01-20T23:08:50+00:00,SAT-56317,292.94414125588685,38.53152638400557,3178.4581236110166,4.913523406316557,-172092.37387260707,10.5,10499827907.626127,47.655,-122.3035,60.0,8.833333333333334
2026-01-20T23:08:51+00:00,SAT-56317,292.80978736191213,38.50254882396913,3183.3585442882495,4.921723847119548,-172379.587997358,10.5,10499827620.412003,47.655,-122.3035,60.0,8.85
2026-01-20T23:08:52+00:00,SAT-56317,292.675938985938,38.473371752555686,3188.2671435384436,4.929880556299601,-172665.27045568908,10.5,10499827334.729544,47.655,-122.3035,60.0,8.866666666666667
2026-01-20T23:08:53+00:00,SAT-56317,292.5425951322021,38.44399717451948,3193.183877746593,4.937993703896888,-172949.4272031264,10.5,10499827050.572798,47.655,-122.3035,60.0,8.883333333333333
2026-01-20T23:08:54+00:00,SAT-56317,292.40975478777335,38.414427081069704,3198.1087034672796,4.946063484492494,-173232.06505472257,10.5,10499826767.934946,47.655,-122.3035,60.0,8.9
2026-01-20T23:08:55+00:00,SAT-56317,292.2774169223194,38.38466344972327,3203.0415774491466,4.954090100504762,-173513.19110002427,10.5,10499826486.8089,47.655,-122.3035,60.0,8.916666666666666
2026-01-20T23:08:56+00:00,SAT-56317,292.1455804882245,38.35470824426175,3207.9824566427164,4.962073704447904,-173792.8106807243,10.5,10499826207.18932,47.655,-122.3035,60.0,8.933333333333334
2026-01-20T23:08:57+00:00,SAT-56317,292.0142444222241,38.324563415039655,3212.9312981506196,4.970014493904044,-174070.9307169844,10.5,10499825929.069283,47.655,-122.3035,60.0,8.95
2026-01-20T23:08:58+00:00,SAT-56317,291.88340764459195,38.29423089871935,3217.88805927254,4.977912674554805,-174347.55841264507,10.5,10499825652.441587,47.655,-122.3035,60.0,8.966666666666667
2026-01-20T23:08:59+00:00,SAT-56317,291.75306905930546,38.263712618228254,3222.852697513296,4.985768405946633,-174622.69935569772,10.5,10499825377.300644,47.655,-122.3035,60.0,8.983333333333333
2026-01-20T23:09:00+00:00,SAT-56317,291.6232275555106,38.23301048305548,3227.825170536827,4.993581876418662,-174896.36014257552,10.5,10499825103.639858,47.655,-122.3035,60.0,9.0
2026-01-20T23:09:01+00:00,SAT-56317,291.493882007166,38.202126389087404,3232.8054361949085,5.001353277952432,-175168.54749728407,10.5,10499824831.452503,47.655,-122.3035,60.0,9.016666666666667
2026-01-20T23:09:02+00:00,SAT-56317,291.36503127324966,38.1710622186011,3237.793452530786,5.009082793957345,-175439.26784359638,10.5,10499824560.732157,47.655,-122.3035,60.0,9.033333333333333
2026-01-20T23:09:03+00:00,SAT-56317,291.2366741983348,38.13981984033258,3242.7891777706263,5.0167705948095005,-175708.52714880425,10.5,10499824291.47285,47.655,-122.3035,60.0,9.05
2026-01-20T23:09:04+00:00,SAT-56317,291.1088096131976,38.10840110957908,3247.792570310516,5.024416879810333,-175976.33239328687,10.5,10499824023.667606,47.655,-122.3035,60.0,9.066666666666666
2026-01-20T23:09:05+00:00,SAT-56317,290.98143633446625,38.07680786803656,3252.803588745314,5.032021814228845,-176242.68936546388,10.5,10499823757.310635,47.655,-122.3035,60.0,9.083333333333334
2026-01-20T23:09:06+00:00,SAT-56317,290.8545531657218,38.04504194403708,3257.8221918347044,5.039585592443342,-176507.60487328566,10.5,10499823492.395126,47.655,-122.3035,60.0,9.1
2026-01-20T23:09:07+00:00,SAT-56317,290.7281588971559,38.01310515238776,3262.8483385322347,5.047108395631122,-176771.08526234765,10.5,10499823228.914738,47.655,-122.3035,60.0,9.116666666666667
2026-01-20T23:09:08+00:00,SAT-56317,290.60225230615305,37.9809992944798,3267.881987972144,5.054590391993617,-177033.1364237755,10.5,10499822966.863577,47.655,-122.3035,60.0,9.133333333333333
2026-01-20T23:09:09+00:00,SAT-56317,290.4768321579329,37.94872615839806,3272.923099456426,5.062031770268911,-177293.76496797515,10.5,10499822706.235031,47.655,-122.3035,60.0,9.15
2026-01-20T23:09:10+00:00,SAT-56317,290.351897205341,37.91628751881872,3277.971632475307,5.069432731556515,-177552.97793830227,10.5,10499822447.022062,47.655,-122.3035,60.0,9.166666666666666
2026-01-20T23:09:11+00:00,SAT-56317,290.227446188895,37.883685136956906,3283.0275467195793,5.076793400262023,-177810.77969196692,10.5,10499822189.220308,47.655,-122.3035,60.0,9.183333333333334
2026-01-20T23:09:12+00:00,SAT-56317,290.1034778388194,37.85092076109493,3288.090802004108,5.08411401039167,-178067.1784248573,10.5,10499821932.821575,47.655,-122.3035,60.0,9.2
2026-01-20T23:09:13+00:00,SAT-56317,289.9799908728339,37.81799612590524,3293.161358377138,5.0913947150212495,-178322.17949833523,10.5,10499821677.820501,47.655,-122.3035,60.0,9.216666666666667
2026-01-20T23:09:14+00:00,SAT-56317,289.8569839982842,37.78491295300758,3298.2391760395863,5.098635700658778,-178575.78944470032,10.5,10499821424.210556,47.655,-122.3035,60.0,9.233333333333333
2026-01-20T23:09:15+00:00,SAT-56317,289.73445591167456,37.75167295078814,3303.3242153783767,5.105837132028444,-178828.01403329053,10.5,10499821171.985968,47.655,-122.3035,60.0,9.25
2026-01-20T23:09:16+00:00,SAT-56317,289.61240529942654,37.71827781457729,3308.4164369447194,5.112999198941694,-179078.85991210554,10.5,10499820921.140087,47.655,-122.3035,60.0,9.266666666666667
2026-01-20T23:09:17+00:00,SAT-56317,289.49083083759336,37.684729226523345,3313.515801479131,5.120122077954582,-179328.33326488524,10.5,10499820671.666735,47.655,-122.3035,60.0,9.283333333333333
2026-01-20T23:09:18+00:00,SAT-56317,289.36973119244584,37.65102885571744,3318.6222698982106,5.127205936484866,-179576.43995530764,10.5,10499820423.560045,47.655,-122.3035,60.0,9.3
2026-01-20T23:09:19+00:00,SAT-56317,289.24910502091564,37.61717835829409,3323.735803285532,5.1342509458254755,-179823.18598277576,10.5,10499820176.814016,47.655,-122.3035,60.0,9.316666666666666
2026-01-20T23:09:20+00:00,SAT-56317,289.12895097080695,37.58317937744695,3328.8563628955017,5.141257306586001,-180068.57837348603,10.5,10499819931.421627,47.655,-122.3035,60.0,9.333333333333334
2026-01-20T23:09:21+00:00,SAT-56317,289.00926768037647,37.549033543275904,3333.9839101826037,5.148225158976654,-180312.62203819305,10.5,10499819687.377962,47.655,-122.3035,60.0,9.35
2026-01-20T23:09:22+00:00,SAT-56317,288.89005377995136,37.51474247323161,3339.1184067411564,5.155154706943485,-180555.3241199503,10.5,10499819444.67588,47.655,-122.3035,60.0,9.366666666666667
2026-01-20T23:09:23+00:00,SAT-56317,288.77130789076483,37.48030777173516,3344.2598143688815,5.162046106745778,-180796.69009161886,10.5,10499819203.309908,47.655,-122.3035,60.0,9.383333333333333
