satellites_20260121_005943/SAT-65091.csv

timestamp,satellite,azimuth_deg,elevation_deg,distance_km,relative_velocity_kms,doppler_shift_hz,tx_freq_ghz,rx_freq_hz,ue_lat,ue_lon,ue_alt_m,time_minutes
2026-01-20T23:00:00+00:00,SAT-65091,216.66740764575286,45.459778037678205,1086.6475613666303,-4.791520199798648,167819.305507298,10.5,10500167819.305508,47.655,-122.3035,60.0,0.0
2026-01-20T23:00:01+00:00,SAT-65091,216.78515810415598,45.74120231681369,1081.8688185540311,-4.767161534750378,166966.16202025657,10.5,10500166966.16202,47.655,-122.3035,60.0,0.016666666666666666
2026-01-20T23:00:02+00:00,SAT-65091,216.9055442376299,46.024708664382004,1077.1143694500402,-4.742473378920727,166101.47837230662,10.5,10500166101.478373,47.655,-122.3035,60.0,0.03333333333333333
2026-01-20T23:00:03+00:00,SAT-65091,217.02864064953866,46.3103071474661,1072.3845426667963,-4.717451650065792,165225.11158599865,10.5,10500165225.111586,47.655,-122.3035,60.0,0.05
2026-01-20T23:00:04+00:00,SAT-65091,217.15452471607176,46.59800736812175,1067.6796708877976,-4.692092226122392,164336.91728924384,10.5,10500164336.91729,47.655,-122.3035,60.0,0.06666666666666667
2026-01-20T23:00:05+00:00,SAT-65091,217.28327671188438,46.88781843074646,1063.0000909076114,-4.666390996585659,163436.75151477434,10.5,10500163436.751514,47.655,-122.3035,60.0,0.08333333333333333
2026-01-20T23:00:06+00:00,SAT-65091,217.41497994381226,47.17974891093968,1058.34614362035,-4.640343839017606,162524.46987737386,10.5,10500162524.469877,47.655,-122.3035,60.0,0.1
2026-01-20T23:00:07+00:00,SAT-65091,217.54972089106096,47.473806821259515,1053.7181740315698,-4.613946612061123,161599.92732919852,10.5,10500161599.92733,47.655,-122.3035,60.0,0.11666666666666667
2026-01-20T23:00:08+00:00,SAT-65091,217.68758935267059,47.76999957473436,1049.116531277141,-4.587195186759029,160662.97925670233,10.5,10500160662.979258,47.655,-122.3035,60.0,0.13333333333333333
2026-01-20T23:00:09+00:00,SAT-65091,217.8286786039052,48.06833394846794,1044.5415686108797,-4.560085408946569,159713.48016346354,10.5,10500159713.480164,47.655,-122.3035,60.0,0.15
2026-01-20T23:00:10+00:00,SAT-65091,217.97308555991643,48.368816042869305,1039.9936434296906,-4.532613180830474,158751.28652742814,10.5,10500158751.286528,47.655,-122.3035,60.0,0.16666666666666666
2026-01-20T23:00:11+00:00,SAT-65091,218.12091095103315,48.671451244138694,1035.4731172173422,-4.504774308024205,157776.25144343742,10.5,10500157776.251444,47.655,-122.3035,60.0,0.18333333333333332
2026-01-20T23:00:12+00:00,SAT-65091,218.27225950255553,48.976244174477245,1030.980355640806,-4.476564727572954,156788.2326096276,10.5,10500156788.232609,47.655,-122.3035,60.0,0.2
2026-01-20T23:00:13+00:00,SAT-65091,218.4272401322267,49.28319865513958,1026.5157284191732,-4.447980279252464,155787.08431734756,10.5,10500155787.084318,47.655,-122.3035,60.0,0.21666666666666667
2026-01-20T23:00:14+00:00,SAT-65091,218.58596615078645,49.592317651790665,1022.0796094206655,-4.4190169050235575,154772.6644368997,10.5,10500154772.664436,47.655,-122.3035,60.0,0.23333333333333334
2026-01-20T23:00:15+00:00,SAT-65091,218.74855548082525,49.90360323081192,1017.672376560722,-4.389670473229517,153744.82826018898,10.5,10500153744.82826,47.655,-122.3035,60.0,0.25
2026-01-20T23:00:16+00:00,SAT-65091,218.91513088146175,50.21705650081794,1013.294411875421,-4.359936968201953,152703.43514152215,10.5,10500152703.43514,47.655,-122.3035,60.0,0.26666666666666666
2026-01-20T23:00:17+00:00,SAT-65091,219.0858201929585,50.53267756459062,1008.9461014058011,-4.329812327192144,151648.34278625355,10.5,10500151648.342787,47.655,-122.3035,60.0,0.2833333333333333
2026-01-20T23:00:18+00:00,SAT-65091,219.26075658890883,50.85046545656473,1004.6278352448147,-4.299292558204326,150579.41137780529,10.5,10500150579.411377,47.655,-122.3035,60.0,0.3
2026-01-20T23:00:19+00:00,SAT-65091,219.44007884756076,51.170418085528226,1000.3400074667655,-4.268373665084859,149496.50095397336,10.5,10500149496.500954,47.655,-122.3035,60.0,0.31666666666666665
2026-01-20T23:00:20+00:00,SAT-65091,219.6239316356101,51.49253216857213,996.0830161314543,-4.237051740744604,148399.47467196902,10.5,10500148399.474672,47.655,-122.3035,60.0,0.3333333333333333
2026-01-20T23:00:21+00:00,SAT-65091,219.812465812482,51.8168031684444,991.8572631953517,-4.20532286443487,147288.19521058843,10.5,10500147288.195211,47.655,-122.3035,60.0,0.35
2026-01-20T23:00:22+00:00,SAT-65091,220.00583874771323,52.14322521950867,987.663154525222,-4.173183213598968,146162.5286877269,10.5,10500146162.528688,47.655,-122.3035,60.0,0.36666666666666664
2026-01-20T23:00:23+00:00,SAT-65091,220.20421466198644,52.47179105823961,983.5010998001926,-4.140628962241208,145022.34110083143,10.5,10500145022.3411,47.655,-122.3035,60.0,0.38333333333333336
2026-01-20T23:00:24+00:00,SAT-65091,220.40776498336515,52.8024919417433,979.371512515184,-4.107656390844804,143867.50217669067,10.5,10500143867.502176,47.655,-122.3035,60.0,0.4
2026-01-20T23:00:25+00:00,SAT-65091,220.6166687298841,53.13531757043046,975.2748098747148,-4.074261805429111,142697.88253647683,10.5,10500142697.882536,47.655,-122.3035,60.0,0.4166666666666667
2026-01-20T23:00:26+00:00,SAT-65091,220.8311129107253,53.470255999667515,971.2114127674336,-4.040441610288569,141513.3562433715,10.5,10500141513.356243,47.655,-122.3035,60.0,0.43333333333333335
2026-01-20T23:00:27+00:00,SAT-65091,221.0512929550504,53.807293552299726,967.1817456681058,-4.00619223973118,140313.7984117579,10.5,10500140313.798412,47.655,-122.3035,60.0,0.45
2026-01-20T23:00:28+00:00,SAT-65091,221.27741316263266,54.146414720320394,963.1862366076805,-3.9715102607673463,139099.08880381886,10.5,10500139099.088804,47.655,-122.3035,60.0,0.4666666666666667
2026-01-20T23:00:29+00:00,SAT-65091,221.50968718728146,54.48760206948798,959.225317040942,-3.9363922620961325,137869.10794136586,10.5,10500137869.10794,47.655,-122.3035,60.0,0.48333333333333334
2026-01-20T23:00:30+00:00,SAT-65091,221.74833854277068,54.830836128662035,955.299421824878,-3.9008349760543757,136623.74137701272,10.5,10500136623.741377,47.655,-122.3035,60.0,0.5
2026-01-20T23:00:31+00:00,SAT-65091,221.9936011464866,55.17609528317566,951.4089890754265,-3.8648351827239997,135362.87633560816,10.5,10500135362.876335,47.655,-122.3035,60.0,0.5166666666666667
2026-01-20T23:00:32+00:00,SAT-65091,222.2457198898808,55.52335565321127,947.5544601198565,-3.828389817189131,134086.40547083368,10.5,10500134086.40547,47.655,-122.3035,60.0,0.5333333333333333
2026-01-20T23:00:33+00:00,SAT-65091,222.50495125026112,55.8725909744268,943.7362793421797,-3.79149585973661,132794.22301956112,10.5,10500132794.223019,47.655,-122.3035,60.0,0.55
2026-01-20T23:00:34+00:00,SAT-65091,222.77156393212547,56.223772461119054,939.9548941380691,-3.754150472968613,131486.22960411644,10.5,10500131486.229605,47.655,-122.3035,60.0,0.5666666666666667
2026-01-20T23:00:35+00:00,SAT-65091,223.0458395567028,56.576868673631466,936.2107547330284,-3.7163508641441974,130162.32741089861,10.5,10500130162.327412,47.655,-122.3035,60.0,0.5833333333333334
2026-01-20T23:00:36+00:00,SAT-65091,223.32807338312045,56.931845364356704,932.5043141378552,-3.6780944470765373,128822.4258607054,10.5,10500128822.425861,47.655,-122.3035,60.0,0.6
2026-01-20T23:00:37+00:00,SAT-65091,223.61857508506208,57.2886653295196,928.8360279426375,-3.6393787106850444,127466.43700487279,10.5,10500127466.437004,47.655,-122.3035,60.0,0.6166666666666667
2026-01-20T23:00:38+00:00,SAT-65091,223.917669563948,57.647288238615495,925.2063542418476,-3.60020131981398,126094.27905636902,10.5,10500126094.279057,47.655,-122.3035,60.0,0.6333333333333333
2026-01-20T23:00:39+00:00,SAT-65091,224.22569781867395,58.007670462751044,921.6157534588865,-3.5605600548483176,124705.87427488698,10.5,10500124705.874275,47.655,-122.3035,60.0,0.65
2026-01-20T23:00:40+00:00,SAT-65091,224.54301786196984,58.3697648856483,918.0646882308512,-3.5204529095698116,123301.15239417739,10.5,10500123301.152393,47.655,-122.3035,60.0,0.6666666666666666
2026-01-20T23:00:41+00:00,SAT-65091,224.87000569958826,58.73352071222149,914.5536231957069,-3.4798779666834303,121880.04626245807,10.5,10500121880.046263,47.655,-122.3035,60.0,0.6833333333333333
2026-01-20T23:00:42+00:00,SAT-65091,225.2070563553468,59.098883251369934,911.0830249036013,-3.4388335478607264,120442.4970975675,10.5,10500120442.497097,47.655,-122.3035,60.0,0.7
2026-01-20T23:00:43+00:00,SAT-65091,225.55458496964675,59.46579370003041,907.6533615785348,-3.3973181007007116,118988.4505278564,10.5,10500118988.450527,47.655,-122.3035,60.0,0.7166666666666667
2026-01-20T23:00:44+00:00,SAT-65091,225.91302794977904,59.83418890040003,904.2651029927694,-3.3553303109384243,117517.86052220651,10.5,10500117517.860521,47.655,-122.3035,60.0,0.7333333333333333
2026-01-20T23:00:45+00:00,SAT-65091,226.28284419644467,60.20400109281565,900.9187202293267,-3.312868992453852,116030.68553767768,10.5,10500116030.685537,47.655,-122.3035,60.0,0.75
2026-01-20T23:00:46+00:00,SAT-65091,226.66451638600105,60.57515763929877,897.6146855541862,-3.2699332341858085,114526.8936650534,10.5,10500114526.893665,47.655,-122.3035,60.0,0.7666666666666667
2026-01-20T23:00:47+00:00,SAT-65091,227.0585523383533,60.94758074451006,894.353472141958,-3.2265222668661724,113006.45796131005,10.5,10500113006.457962,47.655,-122.3035,60.0,0.7833333333333333
2026-01-20T23:00:48+00:00,SAT-65091,227.46548644101182,61.321187141845414,891.1355539344703,-3.18263559914896,111469.36121743289,10.5,10500111469.361217,47.655,-122.3035,60.0,0.8
2026-01-20T23:00:49+00:00,SAT-65091,227.88588116179127,61.695887773332814,887.9614053635856,-3.1382728985453645,109915.59178825749,10.5,10500109915.591787,47.655,-122.3035,60.0,0.8166666666666667
2026-01-20T23:00:50+00:00,SAT-65091,228.32032861970177,62.07158743270248,884.8315011927697,-3.0934341324555015,108345.14853199798,10.5,10500108345.148533,47.655,-122.3035,60.0,0.8333333333333334
2026-01-20T23:00:51+00:00,SAT-65091,228.76945224709917,62.44818440014946,881.7463162180009,-3.0481194572361057,106758.03692492862,10.5,10500106758.036924,47.655,-122.3035,60.0,0.85
2026-01-20T23:00:52+00:00,SAT-65091,229.23390850853642,62.82557003745401,878.7063250793174,-3.002329305542797,105154.2721204793,10.5,10500105154.272121,47.655,-122.3035,60.0,0.8666666666666667
2026-01-20T23:00:53+00:00,SAT-65091,229.71438870045213,63.20362836507878,875.7120019852559,-2.9560643370217092,103533.87722224803,10.5,10500103533.877222,47.655,-122.3035,60.0,0.8833333333333333
2026-01-20T23:00:54+00:00,SAT-65091,230.21162080784094,63.58223560280324,872.7638204864664,-2.909325521166851,101896.88618601585,10.5,10500101896.886187,47.655,-122.3035,60.0,0.9
2026-01-20T23:00:55+00:00,SAT-65091,230.72637143227658,63.961259688384786,869.8622531666894,-2.8621140370311853,100243.34030720496,10.5,10500100243.340307,47.655,-122.3035,60.0,0.9166666666666666
2026-01-20T23:00:56+00:00,SAT-65091,231.25944775170953,64.3405597488107,867.0077714337568,-2.814431387173445,98573.29221177798,10.5,10500098573.292212,47.655,-122.3035,60.0,0.9333333333333333
2026-01-20T23:00:57+00:00,SAT-65091,231.811699536129,64.71998554944766,864.2008451969492,-2.76627933121869,96886.80352924771,10.5,10500096886.80353,47.655,-122.3035,60.0,0.95
2026-01-20T23:00:58+00:00,SAT-65091,232.38402117176366,65.0993768956504,861.4419426106138,-2.717659937238688,95183.94669223539,10.5,10500095183.946692,47.655,-122.3035,60.0,0.9666666666666667
2026-01-20T23:00:59+00:00,SAT-65091,232.97735369425715,65.47856300007788,858.7315297665411,-2.6685755564391385,93464.80404991026,10.5,10500093464.80405,47.655,-122.3035,60.0,0.9833333333333333
2026-01-20T23:01:00+00:00,SAT-65091,233.5926867896907,65.85736180338702,856.0700704115858,-2.6190288446921888,91729.4686221492,10.5,10500091729.468622,47.655,-122.3035,60.0,1.0
2026-01-20T23:01:01+00:00,SAT-65091,234.23106073934338,66.23557925263253,853.4580256438127,-2.5690227720525867,89978.0444328328,10.5,10500089978.044434,47.655,-122.3035,60.0,1.0166666666666666
2026-01-20T23:01:02+00:00,SAT-65091,234.89356826529223,66.61300853415284,850.8958535991522,-2.518560619953203,88210.64641162065,10.5,10500088210.646412,47.655,-122.3035,60.0,1.0333333333333334
2026-01-20T23:01:03+00:00,SAT-65091,235.5813562230391,66.98942925771847,848.3840091408523,-2.467645996342734,86427.40092413768,10.5,10500086427.400925,47.655,-122.3035,60.0,1.05
2026-01-20T23:01:04+00:00,SAT-65091,236.2956270840851,67.36460659365466,845.9229435338332,-2.4162828128163247,84628.44497099193,10.5,10500084628.444971,47.655,-122.3035,60.0,1.0666666666666667
2026-01-20T23:01:05+00:00,SAT-65091,237.0376401226625,67.73829035686022,843.5131041418509,-2.36447533581718,82813.92798107147,10.5,10500082813.92798,47.655,-122.3035,60.0,1.0833333333333333
2026-01-20T23:01:06+00:00,SAT-65091,237.80871223830871,68.11021404956111,841.154934073596,-2.3122281524567585,80984.01061442301,10.5,10500080984.010614,47.655,-122.3035,60.0,1.1
2026-01-20T23:01:07+00:00,SAT-65091,238.61021828252518,68.4800938515127,838.8488718628792,-2.25954619552566,79138.86563823908,10.5,10500079138.865639,47.655,-122.3035,60.0,1.1166666666666667
2026-01-20T23:01:08+00:00,SAT-65091,239.4435907799138,68.84762756974003,836.5953511238749,-2.206434716926695,77278.6769963716,10.5,10500077278.676996,47.655,-122.3035,60.0,1.1333333333333333
2026-01-20T23:01:09+00:00,SAT-65091,240.3103188764278,69.21249354444609,834.3948002328599,-2.1528993432081838,75403.64175434303,10.5,10500075403.641754,47.655,-122.3035,60.0,1.15
2026-01-20T23:01:10+00:00,SAT-65091,241.21194637107823,69.57434953154112,832.247641954567,-2.0989460254539947,73513.96834428351,10.5,10500073513.968344,47.655,-122.3035,60.0,1.1666666666666667
2026-01-20T23:01:11+00:00,SAT-65091,242.15006859009836,69.93283155437364,830.1542931185143,-2.0445810667887807,71609.87752828057,10.5,10500071609.87753,47.655,-122.3035,60.0,1.1833333333333333
2026-01-20T23:01:12+00:00,SAT-65091,243.12632790131005,70.28755275039663,828.1151642679035,-1.9898111226802433,69691.60240896571,10.5,10500069691.60241,47.655,-122.3035,60.0,1.2
2026-01-20T23:01:13+00:00,SAT-65091,244.14240759791306,70.63810222554449,826.1306593082171,-1.9346431999520421,67759.38839494235,10.5,10500067759.388395,47.655,-122.3035,60.0,1.2166666666666666
2026-01-20T23:01:14+00:00,SAT-65091,245.20002385898195,70.98404393795691,824.2011751567982,-1.8790846419492402,65813.4926812169,10.5,10500065813.492682,47.655,-122.3035,60.0,1.2333333333333334
2026-01-20T23:01:15+00:00,SAT-65091,246.30091545636458,71.32491563589114,822.3271014072276,-1.8231431642758118,63854.18550087749,10.5,10500063854.185501,47.655,-122.3035,60.0,1.25
2026-01-20T23:01:16+00:00,SAT-65091,247.44683088973392,71.66022789283286,820.5088199580564,-1.76682680797159,61881.74848515267,10.5,10500061881.748486,47.655,-122.3035,60.0,1.2666666666666666
2026-01-20T23:01:17+00:00,SAT-65091,248.6395125367444,71.98946326601033,818.7467046882394,-1.7101439735758275,59896.4758564613,10.5,10500059896.475857,47.655,-122.3035,60.0,1.2833333333333334
2026-01-20T23:01:18+00:00,SAT-65091,249.88067749082032,72.31207564215676,817.0411210985932,-1.6531034062627812,57898.673907797915,10.5,10500057898.673908,47.655,-122.3035,60.0,1.3
2026-01-20T23:01:19+00:00,SAT-65091,251.17199469279035,72.62748981964096,815.3924259680804,-1.5957141756220634,55888.66029455506,10.5,10500055888.660295,47.655,-122.3035,60.0,1.3166666666666667
2026-01-20T23:01:20+00:00,SAT-65091,252.5150580114647,72.93510139285115,813.80096703026,-1.5379857159285795,53866.76544494687,10.5,10500053866.765446,47.655,-122.3035,60.0,1.3333333333333333
2026-01-20T23:01:21+00:00,SAT-65091,253.91135504574612,73.23427702684174,812.267082609574,-1.4799277693755213,51833.33057178835,10.5,10500051833.330572,47.655,-122.3035,60.0,1.35
2026-01-20T23:01:22+00:00,SAT-65091,255.36223138978283,73.52435518859146,810.79110131425,-1.4215504213295735,49788.708907281856,10.5,10500049788.708908,47.655,-122.3035,60.0,1.3666666666666667
2026-01-20T23:01:23+00:00,SAT-65091,256.86885039910885,73.80464744501457,809.373341694044,-1.362864060741737,47733.264316436675,10.5,10500047733.264317,47.655,-122.3035,60.0,1.3833333333333333
2026-01-20T23:01:24+00:00,SAT-65091,258.4321485474576,74.07444041061521,808.0141119374643,-1.3038794207262645,45667.37271831494,10.5,10500045667.372719,47.655,-122.3035,60.0,1.4
2026-01-20T23:01:25+00:00,SAT-65091,260.05278687006364,74.33299845959556,806.7137095285267,-1.2446075098390539,43591.41967911035,10.5,10500043591.41968,47.655,-122.3035,60.0,1.4166666666666667
2026-01-20T23:01:26+00:00,SAT-65091,261.73109909924267,74.57956727622201,805.4724209720472,-1.1850596589808717,41505.80205489744,10.5,10500041505.802055,47.655,-122.3035,60.0,1.4333333333333333
2026-01-20T23:01:27+00:00,SAT-65091,263.46703772562364,74.81337835197036,804.2905214721569,-1.1252474782134099,39410.926479147136,10.5,10500039410.92648,47.655,-122.3035,60.0,1.45
2026-01-20T23:01:28+00:00,SAT-65091,265.2601193989127,75.03365447886,803.1682746538854,-1.065182867281216,37307.20973124937,10.5,10500037307.209732,47.655,-122.3035,60.0,1.4666666666666666
2026-01-20T23:01:29+00:00,SAT-65091,267.10937170202834,75.23961628942804,802.1059322742503,-1.0048779933205347,35195.07795578238,10.5,10500035195.077955,47.655,-122.3035,60.0,1.4833333333333334
2026-01-20T23:01:30+00:00,SAT-65091,269.0132836539785,75.43048983850247,801.1037339555785,-0.9443452782952295,33074.96622246551,10.5,10500033074.966223,47.655,-122.3035,60.0,1.5
2026-01-20T23:01:31+00:00,SAT-65091,270.96976273231076,75.6055151819432,800.1619069313589,-0.8835974087842055,30947.31886895619,10.5,10500030947.318869,47.655,-122.3035,60.0,1.5166666666666666
2026-01-20T23:01:32+00:00,SAT-65091,272.97610151969906,75.76395585158893,799.2806657823314,-0.8226472972207557,28812.588143287896,10.5,10500028812.588142,47.655,-122.3035,60.0,1.5333333333333334
2026-01-20T23:01:33+00:00,SAT-65091,275.0289570311412,75.90510904691132,798.4602122112365,-0.7615080853231752,26671.234324024717,10.5,10500026671.234324,47.655,-122.3035,60.0,1.55
2026-01-20T23:01:34+00:00,SAT-65091,277.12434582501913,76.02831631286243,797.7007348141408,-0.7001931232672765,24523.724990794806,10.5,10500024523.72499,47.655,-122.3035,60.0,1.5666666666666667
2026-01-20T23:01:35+00:00,SAT-65091,279.2576574548833,76.13297439474938,797.0024088725357,-0.6387159675282363,22370.534948702683,10.5,10500022370.534948,47.655,-122.3035,60.0,1.5833333333333333
2026-01-20T23:01:36+00:00,SAT-65091,281.4236882068068,76.21854591157476,796.3653961475875,-0.5770903499546599,20212.145145172162,10.5,10500020212.145145,47.655,-122.3035,60.0,1.6
2026-01-20T23:01:37+00:00,SAT-65091,283.6166959190888,76.28456944117154,795.7898447052327,-0.515330179409495,18049.042727418102,10.5,10500018049.042727,47.655,-122.3035,60.0,1.6166666666666667
2026-01-20T23:01:38+00:00,SAT-65091,285.83047562482847,76.33066860258886,795.275888739635,-0.4534495118912839,15881.719995966281,10.5,10500015881.719995,47.655,-122.3035,60.0,1.6333333333333333
2026-01-20T23:01:39+00:00,SAT-65091,288.0584541588327,76.35655972339733,794.8236484264421,-0.39146254971504063,13710.674375964209,10.5,10500013710.674376,47.655,-122.3035,60.0,1.65
2026-01-20T23:01:40+00:00,SAT-65091,290.29380070755064,76.36205772973582,794.4332297768597,-0.3293836135594004,11536.407438154112,10.5,10500011536.407438,47.655,-122.3035,60.0,1.6666666666666667
2026-01-20T23:01:41+00:00,SAT-65091,292.52954880653806,76.34707996419166,794.1047245196031,-0.26722713216576804,9359.424538093499,10.5,10500009359.424538,47.655,-122.3035,60.0,1.6833333333333333
2026-01-20T23:01:42+00:00,SAT-65091,294.7587245439322,76.31164774004635,793.8382099931231,-0.2050076251898393,7180.234215542917,10.5,10500007180.234215,47.655,-122.3035,60.0,1.7
2026-01-20T23:01:43+00:00,SAT-65091,296.974475105174,76.25588555455953,793.6337490549337,-0.14273968573688245,4999.347582777635,10.5,10500004999.347582,47.655,-122.3035,60.0,1.7166666666666666
2026-01-20T23:01:44+00:00,SAT-65091,299.17019178996986,76.18001800858376,793.4913900083587,-0.08043796295279725,2817.2777148528903,10.5,10500002817.277716,47.655,-122.3035,60.0,1.7333333333333334
2026-01-20T23:01:45+00:00,SAT-65091,301.33962208643936,76.08436459950455,793.4111665466405,-0.018117146417702467,634.5391030013034,10.5,10500000634.539103,47.655,-122.3035,60.0,1.75
2026-01-20T23:01:46+00:00,SAT-65091,303.4769663311524,75.9693326560436,793.3930977126133,0.04420805214781606,-1548.3529860916938,10.5,10499998451.647015,47.655,-122.3035,60.0,1.7666666666666666
2026-01-20T23:01:47+00:00,SAT-65091,305.57695563235006,75.83540876426169,793.4371878766219,0.10652291652225117,-3730.883128099364,10.5,10499996269.116873,47.655,-122.3035,60.0,1.7833333333333334
2026-01-20T23:01:48+00:00,SAT-65091,307.6349091517792,75.68314908269762,793.5434267320335,0.16881274128872084,-5912.536277118648,10.5,10499994087.463722,47.655,-122.3035,60.0,1.8
2026-01-20T23:01:49+00:00,SAT-65091,309.646770210189,75.51316896420182,793.7117893060122,0.23106285269154536,-8092.7984961557195,10.5,10499991907.201504,47.655,-122.3035,60.0,1.8166666666666667
2026-01-20T23:01:50+00:00,SAT-65091,311.6091220328517,75.32613228379243,793.9422359910965,0.2932586199797123,-10271.157354422101,10.5,10499989728.842646,47.655,-122.3035,60.0,1.8333333333333333
2026-01-20T23:01:51+00:00,SAT-65091,313.51918480778,75.1227408510874,794.2347125880897,0.35538548165985834,-12447.10284682516,10.5,10499987552.897154,47.655,-122.3035,60.0,1.85
2026-01-20T23:01:52+00:00,SAT-65091,315.3747967405668,74.90372421063377,794.5891503751318,0.4174289495571989,-14620.127536199021,10.5,10499985379.872463,47.655,-122.3035,60.0,1.8666666666666667
2026-01-20T23:01:53+00:00,SAT-65091,317.1743819339436,74.66983009783733,795.0054661808234,0.4793746398316729,-16789.72763962116,10.5,10499983210.27236,47.655,-122.3035,60.0,1.8833333333333333
2026-01-20T23:01:54+00:00,SAT-65091,318.9169084046622,74.42181571785628,795.4835624882822,0.5412082766251813,-18955.40315615413,10.5,10499981044.596844,47.655,-122.3035,60.0,1.9
2026-01-20T23:01:55+00:00,SAT-65091,320.601839170114,74.16043998295318,796.0233275428365,0.6029157172872034,-21116.658750353337,10.5,10499978883.34125,47.655,-122.3035,60.0,1.9166666666666667
2026-01-20T23:01:56+00:00,SAT-65091,322.22907932555574,73.88645675632385,796.6246354848776,0.6644829615303743,-23273.00407293412,10.5,10499976726.995928,47.655,-122.3035,60.0,1.9333333333333333
2026-01-20T23:01:57+00:00,SAT-65091,323.7989214979152,73.60060912078903,797.2873464918438,0.725896173834339,-25423.954545449436,10.5,10499974576.045454,47.655,-122.3035,60.0,1.95
2026-01-20T23:01:58+00:00,SAT-65091,325.311991733126,73.30362463649547,798.0113069425479,0.7871416901620018,-27569.03159552139,10.5,10499972430.968405,47.655,-122.3035,60.0,1.9666666666666666
2026-01-20T23:01:59+00:00,SAT-65091,326.7691973491927,72.9962115350471,798.7963495882028,0.8482060405202922,-29707.76344701463,10.5,10499970292.236553,47.655,-122.3035,60.0,1.9833333333333334
2026-01-20T23:02:00+00:00,SAT-65091,328.1716779384765,72.67905576431981,799.6422937459483,0.9090759539789623,-31839.6852958159,10.5,10499968160.314705,47.655,-122.3035,60.0,2.0
2026-01-20T23:02:01+00:00,SAT-65091,329.52076025213233,72.35281879993406,800.5489454973833,0.9697383805274671,-33964.34007535441,10.5,10499966035.659925,47.655,-122.3035,60.0,2.0166666666666666
2026-01-20T23:02:02+00:00,SAT-65091,330.8179174426306,72.01813612120038,801.5160979088962,1.0301805015406063,-36081.278823152934,10.5,10499963918.721176,47.655,-122.3035,60.0,2.033333333333333
2026-01-20T23:02:03+00:00,SAT-65091,332.06473282667815,71.67561626045185,802.5435312624327,1.090389741782804,-38190.0611012684,10.5,10499961809.938898,47.655,-122.3035,60.0,2.05
2026-01-20T23:02:04+00:00,SAT-65091,333.262868154457,71.32584033380836,803.6310132982373,1.1503537705367357,-40290.25503582123,10.5,10499959709.744965,47.655,-122.3035,60.0,2.066666666666667
2026-01-20T23:02:05+00:00,SAT-65091,334.41403620946664,70.96936197179099,804.7782994587193,1.2100605398858744,-42381.438657811996,10.5,10499957618.561342,47.655,-122.3035,60.0,2.0833333333333335
2026-01-20T23:02:06+00:00,SAT-65091,335.5199775086792,70.6067075618519,805.9851331704989,1.2694982565666082,-44463.19891726358,10.5,10499955536.801083,47.655,-122.3035,60.0,2.1
2026-01-20T23:02:07+00:00,SAT-65091,336.5824407046087,70.23837675551736,807.2512460983812,1.3286554385285299,-46535.13366420167,10.5,10499953464.866335,47.655,-122.3035,60.0,2.1166666666666667
2026-01-20T23:02:08+00:00,SAT-65091,337.60316640650746,69.86484315587565,808.5763584557404,1.387520870820705,-48596.85010360534,10.5,10499951403.149897,47.655,-122.3035,60.0,2.1333333333333333
2026-01-20T23:02:09+00:00,SAT-65091,338.583873958015,69.4865551645838,809.9601792709055,1.4460836616925279,-50647.96676029636,10.5,10499949352.03324,47.655,-122.3035,60.0,2.15
2026-01-20T23:02:10+00:00,SAT-65091,339.5262508875016,69.10393691751806,811.4024067095003,1.5043332248278827,-52688.112856704254,10.5,10499947311.887144,47.655,-122.3035,60.0,2.1666666666666665
2026-01-20T23:02:11+00:00,SAT-65091,340.43194462097154,68.7173892951565,812.902728379062,1.5622592824981407,-54716.92842329768,10.5,10499945283.071577,47.655,-122.3035,60.0,2.183333333333333
2026-01-20T23:02:12+00:00,SAT-65091,341.30255615339547,68.32729097281705,814.4608216368067,1.6198518992324795,-56734.06547786147,10.5,10499943265.934523,47.655,-122.3035,60.0,2.2
2026-01-20T23:02:13+00:00,SAT-65091,342.1396353984367,67.93399948048561,816.0763539309746,1.6771014507693427,-58739.18693804531,10.5,10499941260.813063,47.655,-122.3035,60.0,2.216666666666667
2026-01-20T23:02:14+00:00,SAT-65091,342.9446779148808,67.53785227037937,817.7489831112085,1.733998660862856,-60731.96791048022,10.5,10499939268.03209,47.655,-122.3035,60.0,2.2333333333333334
2026-01-20T23:02:15+00:00,SAT-65091,343.7191228137398,67.13916776136402,819.4783577756424,1.7905345774568517,-62712.09485629203,10.5,10499937287.905144,47.655,-122.3035,60.0,2.25
2026-01-20T23:02:16+00:00,SAT-65091,344.4643516095982,66.7382463643137,821.264117594226,1.8467006085554007,-64679.2668474392,10.5,10499935320.733152,47.655,-122.3035,60.0,2.2666666666666666
2026-01-20T23:02:17+00:00,SAT-65091,345.1816878669948,66.33537146676,823.1058936678254,1.9024885005012429,-66633.19480593155,10.5,10499933366.805195,47.655,-122.3035,60.0,2.283333333333333
2026-01-20T23:02:18+00:00,SAT-65091,345.87239746363474,65.93081038456934,825.0033088656586,1.9578903329394606,-68573.60132743679,10.5,10499931426.398672,47.655,-122.3035,60.0,2.3
2026-01-20T23:02:19+00:00,SAT-65091,346.53768935106785,65.52481527265594,826.9559781577102,2.0128985577497778,-70500.22204485434,10.5,10499929499.777956,47.655,-122.3035,60.0,2.316666666666667
2026-01-20T23:02:20+00:00,SAT-65091,347.178716717379,65.11762398376145,828.9635089859726,2.0675059505735756,-72412.80393058636,10.5,10499927587.19607,47.655,-122.3035,60.0,2.3333333333333335
2026-01-20T23:02:21+00:00,SAT-65091,347.7965784301803,64.70946089230677,831.0255015873447,2.121705672206079,-74311.10744675182,10.5,10499925688.892553,47.655,-122.3035,60.0,2.35
2026-01-20T23:02:22+00:00,SAT-65091,348.3923207195838,64.3005376609789,833.1415493777582,2.1754911881449135,-76194.90372743663,10.5,10499923805.096273,47.655,-122.3035,60.0,2.3666666666666667
2026-01-20T23:02:23+00:00,SAT-65091,348.9669389948142,63.89105397859464,835.311239256068,2.228856356401584,-78063.97765422316,10.5,10499921936.022346,47.655,-122.3035,60.0,2.3833333333333333
2026-01-20T23:02:24+00:00,SAT-65091,349.52137979182106,63.48119823769005,837.5341519955193,2.2817953422622246,-79918.12487075094,10.5,10499920081.87513,47.655,-122.3035,60.0,2.4
2026-01-20T23:02:25+00:00,SAT-65091,350.0565427616114,63.071148186219816,839.8098625502021,2.334302692863638,-81757.15439468528,10.5,10499918242.845606,47.655,-122.3035,60.0,2.4166666666666665
2026-01-20T23:02:26+00:00,SAT-65091,350.57328270736446,62.66107152533978,842.1379404358847,2.386373268286191,-83580.88620429872,10.5,10499916419.113796,47.655,-122.3035,60.0,2.433333333333333
2026-01-20T23:02:27+00:00,SAT-65091,351.07241160763584,62.25112648122816,844.5179500421222,2.4380022860967365,-85389.15279855284,10.5,10499914610.847202,47.655,-122.3035,60.0,2.45
2026-01-20T23:02:28+00:00,SAT-65091,351.5547006314095,61.84146233257232,846.9494509887893,2.4891852826878273,-87181.79784303375,10.5,10499912818.202156,47.655,-122.3035,60.0,2.466666666666667
2026-01-20T23:02:29+00:00,SAT-65091,352.0208821096873,61.432219910251916,849.4319984440567,2.5399181635146064,-88958.67792946068,10.5,10499911041.322071,47.655,-122.3035,60.0,2.4833333333333334
2026-01-20T23:02:30+00:00,SAT-65091,352.47165146865007,61.02353205642134,851.9651434924687,2.590197102485077,-90719.65905190754,10.5,10499909280.340948,47.655,-122.3035,60.0,2.5
2026-01-20T23:02:31+00:00,SAT-65091,352.9076690872105,60.615524069347764,854.5484334026803,2.640018653400124,-92464.6205099039,10.5,10499907535.37949,47.655,-122.3035,60.0,2.5166666666666666
2026-01-20T23:02:32+00:00,SAT-65091,353.3295621105919,60.20831410181764,857.1814120063382,2.6893796453899603,-94193.45124617706,10.5,10499905806.548754,47.655,-122.3035,60.0,2.533333333333333
2026-01-20T23:02:33+00:00,SAT-65091,353.7379261770875,59.80201354937949,859.8636199726737,2.7382772563036055,-95906.052417062,10.5,10499904093.947582,47.655,-122.3035,60.0,2.55
2026-01-20T23:02:34+00:00,SAT-65091,354.1333270854407,59.39672740225123,862.5945951562938,2.7867089378063126,-97602.33476909643,10.5,10499902397.665232,47.655,-122.3035,60.0,2.566666666666667
2026-01-20T23:02:35+00:00,SAT-65091,354.51630237776516,58.99255458522489,865.3738728702659,2.834672466011214,-99282.22041235522,10.5,10499900717.779587,47.655,-122.3035,60.0,2.5833333333333335
2026-01-20T23:02:36+00:00,SAT-65091,354.8873628567988,58.58958826829047,868.2009862097011,2.8821658856767947,-100945.64086600985,10.5,10499899054.359135,47.655,-122.3035,60.0,2.6
2026-01-20T23:02:37+00:00,SAT-65091,355.24699402282994,58.187916164985964,871.0754663196827,2.9291875670829066,-102592.53905036704,10.5,10499897407.460949,47.655,-122.3035,60.0,2.6166666666666667
2026-01-20T23:02:38+00:00,SAT-65091,355.5956574463705,57.78762080395502,873.9968427199202,2.9757361102101276,-104222.86593082451,10.5,10499895777.13407,47.655,-122.3035,60.0,2.6333333333333333
2026-01-20T23:02:39+00:00,SAT-65091,355.93379205932945,57.38877979603472,876.9646435338364,3.0218104504658596,-105836.58422084629,10.5,10499894163.41578,47.655,-122.3035,60.0,2.65
2026-01-20T23:02:40+00:00,SAT-65091,356.26181539105585,56.99146607066189,879.9783958231011,3.067409724668938,-107433.66368817673,10.5,10499892566.336311,47.655,-122.3035,60.0,2.6666666666666665
2026-01-20T23:02:41+00:00,SAT-65091,356.5801247238751,56.59574811480156,883.0376257885041,3.112533379062976,-109014.0849379248,10.5,10499890985.915062,47.655,-122.3035,60.0,2.683333333333333
2026-01-20T23:02:42+00:00,SAT-65091,356.8890981979422,56.20169018340263,886.1418590785563,3.1571810791767287,-110577.83625549263,10.5,10499889422.163744,47.655,-122.3035,60.0,2.7
2026-01-20T23:02:43+00:00,SAT-65091,357.1890958464952,55.80935250820521,889.2906210081886,3.201352767309845,-112124.91561996992,10.5,10499887875.08438,47.655,-122.3035,60.0,2.716666666666667
2026-01-20T23:02:44+00:00,SAT-65091,357.48046057958294,55.41879148690588,892.4834368347856,3.24504859642682,-113655.32838882027,10.5,10499886344.671612,47.655,-122.3035,60.0,2.7333333333333334
2026-01-20T23:02:45+00:00,SAT-65091,357.7635191068813,55.03005986896635,895.7198319682886,3.288268935847782,-115169.08749719684,10.5,10499884830.912502,47.655,-122.3035,60.0,2.75
2026-01-20T23:02:46+00:00,SAT-65091,358.0385828097674,54.6432069295987,898.9993321869741,3.331014427337154,-116666.21542240438,10.5,10499883333.784578,47.655,-122.3035,60.0,2.7666666666666666
2026-01-20T23:02:47+00:00,SAT-65091,358.30594856881476,54.258278627195914,902.3214639091717,3.3732858726761643,-118146.74024621303,10.5,10499881853.259754,47.655,-122.3035,60.0,2.783333333333333
2026-01-20T23:02:48+00:00,SAT-65091,358.56589953539515,53.87531776442927,905.6857543528541,3.4150843170740357,-119610.69857627097,10.5,10499880389.301424,47.655,-122.3035,60.0,2.8
2026-01-20T23:02:49+00:00,SAT-65091,358.8187058662982,53.49436413076368,909.0917317784158,3.4564109861899,-121058.13334034558,10.5,10499878941.86666,47.655,-122.3035,60.0,2.816666666666667
2026-01-20T23:02:50+00:00,SAT-65091,359.06462541187244,53.11545464384809,912.5389256686426,3.4972672848710133,-122489.09374213024,10.5,10499877510.906258,47.655,-122.3035,60.0,2.8333333333333335
2026-01-20T23:02:51+00:00,SAT-65091,359.3039043651845,52.73862348310327,916.0268669074206,3.5376548392995515,-123903.63673740347,10.5,10499876096.363262,47.655,-122.3035,60.0,2.85
2026-01-20T23:02:52+00:00,SAT-65091,359.53677787716913,52.36390221146921,919.5550880004821,3.5775754158651045,-125301.82419260059,10.5,10499874698.175808,47.655,-122.3035,60.0,2.8666666666666667
2026-01-20T23:02:53+00:00,SAT-65091,359.7634706314602,51.9913198989947,923.1231232152383,3.6170309477854854,-126683.72381718687,10.5,10499873316.276182,47.655,-122.3035,60.0,2.8833333333333333
2026-01-20T23:02:54+00:00,SAT-65091,359.9841973885961,51.62090323690082,926.7305087471628,3.6560235601412514,-128049.41004047253,10.5,10499871950.58996,47.655,-122.3035,60.0,2.9
2026-01-20T23:02:55+00:00,SAT-65091,0.19916350088483922,51.25267664308825,930.3767829111439,3.694555515873291,-129398.9621202197,10.5,10499870601.03788,47.655,-122.3035,60.0,2.9166666666666665
2026-01-20T23:02:56+00:00,SAT-65091,0.40856539494447486,50.88666236744138,934.0614862789748,3.732629198678812,-130732.46354358763,10.5,10499869267.536457,47.655,-122.3035,60.0,2.933333333333333
2026-01-20T23:02:57+00:00,SAT-65091,0.6125910263146568,50.52288059319784,937.7841617997905,3.7702471653959666,-132050.00386186384,10.5,10499867949.996138,47.655,-122.3035,60.0,2.95
2026-01-20T23:02:58+00:00,SAT-65091,0.8114203114832166,50.16134952801895,941.5443549727453,3.807412105750564,-133351.67728062367,10.5,10499866648.32272,47.655,-122.3035,60.0,2.966666666666667
2026-01-20T23:02:59+00:00,SAT-65091,1.0052255334615925,49.80208549426805,945.3416139795473,3.8441267981467884,-134637.5811113343,10.5,10499865362.418888,47.655,-122.3035,60.0,2.9833333333333334
2026-01-20T23:03:00+00:00,SAT-65091,1.194171722672459,49.445103018704344,949.1754897728989,3.8803941689601875,-135907.81784804596,10.5,10499864092.182152,47.655,-122.3035,60.0,3.0
2026-01-20T23:03:01+00:00,SAT-65091,1.3784170197049044,49.090414912214825,953.0455362240752,3.916217255668612,-137162.49387608154,10.5,10499862837.506124,47.655,-122.3035,60.0,3.0166666666666666
2026-01-20T23:03:02+00:00,SAT-65091,1.5581130161844374,48.738032348896915,956.9513102337287,3.9515992019524737,-138401.71930042675,10.5,10499861598.280699,47.655,-122.3035,60.0,3.033333333333333
2026-01-20T23:03:03+00:00,SAT-65091,1.7334050766875313,48.38796494166665,960.8923718378094,3.9865432158878176,-139625.60648147488,10.5,10499860374.393518,47.655,-122.3035,60.0,3.05
2026-01-20T23:03:04+00:00,SAT-65091,1.904432641286744,48.04022081769792,964.8682842717882,4.021052652732027,-140834.2729345322,10.5,10499859165.727066,47.655,-122.3035,60.0,3.066666666666667
2026-01-20T23:03:05+00:00,SAT-65091,2.071329515187156,47.69480668307745,968.8786141174462,4.055130916819105,-142027.83789377587,10.5,10499857972.162106,47.655,-122.3035,60.0,3.0833333333333335
2026-01-20T23:03:06+00:00,SAT-65091,2.234224138501916,47.3517278926417,972.9229313518205,4.088781504335269,-143206.42381043595,10.5,10499856793.576189,47.655,-122.3035,60.0,3.1
2026-01-20T23:03:07+00:00,SAT-65091,2.393239843305024,47.01098851283021,977.0008094388108,4.12200798218907,-144370.15561273802,10.5,10499855629.844387,47.655,-122.3035,60.0,3.1166666666666667
2026-01-20T23:03:08+00:00,SAT-65091,2.5484950961011292,46.672591383220535,981.111825399714,4.154813994489424,-145519.1609327909,10.5,10499854480.839067,47.655,-122.3035,60.0,3.1333333333333333
2026-01-20T23:03:09+00:00,SAT-65091,2.700103727593434,46.33653817462198,985.2555598902183,4.187203245861133,-146653.5695222256,10.5,10499853346.430477,47.655,-122.3035,60.0,3.15
2026-01-20T23:03:10+00:00,SAT-65091,2.8481751496545313,46.002829445710866,989.431597260757,4.219179507761806,-147773.51347344092,10.5,10499852226.486526,47.655,-122.3035,60.0,3.1666666666666665
2026-01-20T23:03:11+00:00,SAT-65091,2.992814561098013,45.67146469650213,993.6395256231648,4.250746579866048,-148879.12586711405,10.5,10499851120.874132,47.655,-122.3035,60.0,3.183333333333333
2026-01-20T23:03:12+00:00,SAT-65091,3.134123141358171,45.342442422228714,997.8789368788179,4.281908344089475,-149970.54266435042,10.5,10499850029.457336,47.655,-122.3035,60.0,3.2
2026-01-20T23:03:13+00:00,SAT-65091,3.272198235901058,45.01576016058772,1002.1494268006564,4.312668712122903,-151047.90086910888,10.5,10499848952.09913,47.655,-122.3035,60.0,3.216666666666667
2026-01-20T23:03:14+00:00,SAT-65091,3.407133530270686,44.69141454072057,1006.4505950628803,4.343031640012539,-152111.33903886154,10.5,10499847888.660961,47.655,-122.3035,60.0,3.2333333333333334
2026-01-20T23:03:15+00:00,SAT-65091,3.5390192156629734,44.36940132881634,1010.7820452851862,4.373001088490498,-153160.99589520102,10.5,10499846839.004105,47.655,-122.3035,60.0,3.25
2026-01-20T23:03:16+00:00,SAT-65091,3.6679421448810405,44.04971547442013,1015.1433850374407,4.402581102719702,-154197.01311684388,10.5,10499845802.986883,47.655,-122.3035,60.0,3.2666666666666666
2026-01-20T23:03:17+00:00,SAT-65091,3.7939859826627176,43.732351148894054,1019.5342259238865,4.431775721392419,-155219.53215587698,10.5,10499844780.467844,47.655,-122.3035,60.0,3.283333333333333
2026-01-20T23:03:18+00:00,SAT-65091,3.917231345752425,43.41730178854738,1023.9541835766885,4.460589025856437,-156228.6959583639,10.5,10499843771.30404,47.655,-122.3035,60.0,3.3
2026-01-20T23:03:19+00:00,SAT-65091,4.03775593735577,43.104560132311725,1028.402877698476,4.489025078486558,-157224.64680585416,10.5,10499842775.353193,47.655,-122.3035,60.0,3.316666666666667
2026-01-20T23:03:20+00:00,SAT-65091,4.155634673207204,42.79411826188884,1032.87993204342,4.517088000438154,-158207.52903864117,10.5,10499841792.47096,47.655,-122.3035,60.0,3.3333333333333335
2026-01-20T23:03:21+00:00,SAT-65091,4.270939803444205,42.48596763475947,1037.384974475857,4.544781925113167,-159177.48742594535,10.5,10499840822.512573,47.655,-122.3035,60.0,3.35
2026-01-20T23:03:22+00:00,SAT-65091,4.383741027201755,42.18009911881511,1041.9176369825032,4.5721109534046285,-160134.6655983874,10.5,10499839865.334402,47.655,-122.3035,60.0,3.3666666666666667
2026-01-20T23:03:23+00:00,SAT-65091,4.494105600525977,41.87650302832526,1046.477555640032,4.599079222625491,-161079.2084621677,10.5,10499838920.791538,47.655,-122.3035,60.0,3.3833333333333333
2026-01-20T23:03:24+00:00,SAT-65091,4.6020984407221155,41.57516915369974,1051.0643706513972,4.6256908978803155,-162011.26189686637,10.5,10499837988.738104,47.655,-122.3035,60.0,3.4
2026-01-20T23:03:25+00:00,SAT-65091,4.707782225363526,41.276086790502184,1055.6777263735498,4.651950084930375,-162930.96970361055,10.5,10499837069.030296,47.655,-122.3035,60.0,3.4166666666666665
2026-01-20T23:03:26+00:00,SAT-65091,4.811217484578223,40.97924477261095,1060.3172712582536,4.67786093110245,-163838.47713932727,10.5,10499836161.522861,47.655,-122.3035,60.0,3.433333333333333
2026-01-20T23:03:27+00:00,SAT-65091,4.912462691196517,40.68463149750591,1064.98265789354,4.70342756638147,-164733.92885355855,10.5,10499835266.071146,47.655,-122.3035,60.0,3.45
2026-01-20T23:03:28+00:00,SAT-65091,5.011574345278969,40.39223495404458,1069.673542986411,4.728654117960206,-165617.46939805322,10.5,10499834382.530602,47.655,-122.3035,60.0,3.466666666666667
2026-01-20T23:03:29+00:00,SAT-65091,5.108607054980075,40.10204274806742,1074.3895873600566,4.753544690564552,-166489.24253767516,10.5,10499833510.757462,47.655,-122.3035,60.0,3.4833333333333334
2026-01-20T23:03:30+00:00,SAT-65091,5.203613613194866,39.814042127975576,1079.1304559314462,4.778103397820734,-167349.39234901537,10.5,10499832650.60765,47.655,-122.3035,60.0,3.5
2026-01-20T23:03:31+00:00,SAT-65091,5.296645071266196,39.52822000727035,1083.8958177202062,4.8023343016243,-168198.0610968377,10.5,10499831801.938904,47.655,-122.3035,60.0,3.5166666666666666
2026-01-20T23:03:32+00:00,SAT-65091,5.387750808086521,39.2445629895716,1088.6853457970262,4.82624150651984,-169035.39253965596,10.5,10499830964.60746,47.655,-122.3035,60.0,3.533333333333333
2026-01-20T23:03:33+00:00,SAT-65091,5.476978597779576,38.96305738703644,1093.4987173261954,4.849829039669896,-169861.52772573722,10.5,10499830138.472275,47.655,-122.3035,60.0,3.55
2026-01-20T23:03:34+00:00,SAT-65091,5.564374672086026,38.68368924474626,1098.3356134884261,4.873100951667718,-170676.60852399108,10.5,10499829323.391476,47.655,-122.3035,60.0,3.566666666666667
2026-01-20T23:03:35+00:00,SAT-65091,5.649983781691698,38.406444358283025,1103.1957195042228,4.896061228217943,-171480.77453065346,10.5,10499828519.22547,47.655,-122.3035,60.0,3.5833333333333335
2026-01-20T23:03:36+00:00,SAT-65091,5.733849253259754,38.131308295363645,1108.0787245691654,4.918713892356495,-172274.16664945983,10.5,10499827725.833351,47.655,-122.3035,60.0,3.6
2026-01-20T23:03:37+00:00,SAT-65091,5.816013045611966,37.858266410871174,1112.9843218911424,4.941062873423519,-173056.9225025232,10.5,10499826943.077497,47.655,-122.3035,60.0,3.6166666666666667
2026-01-20T23:03:38+00:00,SAT-65091,5.896515801220966,37.58730386825399,1117.9122085969034,4.96311215297696,-173829.18154084476,10.5,10499826170.818459,47.655,-122.3035,60.0,3.6333333333333333
2026-01-20T23:03:39+00:00,SAT-65091,5.975396897770991,37.318405652121754,1122.862085784139,4.984865590451084,-174591.07893813786,10.5,10499825408.921062,47.655,-122.3035,60.0,3.65
2026-01-20T23:03:40+00:00,SAT-65091,6.052694494676378,37.05155658943894,1127.8336583996822,5.006327115677354,-175342.75233372353,10.5,10499824657.247665,47.655,-122.3035,60.0,3.6666666666666665
2026-01-20T23:03:41+00:00,SAT-65091,6.128445580559724,36.78674135964111,1132.8266353097179,5.027500534328639,-176084.33501836364,10.5,10499823915.664982,47.655,-122.3035,60.0,3.683333333333333
2026-01-20T23:03:42+00:00,SAT-65091,6.20268601567055,36.523944514330374,1137.8407291759547,5.048389720845281,-176815.96269134778,10.5,10499823184.037308,47.655,-122.3035,60.0,3.7
2026-01-20T23:03:43+00:00,SAT-65091,6.275450575334548,36.26315048615823,1142.875656524211,5.0689984227895355,-177537.7666081584,10.5,10499822462.233393,47.655,-122.3035,60.0,3.716666666666667
2026-01-20T23:03:44+00:00,SAT-65091,6.346772988682303,36.00434360716559,1147.9311376178732,5.089330424839587,-178249.8793242346,10.5,10499821750.120676,47.655,-122.3035,60.0,3.7333333333333334
2026-01-20T23:03:45+00:00,SAT-65091,6.416685978055894,35.74750811802953,1153.0068964949135,5.109389439485065,-178952.43086666707,10.5,10499821047.569134,47.655,-122.3035,60.0,3.75
2026-01-20T23:03:46+00:00,SAT-65091,6.485221295178856,35.49262818226803,1158.1026608958932,5.129179166599936,-179645.55082069253,10.5,10499820354.449179,47.655,-122.3035,60.0,3.7666666666666666
2026-01-20T23:03:47+00:00,SAT-65091,6.552409756649517,35.2396878968267,1163.2181622513822,5.148703249643734,-180329.36679567574,10.5,10499819670.633204,47.655,-122.3035,60.0,3.783333333333333
2026-01-20T23:03:48+00:00,SAT-65091,6.618281277305801,34.98867130425699,1168.3531356256935,5.167965336268305,-181004.00654781386,10.5,10499818995.993452,47.655,-122.3035,60.0,3.8
2026-01-20T23:03:49+00:00,SAT-65091,6.682864903008384,34.73956240140828,1173.507319721065,5.186968981035889,-181669.59457291232,10.5,10499818330.405428,47.655,-122.3035,60.0,3.816666666666667
2026-01-20T23:03:50+00:00,SAT-65091,6.746188840796303,34.49234515226281,1178.680456784818,5.205717737830257,-182326.25534301368,10.5,10499817673.744658,47.655,-122.3035,60.0,3.8333333333333335
2026-01-20T23:03:51+00:00,SAT-65091,6.808280488959886,34.24700349581925,1183.872292608681,5.224215145062176,-182974.11278823047,10.5,10499817025.88721,47.655,-122.3035,60.0,3.85
2026-01-20T23:03:52+00:00,SAT-65091,6.869166465677888,34.00352135425528,1189.0825765133563,5.242464660264061,-183613.28800597324,10.5,10499816386.711994,47.655,-122.3035,60.0,3.8666666666666667
2026-01-20T23:03:53+00:00,SAT-65091,6.9288726356991654,33.761882643671555,1194.3110612678595,5.2604697025118465,-184243.9007467439,10.5,10499815756.099253,47.655,-122.3035,60.0,3.8833333333333333
2026-01-20T23:03:54+00:00,SAT-65091,6.987424136447066,33.52207128234118,1199.5575030511648,5.278233703089164,-184866.0711886095,10.5,10499815133.928812,47.655,-122.3035,60.0,3.9
2026-01-20T23:03:55+00:00,SAT-65091,7.0448454036288,33.28407119630692,1204.8216614643788,5.295760014113739,-185479.91673691224,10.5,10499814520.083263,47.655,-122.3035,60.0,3.9166666666666665
2026-01-20T23:03:56+00:00,SAT-65091,7.101160194776001,33.04786632869496,1210.1032994517884,5.313051935552072,-186085.55297043783,10.5,10499813914.44703,47.655,-122.3035,60.0,3.933333333333333
2026-01-20T23:03:57+00:00,SAT-65091,7.1563916121820945,32.81344064736292,1215.4021832488456,5.330112780494424,-186683.09592762156,10.5,10499813316.904072,47.655,-122.3035,60.0,3.95
2026-01-20T23:03:58+00:00,SAT-65091,7.210562125566589,32.58077814933411,1220.7180823952588,5.346945797916591,-187272.65940133893,10.5,10499812727.3406,47.655,-122.3035,60.0,3.966666666666667
2026-01-20T23:03:59+00:00,SAT-65091,7.263693593067463,32.34986286828731,1226.0507696710476,5.363554167745089,-187854.35476606764,10.5,10499812145.645233,47.655,-122.3035,60.0,3.9833333333333334
2026-01-20T23:04:00+00:00,SAT-65091,7.315807281343716,32.120678881840895,1231.4000210276788,5.379941067470282,-188428.29331096102,10.5,10499811571.70669,47.655,-122.3035,60.0,4.0
2026-01-20T23:04:01+00:00,SAT-65091,7.366923885563041,31.893210315670437,1236.765615585636,5.396109644437735,-188994.585269374,10.5,10499811005.41473,47.655,-122.3035,60.0,4.016666666666667
2026-01-20T23:04:02+00:00,SAT-65091,7.417063548323813,31.66744134853709,1242.147335604355,5.41206296174466,-189553.33792392776,10.5,10499810446.662077,47.655,-122.3035,60.0,4.033333333333333
2026-01-20T23:04:03+00:00,SAT-65091,7.4662458773382,31.44335621924451,1247.5449663982017,5.427804093588037,-190104.65894600455,10.5,10499809895.341055,47.655,-122.3035,60.0,4.05
2026-01-20T23:04:04+00:00,SAT-65091,7.514489963312607,31.22093922935144,1252.95829634754,5.4433360487900035,-190648.65371728278,10.5,10499809351.346283,47.655,-122.3035,60.0,4.066666666666666
2026-01-20T23:04:05+00:00,SAT-65091,7.561814396447326,31.00017474879497,1258.3871168335334,5.4586617821461365,-191185.42572720238,10.5,10499808814.574272,47.655,-122.3035,60.0,4.083333333333333
2026-01-20T23:04:06+00:00,SAT-65091,7.6082372824147555,30.781047220711486,1263.8312221842605,5.4737842481791,-191715.07845564463,10.5,10499808284.921545,47.655,-122.3035,60.0,4.1
2026-01-20T23:04:07+00:00,SAT-65091,7.653776258195908,30.56354116390838,1269.2904096744444,5.488706348277942,-192237.71352152692,10.5,10499807762.286478,47.655,-122.3035,60.0,4.116666666666666
2026-01-20T23:04:08+00:00,SAT-65091,7.698448506852454,30.347641177203414,1274.7644794724602,5.5034309180325,-192753.43023919984,10.5,10499807246.569761,47.655,-122.3035,60.0,4.133333333333334
2026-01-20T23:04:09+00:00,SAT-65091,7.742270771655513,30.133331944001146,1280.2532345747113,5.517960791699803,-193262.32787633347,10.5,10499806737.672123,47.655,-122.3035,60.0,4.15
