satellites_20260121_005943/SAT-64148.csv

timestamp,satellite,azimuth_deg,elevation_deg,distance_km,relative_velocity_kms,doppler_shift_hz,tx_freq_ghz,rx_freq_hz,ue_lat,ue_lon,ue_alt_m,time_minutes
2026-01-20T23:11:00+00:00,SAT-64148,304.17767743696703,30.02248036375995,4131.132177067819,-1.6010486194751998,56075.49508296702,10.5,10500056075.495083,47.655,-122.3035,60.0,11.0
2026-01-20T23:11:01+00:00,SAT-64148,304.0601689575357,30.05654972025763,4129.535397911329,-1.5900982211087062,55691.96581203325,10.5,10500055691.965813,47.655,-122.3035,60.0,11.016666666666667
2026-01-20T23:11:02+00:00,SAT-64148,303.9424615144713,30.090439383374513,4127.949539952143,-1.5791330804434405,55307.92020343663,10.5,10500055307.920204,47.655,-122.3035,60.0,11.033333333333333
2026-01-20T23:11:03+00:00,SAT-64148,303.8245558600921,30.124148546591996,4126.374617893248,-1.5681532757965784,54923.3610001759,10.5,10500054923.361,47.655,-122.3035,60.0,11.05
2026-01-20T23:11:04+00:00,SAT-64148,303.7064527567962,30.157676405267278,4124.81064635952,-1.5571588841130997,54538.29089718977,10.5,10500054538.290897,47.655,-122.3035,60.0,11.066666666666666
2026-01-20T23:11:05+00:00,SAT-64148,303.58815297724743,30.191022156639978,4123.257639899098,-1.5461499923824418,54152.71294121628,10.5,10500054152.712942,47.655,-122.3035,60.0,11.083333333333334
2026-01-20T23:11:06+00:00,SAT-64148,303.4696573036539,30.224185000104047,4121.715612973362,-1.5351266833997033,53766.63003209002,10.5,10500053766.630032,47.655,-122.3035,60.0,11.1
2026-01-20T23:11:07+00:00,SAT-64148,303.3509665281319,30.257164137155804,4120.184579961117,-1.52408902930109,53380.04469632603,10.5,10500053380.044697,47.655,-122.3035,60.0,11.116666666666667
2026-01-20T23:11:08+00:00,SAT-64148,303.2320814535906,30.2899587712069,4118.664555169228,-1.513037120281889,52992.96009294481,10.5,10500052992.960093,47.655,-122.3035,60.0,11.133333333333333
2026-01-20T23:11:09+00:00,SAT-64148,303.11300289239864,30.322568108023113,4117.1555528146,-1.5019710415237988,52605.37920536976,10.5,10500052605.379206,47.655,-122.3035,60.0,11.15
2026-01-20T23:11:10+00:00,SAT-64148,302.9937316667788,30.3549913556665,4115.657587029187,-1.49089087089422,52217.304760846615,10.5,10500052217.30476,47.655,-122.3035,60.0,11.166666666666666
2026-01-20T23:11:11+00:00,SAT-64148,302.8742686094752,30.38722772437189,4114.170671867282,-1.4797966937573022,51828.73974918899,10.5,10500051828.73975,47.655,-122.3035,60.0,11.183333333333334
2026-01-20T23:11:12+00:00,SAT-64148,302.75461456319726,30.4192764267622,4112.6948212980415,-1.4686885982556324,51439.68725752313,10.5,10500051439.687258,47.655,-122.3035,60.0,11.2
2026-01-20T23:11:13+00:00,SAT-64148,302.63477038041896,30.45113667795683,4111.230049202714,-1.4575666650701156,51050.15011163561,10.5,10500051050.150112,47.655,-122.3035,60.0,11.216666666666667
2026-01-20T23:11:14+00:00,SAT-64148,302.51473692406887,30.482807695448628,4109.776369382084,-1.4464309846155898,50660.13147823649,10.5,10500050660.131477,47.655,-122.3035,60.0,11.233333333333333
2026-01-20T23:11:15+00:00,SAT-64148,302.39451506674743,30.51428869936862,4108.333795546761,-1.435281639658185,50269.63425614577,10.5,10500050269.634256,47.655,-122.3035,60.0,11.25
2026-01-20T23:11:16+00:00,SAT-64148,302.27410569142006,30.54557891236229,4106.902341324809,-1.4241187182815351,49878.66153042489,10.5,10500049878.66153,47.655,-122.3035,60.0,11.266666666666667
2026-01-20T23:11:17+00:00,SAT-64148,302.15350969101235,30.576677559752348,4105.482020256442,-1.4129423077332526,49487.21635685429,10.5,10500049487.216356,47.655,-122.3035,60.0,11.283333333333333
2026-01-20T23:11:18+00:00,SAT-64148,302.0327279685254,30.60758386956959,4104.0728457948635,-1.4017524949016384,49095.301778629815,10.5,10500049095.301779,47.655,-122.3035,60.0,11.3
2026-01-20T23:11:19+00:00,SAT-64148,301.9117614371161,30.63829707258775,4102.674831306615,-1.3905493734795475,48702.92107727156,10.5,10500048702.921078,47.655,-122.3035,60.0,11.316666666666666
2026-01-20T23:11:20+00:00,SAT-64148,301.7906110195206,30.668816402529348,4101.287990064798,-1.3793330216266069,48310.076990260284,10.5,10500048310.07699,47.655,-122.3035,60.0,11.333333333333334
2026-01-20T23:11:21+00:00,SAT-64148,301.66927764949656,30.699141095753593,4099.912335264562,-1.3681035395215722,47916.77302627976,10.5,10500047916.773026,47.655,-122.3035,60.0,11.35
2026-01-20T23:11:22+00:00,SAT-64148,301.5477622698923,30.72927039180903,4098.547880001146,-1.3568610138728348,47523.012222224635,10.5,10500047523.012222,47.655,-122.3035,60.0,11.366666666666667
2026-01-20T23:11:23+00:00,SAT-64148,301.4260658338807,30.75920353317075,4097.19463728331,-1.3456055296933647,47128.79755560871,10.5,10500047128.797556,47.655,-122.3035,60.0,11.383333333333333
2026-01-20T23:11:24+00:00,SAT-64148,301.3041893051691,30.788939765251065,4095.8526200350293,-1.33433718355559,46734.132408806945,10.5,10500046734.132408,47.655,-122.3035,60.0,11.4
2026-01-20T23:11:25+00:00,SAT-64148,301.182133656995,30.81847833670503,4094.5218410839634,-1.323056070612482,46339.020114478866,10.5,10500046339.020115,47.655,-122.3035,60.0,11.416666666666666
2026-01-20T23:11:26+00:00,SAT-64148,301.0598998722362,30.847818499455922,4093.2023131628725,-1.3117622706326908,45943.46346646003,10.5,10500045943.463467,47.655,-122.3035,60.0,11.433333333333334
2026-01-20T23:11:27+00:00,SAT-64148,300.93748894494047,30.87695950837841,4091.8940489249617,-1.3004558853816346,45547.466029005845,10.5,10500045547.466028,47.655,-122.3035,60.0,11.45
2026-01-20T23:11:28+00:00,SAT-64148,300.81490187826984,30.905900621856627,4090.5970609219407,-1.2891370106770355,45151.031158058264,10.5,10500045151.031158,47.655,-122.3035,60.0,11.466666666666667
2026-01-20T23:11:29+00:00,SAT-64148,300.69213968508154,30.934641101695732,4089.311361609959,-1.277805728926729,44754.161739888244,10.5,10500044754.16174,47.655,-122.3035,60.0,11.483333333333333
2026-01-20T23:11:30+00:00,SAT-64148,300.56920338926415,30.963180212856063,4088.036963362976,-1.2664621401041503,44356.86127598839,10.5,10500044356.861277,47.655,-122.3035,60.0,11.5
2026-01-20T23:11:31+00:00,SAT-64148,300.44609402407985,30.99151722390965,4086.7738784552453,-1.255106343620644,43959.13324816451,10.5,10500043959.133247,47.655,-122.3035,60.0,11.516666666666667
2026-01-20T23:11:32+00:00,SAT-64148,300.32281263222035,31.019651407072537,4085.5221190618745,-1.2437384253419723,43560.980663798786,10.5,10500043560.980663,47.655,-122.3035,60.0,11.533333333333333
2026-01-20T23:11:33+00:00,SAT-64148,300.1993602671847,31.047582037940902,4084.2816972723335,-1.232358484724203,43162.40700626341,10.5,10500043162.407005,47.655,-122.3035,60.0,11.55
2026-01-20T23:11:34+00:00,SAT-64148,300.07573799197394,31.07530839584976,4083.0526250769017,-1.2209666205754235,42763.41573623559,10.5,10500042763.415737,47.655,-122.3035,60.0,11.566666666666666
2026-01-20T23:11:35+00:00,SAT-64148,299.9519468791425,31.102829763910805,4081.8349143673145,-1.2095629234603968,42364.01002567639,10.5,10500042364.010025,47.655,-122.3035,60.0,11.583333333333334
2026-01-20T23:11:36+00:00,SAT-64148,299.8279880117108,31.130145428860853,4080.6285769449837,-1.1981474947649005,41964.193425544596,10.5,10500041964.193426,47.655,-122.3035,60.0,11.6
2026-01-20T23:11:37+00:00,SAT-64148,299.70386248202993,31.15725468137076,4079.4336245102045,-1.186720429261757,41563.969255185366,10.5,10500041563.969255,47.655,-122.3035,60.0,11.616666666666667
2026-01-20T23:11:38+00:00,SAT-64148,299.5795713925362,31.184156815928514,4078.2500686687545,-1.1752818244442897,41163.34092922725,10.5,10500041163.340929,47.655,-122.3035,60.0,11.633333333333333
2026-01-20T23:11:39+00:00,SAT-64148,299.4551158554546,31.210851130959394,4077.077920929175,-1.1638317806320309,40762.31196128464,10.5,10500040762.311962,47.655,-122.3035,60.0,11.65
2026-01-20T23:11:40+00:00,SAT-64148,299.3304969925466,31.237336928932383,4075.917192699958,-1.1523703972520798,40360.88583371513,10.5,10500040360.885834,47.655,-122.3035,60.0,11.666666666666666
2026-01-20T23:11:41+00:00,SAT-64148,299.2057159352022,31.263613516391818,4074.767895290432,-1.1408977690508315,39959.065864938246,10.5,10500039959.065865,47.655,-122.3035,60.0,11.683333333333334
2026-01-20T23:11:42+00:00,SAT-64148,299.08077382499096,31.289680203890057,4073.6300399154316,-1.129413998290235,39556.85563659999,10.5,10500039556.855637,47.655,-122.3035,60.0,11.7
2026-01-20T23:11:43+00:00,SAT-64148,298.955671812844,31.315536306215776,4072.503637687804,-1.117919186048595,39154.25868889019,10.5,10500039154.258688,47.655,-122.3035,60.0,11.716666666666667
2026-01-20T23:11:44+00:00,SAT-64148,298.83041105921313,31.341181142409518,4071.3886996195847,-1.1064134334336937,38751.27856303104,10.5,10500038751.278563,47.655,-122.3035,60.0,11.733333333333333
2026-01-20T23:11:45+00:00,SAT-64148,298.70499273404823,31.366614035817452,4070.2852366219736,-1.0948968381939799,38347.9186825867,10.5,10500038347.918682,47.655,-122.3035,60.0,11.75
2026-01-20T23:11:46+00:00,SAT-64148,298.57941801724144,31.39183431405044,4069.1932595086814,-1.0833695016913456,37944.18259767939,10.5,10500037944.182598,47.655,-122.3035,60.0,11.766666666666667
2026-01-20T23:11:47+00:00,SAT-64148,298.4536880982155,31.416841309122418,4068.112778992328,-1.0718315300588497,37540.07402553777,10.5,10500037540.074026,47.655,-122.3035,60.0,11.783333333333333
2026-01-20T23:11:48+00:00,SAT-64148,298.3278041753612,31.441634357609637,4067.0438056796825,-1.0602830237750975,37135.59648534762,10.5,10500037135.596485,47.655,-122.3035,60.0,11.8
2026-01-20T23:11:49+00:00,SAT-64148,298.2017674567209,31.466212800563163,4065.986350077304,-1.0487240815439915,36730.753434137136,10.5,10500036730.753433,47.655,-122.3035,60.0,11.816666666666666
2026-01-20T23:11:50+00:00,SAT-64148,298.07557916022876,31.49057598351006,4064.940422593311,-1.0371548114374498,36325.54865704201,10.5,10500036325.548656,47.655,-122.3035,60.0,11.833333333333334
2026-01-20T23:11:51+00:00,SAT-64148,297.9492405125837,31.514723256727585,4063.9060335280374,-1.0255753169900026,35919.98578027946,10.5,10500035919.98578,47.655,-122.3035,60.0,11.85
2026-01-20T23:11:52+00:00,SAT-64148,297.8227527497929,31.53865397517976,4062.8831930785595,-1.0139856974122474,35514.068278624276,10.5,10500035514.06828,47.655,-122.3035,60.0,11.866666666666667
2026-01-20T23:11:53+00:00,SAT-64148,297.69611711774127,31.56236749845768,4061.871911343007,-1.0023860619937968,35107.79997986095,10.5,10500035107.79998,47.655,-122.3035,60.0,11.883333333333333
2026-01-20T23:11:54+00:00,SAT-64148,297.56933487093045,31.58586319107009,4060.8721983105115,-0.9907765154452017,34701.18455139595,10.5,10500034701.184551,47.655,-122.3035,60.0,11.9
2026-01-20T23:11:55+00:00,SAT-64148,297.44240727304407,31.60914042237974,4059.8840638657744,-0.9791571592249161,34294.22554673346,10.5,10500034294.225546,47.655,-122.3035,60.0,11.916666666666666
2026-01-20T23:11:56+00:00,SAT-64148,297.31533559739063,31.63219856656718,4058.9075177923073,-0.9675281020502962,33886.926773615196,10.5,10500033886.926773,47.655,-122.3035,60.0,11.933333333333334
2026-01-20T23:11:57+00:00,SAT-64148,297.1881211259637,31.655037002855607,4057.942569765196,-0.955889448556677,33479.29189681319,10.5,10500033479.291897,47.655,-122.3035,60.0,11.95
2026-01-20T23:11:58+00:00,SAT-64148,297.0607651499754,31.67765511545396,4056.9892293551684,-0.9442413073765428,33071.32472109655,10.5,10500033071.32472,47.655,-122.3035,60.0,11.966666666666667
2026-01-20T23:11:59+00:00,SAT-64148,296.933268969318,31.700052293702935,4056.0475060246117,-0.9325837839563471,32663.028939646123,10.5,10500032663.02894,47.655,-122.3035,60.0,11.983333333333333
2026-01-20T23:12:00+00:00,SAT-64148,296.8056338930008,31.722227932038617,4055.117409130746,-0.9209169840617061,32254.40825682117,10.5,10500032254.408257,47.655,-122.3035,60.0,12.0
2026-01-20T23:12:01+00:00,SAT-64148,296.677861239105,31.74418143004753,4054.1989479253084,-0.9092410183244399,31845.46654741601,10.5,10500031845.466547,47.655,-122.3035,60.0,12.016666666666667
2026-01-20T23:12:02+00:00,SAT-64148,296.54995233411125,31.7659121926287,4053.2921315496997,-0.8975559918891202,31436.2074940383,10.5,10500031436.207495,47.655,-122.3035,60.0,12.033333333333333
2026-01-20T23:12:03+00:00,SAT-64148,296.4219085136646,31.787419629904342,4052.396969040455,-0.8858620153580902,31026.634970449948,10.5,10500031026.63497,47.655,-122.3035,60.0,12.05
2026-01-20T23:12:04+00:00,SAT-64148,296.2937311217867,31.808703157397616,4051.513469323805,-0.8741591980931293,30616.752806963068,10.5,10500030616.752808,47.655,-122.3035,60.0,12.066666666666666
2026-01-20T23:12:05+00:00,SAT-64148,296.1654215110395,31.829762196048016,4050.641641216907,-0.8624476453902582,30206.564691489708,10.5,10500030206.564692,47.655,-122.3035,60.0,12.083333333333334
2026-01-20T23:12:06+00:00,SAT-64148,296.036981043155,31.85059617214798,4049.7814934319044,-0.850727471344815,29796.074620131225,10.5,10500029796.07462,47.655,-122.3035,60.0,12.1
2026-01-20T23:12:07+00:00,SAT-64148,295.90841108766944,31.87120451761363,4048.9330345671497,-0.838998784008896,29385.286377329106,10.5,10500029385.286377,47.655,-122.3035,60.0,12.116666666666667
2026-01-20T23:12:08+00:00,SAT-64148,295.77971302285357,31.89158666986937,4048.0962731132317,-0.8272616916566908,28974.203755303453,10.5,10500028974.203754,47.655,-122.3035,60.0,12.133333333333333
2026-01-20T23:12:09+00:00,SAT-64148,295.6508882356743,31.91174207190019,4047.2712174527524,-0.8155163082559738,28562.83074568782,10.5,10500028562.830746,47.655,-122.3035,60.0,12.15
2026-01-20T23:12:10+00:00,SAT-64148,295.5219381208875,31.93167017243547,4046.457875854652,-0.8037627452527331,28151.171251792122,10.5,10500028151.171251,47.655,-122.3035,60.0,12.166666666666666
2026-01-20T23:12:11+00:00,SAT-64148,295.392864081389,31.95137042593069,4045.65625647672,-0.7920011091118955,27739.229002468444,10.5,10500027739.229002,47.655,-122.3035,60.0,12.183333333333334
2026-01-20T23:12:12+00:00,SAT-64148,295.2636675290664,31.9708422924776,4044.8663673705655,-0.7802315152542358,27327.008040240547,10.5,10500027327.00804,47.655,-122.3035,60.0,12.2
2026-01-20T23:12:13+00:00,SAT-64148,295.1343498832965,31.990085238077285,4044.0882164726854,-0.7684540763231086,26914.512310355185,10.5,10500026914.51231,47.655,-122.3035,60.0,12.216666666666667
2026-01-20T23:12:14+00:00,SAT-64148,295.00491257137026,32.009098734609196,4043.321811607232,-0.7566689046030644,26501.745745492288,10.5,10500026501.745745,47.655,-122.3035,60.0,12.233333333333333
2026-01-20T23:12:15+00:00,SAT-64148,294.8753570285427,32.02788225986363,4042.567160486375,-0.7448761075434513,26088.712108982538,10.5,10500026088.712109,47.655,-122.3035,60.0,12.25
2026-01-20T23:12:16+00:00,SAT-64148,294.7456846988699,32.04643529745605,4041.8242707151185,-0.7330758057621001,25675.415625372574,10.5,10500025675.415625,47.655,-122.3035,60.0,12.266666666666667
2026-01-20T23:12:17+00:00,SAT-64148,294.61589703287655,32.06475733720915,4041.0931497781717,-0.721268108020074,25261.860103934894,10.5,10500025261.860104,47.655,-122.3035,60.0,12.283333333333333
2026-01-20T23:12:18+00:00,SAT-64148,294.48599548963443,32.08284787488326,4040.3738050517727,-0.7094531285717837,24848.049546342252,10.5,10500024848.049547,47.655,-122.3035,60.0,12.3
2026-01-20T23:12:19+00:00,SAT-64148,294.35598153576274,32.10070641235982,4039.666243798211,-0.6976309831327717,24433.98800544243,10.5,10500024433.988005,47.655,-122.3035,60.0,12.316666666666666
2026-01-20T23:12:20+00:00,SAT-64148,294.22585664513434,32.11833245771748,4038.970473164366,-0.6858017842005334,24019.67942137357,10.5,10500024019.67942,47.655,-122.3035,60.0,12.333333333333334
2026-01-20T23:12:21+00:00,SAT-64148,294.0956222994289,32.13572552518961,4038.2865001849236,-0.6739656471399392,23605.12783470144,10.5,10500023605.127834,47.655,-122.3035,60.0,12.35
2026-01-20T23:12:22+00:00,SAT-64148,293.9652799876144,32.1528851352717,4037.6143317795095,-0.6621226871603456,23190.33728054503,10.5,10500023190.33728,47.655,-122.3035,60.0,12.366666666666667
2026-01-20T23:12:23+00:00,SAT-64148,293.83483120589074,32.16981081476293,4036.953974752848,-0.6502730175962851,22775.31172835907,10.5,10500022775.311728,47.655,-122.3035,60.0,12.383333333333333
2026-01-20T23:12:24+00:00,SAT-64148,293.7042774580974,32.186502096746025,4036.305435796632,-0.6384167569173433,22360.055327449583,10.5,10500022360.055328,47.655,-122.3035,60.0,12.4
2026-01-20T23:12:25+00:00,SAT-64148,293.57362025461293,32.20295852076643,4035.6687214844,-0.6265540198856426,21944.57209727153,10.5,10500021944.572098,47.655,-122.3035,60.0,12.416666666666666
2026-01-20T23:12:26+00:00,SAT-64148,293.442861113076,32.21917963276748,4035.0438382752336,-0.6146849191912933,21528.86598470926,10.5,10500021528.865984,47.655,-122.3035,60.0,12.433333333333334
2026-01-20T23:12:27+00:00,SAT-64148,293.312001558842,32.23516498507074,4034.430792515827,-0.6028095774804311,21112.941285349232,10.5,10500021112.941286,47.655,-122.3035,60.0,12.45
2026-01-20T23:12:28+00:00,SAT-64148,293.1810431227894,32.250914136680414,4033.8295904305533,-0.5909281059886411,20696.80189513217,10.5,10500020696.801895,47.655,-122.3035,60.0,12.466666666666667
2026-01-20T23:12:29+00:00,SAT-64148,293.04998734374635,32.26642665301198,4033.240238132847,-0.5790406245754901,20280.452012047102,10.5,10500020280.452011,47.655,-122.3035,60.0,12.483333333333333
2026-01-20T23:12:30+00:00,SAT-64148,292.91883576661314,32.28170210615656,4032.662741616604,-0.5671472493691952,19863.895703395414,10.5,10500019863.895704,47.655,-122.3035,60.0,12.5
2026-01-20T23:12:31+00:00,SAT-64148,292.7875899431184,32.2967400748174,4032.0971067599,-0.5552480969492725,19447.13705228489,10.5,10500019447.137053,47.655,-122.3035,60.0,12.516666666666667
2026-01-20T23:12:32+00:00,SAT-64148,292.65625143170837,32.31154014435414,4031.543339324542,-0.5433432854427676,19030.18019602434,10.5,10500019030.180197,47.655,-122.3035,60.0,12.533333333333333
2026-01-20T23:12:33+00:00,SAT-64148,292.52482179715975,32.326101906859165,4031.0014449545274,-0.5314329352642231,18613.02935204041,10.5,10500018613.029352,47.655,-122.3035,60.0,12.55
2026-01-20T23:12:34+00:00,SAT-64148,292.39330260993495,32.34042496125515,4030.4714291737573,-0.5195171611894828,18195.688540268646,10.5,10500018195.68854,47.655,-122.3035,60.0,12.566666666666666
2026-01-20T23:12:35+00:00,SAT-64148,292.2616954475749,32.354508913168914,4029.9532973916644,-0.5075960817303149,17778.161911492472,10.5,10500017778.161911,47.655,-122.3035,60.0,12.583333333333334
2026-01-20T23:12:36+00:00,SAT-64148,292.1300018937484,32.36835337506728,4029.4470548994855,-0.4956698193834383,17360.453756065144,10.5,10500017360.453756,47.655,-122.3035,60.0,12.6
2026-01-20T23:12:37+00:00,SAT-64148,291.9982235371068,32.38195796640412,4028.952706866287,-0.4837384880012621,16942.568061579626,10.5,10500016942.568062,47.655,-122.3035,60.0,12.616666666666667
2026-01-20T23:12:38+00:00,SAT-64148,291.8663619735979,32.39532231340149,4028.470258347587,-0.4718022093440946,16524.509092596963,10.5,10500016524.509092,47.655,-122.3035,60.0,12.633333333333333
2026-01-20T23:12:39+00:00,SAT-64148,291.7344188042712,32.40844604930905,4027.999714277468,-0.4598611030550009,16106.281039523381,10.5,10500016106.28104,47.655,-122.3035,60.0,12.65
2026-01-20T23:12:40+00:00,SAT-64148,291.60239563578943,32.42132881437197,4027.5410794706877,-0.44791528822766036,15687.888073523296,10.5,10500015687.888073,47.655,-122.3035,60.0,12.666666666666666
2026-01-20T23:12:41+00:00,SAT-64148,291.4702940805559,32.43397025584487,4027.0943586232283,-0.4359648828742609,15269.334327882721,10.5,10500015269.334328,47.655,-122.3035,60.0,12.683333333333334
2026-01-20T23:12:42+00:00,SAT-64148,291.3381157570127,32.44637002798746,4026.659556313375,-0.4240100089894001,14850.624075368505,10.5,10500014850.624075,47.655,-122.3035,60.0,12.7
2026-01-20T23:12:43+00:00,SAT-64148,291.2058622883956,32.45852779221122,4026.236676997743,-0.41205078601793743,14431.761499444869,10.5,10500014431.7615,47.655,-122.3035,60.0,12.716666666666667
2026-01-20T23:12:44+00:00,SAT-64148,291.0735353034496,32.47044321703081,4025.8257250138213,-0.4000873351464013,14012.750844576663,10.5,10500014012.750845,47.655,-122.3035,60.0,12.733333333333333
2026-01-20T23:12:45+00:00,SAT-64148,290.9411364358159,32.48211597814484,4025.4267045782353,-0.3881197741628545,13593.596236200085,10.5,10500013593.596235,47.655,-122.3035,60.0,12.75
2026-01-20T23:12:46+00:00,SAT-64148,290.80866732517427,32.49354575835614,4025.039619790137,-0.3761482267649393,13174.302006729811,10.5,10500013174.302008,47.655,-122.3035,60.0,12.766666666666667
2026-01-20T23:12:47+00:00,SAT-64148,290.6761296151367,32.50473224778136,4024.66447462531,-0.364172812351267,12754.872338010264,10.5,10500012754.872337,47.655,-122.3035,60.0,12.783333333333333
2026-01-20T23:12:48+00:00,SAT-64148,290.54352495471596,32.51567514374153,4024.301272940458,-0.3521936521510565,12335.311476001487,10.5,10500012335.311476,47.655,-122.3035,60.0,12.8
2026-01-20T23:12:49+00:00,SAT-64148,290.41085499759356,32.52637415084681,4023.9500184713797,-0.34021086774165726,11915.623678856527,10.5,10500011915.623678,47.655,-122.3035,60.0,12.816666666666666
2026-01-20T23:12:50+00:00,SAT-64148,290.2781214019848,32.53682898102724,4023.610714832618,-0.32822457958640094,11495.813165710824,10.5,10500011495.813166,47.655,-122.3035,60.0,12.833333333333334
2026-01-20T23:12:51+00:00,SAT-64148,290.14532583097946,32.547039353525115,4023.2833655185777,-0.31623491032888196,11075.884232061837,10.5,10500011075.884232,47.655,-122.3035,60.0,12.85
2026-01-20T23:12:52+00:00,SAT-64148,290.01246995165724,32.557004994984375,4022.967973901343,-0.3042419803455265,10655.8410940012,10.5,10500010655.841093,47.655,-122.3035,60.0,12.866666666666667
2026-01-20T23:12:53+00:00,SAT-64148,289.8795554359548,32.56672563940152,4022.664543232945,-0.2922459131200165,10235.688076449786,10.5,10500010235.688076,47.655,-122.3035,60.0,12.883333333333333
2026-01-20T23:12:54+00:00,SAT-64148,289.7465839592588,32.57620102824963,4022.37307664226,-0.2802468287497651,9815.429385727019,10.5,10500009815.429386,47.655,-122.3035,60.0,12.9
2026-01-20T23:12:55+00:00,SAT-64148,289.6135572018927,32.58543091038546,4022.093577138387,-0.26824485129121795,9395.069366814387,10.5,10500009395.069366,47.655,-122.3035,60.0,12.916666666666666
2026-01-20T23:12:56+00:00,SAT-64148,289.48047684718966,32.59441504220548,4021.8260476066994,-0.25624010122752733,8974.612239541519,10.5,10500008974.61224,47.655,-122.3035,60.0,12.933333333333334
2026-01-20T23:12:57+00:00,SAT-64148,289.3473445831898,32.60315318754173,4021.5704908124085,-0.2442327010472806,8554.062293976876,10.5,10500008554.062294,47.655,-122.3035,60.0,12.95
2026-01-20T23:12:58+00:00,SAT-64148,289.2141621016576,32.61164511774818,4021.3269093985637,-0.23222277445726808,8133.423862855532,10.5,10500008133.423862,47.655,-122.3035,60.0,12.966666666666667
2026-01-20T23:12:59+00:00,SAT-64148,289.08093109724075,32.619890611769094,4021.0953058848386,-0.22021044376260995,7712.701229820145,10.5,10500007712.70123,47.655,-122.3035,60.0,12.983333333333333
2026-01-20T23:13:00+00:00,SAT-64148,288.9476532681773,32.62788945610373,4020.875682668926,-0.20819582965482847,7291.898621998352,10.5,10500007291.898623,47.655,-122.3035,60.0,13.0
2026-01-20T23:13:01+00:00,SAT-64148,288.8143303173732,32.635641444759656,4020.66804202815,-0.19617905770029007,6871.020437255448,10.5,10500006871.020437,47.655,-122.3035,60.0,13.016666666666667
2026-01-20T23:13:02+00:00,SAT-64148,288.68096394916927,32.64314637945947,4020.472386114604,-0.18416024888071064,6450.070912882878,10.5,10500006450.070913,47.655,-122.3035,60.0,13.033333333333333
2026-01-20T23:13:03+00:00,SAT-64148,288.5475558723294,32.650404069476224,4020.28871695972,-0.17213952692117632,6029.054382256512,10.5,10500006029.054382,47.655,-122.3035,60.0,13.05
2026-01-20T23:13:04+00:00,SAT-64148,288.41410779809576,32.657414331758275,4020.117036471537,-0.16011701481392038,5607.975153084619,10.5,10500005607.975153,47.655,-122.3035,60.0,13.066666666666666
2026-01-20T23:13:05+00:00,SAT-64148,288.28062144060584,32.66417699091604,4019.9573464354294,-0.14809283535906895,5186.837526347057,10.5,10500005186.837526,47.655,-122.3035,60.0,13.083333333333334
2026-01-20T23:13:06+00:00,SAT-64148,288.1470985170852,32.67069187922438,4019.8096485142983,-0.1360671122019178,4765.645832625106,10.5,10500004765.645832,47.655,-122.3035,60.0,13.1
2026-01-20T23:13:07+00:00,SAT-64148,288.0135407469875,32.67695883667631,4019.6739442477287,-0.1240399682981083,4344.404378345426,10.5,10500004344.404379,47.655,-122.3035,60.0,13.116666666666667
2026-01-20T23:13:08+00:00,SAT-64148,287.87994985260144,32.68297771096188,4019.550235052679,-0.11201152698597137,3923.1174833380883,10.5,10500003923.117483,47.655,-122.3035,60.0,13.133333333333333
2026-01-20T23:13:09+00:00,SAT-64148,287.74632755862876,32.688748357499605,4019.4385222230985,-0.09998191188589992,3501.7894773121648,10.5,10500003501.789476,47.655,-122.3035,60.0,13.15
2026-01-20T23:13:10+00:00,SAT-64148,287.612675591821,32.694270639460115,4019.3388069296448,-0.08795124640076878,3080.424682358327,10.5,10500003080.424683,47.655,-122.3035,60.0,13.166666666666666
2026-01-20T23:13:11+00:00,SAT-64148,287.47899568098853,32.69954442777246,4019.251090219901,-0.07591965371898404,2659.0274130556427,10.5,10500002659.027412,47.655,-122.3035,60.0,13.183333333333334
2026-01-20T23:13:12+00:00,SAT-64148,287.3452895576007,32.704569601109114,4019.1753730185915,-0.06388725776332933,2237.602009704187,10.5,10500002237.602009,47.655,-122.3035,60.0,13.2
2026-01-20T23:13:13+00:00,SAT-64148,287.2115589542841,32.709346045951875,4019.111656126849,-0.05185418188128357,1816.1527924544305,10.5,10500001816.152792,47.655,-122.3035,60.0,13.216666666666667
2026-01-20T23:13:14+00:00,SAT-64148,287.07780560586673,32.71387365655703,4019.0599402227863,-0.03982054971153555,1394.6840916562458,10.5,10500001394.684092,47.655,-122.3035,60.0,13.233333333333333
2026-01-20T23:13:15+00:00,SAT-64148,286.9440312487269,32.718152334986435,4019.020225861207,-0.02778648492936589,973.2002389411073,10.5,10500000973.20024,47.655,-122.3035,60.0,13.25
2026-01-20T23:13:16+00:00,SAT-64148,286.81023762064746,32.72218199111605,4018.992513473571,-0.01575211110536195,551.7055622736863,10.5,10500000551.705563,47.655,-122.3035,60.0,13.266666666666667
2026-01-20T23:13:17+00:00,SAT-64148,286.6764264611415,32.72596254263143,4018.9768033680953,-0.003717551985446912,130.20439575965776,10.5,10500000130.204395,47.655,-122.3035,60.0,13.283333333333333
2026-01-20T23:13:18+00:00,SAT-64148,286.54259951076585,32.729493915052664,4018.9730957295815,0.00831706886792339,-291.2989329211063,10.5,10499999708.701067,47.655,-122.3035,60.0,13.3
2026-01-20T23:13:19+00:00,SAT-64148,286.40875851091334,32.732776041741324,4018.981390619599,0.020351627751008017,-712.800091140332,10.5,10499999287.19991,47.655,-122.3035,60.0,13.316666666666666
2026-01-20T23:13:20+00:00,SAT-64148,286.2749052044071,32.73580886388776,4019.001687976343,0.03238600084622481,-1134.2947422825443,10.5,10499998865.705257,47.655,-122.3035,60.0,13.333333333333334
2026-01-20T23:13:21+00:00,SAT-64148,286.1410413352879,32.73859233052236,4019.0339876145204,0.04442006478678253,-1555.7785655208731,10.5,10499998444.221434,47.655,-122.3035,60.0,13.35
2026-01-20T23:13:22+00:00,SAT-64148,286.00716864738894,32.74112639854629,4019.0782892258007,0.056453695831840206,-1977.2472269276439,10.5,10499998022.752773,47.655,-122.3035,60.0,13.366666666666667
2026-01-20T23:13:23+00:00,SAT-64148,285.8732888857172,32.74341103270186,4019.134592378444,0.06848676995137981,-2398.6963824469794,10.5,10499997601.303617,47.655,-122.3035,60.0,13.383333333333333
2026-01-20T23:13:24+00:00,SAT-64148,285.7394037964152,32.74544620557919,4019.2028965170084,0.08051916416536536,-2820.1217247978143,10.5,10499997179.878275,47.655,-122.3035,60.0,13.4
2026-01-20T23:13:25+00:00,SAT-64148,285.6055151248372,32.74723189764627,4019.283200963403,0.09255075493471912,-3241.5189271190766,10.5,10499996758.481073,47.655,-122.3035,60.0,13.416666666666666
2026-01-20T23:13:26+00:00,SAT-64148,285.4716246167896,32.74876809722501,4019.3755049163246,0.10458141767952928,-3662.8836260952817,10.5,10499996337.116373,47.655,-122.3035,60.0,13.433333333333334
2026-01-20T23:13:27+00:00,SAT-64148,285.337734019491,32.75005480048421,4019.4798074502237,0.11661103026086356,-4084.2115439043746,10.5,10499995915.788456,47.655,-122.3035,60.0,13.45
2026-01-20T23:13:28+00:00,SAT-64148,285.20384507843187,32.751092011471286,4019.596107517737,0.12863946848149962,-4505.498330634276,10.5,10499995494.501669,47.655,-122.3035,60.0,13.466666666666667
2026-01-20T23:13:29+00:00,SAT-64148,285.0699595399378,32.75187974208233,4019.724403947636,0.140666609235363,-4926.739674589518,10.5,10499995073.260324,47.655,-122.3035,60.0,13.483333333333333
2026-01-20T23:13:30+00:00,SAT-64148,284.936079149743,32.75241801207232,4019.864695445913,0.15269232883294293,-5347.931243640228,10.5,10499994652.068756,47.655,-122.3035,60.0,13.5
2026-01-20T23:13:31+00:00,SAT-64148,284.80220565351266,32.75270684904889,4020.0169805952028,0.16471650437704322,-5769.068733406741,10.5,10499994230.931267,47.655,-122.3035,60.0,13.516666666666667
2026-01-20T23:13:32+00:00,SAT-64148,284.66834079606696,32.7527462884713,4020.181257855568,0.17673901270212763,-6190.14783011099,10.5,10499993809.852169,47.655,-122.3035,60.0,13.533333333333333
2026-01-20T23:13:33+00:00,SAT-64148,284.534486321587,32.75253637364291,4020.3575255642368,0.1887597303931241,-6611.164211235104,10.5,10499993388.835789,47.655,-122.3035,60.0,13.55
2026-01-20T23:13:34+00:00,SAT-64148,284.40064397367763,32.75207715570778,4020.5457819353487,0.20077853439223903,-7032.113566774618,10.5,10499992967.886433,47.655,-122.3035,60.0,13.566666666666666
2026-01-20T23:13:35+00:00,SAT-64148,284.26681549505213,32.75136869364468,4020.746025060316,0.2127953022337548,-7452.991607462072,10.5,10499992547.008392,47.655,-122.3035,60.0,13.583333333333334
2026-01-20T23:13:36+00:00,SAT-64148,284.1330026270608,32.75041105425698,4020.95825290841,0.22480991076382434,-7873.7940199288,10.5,10499992126.20598,47.655,-122.3035,60.0,13.6
2026-01-20T23:13:37+00:00,SAT-64148,283.9992071101201,32.749204312168054,4021.182463326079,0.23682223661463994,-8294.516483312329,10.5,10499991705.483517,47.655,-122.3035,60.0,13.616666666666667
2026-01-20T23:13:38+00:00,SAT-64148,283.8654306836699,32.747748549815526,4021.418654036729,0.24883215825764118,-8715.154741168413,10.5,10499991284.845259,47.655,-122.3035,60.0,13.633333333333333
2026-01-20T23:13:39+00:00,SAT-64148,283.73167508510204,32.74604385743109,4021.666822642565,0.2608395523961713,-9135.704475126586,10.5,10499990864.295525,47.655,-122.3035,60.0,13.65
2026-01-20T23:13:40+00:00,SAT-64148,283.59794205069903,32.74409033304198,4021.926966622821,0.27284429699954876,-9556.161411156188,10.5,10499990443.838589,47.655,-122.3035,60.0,13.666666666666666
2026-01-20T23:13:41+00:00,SAT-64148,283.4642333148548,32.74188808245175,4022.1990833350287,0.2848462690613102,-9976.521241050557,10.5,10499990023.47876,47.655,-122.3035,60.0,13.683333333333334
2026-01-20T23:13:42+00:00,SAT-64148,283.3305506105024,32.739437219237224,4022.483170014039,0.2968453470630596,-10396.779708721444,10.5,10499989603.220291,47.655,-122.3035,60.0,13.7
2026-01-20T23:13:43+00:00,SAT-64148,283.196895668326,32.73673786472499,4022.77922377351,0.30884140846132185,-10816.93252217799,10.5,10499989183.067478,47.655,-122.3035,60.0,13.716666666666667
2026-01-20T23:13:44+00:00,SAT-64148,283.06327021718977,32.73379014798753,4023.087241604882,0.32083433261183897,-11236.975455947959,10.5,10499988763.024544,47.655,-122.3035,60.0,13.733333333333333
2026-01-20T23:13:45+00:00,SAT-64148,282.92967598325185,32.73059420581161,4023.4072203792734,0.3328239956700932,-11656.904172472472,10.5,10499988343.095827,47.655,-122.3035,60.0,13.75
2026-01-20T23:13:46+00:00,SAT-64148,282.7961146912311,32.72715018271651,4023.7391568442886,0.3448102766929933,-12076.71443581289,10.5,10499987923.285564,47.655,-122.3035,60.0,13.766666666666667
2026-01-20T23:13:47+00:00,SAT-64148,282.6625880631087,32.72345823091159,4024.0830476269102,0.3567930556253081,-12496.402041127183,10.5,10499987503.59796,47.655,-122.3035,60.0,13.783333333333333
2026-01-20T23:13:48+00:00,SAT-64148,282.52909781779874,32.71951851027013,4024.4388892343873,0.3687722097624568,-12915.96269078189,10.5,10499987084.03731,47.655,-122.3035,60.0,13.8
2026-01-20T23:13:49+00:00,SAT-64148,282.39564567207367,32.71533118834201,4024.8066780515906,0.3807476175596159,-13335.392127763156,10.5,10499986664.607872,47.655,-122.3035,60.0,13.816666666666666
2026-01-20T23:13:50+00:00,SAT-64148,282.26223334003794,32.71089644032566,4025.18641034217,0.39271915859563605,-13754.686134412956,10.5,10499986245.313866,47.655,-122.3035,60.0,13.833333333333334
2026-01-20T23:13:51+00:00,SAT-64148,282.1288625326618,32.70621444903813,4025.578082249676,0.40468671268823103,-14173.840501439252,10.5,10499985826.159498,47.655,-122.3035,60.0,13.85
2026-01-20T23:13:52+00:00,SAT-64148,281.99553495768527,32.70128540489377,4025.9816897977967,0.41665015857921345,-14592.8509818674,10.5,10499985407.149017,47.655,-122.3035,60.0,13.866666666666667
2026-01-20T23:13:53+00:00,SAT-64148,281.86225231989613,32.69610950589824,4026.3972288892865,0.4286093750698576,-15011.713330805356,10.5,10499984988.286669,47.655,-122.3035,60.0,13.883333333333333
2026-01-20T23:13:54+00:00,SAT-64148,281.72901632103367,32.69068695763,4026.824695306023,0.4405642425425095,-15430.423358736894,10.5,10499984569.576641,47.655,-122.3035,60.0,13.9
2026-01-20T23:13:55+00:00,SAT-64148,281.5958286592242,32.685017973200836,4027.2640847105854,0.45251464236444516,-15848.976910642208,10.5,10499984151.023088,47.655,-122.3035,60.0,13.916666666666666
2026-01-20T23:13:56+00:00,SAT-64148,281.4626910286647,32.679102773221075,4027.715392647237,0.46446045137927616,-16267.369673063622,10.5,10499983732.630327,47.655,-122.3035,60.0,13.933333333333334
2026-01-20T23:13:57+00:00,SAT-64148,281.32960512086765,32.67294158583938,4028.178614537412,0.47640155203932766,-16685.597528984337,10.5,10499983314.402472,47.655,-122.3035,60.0,13.95
2026-01-20T23:13:58+00:00,SAT-64148,281.19657262297045,32.666534646646845,4028.653745685313,0.4883378256971373,-17103.65632286834,10.5,10499982896.343678,47.655,-122.3035,60.0,13.966666666666667
2026-01-20T23:13:59+00:00,SAT-64148,281.06359521802113,32.65988219866808,4029.140781276808,0.5002691515549647,-17521.541823867792,10.5,10499982478.458176,47.655,-122.3035,60.0,13.983333333333333
2026-01-20T23:14:00+00:00,SAT-64148,280.9306745855206,32.65298449236831,4029.639716377292,0.5121954092800907,-17939.249817421864,10.5,10499982060.750183,47.655,-122.3035,60.0,14.0
2026-01-20T23:14:01+00:00,SAT-64148,280.797812401177,32.64584178562445,4030.1505459321475,0.5241164837266868,-18356.776270636576,10.5,10499981643.22373,47.655,-122.3035,60.0,14.016666666666667
2026-01-20T23:14:02+00:00,SAT-64148,280.6650103355404,32.63845434362749,4030.6732647719177,0.5360322538911841,-18774.11694545509,10.5,10499981225.883055,47.655,-122.3035,60.0,14.033333333333333
2026-01-20T23:14:03+00:00,SAT-64148,280.5322700554604,32.630822438940406,4031.2078676064652,0.5479426004232519,-19191.267661723985,10.5,10499980808.732338,47.655,-122.3035,60.0,14.05
2026-01-20T23:14:04+00:00,SAT-64148,280.399593223561,32.622946351449876,4031.7543490266207,0.5598474087991232,-19608.224408336493,10.5,10499980391.77559,47.655,-122.3035,60.0,14.066666666666666
2026-01-20T23:14:05+00:00,SAT-64148,280.2669814970568,32.614826368270464,4032.3127035089965,0.571746556145488,-20024.982881749558,10.5,10499979975.017118,47.655,-122.3035,60.0,14.083333333333334
2026-01-20T23:14:06+00:00,SAT-64148,280.13443652966873,32.606462783839675,4032.8829254076586,0.5836399294007272,-20441.539122067024,10.5,10499979558.460878,47.655,-122.3035,60.0,14.1
2026-01-20T23:14:07+00:00,SAT-64148,280.00195996926726,32.597855899747266,4033.4650089639144,0.5955274098543593,-20857.88897154568,10.5,10499979142.111029,47.655,-122.3035,60.0,14.116666666666667
2026-01-20T23:14:08+00:00,SAT-64148,279.86955345916317,32.58900602478973,4034.058948300676,0.6074088774816461,-21274.0282264115,10.5,10499978725.971773,47.655,-122.3035,60.0,14.133333333333333
2026-01-20T23:14:09+00:00,SAT-64148,279.73721863828985,32.57991347496361,4034.6647374211507,0.6192842192418057,-21689.952927498125,10.5,10499978310.047073,47.655,-122.3035,60.0,14.15
2026-01-20T23:14:10+00:00,SAT-64148,279.6049571396384,32.57057857333048,4035.282370215808,0.6311533191921213,-22105.659014001187,10.5,10499977894.340986,47.655,-122.3035,60.0,14.166666666666666
2026-01-20T23:14:11+00:00,SAT-64148,279.47277059086764,32.56100165003104,4035.9118404594824,0.6430160548714491,-22521.142196813424,10.5,10499977478.857803,47.655,-122.3035,60.0,14.183333333333334
2026-01-20T23:14:12+00:00,SAT-64148,279.3406606155897,32.55118304235576,4036.5531418048745,0.65487231691242,-22936.39864542693,10.5,10499977063.601355,47.655,-122.3035,60.0,14.2
2026-01-20T23:14:13+00:00,SAT-64148,279.20862883060624,32.54112309451343,4037.2062677956083,0.6667219869689455,-23351.42421486109,10.5,10499976648.575785,47.655,-122.3035,60.0,14.216666666666667
2026-01-20T23:14:14+00:00,SAT-64148,279.0766768477224,32.53082215773706,4037.8712118572785,0.6785649496497271,-23766.21486362454,10.5,10499976233.785137,47.655,-122.3035,60.0,14.233333333333333
2026-01-20T23:14:15+00:00,SAT-64148,278.9448062730926,32.52028059020842,4038.547967300396,0.6904010880571035,-24180.76649746668,10.5,10499975819.233503,47.655,-122.3035,60.0,14.25
2026-01-20T23:14:16+00:00,SAT-64148,278.8130187074559,32.5094987570483,4039.2365273188852,0.7022302906149818,-24595.075208520786,10.5,10499975404.924791,47.655,-122.3035,60.0,14.266666666666667
2026-01-20T23:14:17+00:00,SAT-64148,278.6813157450679,32.49847703020087,4039.9368849953917,0.7140524405456398,-25009.136906737054,10.5,10499974990.863092,47.655,-122.3035,60.0,14.283333333333333
2026-01-20T23:14:18+00:00,SAT-64148,278.54969897466896,32.487215788482196,4040.6490332960957,0.7258674247701796,-25422.947631614155,10.5,10499974577.052368,47.655,-122.3035,60.0,14.3
2026-01-20T23:14:19+00:00,SAT-64148,278.41816997873224,32.47571541748828,4041.3729650744,0.7376751275135965,-25836.503328221697,10.5,10499974163.496672,47.655,-122.3035,60.0,14.316666666666666
2026-01-20T23:14:20+00:00,SAT-64148,278.2867303339127,32.4639763096037,4042.1086730682405,0.7494754369126538,-26249.800078635955,10.5,10499973750.19992,47.655,-122.3035,60.0,14.333333333333334
2026-01-20T23:14:21+00:00,SAT-64148,278.1553816103014,32.45199886390431,4042.8561499039874,0.7612682396770337,-26662.83391495077,10.5,10499973337.166084,47.655,-122.3035,60.0,14.35
2026-01-20T23:14:22+00:00,SAT-64148,278.02412537165225,32.43978348614506,4043.6153880950255,0.7730534215624898,-27075.60083584939,10.5,10499972924.399164,47.655,-122.3035,60.0,14.366666666666667
2026-01-20T23:14:23+00:00,SAT-64148,277.8929631754927,32.42733058873966,4044.3863800407976,0.7848308698982239,-27488.09689512386,10.5,10499972511.903105,47.655,-122.3035,60.0,14.383333333333333
2026-01-20T23:14:24+00:00,SAT-64148,277.76189657282424,32.414640590699506,4045.1691180283756,0.7966004735975594,-27900.318202048875,10.5,10499972099.681797,47.655,-122.3035,60.0,14.4
2026-01-20T23:14:25+00:00,SAT-64148,277.63092710780586,32.40171391757089,4045.9635942340437,0.8083621213278406,-28312.260857283894,10.5,10499971687.739143,47.655,-122.3035,60.0,14.416666666666666
2026-01-20T23:14:26+00:00,SAT-64148,277.50005631778737,32.38855100140147,4046.769800723048,0.82011569690393,-28723.92079153394,10.5,10499971276.079208,47.655,-122.3035,60.0,14.433333333333334
2026-01-20T23:14:27+00:00,SAT-64148,277.36928573403,32.375152280784164,4047.58772944476,0.831861095509058,-29135.29433367236,10.5,10499970864.705666,47.655,-122.3035,60.0,14.45
2026-01-20T23:14:28+00:00,SAT-64148,277.2386168798641,32.361518200629725,4048.4173722440146,0.8435982016182642,-29546.377437526375,10.5,10499970453.622562,47.655,-122.3035,60.0,14.466666666666667
2026-01-20T23:14:29+00:00,SAT-64148,277.108051272353,32.34764921230739,4049.2587208504287,0.8553269059358383,-29957.16627509789,10.5,10499970042.833725,47.655,-122.3035,60.0,14.483333333333333
2026-01-20T23:14:30+00:00,SAT-64148,276.97759042128433,32.333545773501605,4050.111766884615,0.8670470989155171,-30367.657009613395,10.5,10499969632.34299,47.655,-122.3035,60.0,14.5
2026-01-20T23:14:31+00:00,SAT-64148,276.847235829173,32.319208348177405,4050.9765018579337,0.8787586671475515,-30777.845668983744,10.5,10499969222.154331,47.655,-122.3035,60.0,14.516666666666667
2026-01-20T23:14:32+00:00,SAT-64148,276.7169889918128,32.30463740660596,4051.8529171686355,0.8904615081728031,-31187.728664656504,10.5,10499968812.271336,47.655,-122.3035,60.0,14.533333333333333
2026-01-20T23:14:33+00:00,SAT-64148,276.58685139661634,32.289833425139946,4052.741004112786,0.9021555072215264,-31597.30197690973,10.5,10499968402.698023,47.655,-122.3035,60.0,14.55
2026-01-20T23:14:34+00:00,SAT-64148,276.4568245244232,32.274796886380706,4053.6407538719886,0.9138405547749021,-32006.561769931093,10.5,10499967993.43823,47.655,-122.3035,60.0,14.566666666666666
2026-01-20T23:14:35+00:00,SAT-64148,276.32690984866616,32.25952827904979,4054.552157518617,0.9255165451842051,-32415.504343455344,10.5,10499967584.495657,47.655,-122.3035,60.0,14.583333333333334
2026-01-20T23:14:36+00:00,SAT-64148,276.19710883479803,32.24402809788051,4055.475206019681,0.9371833729033704,-32824.12600081283,10.5,10499967175.873999,47.655,-122.3035,60.0,14.6
2026-01-20T23:14:37+00:00,SAT-64148,276.06742294028925,32.228296843576864,4056.4098902369233,0.9488409234492879,-33232.42273232078,10.5,10499966767.577269,47.655,-122.3035,60.0,14.616666666666667
2026-01-20T23:14:38+00:00,SAT-64148,275.93785361581797,32.21233502292196,4057.3562009179104,0.9604890956867324,-33640.390995795795,10.5,10499966359.609005,47.655,-122.3035,60.0,14.633333333333333
2026-01-20T23:14:39+00:00,SAT-64148,275.8084023034127,32.196143148509336,4058.3141287093417,0.9721277789411926,-34048.02691494835,10.5,10499965951.973085,47.655,-122.3035,60.0,14.65
2026-01-20T23:14:40+00:00,SAT-64148,275.6790704377326,32.17972173886318,4059.283664147539,0.9837568706828883,-34455.32689875183,10.5,10499965544.673101,47.655,-122.3035,60.0,14.666666666666666
2026-01-20T23:14:41+00:00,SAT-64148,275.5498594449542,32.16307131825562,4060.264797666567,0.9953762601249919,-34862.287066982906,10.5,10499965137.712933,47.655,-122.3035,60.0,14.683333333333334
2026-01-20T23:14:42+00:00,SAT-64148,275.42077074384275,32.14619241680537,4061.257519589998,1.006985844039429,-35268.90380415776,10.5,10499964731.096195,47.655,-122.3035,60.0,14.7
2026-01-20T23:14:43+00:00,SAT-64148,275.29180574473304,32.1290855703051,4062.2618201384535,1.0185855187910406,-35675.17348053475,10.5,10499964324.826519,47.655,-122.3035,60.0,14.716666666666667
2026-01-20T23:14:44+00:00,SAT-64148,275.16296584958593,32.1117513201834,4063.2776894291947,1.0301751780378898,-36081.09237156941,10.5,10499963918.907629,47.655,-122.3035,60.0,14.733333333333333
2026-01-20T23:14:45+00:00,SAT-64148,275.0342524523075,32.09419021350822,4064.3051174734246,1.0417547156784268,-36486.65676113668,10.5,10499963513.343239,47.655,-122.3035,60.0,14.75
2026-01-20T23:14:46+00:00,SAT-64148,274.90566693870073,32.07640280293787,4065.3440941765275,1.0533240302882494,-36891.86309692493,10.5,10499963108.136904,47.655,-122.3035,60.0,14.766666666666667
2026-01-20T23:14:47+00:00,SAT-64148,274.777210685869,32.058389646596424,4066.394609342735,1.0648830173809305,-37296.707719377555,10.5,10499962703.29228,47.655,-122.3035,60.0,14.783333333333333
2026-01-20T23:14:48+00:00,SAT-64148,274.6488850625724,32.04015130807957,4067.4566526720696,1.0764315748419049,-37701.1870520105,10.5,10499962298.812948,47.655,-122.3035,60.0,14.8
2026-01-20T23:14:49+00:00,SAT-64148,274.5206914289495,32.0216883563709,4068.530213762712,1.087969598182713,-38105.29743519594,10.5,10499961894.702564,47.655,-122.3035,60.0,14.816666666666666
2026-01-20T23:14:50+00:00,SAT-64148,274.39263113677333,32.00300136583567,4069.615282108633,1.099496985208999,-38509.03528965525,10.5,10499961490.96471,47.655,-122.3035,60.0,14.833333333333334
2026-01-20T23:14:51+00:00,SAT-64148,274.26470552916646,31.984090916137024,4070.711847101881,1.1110136366979686,-38912.39714018646,10.5,10499961087.60286,47.655,-122.3035,60.0,14.85
2026-01-20T23:14:52+00:00,SAT-64148,274.1369159402566,31.964957592136166,4071.8198980355482,1.122519448686661,-39315.37934556693,10.5,10499960684.620655,47.655,-122.3035,60.0,14.866666666666667
2026-01-20T23:14:53+00:00,SAT-64148,274.0092636957081,31.945601983930583,4072.939424099038,1.1340143210984721,-39717.97840069064,10.5,10499960282.021599,47.655,-122.3035,60.0,14.883333333333333
2026-01-20T23:14:54+00:00,SAT-64148,273.8817501122779,31.92602468673872,4074.070414381947,1.145498152567953,-40120.19075531082,10.5,10499959879.809244,47.655,-122.3035,60.0,14.9
2026-01-20T23:14:55+00:00,SAT-64148,273.7543764979404,31.90622630087649,4075.2128578727747,1.1569708466903874,-40522.01303292649,10.5,10499959477.986967,47.655,-122.3035,60.0,14.916666666666666
2026-01-20T23:14:56+00:00,SAT-64148,273.6271441513464,31.886207431622527,4076.3667434638737,1.1684322994606327,-40923.44159083763,10.5,10499959076.558409,47.655,-122.3035,60.0,14.933333333333334
2026-01-20T23:14:57+00:00,SAT-64148,273.5000543626647,31.865968689306822,4077.532059943869,1.1798824105845669,-41324.47291631984,10.5,10499958675.527084,47.655,-122.3035,60.0,14.95
2026-01-20T23:14:58+00:00,SAT-64148,273.373108413135,31.845510689195645,4078.708796001359,1.1913210891162627,-41725.10382406203,10.5,10499958274.896175,47.655,-122.3035,60.0,14.966666666666667
2026-01-20T23:14:59+00:00,SAT-64148,273.2463075740971,31.824834051281474,4079.8969402342377,1.2027482330631272,-42125.3307418522,10.5,10499957874.669258,47.655,-122.3035,60.0,14.983333333333333
