satellites_20260121_005943/SAT-48283.csv

timestamp,satellite,azimuth_deg,elevation_deg,distance_km,relative_velocity_kms,doppler_shift_hz,tx_freq_ghz,rx_freq_hz,ue_lat,ue_lon,ue_alt_m,time_minutes
2026-01-20T23:02:23+00:00,SAT-48283,61.4685726658536,30.032331290935677,688.4670659456984,3.0555791854300502,-107019.30816089953,10.5,10499892980.69184,47.655,-122.3035,60.0,2.3833333333333333
2026-01-20T23:02:24+00:00,SAT-48283,60.838021531757946,30.125277550187796,691.5144969199673,3.1129547199093546,-109028.84207663497,10.5,10499890971.157923,47.655,-122.3035,60.0,2.4
2026-01-20T23:02:25+00:00,SAT-48283,60.21155004372788,30.214167540012124,694.6191504272903,3.169560819059025,-111011.42711241843,10.5,10499888988.572887,47.655,-122.3035,60.0,2.4166666666666665
2026-01-20T23:02:26+00:00,SAT-48283,59.58925099933253,30.299060482610912,697.7802590841651,3.22539747931822,-112967.06314353413,10.5,10499887032.936857,47.655,-122.3035,60.0,2.433333333333333
2026-01-20T23:02:27+00:00,SAT-48283,58.971212259886705,30.3800173436966,700.9970555035386,3.280465327454177,-114895.77212202203,10.5,10499885104.227879,47.655,-122.3035,60.0,2.45
2026-01-20T23:02:28+00:00,SAT-48283,58.3575167565963,30.45710066845841,704.2687729234527,3.3347655363472777,-116797.59512711428,10.5,10499883202.404873,47.655,-122.3035,60.0,2.466666666666667
2026-01-20T23:02:29+00:00,SAT-48283,57.748242518794434,30.53037441989842,707.5946457517032,3.3882998871977805,-118672.59454397847,10.5,10499881327.405457,47.655,-122.3035,60.0,2.4833333333333334
2026-01-20T23:02:30+00:00,SAT-48283,57.14346269711579,30.599903822641476,710.973910172535,3.4410706663964694,-120520.85045169125,10.5,10499879479.149548,47.655,-122.3035,60.0,2.5
2026-01-20T23:02:31+00:00,SAT-48283,56.54324561092236,30.665755209604146,714.4058046504879,3.4930806984144733,-122342.46177517905,10.5,10499877657.538225,47.655,-122.3035,60.0,2.5166666666666666
2026-01-20T23:02:32+00:00,SAT-48283,55.94765479530029,30.7279958740505,717.8895704670398,3.544333236371867,-124137.54245246758,10.5,10499875862.457548,47.655,-122.3035,60.0,2.533333333333333
2026-01-20T23:02:33+00:00,SAT-48283,55.35674907111904,30.786693925313504,721.4244521481148,3.594832069583576,-125906.22520139432,10.5,10499874093.7748,47.655,-122.3035,60.0,2.55
2026-01-20T23:02:34+00:00,SAT-48283,54.77058260154996,30.84191815137571,725.009697998846,3.6445813429293072,-127648.65519317944,10.5,10499872351.344807,47.655,-122.3035,60.0,2.566666666666667
2026-01-20T23:02:35+00:00,SAT-48283,54.18920498188782,30.893737884629466,728.6445604581942,3.6935856744785975,-129364.9941721525,10.5,10499870635.005827,47.655,-122.3035,60.0,2.5833333333333335
2026-01-20T23:02:36+00:00,SAT-48283,53.61266131365747,30.94222287473687,732.3282965708743,3.7418500508299424,-131055.41679008615,10.5,10499868944.58321,47.655,-122.3035,60.0,2.6
2026-01-20T23:02:37+00:00,SAT-48283,53.040992298205424,30.987443166099084,736.060168354902,3.7893797753418803,-132720.10879302956,10.5,10499867279.891207,47.655,-122.3035,60.0,2.6166666666666667
2026-01-20T23:02:38+00:00,SAT-48283,52.474234340105205,31.029468980625914,739.8394431175096,3.836180560006669,-134359.2702391133,10.5,10499865640.729761,47.655,-122.3035,60.0,2.6333333333333333
2026-01-20T23:02:39+00:00,SAT-48283,51.91241963859236,31.068370607343002,743.6653938626896,3.882258360479743,-135973.1097205831,10.5,10499864026.89028,47.655,-122.3035,60.0,2.65
2026-01-20T23:02:40+00:00,SAT-48283,51.35557630481273,31.104218296308435,747.537299534208,3.9276194874779233,-137561.84826543633,10.5,10499862438.151735,47.655,-122.3035,60.0,2.6666666666666665
2026-01-20T23:02:41+00:00,SAT-48283,50.803728463640006,31.13708215941557,751.4544453697195,3.972270505669224,-139125.71579611537,10.5,10499860874.284204,47.655,-122.3035,60.0,2.683333333333333
2026-01-20T23:02:42+00:00,SAT-48283,50.256896370818026,31.167032076020607,755.4161231540402,4.016218193879116,-140664.94973576258,10.5,10499859335.050264,47.655,-122.3035,60.0,2.7
2026-01-20T23:02:43+00:00,SAT-48283,49.71509653504967,31.194137604374117,759.4216314327356,4.059469606596047,-142179.79716240393,10.5,10499857820.202837,47.655,-122.3035,60.0,2.716666666666667
2026-01-20T23:02:44+00:00,SAT-48283,49.17834183160756,31.21846789888199,763.4702757870474,4.102031989349422,-143670.51184512765,10.5,10499856329.488155,47.655,-122.3035,60.0,2.7333333333333334
2026-01-20T23:02:45+00:00,SAT-48283,48.646641626754274,31.240091632448387,767.5613690244252,4.1439127747545,-145137.35410556008,10.5,10499854862.645895,47.655,-122.3035,60.0,2.75
2026-01-20T23:02:46+00:00,SAT-48283,48.12000190134805,31.259076924360244,771.6942313651136,4.185119610023234,-146580.5917814115,10.5,10499853419.408218,47.655,-122.3035,60.0,2.7666666666666666
2026-01-20T23:02:47+00:00,SAT-48283,47.598425369989194,31.275491273371347,775.8681906561769,4.225660210641944,-148000.49510164934,10.5,10499851999.504898,47.655,-122.3035,60.0,2.783333333333333
2026-01-20T23:02:48+00:00,SAT-48283,47.081911616394244,31.289401495720398,780.0825824395905,4.265542534732884,-149397.34279337767,10.5,10499850602.657207,47.655,-122.3035,60.0,2.8
2026-01-20T23:02:49+00:00,SAT-48283,46.570457205669804,31.300873668327352,784.3367501942307,4.304774581734035,-150771.41503075228,10.5,10499849228.584969,47.655,-122.3035,60.0,2.816666666666667
2026-01-20T23:02:50+00:00,SAT-48283,46.0640558186829,31.309973076619702,788.6300453770801,4.343364519743348,-152122.99789511436,10.5,10499847877.002106,47.655,-122.3035,60.0,2.8333333333333335
2026-01-20T23:02:51+00:00,SAT-48283,45.56269836897212,31.31676416699879,792.9618275914374,4.381320564526869,-153452.3791373435,10.5,10499846547.620863,47.655,-122.3035,60.0,2.85
2026-01-20T23:02:52+00:00,SAT-48283,45.06637313105373,31.32131050381637,797.3314646344589,4.418651045884358,-154759.85050226236,10.5,10499845240.149498,47.655,-122.3035,60.0,2.8666666666666667
2026-01-20T23:02:53+00:00,SAT-48283,44.57506585841148,31.323674730551797,801.7383326108876,4.455364336211001,-156045.70522656548,10.5,10499843954.294773,47.655,-122.3035,60.0,2.8833333333333333
2026-01-20T23:02:54+00:00,SAT-48283,44.088759906463416,31.323918535187065,806.1818159755354,4.49146886555456,-157310.2385661846,10.5,10499842689.761435,47.655,-122.3035,60.0,2.9
2026-01-20T23:02:55+00:00,SAT-48283,43.60743635075157,31.32210261944104,810.6613075907818,4.526973108484116,-158553.74733637634,10.5,10499841446.252665,47.655,-122.3035,60.0,2.9166666666666665
2026-01-20T23:02:56+00:00,SAT-48283,43.131074103257305,31.31828667179031,815.1762087709766,4.561885578136284,-159776.52970319547,10.5,10499840223.470297,47.655,-122.3035,60.0,2.933333333333333
2026-01-20T23:02:57+00:00,SAT-48283,42.6596500261427,31.31252934397491,819.7259293209046,4.596214798553943,-160978.8842146803,10.5,10499839021.115786,47.655,-122.3035,60.0,2.95
2026-01-20T23:02:58+00:00,SAT-48283,42.193139044857475,31.304888230984286,824.3098875466624,4.629969299304324,-162161.10961235524,10.5,10499837838.890388,47.655,-122.3035,60.0,2.966666666666667
2026-01-20T23:02:59+00:00,SAT-48283,41.731514258266856,31.29541985419642,828.9275102611684,4.6631575963987855,-163323.50416296077,10.5,10499836676.495836,47.655,-122.3035,60.0,2.9833333333333334
2026-01-20T23:03:00+00:00,SAT-48283,41.27474704696298,31.284179647646496,833.5782327706436,4.695788254293333,-164466.3678299739,10.5,10499835533.63217,47.655,-122.3035,60.0,3.0
2026-01-20T23:03:01+00:00,SAT-48283,40.822807172227044,31.27122194676339,838.2614989229254,4.727869736965499,-165589.99705769029,10.5,10499834410.002943,47.655,-122.3035,60.0,3.0166666666666666
2026-01-20T23:03:02+00:00,SAT-48283,40.37566288542754,31.256599980484427,842.976761007259,4.759410544618338,-166694.6895591768,10.5,10499833305.31044,47.655,-122.3035,60.0,3.033333333333333
2026-01-20T23:03:03+00:00,SAT-48283,39.93328102087393,31.240365865173317,847.723479790425,4.790419127500835,-167780.74129789742,10.5,10499832219.258701,47.655,-122.3035,60.0,3.05
2026-01-20T23:03:04+00:00,SAT-48283,39.49562709313493,31.22257060129013,852.5011244669192,4.820903858205371,-168848.44551745325,10.5,10499831151.554483,47.655,-122.3035,60.0,3.066666666666667
2026-01-20T23:03:05+00:00,SAT-48283,39.06266539305764,31.203264072377756,857.3091725815027,4.850873150386565,-169898.09689961892,10.5,10499830101.903101,47.655,-122.3035,60.0,3.0833333333333335
2026-01-20T23:03:06+00:00,SAT-48283,38.63435906969903,31.182495045402984,862.1471100701549,4.8803352695958,-170929.984938967,10.5,10499829070.01506,47.655,-122.3035,60.0,3.1
2026-01-20T23:03:07+00:00,SAT-48283,38.210670225347194,31.160311173996178,867.0144311123651,4.909298472601273,-171944.39882244595,10.5,10499828055.601177,47.655,-122.3035,60.0,3.1166666666666667
2026-01-20T23:03:08+00:00,SAT-48283,37.79155999465258,31.136759002686976,871.9106381223728,4.937770962471162,-172941.62585620215,10.5,10499827058.374144,47.655,-122.3035,60.0,3.1333333333333333
2026-01-20T23:03:09+00:00,SAT-48283,37.376988624388645,31.111883972912317,876.8352416956106,4.965760826782089,-173921.9493013795,10.5,10499826078.0507,47.655,-122.3035,60.0,3.15
2026-01-20T23:03:10+00:00,SAT-48283,36.96691555471194,31.08573043093823,881.7877604935213,4.9932761461207615,-174885.6521743052,10.5,10499825114.347826,47.655,-122.3035,60.0,3.1666666666666665
2026-01-20T23:03:11+00:00,SAT-48283,36.561299488235804,31.058341636358314,886.7677212365859,5.020324859496049,-175833.01253265186,10.5,10499824166.987467,47.655,-122.3035,60.0,3.183333333333333
2026-01-20T23:03:12+00:00,SAT-48283,36.16009846658433,31.02975977276979,891.7746585631232,5.046914874485841,-176764.3073332463,10.5,10499823235.692667,47.655,-122.3035,60.0,3.2
2026-01-20T23:03:13+00:00,SAT-48283,35.76326993493015,31.00002595875426,896.8081149979438,5.073054002487696,-177679.81016427308,10.5,10499822320.189837,47.655,-122.3035,60.0,3.216666666666667
2026-01-20T23:03:14+00:00,SAT-48283,35.370770808490825,30.969180260339925,901.8676408564248,5.098749934033201,-178579.79038067933,10.5,10499821420.20962,47.655,-122.3035,60.0,3.2333333333333334
2026-01-20T23:03:15+00:00,SAT-48283,34.982557537673785,30.93726170454235,906.9527941239674,5.124010345407396,-179464.5168384378,10.5,10499820535.483162,47.655,-122.3035,60.0,3.25
2026-01-20T23:03:16+00:00,SAT-48283,34.59858616222584,30.904308292937742,912.0631404417869,5.148842752186325,-180334.25276481244,10.5,10499819665.747234,47.655,-122.3035,60.0,3.2666666666666666
2026-01-20T23:03:17+00:00,SAT-48283,34.21881237342272,30.870357017015778,917.198252946634,5.173254598319569,-181189.25887840538,10.5,10499818810.741121,47.655,-122.3035,60.0,3.283333333333333
2026-01-20T23:03:18+00:00,SAT-48283,33.84319156663879,30.835443873537898,922.3577121993582,5.197253251386268,-182029.793223003,10.5,10499817970.206778,47.655,-122.3035,60.0,3.3
2026-01-20T23:03:19+00:00,SAT-48283,33.47167889168653,30.79960388043997,927.5411061087407,5.220845963999902,-182856.10981580787,10.5,10499817143.890184,47.655,-122.3035,60.0,3.316666666666667
2026-01-20T23:03:20+00:00,SAT-48283,33.10422930314156,30.762871093559774,932.7480298168366,5.244039900956112,-183668.45959827042,10.5,10499816331.540401,47.655,-122.3035,60.0,3.3333333333333335
2026-01-20T23:03:21+00:00,SAT-48283,32.740797606233926,30.725278623508533,937.9780856113902,5.266842104116628,-184467.08920617538,10.5,10499815532.910793,47.655,-122.3035,60.0,3.35
2026-01-20T23:03:22+00:00,SAT-48283,32.38133850250318,30.68685865324513,943.2308828032292,5.289259566767147,-185252.24357396958,10.5,10499814747.756426,47.655,-122.3035,60.0,3.3666666666666667
2026-01-20T23:03:23+00:00,SAT-48283,32.025806628185734,30.647642455234816,948.5060376778182,5.311299116567729,-186024.16183518915,10.5,10499813975.838165,47.655,-122.3035,60.0,3.3833333333333333
2026-01-20T23:03:24+00:00,SAT-48283,31.674156597953026,30.607660409896944,953.8031733300751,5.332967535688818,-186783.08153013172,10.5,10499813216.91847,47.655,-122.3035,60.0,3.4
2026-01-20T23:03:25+00:00,SAT-48283,31.326343038549606,30.56694202314471,959.1219196190021,5.3542714670923495,-187529.2353234239,10.5,10499812470.764677,47.655,-122.3035,60.0,3.4166666666666665
2026-01-20T23:03:26+00:00,SAT-48283,30.982320626349168,30.525515944908754,964.4619130288488,5.375217470816207,-188262.85297534126,10.5,10499811737.147024,47.655,-122.3035,60.0,3.433333333333333
2026-01-20T23:03:27+00:00,SAT-48283,30.642044119241156,30.483409987212667,969.8227965864096,5.39581200427624,-188984.1606519018,10.5,10499811015.839348,47.655,-122.3035,60.0,3.45
2026-01-20T23:03:28+00:00,SAT-48283,30.305468387771054,30.44065114249528,975.2042197586744,5.416061399823681,-189693.3801388314,10.5,10499810306.619862,47.655,-122.3035,60.0,3.466666666666667
2026-01-20T23:03:29+00:00,SAT-48283,29.97254844575713,30.397265602111485,980.6058383280986,5.435971929522566,-190390.7311103435,10.5,10499809609.26889,47.655,-122.3035,60.0,3.4833333333333334
2026-01-20T23:03:30+00:00,SAT-48283,29.643239475131484,30.353278774238234,986.0273143324757,5.455549740957654,-191076.42888086053,10.5,10499808923.57112,47.655,-122.3035,60.0,3.5
2026-01-20T23:03:31+00:00,SAT-48283,29.31749685300083,30.308715302269807,991.4683159407908,5.4748008651791595,-191750.68468327238,10.5,10499808249.315317,47.655,-122.3035,60.0,3.5166666666666666
2026-01-20T23:03:32+00:00,SAT-48283,28.99527617640638,30.263599083093588,996.9285173369962,5.493731242981535,-192413.70658933028,10.5,10499807586.293411,47.655,-122.3035,60.0,3.533333333333333
2026-01-20T23:03:33+00:00,SAT-48283,28.676533284027418,30.21795328494189,1002.4075986299964,5.512346722261741,-193065.69941712238,10.5,10499806934.300583,47.655,-122.3035,60.0,3.55
2026-01-20T23:03:34+00:00,SAT-48283,28.361224276477557,30.17180036521,1007.9052457609988,5.530653072620655,-193706.86524247678,10.5,10499806293.134758,47.655,-122.3035,60.0,3.566666666666667
2026-01-20T23:03:35+00:00,SAT-48283,28.04930553450638,30.125162087861067,1013.4211504254258,5.548655914657121,-194337.4009225401,10.5,10499805662.599077,47.655,-122.3035,60.0,3.5833333333333335
2026-01-20T23:03:36+00:00,SAT-48283,27.7407337395812,30.078059541423485,1018.9550099243105,5.566360786774711,-194957.50043563292,10.5,10499805042.499565,47.655,-122.3035,60.0,3.6
2026-01-20T23:03:37+00:00,SAT-48283,27.435465889532807,30.030513156058753,1024.5065270823206,5.5837731664207375,-195567.35562512965,10.5,10499804432.644375,47.655,-122.3035,60.0,3.6166666666666667
