satellites_20260121_005943/SAT-60280.csv

timestamp,satellite,azimuth_deg,elevation_deg,distance_km,relative_velocity_kms,doppler_shift_hz,tx_freq_ghz,rx_freq_hz,ue_lat,ue_lon,ue_alt_m,time_minutes
2026-01-20T23:08:17+00:00,SAT-60280,189.17262696946855,30.251046305800458,981.1608812373461,-5.108135453385537,178908.51096910564,10.5,10500178908.51097,47.655,-122.3035,60.0,8.283333333333333
2026-01-20T23:08:18+00:00,SAT-60280,189.1850197740465,30.559424448606837,976.0663674785029,-5.084133514501174,178067.8615412744,10.5,10500178067.861542,47.655,-122.3035,60.0,8.3
2026-01-20T23:08:19+00:00,SAT-60280,189.19798633771484,30.87075097759604,970.9957916533738,-5.059748023794993,177213.77850622055,10.5,10500177213.778505,47.655,-122.3035,60.0,8.316666666666666
2026-01-20T23:08:20+00:00,SAT-60280,189.21154142799708,31.185057716533727,965.9495362909755,-5.034972770711394,176346.0443440163,10.5,10500176346.044344,47.655,-122.3035,60.0,8.333333333333334
2026-01-20T23:08:21+00:00,SAT-60280,189.22570032693588,31.50237653639111,960.9279901143194,-5.009801556226666,175464.44193862943,10.5,10500175464.441938,47.655,-122.3035,60.0,8.35
2026-01-20T23:08:22+00:00,SAT-60280,189.24047885378673,31.822739340904562,955.9315480289092,-4.984228086219144,174568.7508432951,10.5,10500174568.750843,47.655,-122.3035,60.0,8.366666666666667
2026-01-20T23:08:23+00:00,SAT-60280,189.25589338869048,32.146178044503436,950.9606112175867,-4.958246006772053,173658.74851697087,10.5,10500173658.748516,47.655,-122.3035,60.0,8.383333333333333
2026-01-20T23:08:24+00:00,SAT-60280,189.271960897728,32.47272455113903,946.0155872001661,-4.9318489007781,172734.210205415,10.5,10500172734.210205,47.655,-122.3035,60.0,8.4
2026-01-20T23:08:25+00:00,SAT-60280,189.28869895923825,32.80241073150274,941.0968898964568,-4.905030326894134,171794.91030554348,10.5,10500171794.910305,47.655,-122.3035,60.0,8.416666666666666
2026-01-20T23:08:26+00:00,SAT-60280,189.3061257917112,33.13526840148838,936.2049396504343,-4.877783789412611,170840.62131020124,10.5,10500170840.62131,47.655,-122.3035,60.0,8.433333333333334
2026-01-20T23:08:27+00:00,SAT-60280,189.324260283119,33.47132929732223,931.3401632844601,-4.850102693901242,169871.11225447519,10.5,10500169871.112255,47.655,-122.3035,60.0,8.45
2026-01-20T23:08:28+00:00,SAT-60280,189.34312202172353,33.81062504617721,926.5029941977425,-4.821980470867993,168886.15304696534,10.5,10500168886.153048,47.655,-122.3035,60.0,8.466666666666667
2026-01-20T23:08:29+00:00,SAT-60280,189.36273132895377,34.15318714351579,921.6938723414636,-4.79341047573555,167885.51096646758,10.5,10500167885.510967,47.655,-122.3035,60.0,8.483333333333333
2026-01-20T23:08:30+00:00,SAT-60280,189.38310929384443,34.49904692221704,916.9132442936633,-4.764386020011073,166868.9517536704,10.5,10500166868.951754,47.655,-122.3035,60.0,8.5
2026-01-20T23:08:31+00:00,SAT-60280,189.4042778095128,34.84823552202648,912.161563303039,-4.734900411660832,165836.2410252453,10.5,10500165836.241026,47.655,-122.3035,60.0,8.516666666666667
2026-01-20T23:08:32+00:00,SAT-60280,189.42625961185198,35.20078386020497,907.4392892924759,-4.704946899491263,164787.14232583618,10.5,10500164787.142326,47.655,-122.3035,60.0,8.533333333333333
2026-01-20T23:08:33+00:00,SAT-60280,189.4490783202265,35.55672259638567,902.74688891805,-4.67451874056458,163721.4194892391,10.5,10500163721.419489,47.655,-122.3035,60.0,8.55
2026-01-20T23:08:34+00:00,SAT-60280,189.47275848086943,35.91608210054129,898.0848355607935,-4.643609147747315,162638.8348013305,10.5,10500162638.8348,47.655,-122.3035,60.0,8.566666666666666
2026-01-20T23:08:35+00:00,SAT-60280,189.49732561251813,36.27889241509791,893.4536093707735,-4.612211336922414,161539.15065363434,10.5,10500161539.150654,47.655,-122.3035,60.0,8.583333333333334
2026-01-20T23:08:36+00:00,SAT-60280,189.5228062550182,36.64518321864583,888.8536972640829,-4.580318510415165,160422.12896282814,10.5,10500160422.128963,47.655,-122.3035,60.0,8.6
2026-01-20T23:08:37+00:00,SAT-60280,189.54922802074358,37.01498378631626,884.2855929363621,-4.547923885864417,159287.53218193495,10.5,10500159287.532183,47.655,-122.3035,60.0,8.616666666666667
2026-01-20T23:08:38+00:00,SAT-60280,189.5766196492509,37.38832295033927,879.7497968475267,-4.515020664319194,158135.1221829321,10.5,10500158135.122183,47.655,-122.3035,60.0,8.633333333333333
2026-01-20T23:08:39+00:00,SAT-60280,189.60501106511265,37.765229055857354,875.2468162383124,-4.48160207158937,156964.66170502652,10.5,10500156964.661705,47.655,-122.3035,60.0,8.65
2026-01-20T23:08:40+00:00,SAT-60280,189.63443343952278,38.145729917778354,870.7771651055806,-4.447661366433211,155775.9146414174,10.5,10500155775.914642,47.655,-122.3035,60.0,8.666666666666666
2026-01-20T23:08:41+00:00,SAT-60280,189.6649192557684,38.52985277602542,866.341364169458,-4.413191811509196,154568.64502190563,10.5,10500154568.645021,47.655,-122.3035,60.0,8.683333333333334
2026-01-20T23:08:42+00:00,SAT-60280,189.69650237869882,38.91762424602538,861.939940869446,-4.378186719722726,153342.61863615207,10.5,10500153342.618637,47.655,-122.3035,60.0,8.7
2026-01-20T23:08:43+00:00,SAT-60280,189.729218128767,39.30907027047044,857.5734293143092,-4.342639450595534,152097.60290651844,10.5,10500152097.602907,47.655,-122.3035,60.0,8.716666666666667
2026-01-20T23:08:44+00:00,SAT-60280,189.76310336092655,39.70421606845499,853.242370235582,-4.306543426128238,150833.36744364162,10.5,10500150833.367443,47.655,-122.3035,60.0,8.733333333333333
2026-01-20T23:08:45+00:00,SAT-60280,189.79819654866583,40.10308608333209,848.9473109252567,-4.26989210093049,149549.68300026463,10.5,10500149549.683,47.655,-122.3035,60.0,8.75
2026-01-20T23:08:46+00:00,SAT-60280,189.8345378733542,40.505703925249286,844.6888052032621,-4.232679025743489,148246.3236960639,10.5,10500148246.323696,47.655,-122.3035,60.0,8.766666666666667
2026-01-20T23:08:47+00:00,SAT-60280,189.87216931994703,40.912092316589835,840.4674133215873,-4.194897837255894,146923.06666095948,10.5,10500146923.066662,47.655,-122.3035,60.0,8.783333333333333
2026-01-20T23:08:48+00:00,SAT-60280,189.91113477903727,41.32227303386384,836.283701878564,-4.1565422628843915,145579.6922025507,10.5,10500145579.692202,47.655,-122.3035,60.0,8.8
2026-01-20T23:08:49+00:00,SAT-60280,189.95148015583447,41.736266847150965,832.1382437283806,-4.1176061159902035,144215.98363857818,10.5,10500144215.983639,47.655,-122.3035,60.0,8.816666666666666
2026-01-20T23:08:50+00:00,SAT-60280,189.99325348656885,42.15409345613156,828.0316178953664,-4.078083338343522,142831.72878420772,10.5,10500142831.728785,47.655,-122.3035,60.0,8.833333333333334
2026-01-20T23:08:51+00:00,SAT-60280,190.03650506325948,42.57577142714185,823.9644094459252,-4.037968030852376,141426.72102828533,10.5,10500141426.721027,47.655,-122.3035,60.0,8.85
2026-01-20T23:08:52+00:00,SAT-60280,190.08128756757765,43.001318130522186,819.9372093298217,-3.99725437912775,140000.7567263129,10.5,10500140000.756727,47.655,-122.3035,60.0,8.866666666666667
2026-01-20T23:08:53+00:00,SAT-60280,190.1276562134191,43.43074966724397,815.950614295705,-3.9559367673771613,138553.63918948287,10.5,10500138553.639189,47.655,-122.3035,60.0,8.883333333333333
2026-01-20T23:08:54+00:00,SAT-60280,190.1756689008306,43.864080804014066,812.0052266930408,-3.914009720020624,137085.17663982246,10.5,10500137085.17664,47.655,-122.3035,60.0,8.9
2026-01-20T23:08:55+00:00,SAT-60280,190.22538638045265,44.30132489915513,808.1016543322735,-3.871467947661161,135595.1838202754,10.5,10500135595.18382,47.655,-122.3035,60.0,8.916666666666666
2026-01-20T23:08:56+00:00,SAT-60280,190.27687243058477,44.74249383011491,804.2405102991395,-3.828306383168661,134083.48325851126,10.5,10500134083.48326,47.655,-122.3035,60.0,8.933333333333334
2026-01-20T23:08:57+00:00,SAT-60280,190.33019404777266,45.1875979217161,800.4224127329927,-3.784520111281785,132549.90280128643,10.5,10500132549.902802,47.655,-122.3035,60.0,8.95
2026-01-20T23:08:58+00:00,SAT-60280,190.38542165087992,45.6366458631955,796.6479846753409,-3.7401045011642613,130994.28025712623,10.5,10500130994.280256,47.655,-122.3035,60.0,8.966666666666667
2026-01-20T23:08:59+00:00,SAT-60280,190.4426293023419,46.089644636786744,792.9178537861798,-3.695055117793082,129416.46029276481,10.5,10500129416.460293,47.655,-122.3035,60.0,8.983333333333333
2026-01-20T23:09:00+00:00,SAT-60280,190.50189494536872,46.54659943290066,789.2326521487008,-3.6493678147444433,127816.2976829012,10.5,10500127816.297684,47.655,-122.3035,60.0,9.0
2026-01-20T23:09:01+00:00,SAT-60280,190.56330066087637,47.00751357261474,785.5930159814624,-3.6030386768607077,126193.65530215383,10.5,10500126193.655302,47.655,-122.3035,60.0,9.016666666666667
2026-01-20T23:09:02+00:00,SAT-60280,190.6269329440028,47.47238841991553,781.9995854077399,-3.556064121793859,124548.40768154188,10.5,10500124548.407682,47.655,-122.3035,60.0,9.033333333333333
2026-01-20T23:09:03+00:00,SAT-60280,190.69288300427357,47.941223302798996,778.4530041236042,-3.5084408360024657,122880.43876682811,10.5,10500122880.438766,47.655,-122.3035,60.0,9.05
2026-01-20T23:09:04+00:00,SAT-60280,190.76124708918238,48.41401542302871,774.953919129831,-3.4601658397640396,121189.64419552681,10.5,10500121189.644196,47.655,-122.3035,60.0,9.066666666666666
2026-01-20T23:09:05+00:00,SAT-60280,190.8321268355013,48.8907597704413,771.5029803989731,-3.4112364994472775,119475.93172672948,10.5,10500119475.931726,47.655,-122.3035,60.0,9.083333333333334
2026-01-20T23:09:06+00:00,SAT-60280,190.90562965020405,49.3714490355163,768.100840530191,-3.36165051694782,117739.22087110046,10.5,10500117739.220871,47.655,-122.3035,60.0,9.1
2026-01-20T23:09:07+00:00,SAT-60280,190.9818691233771,49.85607351677071,764.7481544146217,-3.311405988702605,115979.44495780928,10.5,10500115979.444958,47.655,-122.3035,60.0,9.116666666666667
2026-01-20T23:09:08+00:00,SAT-60280,191.0609654779145,50.34462103276015,761.445578841889,-3.2605013792319477,114196.55020786231,10.5,10500114196.550207,47.655,-122.3035,60.0,9.133333333333333
2026-01-20T23:09:09+00:00,SAT-60280,191.14304605772975,50.83707682660408,758.1937721330016,-3.2089355829475763,112390.4978988816,10.5,10500112390.497898,47.655,-122.3035,60.0,9.15
2026-01-20T23:09:10+00:00,SAT-60280,191.22824586060773,51.33342347577253,754.9933937116086,-3.1567078946607654,110561.26333217508,10.5,10500110561.263332,47.655,-122.3035,60.0,9.166666666666666
2026-01-20T23:09:11+00:00,SAT-60280,191.3167081181719,51.83364079376319,751.8451037046669,-3.1038180846316576,108708.83846128112,10.5,10500108708.83846,47.655,-122.3035,60.0,9.183333333333334
2026-01-20T23:09:12+00:00,SAT-60280,191.40858493060713,52.33770573939161,748.7495624682608,-3.0502663506708227,106833.23021436261,10.5,10500106833.230215,47.655,-122.3035,60.0,9.2
2026-01-20T23:09:13+00:00,SAT-60280,191.50403795886535,52.84559231487963,745.7074301611918,-2.9960533792714856,104934.46263531619,10.5,10500104934.462635,47.655,-122.3035,60.0,9.216666666666667
2026-01-20T23:09:14+00:00,SAT-60280,191.60323918354385,53.357271469437926,742.7193662575985,-2.9411803566878305,103012.5772717812,10.5,10500103012.577272,47.655,-122.3035,60.0,9.233333333333333
2026-01-20T23:09:15+00:00,SAT-60280,191.70637173662985,53.87271100081596,739.7860290485286,-2.8856489900511515,101067.63391471673,10.5,10500101067.633915,47.655,-122.3035,60.0,9.25
2026-01-20T23:09:16+00:00,SAT-60280,191.8136308146156,54.39187545642884,736.9080751224508,-2.8294614839095353,99099.70977672201,10.5,10500099099.709776,47.655,-122.3035,60.0,9.266666666666667
2026-01-20T23:09:17+00:00,SAT-60280,191.92522468077024,54.914726025989694,734.086158869165,-2.772620619049321,97108.90225269733,10.5,10500097108.902252,47.655,-122.3035,60.0,9.283333333333333
2026-01-20T23:09:18+00:00,SAT-60280,192.04137577063332,55.441220443409236,731.3209319050998,-2.7151297005975996,95095.32710217412,10.5,10500095095.327103,47.655,-122.3035,60.0,9.3
2026-01-20T23:09:19+00:00,SAT-60280,192.16232190820102,55.97131287478923,728.6130425503704,-2.656992653844641,93059.12180542156,10.5,10500093059.121805,47.655,-122.3035,60.0,9.316666666666666
2026-01-20T23:09:20+00:00,SAT-60280,192.28831765188932,56.50495381904195,725.9631352102695,-2.598213938993961,91000.44257763347,10.5,10500091000.442577,47.655,-122.3035,60.0,9.333333333333334
2026-01-20T23:09:21+00:00,SAT-60280,192.41963577884817,57.04208998723444,723.3718498417794,-2.5387986628701777,88919.46828140976,10.5,10500088919.46828,47.655,-122.3035,60.0,9.35
2026-01-20T23:09:22+00:00,SAT-60280,192.55656893323453,57.582664197463906,720.839821308677,-2.478752513848705,86816.39814771926,10.5,10500086816.398148,47.655,-122.3035,60.0,9.366666666666667
2026-01-20T23:09:23+00:00,SAT-60280,192.69943145139464,58.126615250849426,718.3676788015318,-2.418081837168716,84691.45441367815,10.5,10500084691.454414,47.655,-122.3035,60.0,9.383333333333333
2026-01-20T23:09:24+00:00,SAT-60280,192.84856139352235,58.67387781588423,715.9560451825956,-2.3567935755275897,82544.8802419162,10.5,10500082544.880241,47.655,-122.3035,60.0,9.4
2026-01-20T23:09:25+00:00,SAT-60280,193.0043228017951,59.22438229247474,713.605536389936,-2.2948953558596887,80376.9427599367,10.5,10500080376.94276,47.655,-122.3035,60.0,9.416666666666666
2026-01-20T23:09:26+00:00,SAT-60280,193.16710822359153,59.778054686087884,711.3167607550254,-2.2323954347486,78187.93114822221,10.5,10500078187.931149,47.655,-122.3035,60.0,9.433333333333334
2026-01-20T23:09:27+00:00,SAT-60280,193.33734152732245,60.33481646008559,709.0903183747694,-2.1693027408904255,75978.15812747854,10.5,10500075978.158127,47.655,-122.3035,60.0,9.45
2026-01-20T23:09:28+00:00,SAT-60280,193.51548105758837,60.89458438636518,706.926800441188,-2.1056268679592605,73747.9597087537,10.5,10500073747.95971,47.655,-122.3035,60.0,9.466666666666667
2026-01-20T23:09:29+00:00,SAT-60280,193.7020231742474,61.45727038163444,704.82678857821,-2.0413780793406295,71497.69535922284,10.5,10500071497.695358,47.655,-122.3035,60.0,9.483333333333333
2026-01-20T23:09:30+00:00,SAT-60280,193.89750623108822,62.02278132962491,702.7908541737476,-1.9765673284773007,69227.74871478473,10.5,10500069227.748714,47.655,-122.3035,60.0,9.5
2026-01-20T23:09:31+00:00,SAT-60280,194.10251506040234,62.59101889172288,700.8195576914795,-1.9112062166132258,66938.52610007577,10.5,10500066938.5261,47.655,-122.3035,60.0,9.516666666666667
2026-01-20T23:09:32+00:00,SAT-60280,194.31768603239374,63.16187928554458,698.9134480247773,-1.8453070525521817,64630.458621470425,10.5,10500064630.458622,47.655,-122.3035,60.0,9.533333333333333
2026-01-20T23:09:33+00:00,SAT-60280,194.54371278735235,63.735253056332176,697.0730617910318,-1.7788827966114222,62304.00020410098,10.5,10500062304.000204,47.655,-122.3035,60.0,9.55
2026-01-20T23:09:34+00:00,SAT-60280,194.78135273256248,64.31102480454996,695.2989226818781,-1.7119471029721351,59959.62907514977,10.5,10500059959.629076,47.655,-122.3035,60.0,9.566666666666666
2026-01-20T23:09:35+00:00,SAT-60280,195.03143443591551,64.8890728929225,693.5915407711806,-1.644514265856687,57597.8458787486,10.5,10500057597.845879,47.655,-122.3035,60.0,9.583333333333334
2026-01-20T23:09:36+00:00,SAT-60280,195.29486604867395,65.46926909754117,691.9514118766996,-1.5765992575895802,55219.17500903439,10.5,10500055219.175009,47.655,-122.3035,60.0,9.6
2026-01-20T23:09:37+00:00,SAT-60280,195.57264493880913,66.0514782242209,690.3790168837968,-1.5082177031352617,52824.16371835561,10.5,10500052824.16372,47.655,-122.3035,60.0,9.616666666666667
2026-01-20T23:09:38+00:00,SAT-60280,195.8658687294935,66.63555766154369,688.8748210945366,-1.4393858531977963,50413.38117510901,10.5,10500050413.381176,47.655,-122.3035,60.0,9.633333333333333
2026-01-20T23:09:39+00:00,SAT-60280,196.17574798178765,67.22135685760941,687.439273603614,-1.370120590665602,47987.41868946157,10.5,10500047987.41869,47.655,-122.3035,60.0,9.65
2026-01-20T23:09:40+00:00,SAT-60280,196.50362081450257,67.80871671889102,686.0728066678569,-1.300439419741011,45546.88933262161,10.5,10500045546.889332,47.655,-122.3035,60.0,9.666666666666666
2026-01-20T23:09:41+00:00,SAT-60280,196.85096980407425,68.39746890974035,684.7758350865685,-1.2303604344329289,43092.42683331865,10.5,10500043092.426834,47.655,-122.3035,60.0,9.683333333333334
2026-01-20T23:09:42+00:00,SAT-60280,197.219441573992,68.9874350238095,683.548755613294,-1.1599023005997815,40624.68494887121,10.5,10500040624.684948,47.655,-122.3035,60.0,9.7
2026-01-20T23:09:43+00:00,SAT-60280,197.61086957507106,69.57842560734568,682.3919463854959,-1.0890842556740565,38144.3374555393,10.5,10500038144.337456,47.655,-122.3035,60.0,9.716666666666667
2026-01-20T23:09:44+00:00,SAT-60280,198.027300666677,70.17023901318505,681.3057663545036,-1.0179260640509022,35652.07658604431,10.5,10500035652.076586,47.655,-122.3035,60.0,9.733333333333333
2026-01-20T23:09:45+00:00,SAT-60280,198.4710262195077,70.76266002796113,680.2905547599568,-0.9464480068797686,33148.612672029165,10.5,10500033148.612673,47.655,-122.3035,60.0,9.75
2026-01-20T23:09:46+00:00,SAT-60280,198.94461864047642,71.35545824183438,679.3466306144287,-0.8746708459222345,30634.672878206504,10.5,10500030634.672878,47.655,-122.3035,60.0,9.766666666666667
2026-01-20T23:09:47+00:00,SAT-60280,199.45097439781154,71.94838609045622,678.4742922240956,-0.8026158095643982,28111.000712453486,10.5,10500028111.000713,47.655,-122.3035,60.0,9.783333333333333
2026-01-20T23:09:48+00:00,SAT-60280,199.9933648833151,72.54117650946554,677.6738167233567,-0.7303045584292063,25578.354821410037,10.5,10500025578.354822,47.655,-122.3035,60.0,9.8
2026-01-20T23:09:49+00:00,SAT-60280,200.57549673094664,73.13354010122801,676.94545964375,-0.6577591464801065,23037.507628164272,10.5,10500023037.507627,47.655,-122.3035,60.0,9.816666666666666
2026-01-20T23:09:50+00:00,SAT-60280,201.20158357813435,73.72516169481942,676.2894545216604,-0.585002002222888,20489.244673861424,10.5,10500020489.244675,47.655,-122.3035,60.0,9.833333333333334
2026-01-20T23:09:51+00:00,SAT-60280,201.87643172812503,74.31569617127602,675.7060125247768,-0.5120558894947478,17934.363244371052,10.5,10500017934.363245,47.655,-122.3035,60.0,9.85
2026-01-20T23:09:52+00:00,SAT-60280,202.6055426938204,74.90476335735652,675.1953221176541,-0.4389438729391428,15373.671161070366,10.5,10500015373.671162,47.655,-122.3035,60.0,9.866666666666667
2026-01-20T23:09:53+00:00,SAT-60280,203.39523628536944,75.4919417599498,674.7575487617095,-0.36568928607777207,12807.985662589974,10.5,10500012807.985662,47.655,-122.3035,60.0,9.883333333333333
2026-01-20T23:09:54+00:00,SAT-60280,204.25279869310694,76.07676084713896,674.3928346470611,-0.2923156878312328,10238.131881983318,10.5,10500010238.131882,47.655,-122.3035,60.0,9.9
2026-01-20T23:09:55+00:00,SAT-60280,205.18666091002177,76.65869148310566,674.1012984677309,-0.21884683637301844,7664.941930983113,10.5,10500007664.94193,47.655,-122.3035,60.0,9.916666666666666
2026-01-20T23:09:56+00:00,SAT-60280,206.20661389537622,77.23713405164398,673.8830352229215,-0.1453066390374729,5089.253145566009,10.5,10500005089.253145,47.655,-122.3035,60.0,9.933333333333334
2026-01-20T23:09:57+00:00,SAT-60280,207.32406781827504,77.81140360722121,673.7381160682548,-0.07171912260290979,2511.9070451417188,10.5,10500002511.907045,47.655,-122.3035,60.0,9.95
2026-01-20T23:09:58+00:00,SAT-60280,208.5523636562369,78.38071127764164,673.6665881966455,0.001891609621575103,-66.2521704483259,10.5,10499999933.74783,47.655,-122.3035,60.0,9.966666666666667
2026-01-20T23:09:59+00:00,SAT-60280,209.90714563462652,78.94414086827076,673.6684747619747,0.07550141595972401,-2644.378957582389,10.5,10499997355.621042,47.655,-122.3035,60.0,9.983333333333333
2026-01-20T23:10:00+00:00,SAT-60280,211.40680203890815,79.50061937141265,673.7437748408253,0.1490861565289138,-5221.627835459405,10.5,10499994778.372164,47.655,-122.3035,60.0,10.0
2026-01-20T23:10:01+00:00,SAT-60280,213.07297826503736,80.04887974408891,673.8924634342701,0.2226217316461967,-7797.154731240988,10.5,10499992202.845268,47.655,-122.3035,60.0,10.016666666666667
2026-01-20T23:10:02+00:00,SAT-60280,214.93115735246602,80.58741399001579,674.1144915079652,0.29608412228627873,-10370.118397060965,10.5,10499989629.881603,47.655,-122.3035,60.0,10.033333333333333
2026-01-20T23:10:03+00:00,SAT-60280,217.01128536963148,81.11441426632405,674.4097860725922,0.3694494282784277,-12939.681747842673,10.5,10499987060.318253,47.655,-122.3035,60.0,10.05
2026-01-20T23:10:04+00:00,SAT-60280,219.3483850967415,81.62769963925471,674.7782503023951,0.44269390682978615,-15505.013210548328,10.5,10499984494.98679,47.655,-122.3035,60.0,10.066666666666666
2026-01-20T23:10:05+00:00,SAT-60280,221.98304062807662,82.12462653723735,675.21976369214,0.5157940088286529,-18065.287995673512,10.5,10499981934.712004,47.655,-122.3035,60.0,10.083333333333334
2026-01-20T23:10:06+00:00,SAT-60280,224.961532420212,82.60198250322377,675.7341822502784,0.58872642295313,-20619.689642118567,10.5,10499979380.310358,47.655,-122.3035,60.0,10.1
2026-01-20T23:10:07+00:00,SAT-60280,228.33523942143742,83.0558666294353,676.3213387361037,0.6614681007795951,-23167.410896593497,10.5,10499976832.589104,47.655,-122.3035,60.0,10.116666666666667
2026-01-20T23:10:08+00:00,SAT-60280,232.1586929339575,83.48156772955255,676.9810429219478,0.7339963009520792,-25707.655260616437,10.5,10499974292.34474,47.655,-122.3035,60.0,10.133333333333333
2026-01-20T23:10:09+00:00,SAT-60280,236.48539659321187,83.87346517009576,677.7130818994308,0.8062886220384229,-28239.63814127519,10.5,10499971760.361858,47.655,-122.3035,60.0,10.15
2026-01-20T23:10:10+00:00,SAT-60280,241.3603514015208,84.2249988306409,678.5172204184771,0.8783230299233203,-30762.587810647536,10.5,10499969237.41219,47.655,-122.3035,60.0,10.166666666666666
2026-01-20T23:10:11+00:00,SAT-60280,246.80847500306515,84.52878180876766,679.393201253654,0.950077899370532,-33275.746861485706,10.5,10499966724.253138,47.655,-122.3035,60.0,10.183333333333334
2026-01-20T23:10:12+00:00,SAT-60280,252.81933306014872,84.77694985310961,680.3407456119595,1.021532029607699,-35778.37275306252,10.5,10499964221.627247,47.655,-122.3035,60.0,10.2
2026-01-20T23:10:13+00:00,SAT-60280,259.3312698205726,84.96182642244457,681.359553556155,1.092664692262774,-38269.739490107946,10.5,10499961730.26051,47.655,-122.3035,60.0,10.216666666666667
2026-01-20T23:10:14+00:00,SAT-60280,266.2215509696791,85.07689389353021,682.449304475905,1.1634556392865332,-40749.137900288995,10.5,10499959250.8621,47.655,-122.3035,60.0,10.233333333333333
2026-01-20T23:10:15+00:00,SAT-60280,273.31079703717296,85.11789185761054,683.60965756682,1.2338851406711213,-43215.876955272746,10.5,10499956784.123045,47.655,-122.3035,60.0,10.25
2026-01-20T23:10:16+00:00,SAT-60280,280.3859947244692,85.0836930222787,684.8402523471161,1.3039340034207534,-45669.284435160516,10.5,10499954330.715565,47.655,-122.3035,60.0,10.266666666666667
2026-01-20T23:10:17+00:00,SAT-60280,287.2365954169369,84.97659315767125,686.1407091931944,1.3735835929317586,-48108.70767730743,10.5,10499951891.292322,47.655,-122.3035,60.0,10.283333333333333
2026-01-20T23:10:18+00:00,SAT-60280,293.6896065714952,84.80187711086182,687.510629896545,1.4428158586893134,-50533.51447633079,10.5,10499949466.485523,47.655,-122.3035,60.0,10.3
2026-01-20T23:10:19+00:00,SAT-60280,299.6302829482159,84.5668533677416,688.9495982462778,1.5116133398080545,-52943.093278165696,10.5,10499947056.906721,47.655,-122.3035,60.0,10.316666666666666
2026-01-20T23:10:20+00:00,SAT-60280,305.0043250689912,84.27973878299929,690.4571806171797,1.5799591987406445,-55336.85436068164,10.5,10499944663.14564,47.655,-122.3035,60.0,10.333333333333334
2026-01-20T23:10:21+00:00,SAT-60280,309.80677733424875,83.94872337609709,692.0329265913904,1.6478372176368854,-57714.22970616324,10.5,10499942285.770294,47.655,-122.3035,60.0,10.35
2026-01-20T23:10:22+00:00,SAT-60280,314.06593733846864,83.5813619990388,693.676369576447,1.7152318213092796,-60074.673805661376,10.5,10499939925.326195,47.655,-122.3035,60.0,10.366666666666667
2026-01-20T23:10:23+00:00,SAT-60280,317.8284596822199,83.18427865303639,695.3870274462328,1.7821280960747725,-62417.66431891062,10.5,10499937582.335682,47.655,-122.3035,60.0,10.383333333333333
2026-01-20T23:10:24+00:00,SAT-60280,321.1483195239414,82.76309454743765,697.1644032007179,1.8485117711782983,-64742.70142370337,10.5,10499935257.298576,47.655,-122.3035,60.0,10.4
2026-01-20T23:10:25+00:00,SAT-60280,324.07981945436677,82.32248521955523,699.007985607173,1.9143692539699797,-67049.30904794406,10.5,10499932950.690952,47.655,-122.3035,60.0,10.416666666666666
2026-01-20T23:10:26+00:00,SAT-60280,326.67375517249843,81.86629613412326,700.9172498764658,1.9796876208800296,-69337.03455355208,10.5,10499930662.965446,47.655,-122.3035,60.0,10.433333333333334
2026-01-20T23:10:27+00:00,SAT-60280,328.9756869625988,81.39767381659487,702.8916583303568,2.044454620167459,-71605.44883273321,10.5,10499928394.551167,47.655,-122.3035,60.0,10.45
2026-01-20T23:10:28+00:00,SAT-60280,331.02546510930307,80.9191903922003,704.9306610715372,2.1086586923689365,-73854.14702418509,10.5,10499926145.852976,47.655,-122.3035,60.0,10.466666666666667
2026-01-20T23:10:29+00:00,SAT-60280,332.857427348132,80.43295231052939,707.0336966740597,2.172288927428162,-76082.74701158659,10.5,10499923917.252989,47.655,-122.3035,60.0,10.483333333333333
2026-01-20T23:10:30+00:00,SAT-60280,334.50090972912193,79.9406910300949,709.2001928310148,2.235335114369011,-78290.89116336146,10.5,10499921709.108837,47.655,-122.3035,60.0,10.5
2026-01-20T23:10:31+00:00,SAT-60280,335.98086678633774,79.4438366938752,711.4295670517455,2.2977877020599564,-80478.24495848238,10.5,10499919521.755041,47.655,-122.3035,60.0,10.516666666666667
2026-01-20T23:10:32+00:00,SAT-60280,337.31849337962115,78.94357713313744,713.7212273199333,2.359637814070474,-82644.4975068051,10.5,10499917355.502493,47.655,-122.3035,60.0,10.533333333333333
2026-01-20T23:10:33+00:00,SAT-60280,338.5317973131658,78.44090475465316,716.0745727664996,2.42087723190957,-84789.36096201089,10.5,10499915210.639038,47.655,-122.3035,60.0,10.55
2026-01-20T23:10:34+00:00,SAT-60280,339.6361031060734,77.93665369101437,718.4889943257907,2.4814983866812,-86912.57022934381,10.5,10499913087.429771,47.655,-122.3035,60.0,10.566666666666666
2026-01-20T23:10:35+00:00,SAT-60280,340.64448366628505,77.4315292325174,720.9638753834407,2.5414943612612237,-89013.88304185707,10.5,10499910986.116959,47.655,-122.3035,60.0,10.583333333333334
2026-01-20T23:10:36+00:00,SAT-60280,341.5681244419487,76.92613118631458,723.4985924264053,2.60085886979099,-91093.0792421916,10.5,10499908906.920757,47.655,-122.3035,60.0,10.6
2026-01-20T23:10:37+00:00,SAT-60280,342.416627793649,76.42097247973697,726.0925156725435,2.659586255927924,-93149.96072130409,10.5,10499906850.039278,47.655,-122.3035,60.0,10.616666666666667
2026-01-20T23:10:38+00:00,SAT-60280,343.19826612798175,75.91649403368167,728.7450096984556,2.7176714835801663,-95184.35109395496,10.5,10499904815.648907,47.655,-122.3035,60.0,10.633333333333333
2026-01-20T23:10:39+00:00,SAT-60280,343.92019192902995,75.41307671083891,731.4554340580796,2.7751100901563275,-97196.09406131704,10.5,10499902803.90594,47.655,-122.3035,60.0,10.65
2026-01-20T23:10:40+00:00,SAT-60280,344.58861193954266,74.91105096920033,734.2231438546622,2.8318982292668773,-99185.05490655877,10.5,10499900814.945093,47.655,-122.3035,60.0,10.666666666666666
2026-01-20T23:10:41+00:00,SAT-60280,345.20893175159233,74.41070468831026,737.0474903553177,2.8880326164987453,-101151.11859564135,10.5,10499898848.881405,47.655,-122.3035,60.0,10.683333333333334
2026-01-20T23:10:42+00:00,SAT-60280,345.78587601549197,73.91228956304131,739.9278215515058,2.9435105153321706,-103094.1892840673,10.5,10499896905.810717,47.655,-122.3035,60.0,10.7
2026-01-20T23:10:43+00:00,SAT-60280,346.32358861897774,73.41602635030621,742.8634827054636,2.9983297563772005,-105014.19099062393,10.5,10499894985.80901,47.655,-122.3035,60.0,10.716666666666667
2026-01-20T23:10:44+00:00,SAT-60280,346.8257164075251,72.92210919242248,745.8538169158238,3.0524886695606566,-106911.06522228419,10.5,10499893088.934778,47.655,-122.3035,60.0,10.733333333333333
2026-01-20T23:10:45+00:00,SAT-60280,347.2954793448017,72.43070921210833,748.898165615599,3.105986117710187,-108784.77215046206,10.5,10499891215.22785,47.655,-122.3035,60.0,10.75
2026-01-20T23:10:46+00:00,SAT-60280,347.73572951307597,71.94197750339468,751.995869103662,3.158821438956577,-110635.2885936979,10.5,10499889364.711407,47.655,-122.3035,60.0,10.766666666666667
2026-01-20T23:10:47+00:00,SAT-60280,348.14900087744473,71.45604764606442,755.1462670187814,3.2109944527508127,-112462.60822840159,10.5,10499887537.391771,47.655,-122.3035,60.0,10.783333333333333
2026-01-20T23:10:48+00:00,SAT-60280,348.53755140867395,70.97303782209643,758.3486988196581,3.2625054565934426,-114266.74147430068,10.5,10499885733.258526,47.655,-122.3035,60.0,10.8
2026-01-20T23:10:49+00:00,SAT-60280,348.9033988550292,70.49305260730239,761.6025042617007,3.3133551572767486,-116047.7130862507,10.5,10499883952.286913,47.655,-122.3035,60.0,10.816666666666666
2026-01-20T23:10:50+00:00,SAT-60280,349.248351214266,70.01618450499724,764.9070238052246,3.363544707076232,-117805.56342181376,10.5,10499882194.436579,47.655,-122.3035,60.0,10.833333333333334
2026-01-20T23:10:51+00:00,SAT-60280,349.5740327873254,69.5425152517521,768.2615990597487,3.413075653708749,-119540.34668858103,10.5,10499880459.65331,47.655,-122.3035,60.0,10.85
2026-01-20T23:10:52+00:00,SAT-60280,349.88190651706844,69.07211694557532,771.665573178381,3.4619499567987,-121252.1315208882,10.5,10499878747.868479,47.655,-122.3035,60.0,10.866666666666667
2026-01-20T23:10:53+00:00,SAT-60280,350.1732932083666,68.6050530170974,775.1182912686282,3.5101699159874307,-122940.99846190268,10.5,10499877059.001537,47.655,-122.3035,60.0,10.883333333333333
2026-01-20T23:10:54+00:00,SAT-60280,350.4493881081658,68.1413790808393,778.6191007315064,3.5577381928214846,-124607.04073024273,10.5,10499875392.95927,47.655,-122.3035,60.0,10.9
2026-01-20T23:10:55+00:00,SAT-60280,350.7112752588243,67.68114367360016,782.1673516224803,3.604657809704661,-126250.36418327423,10.5,10499873749.635817,47.655,-122.3035,60.0,10.916666666666666
2026-01-20T23:10:56+00:00,SAT-60280,350.95993995789394,67.22438890030182,785.7623970113591,3.6509320788619775,-127871.08482912791,10.5,10499872128.91517,47.655,-122.3035,60.0,10.933333333333334
2026-01-20T23:10:57+00:00,SAT-60280,351.19627959981824,66.77115101006217,789.4035932713441,3.696564630390349,-129469.32980915305,10.5,10499870530.67019,47.655,-122.3035,60.0,10.95
2026-01-20T23:10:58+00:00,SAT-60280,351.421113142554,66.32146090082935,793.0903003960534,3.7415593710982495,-131045.2359563082,10.5,10499868954.764044,47.655,-122.3035,60.0,10.966666666666667
2026-01-20T23:10:59+00:00,SAT-60280,351.63518939080126,65.87534457120722,796.8218822754953,3.7859205064829173,-132598.9505648959,10.5,10499867401.049435,47.655,-122.3035,60.0,10.983333333333333
2026-01-20T23:11:00+00:00,SAT-60280,351.83919426643,65.43282351954764,800.597706993961,3.8296524451887217,-134130.6280442905,10.5,10499865869.371956,47.655,-122.3035,60.0,11.0
2026-01-20T23:11:01+00:00,SAT-60280,352.0337571991956,64.99391511112773,804.4171470326293,3.8727598788055415,-135640.43271381492,10.5,10499864359.567286,47.655,-122.3035,60.0,11.016666666666667
2026-01-20T23:11:02+00:00,SAT-60280,352.2194567673431,64.55863289797931,808.2795795517579,3.915247695659323,-137128.53578332145,10.5,10499862871.464216,47.655,-122.3035,60.0,11.033333333333333
2026-01-20T23:11:03+00:00,SAT-60280,352.39682567907664,64.1269869159924,812.1843865868955,3.9571210227902656,-138595.1168234452,10.5,10499861404.883177,47.655,-122.3035,60.0,11.05
2026-01-20T23:11:04+00:00,SAT-60280,352.5663551883807,63.69898394824174,816.1309552869584,3.9983851439768503,-140040.36089445895,10.5,10499859959.639105,47.655,-122.3035,60.0,11.066666666666666
2026-01-20T23:11:05+00:00,SAT-60280,352.7284990121404,63.27462777206714,820.1186780705513,4.03904553239493,-141464.4596901326,10.5,10499858535.54031,47.655,-122.3035,60.0,11.083333333333334
2026-01-20T23:11:06+00:00,SAT-60280,352.88367681754164,62.85391937981811,824.1469528148598,4.0791078540239445,-142867.61165703312,10.5,10499857132.388344,47.655,-122.3035,60.0,11.1
2026-01-20T23:11:07+00:00,SAT-60280,353.0322773317207,62.43685717948472,828.2151830479397,4.11857789079812,-144250.0193029548,10.5,10499855749.980698,47.655,-122.3035,60.0,11.116666666666667
2026-01-20T23:11:08+00:00,SAT-60280,353.17466111728817,62.02343718556815,832.3227780643624,4.157461597919813,-145611.8912042745,10.5,10499854388.108795,47.655,-122.3035,60.0,11.133333333333333
2026-01-20T23:11:09+00:00,SAT-60280,353.3111630591904,61.613653188061164,836.469153098021,4.195765017078438,-146953.43896651195,10.5,10499853046.561033,47.655,-122.3035,60.0,11.15
2026-01-20T23:11:10+00:00,SAT-60280,353.4420945922386,61.20749691588925,840.6537294083872,4.233494350500127,-148274.87981786166,10.5,10499851725.120182,47.655,-122.3035,60.0,11.166666666666666
2026-01-20T23:11:11+00:00,SAT-60280,353.5677457051782,60.804958180075126,844.8759344406193,4.270655883939472,-149576.43391203808,10.5,10499850423.566088,47.655,-122.3035,60.0,11.183333333333334
2026-01-20T23:11:12+00:00,SAT-60280,353.68838674212543,60.406025012926044,849.1352019088683,4.307255970644428,-150858.32376665887,10.5,10499849141.676233,47.655,-122.3035,60.0,11.2
2026-01-20T23:11:13+00:00,SAT-60280,353.8042700265474,60.010683797955814,853.430971863591,4.343301111296865,-152120.77706310106,10.5,10499847879.222937,47.655,-122.3035,60.0,11.216666666666667
2026-01-20T23:11:14+00:00,SAT-60280,353.9156313303991,59.61891938275513,857.7626908385911,4.378797798803664,-153364.02121042841,10.5,10499846635.97879,47.655,-122.3035,60.0,11.233333333333333
2026-01-20T23:11:15+00:00,SAT-60280,354.02269119878474,59.230715197488635,862.1298118432646,4.413752658362444,-154588.28825108623,10.5,10499845411.711748,47.655,-122.3035,60.0,11.25
2026-01-20T23:11:16+00:00,SAT-60280,354.1256561541608,58.84605335239764,866.5317944945381,4.448172323922501,-155793.8105340404,10.5,10499844206.189466,47.655,-122.3035,60.0,11.266666666666667
2026-01-20T23:11:17+00:00,SAT-60280,354.2247197857837,58.46491473917768,870.9681050255969,4.482063488807431,-156980.82248779596,10.5,10499843019.177513,47.655,-122.3035,60.0,11.283333333333333
2026-01-20T23:11:18+00:00,SAT-60280,354.32006374123125,58.08727912088653,875.4382163451007,4.515432893275557,-158149.5601847107,10.5,10499841850.439816,47.655,-122.3035,60.0,11.3
2026-01-20T23:11:19+00:00,SAT-60280,354.41185862843156,57.71312521676251,879.9416080839942,4.548287283307759,-159300.25989757045,10.5,10499840699.740103,47.655,-122.3035,60.0,11.316666666666666
2026-01-20T23:11:20+00:00,SAT-60280,354.5002648369092,57.34243078467406,884.4777666012131,4.580633439501292,-160433.15911157298,10.5,10499839566.840889,47.655,-122.3035,60.0,11.333333333333334
2026-01-20T23:11:21+00:00,SAT-60280,354.58543328791046,56.97517269570945,889.0461850182091,4.612478152206523,-161548.49565351137,10.5,10499838451.504347,47.655,-122.3035,60.0,11.35
2026-01-20T23:11:22+00:00,SAT-60280,354.66750611941865,56.61132700581636,893.6463632286765,4.643828213436595,-162646.507408416,10.5,10499837353.492592,47.655,-122.3035,60.0,11.366666666666667
2026-01-20T23:11:23+00:00,SAT-60280,354.74661731276984,56.2508690234042,898.2778079002105,4.674690430976229,-163727.43281370474,10.5,10499836272.567186,47.655,-122.3035,60.0,11.383333333333333
2026-01-20T23:11:24+00:00,SAT-60280,354.82289326706757,55.8937733714641,902.9400324900375,4.705071577531297,-164791.5090781857,10.5,10499835208.490921,47.655,-122.3035,60.0,11.4
2026-01-20T23:11:25+00:00,SAT-60280,354.89645332508337,55.54001404959599,907.6325572100287,4.734978446455365,-165838.97413383675,10.5,10499834161.025866,47.655,-122.3035,60.0,11.416666666666666
2026-01-20T23:11:26+00:00,SAT-60280,354.9674102573354,55.18956448785096,912.3549090472936,4.7644177881306256,-166870.06440759616,10.5,10499833129.935593,47.655,-122.3035,60.0,11.433333333333334
2026-01-20T23:11:27+00:00,SAT-60280,355.0358707059612,54.842397601929804,917.1066217213225,4.793396326201065,-167885.01538991745,10.5,10499832114.98461,47.655,-122.3035,60.0,11.45
2026-01-20T23:11:28+00:00,SAT-60280,355.1019355936654,54.49848584365036,921.8872356573204,4.821920789004837,-168884.06273566358,10.5,10499831115.937263,47.655,-122.3035,60.0,11.466666666666667
2026-01-20T23:11:29+00:00,SAT-60280,355.16570050101967,54.157801246038225,926.6962979908878,4.849997848083875,-169867.44011045367,10.5,10499830132.559889,47.655,-122.3035,60.0,11.483333333333333
2026-01-20T23:11:30+00:00,SAT-60280,355.22725601352425,53.820315469953805,931.5333625113768,4.877634134542459,-170835.3797636091,10.5,10499829164.620235,47.655,-122.3035,60.0,11.5
2026-01-20T23:11:31+00:00,SAT-60280,355.28668804242113,53.48599984663313,936.3979896215606,4.904836250872859,-171788.11294233764,10.5,10499828211.887058,47.655,-122.3035,60.0,11.516666666666667
2026-01-20T23:11:32+00:00,SAT-60280,355.3440781213448,53.154825416797166,941.2897463090977,4.93161075193343,-172725.86922550606,10.5,10499827274.130774,47.655,-122.3035,60.0,11.533333333333333
2026-01-20T23:11:33+00:00,SAT-60280,355.39950368059726,52.82676296859893,946.208206099026,4.957964140183673,-173648.87635675134,10.5,10499826351.123644,47.655,-122.3035,60.0,11.55
2026-01-20T23:11:34+00:00,SAT-60280,355.4530383010614,52.50178307354605,951.1529490015025,4.983902880720678,-174557.36077112093,10.5,10499825442.639229,47.655,-122.3035,60.0,11.566666666666666
2026-01-20T23:11:35+00:00,SAT-60280,355.50475194982096,52.17985611918875,956.1235614745412,5.009433375796345,-175451.54670255788,10.5,10499824548.453297,47.655,-122.3035,60.0,11.583333333333334
2026-01-20T23:11:36+00:00,SAT-60280,355.55471119843105,51.86095234144511,961.1196363613356,5.034561964295197,-176331.65616561164,10.5,10499823668.343834,47.655,-122.3035,60.0,11.6
2026-01-20T23:11:37+00:00,SAT-60280,355.60297942569866,51.54504185489947,966.1407728270592,5.059294928573357,-177197.909194968,10.5,10499822802.090805,47.655,-122.3035,60.0,11.616666666666667
2026-01-20T23:11:38+00:00,SAT-60280,355.6496170061731,51.2320946808091,971.1865763024897,5.083638527565646,-178050.52500499957,10.5,10499821949.474995,47.655,-122.3035,60.0,11.633333333333333
2026-01-20T23:11:39+00:00,SAT-60280,355.6946814859309,50.922080771305865,976.2566584606485,5.107598884777618,-178889.71806677335,10.5,10499821110.281933,47.655,-122.3035,60.0,11.65
2026-01-20T23:11:40+00:00,SAT-60280,355.73822774499996,50.61497003888822,981.3506370817335,5.1311821172896614,-179715.70262631972,10.5,10499820284.297373,47.655,-122.3035,60.0,11.666666666666666
2026-01-20T23:11:41+00:00,SAT-60280,355.78030815012244,50.310732376286424,986.4681360467104,5.154394266323124,-180528.69027276465,10.5,10499819471.309727,47.655,-122.3035,60.0,11.683333333333334
2026-01-20T23:11:42+00:00,SAT-60280,355.8209726964447,50.00933767920512,991.6087852616565,5.1772412794349565,-181328.88931471066,10.5,10499818671.110685,47.655,-122.3035,60.0,11.7
2026-01-20T23:11:43+00:00,SAT-60280,355.86026913965605,49.71075586861798,996.7722205643463,5.199729073637847,-182116.50699097107,10.5,10499817883.49301,47.655,-122.3035,60.0,11.716666666666667
2026-01-20T23:11:44+00:00,SAT-60280,355.8982431199548,49.414956908018226,1001.9580836937878,5.221863443723603,-182891.74625966683,10.5,10499817108.25374,47.655,-122.3035,60.0,11.733333333333333
2026-01-20T23:11:45+00:00,SAT-60280,355.93493827715514,49.12191082471152,1007.1660221683281,5.243650173371294,-183654.809689704,10.5,10499816345.19031,47.655,-122.3035,60.0,11.75
2026-01-20T23:11:46+00:00,SAT-60280,355.9703963592497,48.83158772354372,1012.3956892745705,5.26509492634249,-184405.89564997045,10.5,10499815594.10435,47.655,-122.3035,60.0,11.766666666666667
2026-01-20T23:11:47+00:00,SAT-60280,356.0046573231962,48.54395780568481,1017.646743947776,5.2862033059315365,-185145.20039153597,10.5,10499814854.799608,47.655,-122.3035,60.0,11.783333333333333
2026-01-20T23:11:48+00:00,SAT-60280,356.03775942976154,48.25899138293359,1022.9188507115584,5.306980873402365,-185872.91869338765,10.5,10499814127.081306,47.655,-122.3035,60.0,11.8
2026-01-20T23:11:49+00:00,SAT-60280,356.0697393325951,47.97665889007753,1028.211679635965,5.3274330661294105,-186589.24099537826,10.5,10499813410.759005,47.655,-122.3035,60.0,11.816666666666666
2026-01-20T23:11:50+00:00,SAT-60280,356.1006321611329,47.696930900724126,1033.524906213918,5.347565260347516,-187294.35559599343,10.5,10499812705.644403,47.655,-122.3035,60.0,11.833333333333334
2026-01-20T23:11:51+00:00,SAT-60280,356.13047159892994,47.41977813875608,1038.858211300238,5.367382788876969,-187988.44927315743,10.5,10499812011.550726,47.655,-122.3035,60.0,11.85
2026-01-20T23:11:52+00:00,SAT-60280,356.15928995729536,47.145171488083015,1044.2112810683448,5.386890877847993,-188671.7050680572,10.5,10499811328.294931,47.655,-122.3035,60.0,11.866666666666667
2026-01-20T23:11:53+00:00,SAT-60280,356.18711824409326,46.87308200489522,1049.5838069038516,5.406094696084202,-189344.30401475987,10.5,10499810655.695986,47.655,-122.3035,60.0,11.883333333333333
2026-01-20T23:11:54+00:00,SAT-60280,356.2139862287586,46.60348092656506,1054.975485347413,5.424999305409642,-190006.42339975492,10.5,10499809993.576601,47.655,-122.3035,60.0,11.9
2026-01-20T23:11:55+00:00,SAT-60280,356.23992250318304,46.3363396823308,1060.3860179880082,5.443609728541096,-190658.23913983023,10.5,10499809341.76086,47.655,-122.3035,60.0,11.916666666666666
2026-01-20T23:11:56+00:00,SAT-60280,356.26495453942465,46.07162989988144,1065.81511142394,5.461930913780542,-191299.92454545232,10.5,10499808700.075455,47.655,-122.3035,60.0,11.933333333333334
2026-01-20T23:11:57+00:00,SAT-60280,356.2891087438916,45.80932341311586,1071.262477188617,5.479967692389226,-191931.64882782637,10.5,10499808068.351171,47.655,-122.3035,60.0,11.95
2026-01-20T23:11:58+00:00,SAT-60280,356.31241050814265,45.54939227131838,1076.7278316338266,5.497724867730952,-192553.5802210708,10.5,10499807446.419779,47.655,-122.3035,60.0,11.966666666666667
2026-01-20T23:11:59+00:00,SAT-60280,356.334884257337,45.29180874342579,1082.2108959019104,5.515207140524239,-193165.8833642323,10.5,10499806834.116636,47.655,-122.3035,60.0,11.983333333333333
2026-01-20T23:12:00+00:00,SAT-60280,356.3565534955058,45.03654532537905,1087.711395823393,5.5324191614585825,-193768.72114412938,10.5,10499806231.278856,47.655,-122.3035,60.0,12.0
2026-01-20T23:12:01+00:00,SAT-60280,356.3774408485999,44.7835747444521,1093.229061867088,5.54936547913725,-194362.252872089,10.5,10499805637.747128,47.655,-122.3035,60.0,12.016666666666667
2026-01-20T23:12:02+00:00,SAT-60280,356.3975681048782,44.532869965535106,1098.7636290382807,5.5660505836088365,-194946.63580860593,10.5,10499805053.364191,47.655,-122.3035,60.0,12.033333333333333
2026-01-20T23:12:03+00:00,SAT-60280,356.41695625331266,44.284404194918814,1104.3148368203333,5.58247890160411,-195522.0249965166,10.5,10499804477.975004,47.655,-122.3035,60.0,12.05
2026-01-20T23:12:04+00:00,SAT-60280,356.435625519851,44.03815088391425,1109.8824291115332,5.598654779052101,-196088.57264863903,10.5,10499803911.427351,47.655,-122.3035,60.0,12.066666666666666
2026-01-20T23:12:05+00:00,SAT-60280,356.4535954016825,43.794083732855135,1115.4661541445075,5.614582480052996,-196646.4281117988,10.5,10499803353.571888,47.655,-122.3035,60.0,12.083333333333334
2026-01-20T23:12:06+00:00,SAT-60280,356.4708846996252,43.552176694743714,1121.0657644046137,5.630266213790915,-197195.73880942867,10.5,10499802804.26119,47.655,-122.3035,60.0,12.1
2026-01-20T23:12:07+00:00,SAT-60280,356.48751154897144,43.31240397735428,1126.6810165751679,5.645710113232385,-197736.64949549874,10.5,10499802263.350504,47.655,-122.3035,60.0,12.116666666666667
2026-01-20T23:12:08+00:00,SAT-60280,356.5034934485563,43.07474004595933,1132.3116714614318,5.6609182479102245,-198269.30270226265,10.5,10499801730.697298,47.655,-122.3035,60.0,12.133333333333333
2026-01-20T23:12:09+00:00,SAT-60280,356.51884728842515,42.839159625180635,1137.9574939273475,5.67589458943449,-198793.83753230423,10.5,10499801206.162468,47.655,-122.3035,60.0,12.15
2026-01-20T23:12:10+00:00,SAT-60280,356.53358937590093,42.605637701990915,1143.618252797877,5.690643109611407,-199310.39309507835,10.5,10499800689.606905,47.655,-122.3035,60.0,12.166666666666666
2026-01-20T23:12:11+00:00,SAT-60280,356.5477354606964,42.37414952436364,1149.2937208591961,5.705167635370772,-199819.10342585438,10.5,10499800180.896574,47.655,-122.3035,60.0,12.183333333333334
2026-01-20T23:12:12+00:00,SAT-60280,356.5613007582183,42.14467060569305,1154.9836747142058,5.719471971504834,-200320.10178455108,10.5,10499799679.898216,47.655,-122.3035,60.0,12.2
2026-01-20T23:12:13+00:00,SAT-60280,356.57429997214865,41.91717672387487,1160.6878947604532,5.733559842340554,-200813.51861285255,10.5,10499799186.481388,47.655,-122.3035,60.0,12.216666666666667
2026-01-20T23:12:14+00:00,SAT-60280,356.58674731566674,41.69164392258271,1166.406165109881,5.747434922570877,-201299.48261404963,10.5,10499798700.517385,47.655,-122.3035,60.0,12.233333333333333
2026-01-20T23:12:15+00:00,SAT-60280,356.59865653175854,41.468048511092256,1172.138273539325,5.761100823234474,-201778.1202619913,10.5,10499798221.879738,47.655,-122.3035,60.0,12.25
2026-01-20T23:12:16+00:00,SAT-60280,356.61004091243797,41.246367064492944,1177.8840114270306,5.774561033629533,-202249.55376665978,10.5,10499797750.446234,47.655,-122.3035,60.0,12.266666666666667
2026-01-20T23:12:17+00:00,SAT-60280,356.6209133169074,41.026576425925235,1183.6431736312375,5.787819088328742,-202713.9069237419,10.5,10499797286.093077,47.655,-122.3035,60.0,12.283333333333333
2026-01-20T23:12:18+00:00,SAT-60280,356.6312861892829,40.80865370222567,1189.4155585353305,5.800878382966656,-203171.29866272313,10.5,10499796828.701338,47.655,-122.3035,60.0,12.3
2026-01-20T23:12:19+00:00,SAT-60280,356.64117157496383,40.59257626653163,1195.2009679092757,5.813742252065414,-203621.84577267402,10.5,10499796378.154228,47.655,-122.3035,60.0,12.316666666666666
2026-01-20T23:12:20+00:00,SAT-60280,356.6505811364423,40.378321757692596,1200.999206848669,5.826414006178499,-204065.664203181,10.5,10499795934.335796,47.655,-122.3035,60.0,12.333333333333334
2026-01-20T23:12:21+00:00,SAT-60280,356.6595261684672,40.16586807818815,1206.8100837508312,5.838896890852749,-204502.86762702302,10.5,10499795497.132374,47.655,-122.3035,60.0,12.35
2026-01-20T23:12:22+00:00,SAT-60280,356.668017612356,39.95519339349808,1212.633410249975,5.851194071036169,-204933.56689406704,10.5,10499795066.433105,47.655,-122.3035,60.0,12.366666666666667
2026-01-20T23:12:23+00:00,SAT-60280,356.67606606965705,39.746276131887285,1218.4690011368216,5.863308677857289,-205357.8716696787,10.5,10499794642.12833,47.655,-122.3035,60.0,12.383333333333333
2026-01-20T23:12:24+00:00,SAT-60280,356.68368181523505,39.539094982398524,1224.3166743248712,5.875243757785638,-205775.88865410752,10.5,10499794224.111345,47.655,-122.3035,60.0,12.4
2026-01-20T23:12:25+00:00,SAT-60280,356.69087480969506,39.3336288945673,1230.1762507659696,5.8870023463444525,-206187.72416421748,10.5,10499793812.275835,47.655,-122.3035,60.0,12.416666666666666
2026-01-20T23:12:26+00:00,SAT-60280,356.6976547113519,39.129857075448406,1236.0475544393905,5.898587400567765,-206593.48176784866,10.5,10499793406.518232,47.655,-122.3035,60.0,12.433333333333334
2026-01-20T23:12:27+00:00,SAT-60280,356.70403088755455,38.927758988965955,1241.9304122735566,5.910001788234274,-206993.26190674174,10.5,10499793006.738092,47.655,-122.3035,60.0,12.45
2026-01-20T23:12:28+00:00,SAT-60280,356.71001242545697,38.727314355508696,1247.8246540570224,5.921248411113684,-207387.1662131463,10.5,10499792612.833786,47.655,-122.3035,60.0,12.466666666666667
2026-01-20T23:12:29+00:00,SAT-60280,356.7156081425663,38.528503147251826,1253.730112472373,5.932330032379849,-207775.2914650989,10.5,10499792224.708534,47.655,-122.3035,60.0,12.483333333333333
2026-01-20T23:12:30+00:00,SAT-60280,356.7208265964815,38.33130558933563,1259.6466229579999,5.9432494159620965,-208157.73446709596,10.5,10499791842.265533,47.655,-122.3035,60.0,12.5
2026-01-20T23:12:31+00:00,SAT-60280,356.725676094483,38.13570215622779,1265.5740237088528,5.954009234893372,-208534.58884005816,10.5,10499791465.41116,47.655,-122.3035,60.0,12.516666666666667
2026-01-20T23:12:32+00:00,SAT-60280,356.73016470251554,37.9416735711358,1271.5121555857863,5.964612184263871,-208905.94897744438,10.5,10499791094.051023,47.655,-122.3035,60.0,12.533333333333333
2026-01-20T23:12:33+00:00,SAT-60280,356.7343002540027,37.74920080165545,1277.460862137559,5.9750608345836165,-209271.90490938892,10.5,10499790728.09509,47.655,-122.3035,60.0,12.55
2026-01-20T23:12:34+00:00,SAT-60280,356.73809035800633,37.55826506020336,1283.4199894765836,5.985357729534483,-209632.54572639073,10.5,10499790367.454273,47.655,-122.3035,60.0,12.566666666666666
2026-01-20T23:12:35+00:00,SAT-60280,356.74154240723885,37.36884780118525,1289.3893862521727,5.995505406587128,-209987.96030140572,10.5,10499790012.039698,47.655,-122.3035,60.0,12.583333333333334
2026-01-20T23:12:36+00:00,SAT-60280,356.744663585723,37.180930717535794,1295.3689036443423,6.005506301680578,-210338.23395132265,10.5,10499789661.766048,47.655,-122.3035,60.0,12.6
2026-01-20T23:12:37+00:00,SAT-60280,356.74746087601875,36.99449574026612,1301.3583952625518,6.0153628563422386,-210683.45218875888,10.5,10499789316.547812,47.655,-122.3035,60.0,12.616666666666667
2026-01-20T23:12:38+00:00,SAT-60280,356.7499410662807,36.809525034605784,1307.357717151277,6.025077412308281,-211023.69703122068,10.5,10499788976.302969,47.655,-122.3035,60.0,12.633333333333333
2026-01-20T23:12:39+00:00,SAT-60280,356.7521107569037,36.62600099942745,1313.3667276904857,6.034652313307096,-211359.05056599024,10.5,10499788640.949434,47.655,-122.3035,60.0,12.65
2026-01-20T23:12:40+00:00,SAT-60280,356.75397636699324,36.44390626350018,1319.385287597624,6.044089855626539,-211689.59321878158,10.5,10499788310.406782,47.655,-122.3035,60.0,12.666666666666666
2026-01-20T23:12:41+00:00,SAT-60280,356.755544140546,36.26322368329189,1325.4132598803023,6.053392263005839,-212015.40287434883,10.5,10499787984.597126,47.655,-122.3035,60.0,12.683333333333334
2026-01-20T23:12:42+00:00,SAT-60280,356.7568201523137,36.08393634150173,1331.4505097639403,6.062561759025657,-212336.5574118926,10.5,10499787663.442589,47.655,-122.3035,60.0,12.7
2026-01-20T23:12:43+00:00,SAT-60280,356.75781031354774,35.90602754342477,1337.4969046916083,6.071600490681752,-212653.13202828605,10.5,10499787346.867971,47.655,-122.3035,60.0,12.716666666666667
2026-01-20T23:12:44+00:00,SAT-60280,356.7585203773941,35.7294808156042,1343.5523142476482,6.080510586399023,-212965.20126997237,10.5,10499787034.79873,47.655,-122.3035,60.0,12.733333333333333
2026-01-20T23:12:45+00:00,SAT-60280,356.7589559441711,35.5542799027621,1349.6166101391502,6.089294129973302,-213272.8381202961,10.5,10499786727.16188,47.655,-122.3035,60.0,12.75
2026-01-20T23:12:46+00:00,SAT-60280,356.7591224663784,35.38040876551897,1355.6896661514438,6.097953167581487,-213576.1142450275,10.5,10499786423.885756,47.655,-122.3035,60.0,12.766666666666667
2026-01-20T23:12:47+00:00,SAT-60280,356.7590252535378,35.20785157791141,1361.7713581105784,6.106489707197595,-213875.09997191041,10.5,10499786124.900028,47.655,-122.3035,60.0,12.783333333333333
2026-01-20T23:12:48+00:00,SAT-60280,356.75866947683403,35.03659272494775,1367.8615638452234,6.1149057108373315,-214169.86401903408,10.5,10499785830.13598,47.655,-122.3035,60.0,12.8
2026-01-20T23:12:49+00:00,SAT-60280,356.7580601735816,34.86661680038376,1373.9601631408318,6.123203149336809,-214460.4754134158,10.5,10499785539.524586,47.655,-122.3035,60.0,12.816666666666666
2026-01-20T23:12:50+00:00,SAT-60280,356.7572022515292,34.697908603005324,1380.0670377484369,6.131383877031904,-214746.99910174185,10.5,10499785253.000898,47.655,-122.3035,60.0,12.833333333333334
2026-01-20T23:12:51+00:00,SAT-60280,356.75610049296074,34.53045313640141,1386.1820712684635,6.139449784117466,-215029.50128663142,10.5,10499784970.498713,47.655,-122.3035,60.0,12.85
2026-01-20T23:12:52+00:00,SAT-60280,356.754759558688,34.36423560453015,1392.3051491864899,6.147402692188586,-215308.04576804984,10.5,10499784691.954231,47.655,-122.3035,60.0,12.866666666666667
2026-01-20T23:12:53+00:00,SAT-60280,356.7531839918753,34.199241410202376,1398.4361588048328,6.155244414051963,-215582.69603815587,10.5,10499784417.303963,47.655,-122.3035,60.0,12.883333333333333
2026-01-20T23:12:54+00:00,SAT-60280,356.7513782217138,34.03545615195144,1404.5749892337806,6.162976699405855,-215853.5133787838,10.5,10499784146.486622,47.655,-122.3035,60.0,12.9
2026-01-20T23:12:55+00:00,SAT-60280,356.749346566958,33.8728656223908,1410.7215313286547,6.170601285563962,-216120.55863800817,10.5,10499783879.441362,47.655,-122.3035,60.0,12.916666666666666
2026-01-20T23:12:56+00:00,SAT-60280,356.74709323934206,33.711455805232276,1416.8756776774571,6.178119868635309,-216383.89122074159,10.5,10499783616.10878,47.655,-122.3035,60.0,12.933333333333334
2026-01-20T23:12:57+00:00,SAT-60280,356.74462234686865,33.5512128731013,1423.037322559776,6.185534134067229,-216643.57015847912,10.5,10499783356.429842,47.655,-122.3035,60.0,12.95
2026-01-20T23:12:58+00:00,SAT-60280,356.7419378969663,33.39212318458573,1429.2063619361525,6.192845711229072,-216899.6525186276,10.5,10499783100.34748,47.655,-122.3035,60.0,12.966666666666667
2026-01-20T23:12:59+00:00,SAT-60280,356.73904379955,33.23417328248971,1435.3826933921514,6.200056193574294,-217152.19411066736,10.5,10499782847.80589,47.655,-122.3035,60.0,12.983333333333333
2026-01-20T23:13:00+00:00,SAT-60280,356.73594386994097,33.077349891579196,1441.566216102543,6.207167193918256,-217401.25142221453,10.5,10499782598.748577,47.655,-122.3035,60.0,13.0
2026-01-20T23:13:01+00:00,SAT-60280,356.73264183173325,32.92163991496166,1447.7568308506106,6.2141802370117425,-217646.87785649128,10.5,10499782353.122143,47.655,-122.3035,60.0,13.016666666666667
2026-01-20T23:13:02+00:00,SAT-60280,356.72914131949096,32.76703043322641,1453.9544399403237,6.221096867574762,-217889.12751612652,10.5,10499782110.872484,47.655,-122.3035,60.0,13.033333333333333
2026-01-20T23:13:03+00:00,SAT-60280,356.72544588141454,32.61350870087943,1460.1589472162516,6.227918560546213,-218128.05205971937,10.5,10499781871.94794,47.655,-122.3035,60.0,13.05
2026-01-20T23:13:04+00:00,SAT-60280,356.7215589818626,32.46106214505947,1466.3702579939697,6.234646811431368,-218363.70386619054,10.5,10499781636.296133,47.655,-122.3035,60.0,13.066666666666666
2026-01-20T23:13:05+00:00,SAT-60280,356.7174840038169,32.309678362048615,1472.5882790805706,6.241283030428025,-218596.132326632,10.5,10499781403.867674,47.655,-122.3035,60.0,13.083333333333334
2026-01-20T23:13:06+00:00,SAT-60280,356.7132242512439,32.15934511641113,1478.8129186895844,6.24782864455326,-218825.387421218,10.5,10499781174.61258,47.655,-122.3035,60.0,13.1
2026-01-20T23:13:07+00:00,SAT-60280,356.7087829513906,32.01005033766498,1485.0440864577522,6.254285070941809,-219051.51878400153,10.5,10499780948.481216,47.655,-122.3035,60.0,13.116666666666667
2026-01-20T23:13:08+00:00,SAT-60280,356.7041632569751,31.861782117664145,1491.2816934351713,6.260653643736126,-219274.57314229474,10.5,10499780725.426857,47.655,-122.3035,60.0,13.133333333333333
2026-01-20T23:13:09+00:00,SAT-60280,356.69936824833826,31.71452870974642,1497.525652002524,6.26693571377775,-219494.59780828233,10.5,10499780505.402191,47.655,-122.3035,60.0,13.15
2026-01-20T23:13:10+00:00,SAT-60280,356.6944009354812,31.56827852552791,1503.775875887732,6.273132598982181,-219711.63894093994,10.5,10499780288.36106,47.655,-122.3035,60.0,13.166666666666666
2026-01-20T23:13:11+00:00,SAT-60280,356.6892642600746,31.423020132923476,1510.0322801331167,6.279245602558062,-219925.74218414674,10.5,10499780074.257816,47.655,-122.3035,60.0,13.183333333333334
2026-01-20T23:13:12+00:00,SAT-60280,356.68396109736307,31.278742253770748,1516.2947810807348,6.285275957504994,-220136.95072276448,10.5,10499779863.049276,47.655,-122.3035,60.0,13.2
2026-01-20T23:13:13+00:00,SAT-60280,356.6784942580388,31.135433762759998,1522.5632963023531,6.291224948618053,-220345.30955575127,10.5,10499779654.690445,47.655,-122.3035,60.0,13.216666666666667
2026-01-20T23:13:14+00:00,SAT-60280,356.67286649002097,30.9930836835939,1528.837744651108,6.297093806696759,-220550.8617909126,10.5,10499779449.138208,47.655,-122.3035,60.0,13.233333333333333
2026-01-20T23:13:15+00:00,SAT-60280,356.6670804802012,30.851681187626877,1535.1180462076536,6.3028837075121205,-220753.6486087227,10.5,10499779246.35139,47.655,-122.3035,60.0,13.25
2026-01-20T23:13:16+00:00,SAT-60280,356.66113885611793,30.71121559252581,1541.404122225279,6.308595849546978,-220953.71198512026,10.5,10499779046.288015,47.655,-122.3035,60.0,13.266666666666667
2026-01-20T23:13:17+00:00,SAT-60280,356.655044187588,30.57167635921683,1547.6958951525608,6.314231371550561,-221151.09180392022,10.5,10499778848.908195,47.655,-122.3035,60.0,13.283333333333333
2026-01-20T23:13:18+00:00,SAT-60280,356.64879898826837,30.433053090712818,1553.9932885737871,6.319791446597266,-221345.82915114996,10.5,10499778654.170849,47.655,-122.3035,60.0,13.3
2026-01-20T23:13:19+00:00,SAT-60280,356.64240571717806,30.295335528893116,1560.2962272431935,6.325277172612553,-221537.96248080334,10.5,10499778462.03752,47.655,-122.3035,60.0,13.316666666666666
2026-01-20T23:13:20+00:00,SAT-60280,356.63586678016696,30.158513553728334,1566.6046370100123,6.330689644500011,-221727.5301410355,10.5,10499778272.469858,47.655,-122.3035,60.0,13.333333333333334
2026-01-20T23:13:21+00:00,SAT-60280,356.6291845313527,30.022577180939265,1572.9184448154604,6.336029975041379,-221914.57110616998,10.5,10499778085.428894,47.655,-122.3035,60.0,13.35
