satellites_20260121_005943/SAT-54178.csv

timestamp,satellite,azimuth_deg,elevation_deg,distance_km,relative_velocity_kms,doppler_shift_hz,tx_freq_ghz,rx_freq_hz,ue_lat,ue_lon,ue_alt_m,time_minutes
2026-01-20T23:03:38+00:00,SAT-54178,205.40184836153566,30.07215142391018,1456.2705487100252,-6.468602949528941,226557.83745585047,10.5,10500226557.837456,47.655,-122.3035,60.0,3.6333333333333333
2026-01-20T23:03:39+00:00,SAT-54178,205.28338468470034,30.162785450217836,1449.8191953683618,-6.464159897622887,226402.22298400954,10.5,10500226402.222984,47.655,-122.3035,60.0,3.65
2026-01-20T23:03:40+00:00,SAT-54178,205.1638766223509,30.25391155346449,1443.3722732304657,-6.459649687918906,226244.25636200796,10.5,10500226244.256363,47.655,-122.3035,60.0,3.6666666666666665
2026-01-20T23:03:41+00:00,SAT-54178,205.04330815945286,30.34553450114251,1436.929849275048,-6.4550711839003725,226083.89778422617,10.5,10500226083.897783,47.655,-122.3035,60.0,3.683333333333333
2026-01-20T23:03:42+00:00,SAT-54178,204.92166296451822,30.43765909939521,1430.4919916143044,-6.450423204163937,225921.10587292138,10.5,10500225921.105873,47.655,-122.3035,60.0,3.7
2026-01-20T23:03:43+00:00,SAT-54178,204.7989243825339,30.530290192263784,1424.058769538685,-6.445704603909503,225755.8405323518,10.5,10500225755.840532,47.655,-122.3035,60.0,3.716666666666667
2026-01-20T23:03:44+00:00,SAT-54178,204.67507542619393,30.623432662079832,1417.630253480386,-6.440914175335766,225588.05946020677,10.5,10500225588.05946,47.655,-122.3035,60.0,3.7333333333333334
2026-01-20T23:03:45+00:00,SAT-54178,204.55009876870645,30.717091428364167,1411.2065150761844,-6.436050674514871,225417.71908887097,10.5,10500225417.71909,47.655,-122.3035,60.0,3.75
2026-01-20T23:03:46+00:00,SAT-54178,204.42397673589434,30.81127144705575,1404.7876272034682,-6.431112864837586,225244.77610705822,10.5,10500225244.776108,47.655,-122.3035,60.0,3.7666666666666666
2026-01-20T23:03:47+00:00,SAT-54178,204.29669129729388,30.90597771033941,1398.373663972937,-6.426099450248972,225069.18512144225,10.5,10500225069.185122,47.655,-122.3035,60.0,3.783333333333333
2026-01-20T23:03:48+00:00,SAT-54178,204.16822405821412,31.001215245420227,1391.9647007878887,-6.421009174197506,224890.90212227358,10.5,10500224890.902122,47.655,-122.3035,60.0,3.8
2026-01-20T23:03:49+00:00,SAT-54178,204.03855624973156,31.096989114740445,1385.5608143048223,-6.415840619702944,224709.8774809102,10.5,10500224709.877481,47.655,-122.3035,60.0,3.816666666666667
2026-01-20T23:03:50+00:00,SAT-54178,203.90766872220226,31.193304413084448,1379.1620825934388,-6.410592474713118,224526.06524373515,10.5,10500224526.065245,47.655,-122.3035,60.0,3.8333333333333335
2026-01-20T23:03:51+00:00,SAT-54178,203.77554193350585,31.290166268672593,1372.7685850319913,-6.405263360352068,224339.4171166798,10.5,10500224339.417116,47.655,-122.3035,60.0,3.85
2026-01-20T23:03:52+00:00,SAT-54178,203.64215594023747,31.387579841559802,1366.3804023739335,-6.399851843961228,224149.88292198096,10.5,10500224149.882921,47.655,-122.3035,60.0,3.8666666666666667
2026-01-20T23:03:53+00:00,SAT-54178,203.5074903884436,31.48555032216274,1359.9976168015562,-6.394356463993041,223957.41147006082,10.5,10500223957.41147,47.655,-122.3035,60.0,3.8833333333333333
2026-01-20T23:03:54+00:00,SAT-54178,203.37152450357357,31.584082930076764,1353.6203119548004,-6.388775728169424,223761.95049502864,10.5,10500223761.950495,47.655,-122.3035,60.0,3.9
2026-01-20T23:03:55+00:00,SAT-54178,203.23423708022395,31.683182912794372,1347.2485729619061,-6.383108144915163,223563.447755611,10.5,10500223563.447756,47.655,-122.3035,60.0,3.9166666666666665
2026-01-20T23:03:56+00:00,SAT-54178,203.09560647088853,31.782855544829296,1340.8824864387109,-6.377352179649738,223361.8495043069,10.5,10500223361.849504,47.655,-122.3035,60.0,3.933333333333333
2026-01-20T23:03:57+00:00,SAT-54178,202.95561057532885,31.883106126076722,1334.5221405315401,-6.371506214814321,223157.0990873639,10.5,10500223157.099087,47.655,-122.3035,60.0,3.95
2026-01-20T23:03:58+00:00,SAT-54178,202.81422683044204,31.983939979409055,1328.1676249999653,-6.365568675684881,222949.14135128527,10.5,10500222949.141352,47.655,-122.3035,60.0,3.966666666666667
2026-01-20T23:03:59+00:00,SAT-54178,202.6714321972302,32.08536245020501,1321.8190311740823,-6.359537897749178,222737.91799781154,10.5,10500222737.917997,47.655,-122.3035,60.0,3.9833333333333334
2026-01-20T23:04:00+00:00,SAT-54178,202.52720315016896,32.18737890363294,1315.4764520440604,-6.3534121921886,222523.3698773713,10.5,10500222523.369877,47.655,-122.3035,60.0,4.0
2026-01-20T23:04:01+00:00,SAT-54178,202.381515664908,32.28999472287537,1309.1399822843844,-6.347189838436813,222305.43672845344,10.5,10500222305.436728,47.655,-122.3035,60.0,4.016666666666667
2026-01-20T23:04:02+00:00,SAT-54178,202.2343452057519,32.393215307108846,1302.8097182855165,-6.340869084727104,222084.05719677772,10.5,10500222084.057198,47.655,-122.3035,60.0,4.033333333333333
2026-01-20T23:04:03+00:00,SAT-54178,202.08566671279078,32.49704606938366,1296.4857581850156,-6.334448151033713,221859.1689383126,10.5,10500221859.168938,47.655,-122.3035,60.0,4.05
2026-01-20T23:04:04+00:00,SAT-54178,201.93545458854797,32.6014924344096,1290.168201895718,-6.327925175334189,221630.70673715544,10.5,10500221630.706738,47.655,-122.3035,60.0,4.066666666666666
2026-01-20T23:04:05+00:00,SAT-54178,201.7836826855222,32.706559835308674,1283.857151187518,-6.321298287096709,221398.60507936942,10.5,10500221398.60508,47.655,-122.3035,60.0,4.083333333333333
2026-01-20T23:04:06+00:00,SAT-54178,201.63032429164096,32.81225371143255,1277.5527096958535,-6.314565580999008,221162.79723250936,10.5,10500221162.797232,47.655,-122.3035,60.0,4.1
2026-01-20T23:04:07+00:00,SAT-54178,201.47535211594638,32.91857950561604,1271.2549829564039,-6.307725097910797,220923.21457954549,10.5,10500220923.214579,47.655,-122.3035,60.0,4.116666666666666
2026-01-20T23:04:08+00:00,SAT-54178,201.31873827426293,33.02554266091807,1264.964078458754,-6.300774819765833,220679.7864392614,10.5,10500220679.78644,47.655,-122.3035,60.0,4.133333333333334
2026-01-20T23:04:09+00:00,SAT-54178,201.16045427462274,33.13314861710813,1258.6801057051744,-6.293712716361327,220432.44170536782,10.5,10500220432.441706,47.655,-122.3035,60.0,4.15
2026-01-20T23:04:10+00:00,SAT-54178,201.00047100112724,33.24140280777333,1252.4031762227232,-6.28653668552676,220181.10675096096,10.5,10500220181.10675,47.655,-122.3035,60.0,4.166666666666667
2026-01-20T23:04:11+00:00,SAT-54178,200.83875869880904,33.35031065620635,1246.1334036350245,-6.2792446161187385,219925.70763486903,10.5,10500219925.707634,47.655,-122.3035,60.0,4.183333333333334
2026-01-20T23:04:12+00:00,SAT-54178,200.675286956482,33.459877572187466,1239.8709036712155,-6.271834268672698,219666.16592157006,10.5,10500219666.165922,47.655,-122.3035,60.0,4.2
2026-01-20T23:04:13+00:00,SAT-54178,200.51002469212108,33.570108946435326,1233.6157942939258,-6.2643034629461605,219402.4052497501,10.5,10500219402.40525,47.655,-122.3035,60.0,4.216666666666667
2026-01-20T23:04:14+00:00,SAT-54178,200.3429401330693,33.68101014818272,1227.3681956402143,-6.256649893434199,219134.34487087425,10.5,10500219134.344872,47.655,-122.3035,60.0,4.233333333333333
2026-01-20T23:04:15+00:00,SAT-54178,200.17400080038095,33.7925865192214,1221.1282301464958,-6.248871213762121,218861.9026049757,10.5,10500218861.902605,47.655,-122.3035,60.0,4.25
2026-01-20T23:04:16+00:00,SAT-54178,200.0031734905447,33.90484336918594,1214.8960225893038,-6.2409650589851395,218584.99562168427,10.5,10500218584.995623,47.655,-122.3035,60.0,4.266666666666667
2026-01-20T23:04:17+00:00,SAT-54178,199.83042425614815,34.017785971030996,1208.6717001038094,-6.232928954668361,218303.5372558231,10.5,10500218303.537256,47.655,-122.3035,60.0,4.283333333333333
2026-01-20T23:04:18+00:00,SAT-54178,199.6557183883194,34.13141955450341,1202.4553922930202,-6.224760459776841,218017.44201202298,10.5,10500218017.442013,47.655,-122.3035,60.0,4.3
2026-01-20T23:04:19+00:00,SAT-54178,199.47902039493272,34.2457493020495,1196.2472311944694,-6.21645697304284,217726.61878288418,10.5,10500217726.618782,47.655,-122.3035,60.0,4.316666666666666
2026-01-20T23:04:20+00:00,SAT-54178,199.3002939833614,34.360780340734586,1190.0473514400212,-6.208015890758905,217430.97637555815,10.5,10500217430.976376,47.655,-122.3035,60.0,4.333333333333333
2026-01-20T23:04:21+00:00,SAT-54178,199.119502038531,34.476517736836776,1183.8558902583043,-6.199434565678906,217130.42207228745,10.5,10500217130.422071,47.655,-122.3035,60.0,4.35
2026-01-20T23:04:22+00:00,SAT-54178,198.93660660140438,34.59296648933181,1177.6729875181338,-6.190710279710874,216824.86067399394,10.5,10500216824.860674,47.655,-122.3035,60.0,4.366666666666666
2026-01-20T23:04:23+00:00,SAT-54178,198.7515688476739,34.71013152251584,1171.498785799169,-6.181840177972192,216514.19219061214,10.5,10500216514.19219,47.655,-122.3035,60.0,4.383333333333334
2026-01-20T23:04:24+00:00,SAT-54178,198.56434906775795,34.828017676936824,1165.333430528338,-6.172821481719435,216198.31929879324,10.5,10500216198.3193,47.655,-122.3035,60.0,4.4
2026-01-20T23:04:25+00:00,SAT-54178,198.37490664012836,34.94662970411886,1159.1770699039032,-6.163651212867602,215877.1376934033,10.5,10500215877.137693,47.655,-122.3035,60.0,4.416666666666667
2026-01-20T23:04:26+00:00,SAT-54178,198.1832000118788,35.06597225545393,1153.0298550942698,-6.154326450826592,215550.5450830228,10.5,10500215550.545082,47.655,-122.3035,60.0,4.433333333333334
2026-01-20T23:04:27+00:00,SAT-54178,197.98918667125088,35.18604987576684,1146.8919401806456,-6.144844067816922,215218.4319195838,10.5,10500215218.43192,47.655,-122.3035,60.0,4.45
2026-01-20T23:04:28+00:00,SAT-54178,197.79282312731462,35.30686699111844,1140.763482363676,-6.135200999913491,214880.69089146884,10.5,10500214880.690891,47.655,-122.3035,60.0,4.466666666666667
2026-01-20T23:04:29+00:00,SAT-54178,197.59406488092338,35.428427901588144,1134.6446418997625,-6.125394032312564,214537.20940265257,10.5,10500214537.209402,47.655,-122.3035,60.0,4.483333333333333
2026-01-20T23:04:30+00:00,SAT-54178,197.39286640143612,35.55073676923583,1128.535582251536,-6.1154198878526085,214187.87267307568,10.5,10500214187.872673,47.655,-122.3035,60.0,4.5
2026-01-20T23:04:31+00:00,SAT-54178,197.18918110016364,35.67379760730567,1122.436470150051,-6.105275240617417,213832.56421508404,10.5,10500213832.564215,47.655,-122.3035,60.0,4.516666666666667
2026-01-20T23:04:32+00:00,SAT-54178,196.9829613026243,35.7976142691687,1116.3474756434084,-6.094956673811059,213471.16435803103,10.5,10500213471.164358,47.655,-122.3035,60.0,4.533333333333333
2026-01-20T23:04:33+00:00,SAT-54178,196.7741582215068,35.9221904358538,1110.2687721873942,-6.084460680727421,213103.55028223532,10.5,10500213103.550282,47.655,-122.3035,60.0,4.55
2026-01-20T23:04:34+00:00,SAT-54178,196.5627219288633,36.047529602936365,1104.200536735149,-6.073783685950989,212729.59676152153,10.5,10500212729.596762,47.655,-122.3035,60.0,4.566666666666666
2026-01-20T23:04:35+00:00,SAT-54178,196.34860132699262,36.17363506726847,1098.1429498056937,-6.062922037394176,212349.17588433414,10.5,10500212349.175884,47.655,-122.3035,60.0,4.583333333333333
2026-01-20T23:04:36+00:00,SAT-54178,196.1317441188165,36.30050991286588,1092.096195560399,-6.051872004228498,211962.15698127812,10.5,10500211962.15698,47.655,-122.3035,60.0,4.6
2026-01-20T23:04:37+00:00,SAT-54178,195.9120967776276,36.428156996057076,1086.0604618815153,-6.040629748625764,211568.40563537634,10.5,10500211568.405636,47.655,-122.3035,60.0,4.616666666666666
2026-01-20T23:04:38+00:00,SAT-54178,195.68960451710691,36.55657892927415,1080.035940478886,-6.029191341367043,211167.78422876116,10.5,10500211167.78423,47.655,-122.3035,60.0,4.633333333333334
2026-01-20T23:04:39+00:00,SAT-54178,195.46421126018114,36.68577806443034,1074.022826981096,-6.017552813824765,210760.15376330796,10.5,10500210760.153763,47.655,-122.3035,60.0,4.65
2026-01-20T23:04:40+00:00,SAT-54178,195.23585960520202,36.81575647659988,1068.0213209747747,-6.005710029465596,210345.36936012167,10.5,10500210345.36936,47.655,-122.3035,60.0,4.666666666666667
2026-01-20T23:04:41+00:00,SAT-54178,195.00449079615248,36.946515944060764,1062.0316261720543,-5.9936588399576145,209923.28572707108,10.5,10500209923.285727,47.655,-122.3035,60.0,4.683333333333334
2026-01-20T23:04:42+00:00,SAT-54178,194.77004468641016,37.0780579308819,1056.0539504223366,-5.981394918603463,209493.7513249128,10.5,10500209493.751326,47.655,-122.3035,60.0,4.7
2026-01-20T23:04:43+00:00,SAT-54178,194.5324597080248,37.210383564867904,1050.0885058901827,-5.968913923174708,209056.61407043945,10.5,10500209056.61407,47.655,-122.3035,60.0,4.716666666666667
2026-01-20T23:04:44+00:00,SAT-54178,194.29167283420384,37.34349361820372,1044.1355090708032,-5.95621133493413,208611.71569835942,10.5,10500208611.715698,47.655,-122.3035,60.0,4.733333333333333
2026-01-20T23:04:45+00:00,SAT-54178,194.04761954728858,37.47738848344057,1038.1951809660954,-5.943282593046884,208158.89646894415,10.5,10500208158.89647,47.655,-122.3035,60.0,4.75
2026-01-20T23:04:46+00:00,SAT-54178,193.80023380089176,37.61206815144812,1032.26774712663,-5.930122987657802,207697.99142314284,10.5,10500207697.991423,47.655,-122.3035,60.0,4.766666666666667
2026-01-20T23:04:47+00:00,SAT-54178,193.54944798565685,37.74753218584764,1026.3534378002728,-5.9167277311389626,207228.83287797423,10.5,10500207228.832878,47.655,-122.3035,60.0,4.783333333333333
2026-01-20T23:04:48+00:00,SAT-54178,193.29519289154788,37.88377969786553,1020.45248800975,-5.9030919337499235,206751.2495740443,10.5,10500206751.249575,47.655,-122.3035,60.0,4.8
2026-01-20T23:04:49+00:00,SAT-54178,193.03739767061143,38.02080931949639,1014.5651376544902,-5.889210546701588,206265.0646814026,10.5,10500206265.064682,47.655,-122.3035,60.0,4.816666666666666
2026-01-20T23:04:50+00:00,SAT-54178,192.77598980153527,38.15861917393566,1008.6916316692465,-5.87507845984787,205770.0992211173,10.5,10500205770.09922,47.655,-122.3035,60.0,4.833333333333333
2026-01-20T23:04:51+00:00,SAT-54178,192.51089504976179,38.2972068470917,1002.8322200852915,-5.860690420825767,205266.1692332185,10.5,10500205266.169233,47.655,-122.3035,60.0,4.85
2026-01-20T23:04:52+00:00,SAT-54178,192.24203743048386,38.4365693557347,996.9871581722546,-5.8460410640656875,204753.0867927629,10.5,10500204753.086792,47.655,-122.3035,60.0,4.866666666666666
2026-01-20T23:04:53+00:00,SAT-54178,191.96933917012936,38.576703114898585,991.1567065510264,-5.831124903990582,204230.6597716381,10.5,10500204230.659771,47.655,-122.3035,60.0,4.883333333333334
2026-01-20T23:04:54+00:00,SAT-54178,191.6927206678277,38.717603903632245,985.3411313134465,-5.81593633605652,203698.6918750086,10.5,10500203698.691875,47.655,-122.3035,60.0,4.9
2026-01-20T23:04:55+00:00,SAT-54178,191.4121004565742,38.859266829164774,979.5407041409528,-5.800469605703137,203156.9815538286,10.5,10500203156.981554,47.655,-122.3035,60.0,4.916666666666667
2026-01-20T23:04:56+00:00,SAT-54178,191.12739516576494,39.00168628867242,973.7557024541982,-5.784718880185536,202605.32452069933,10.5,10500202605.32452,47.655,-122.3035,60.0,4.933333333333334
2026-01-20T23:04:57+00:00,SAT-54178,190.8385194802528,39.14485593114097,967.9864094910264,-5.768678156885853,202043.5105385522,10.5,10500202043.510538,47.655,-122.3035,60.0,4.95
2026-01-20T23:04:58+00:00,SAT-54178,190.54538610381118,39.28876861514609,962.2331144758923,-5.752341280211574,201471.3240124991,10.5,10500201471.324013,47.655,-122.3035,60.0,4.966666666666667
2026-01-20T23:04:59+00:00,SAT-54178,190.2479057220491,39.43341636515509,956.496112772428,-5.735702034668087,200888.5472496273,10.5,10500200888.547249,47.655,-122.3035,60.0,4.983333333333333
2026-01-20T23:05:00+00:00,SAT-54178,189.94598696100624,39.57879032836385,950.7757059431857,-5.718753997431517,200294.95529547625,10.5,10500200294.955296,47.655,-122.3035,60.0,5.0
2026-01-20T23:05:01+00:00,SAT-54178,189.6395363534523,39.72488072568482,945.0722019564139,-5.701490640829584,199690.31952335048,10.5,10500199690.319523,47.655,-122.3035,60.0,5.016666666666667
2026-01-20T23:05:02+00:00,SAT-54178,189.32845830072006,39.87167680333823,939.3859152906266,-5.683905260406009,199074.40511483146,10.5,10500199074.405115,47.655,-122.3035,60.0,5.033333333333333
2026-01-20T23:05:03+00:00,SAT-54178,189.01265503898117,40.01916678037692,933.717167110915,-5.66599108168886,198446.97479925607,10.5,10500198446.9748,47.655,-122.3035,60.0,5.05
2026-01-20T23:05:04+00:00,SAT-54178,188.6920266008232,40.167337796877575,928.0662853387773,-5.647741084568851,197807.78270270207,10.5,10500197807.782703,47.655,-122.3035,60.0,5.066666666666666
2026-01-20T23:05:05+00:00,SAT-54178,188.36647078735103,40.31617585505546,922.4336048971006,-5.629148179616154,197156.58052334862,10.5,10500197156.580523,47.655,-122.3035,60.0,5.083333333333333
2026-01-20T23:05:06+00:00,SAT-54178,188.03588313225026,40.46566576279946,916.8194677792968,-5.610205067129712,196493.1125947871,10.5,10500196493.112595,47.655,-122.3035,60.0,5.1
2026-01-20T23:05:07+00:00,SAT-54178,187.70015687513927,40.61579107086504,911.2242232590128,-5.590904373041689,195817.12064596947,10.5,10500195817.120646,47.655,-122.3035,60.0,5.116666666666666
2026-01-20T23:05:08+00:00,SAT-54178,187.3591829291894,40.76653401132135,905.6482279642992,-5.571238470297274,195128.3375451739,10.5,10500195128.337545,47.655,-122.3035,60.0,5.133333333333334
2026-01-20T23:05:09+00:00,SAT-54178,187.01284986119822,40.917875428366536,900.0918461299227,-5.551199653506059,194426.4934170346,10.5,10500194426.493418,47.655,-122.3035,60.0,5.15
2026-01-20T23:05:10+00:00,SAT-54178,186.66104386409265,41.069794711367706,894.5554496754927,-5.530780004842407,193711.3109458053,10.5,10500193711.310946,47.655,-122.3035,60.0,5.166666666666667
2026-01-20T23:05:11+00:00,SAT-54178,186.30364874019682,41.22226972132931,889.0394184173299,-5.509971509061817,192982.50940371913,10.5,10500192982.509403,47.655,-122.3035,60.0,5.183333333333334
2026-01-20T23:05:12+00:00,SAT-54178,185.94054588075284,41.375276717834446,883.5441401656254,-5.488765902350761,192239.79935707053,10.5,10500192239.799356,47.655,-122.3035,60.0,5.2
2026-01-20T23:05:13+00:00,SAT-54178,185.57161425854807,41.52879027870142,878.0700109723477,-5.467154835119659,191482.88836791358,10.5,10500191482.888369,47.655,-122.3035,60.0,5.216666666666667
2026-01-20T23:05:14+00:00,SAT-54178,185.19673041446632,41.68278322141776,872.6174352167883,-5.445129767511989,190711.47733434936,10.5,10500190711.477335,47.655,-122.3035,60.0,5.233333333333333
2026-01-20T23:05:15+00:00,SAT-54178,184.81576845508422,41.83722651846926,867.1868257953231,-5.422681981102625,189925.26090025104,10.5,10500189925.2609,47.655,-122.3035,60.0,5.25
2026-01-20T23:05:16+00:00,SAT-54178,184.42860005490206,41.99208920998946,861.7786042995034,-5.399802590493121,189123.92786137993,10.5,10500189123.927862,47.655,-122.3035,60.0,5.266666666666667
2026-01-20T23:05:17+00:00,SAT-54178,184.03509446345254,42.147338313575204,856.3932011825849,-5.376482566584499,188307.16198049663,10.5,10500188307.16198,47.655,-122.3035,60.0,5.283333333333333
2026-01-20T23:05:18+00:00,SAT-54178,183.63511851707202,42.302938731679106,851.0310559028446,-5.352712693030934,187474.64046218537,10.5,10500187474.640463,47.655,-122.3035,60.0,5.3
2026-01-20T23:05:19+00:00,SAT-54178,183.22853666062045,42.4588531544942,845.6926171103285,-5.3284835912601896,186626.03482917504,10.5,10500186626.03483,47.655,-122.3035,60.0,5.316666666666666
2026-01-20T23:05:20+00:00,SAT-54178,182.8152109751817,42.615041960447016,840.378342808645,-5.303785708215855,185761.01049302073,10.5,10500185761.010492,47.655,-122.3035,60.0,5.333333333333333
2026-01-20T23:05:21+00:00,SAT-54178,182.39500121497193,42.771463113034585,835.0887005289843,-5.278609343195801,184879.22769409997,10.5,10500184879.227694,47.655,-122.3035,60.0,5.35
2026-01-20T23:05:22+00:00,SAT-54178,181.9677648515095,42.92807205542464,829.8241674773703,-5.252944603608722,183980.33995201965,10.5,10500183980.339952,47.655,-122.3035,60.0,5.366666666666666
2026-01-20T23:05:23+00:00,SAT-54178,181.53335713110826,43.08482160043851,824.5852307260379,-5.226781432050693,183063.99501395156,10.5,10500183063.995014,47.655,-122.3035,60.0,5.383333333333334
2026-01-20T23:05:24+00:00,SAT-54178,181.09163114147128,43.24166181835328,819.3723873778061,-5.200109627875541,182129.8356101179,10.5,10500182129.83561,47.655,-122.3035,60.0,5.4
2026-01-20T23:05:25+00:00,SAT-54178,180.6424378882772,43.39853992230279,814.1861447089382,-5.17291880471796,181177.4979660715,10.5,10500181177.497967,47.655,-122.3035,60.0,5.416666666666667
2026-01-20T23:05:26+00:00,SAT-54178,180.1856263882681,43.55540014945626,809.0270203543662,-5.145198441891935,180206.61360288563,10.5,10500180206.613604,47.655,-122.3035,60.0,5.433333333333334
2026-01-20T23:05:27+00:00,SAT-54178,179.7210437720298,43.71218364101243,803.8955424416527,-5.11693781522382,179216.806914636,10.5,10500179216.806915,47.655,-122.3035,60.0,5.45
2026-01-20T23:05:28+00:00,SAT-54178,179.24853540796823,43.86882831733331,798.792249793936,-5.088126089205275,178207.6983959863,10.5,10500178207.698397,47.655,-122.3035,60.0,5.466666666666667
2026-01-20T23:05:29+00:00,SAT-54178,178.76794503463586,44.02526875355017,793.7176920409687,-5.058752254286833,177178.90244594394,10.5,10500177178.902447,47.655,-122.3035,60.0,5.483333333333333
2026-01-20T23:05:30+00:00,SAT-54178,178.27911491619062,44.18143605095231,788.6724297926933,-5.028805156617517,176130.02840946696,10.5,10500176130.02841,47.655,-122.3035,60.0,5.5
2026-01-20T23:05:31+00:00,SAT-54178,177.78188601416304,44.337257707308154,783.65703478316,-4.998273499349701,175060.68062316586,10.5,10500175060.680624,47.655,-122.3035,60.0,5.516666666666667
2026-01-20T23:05:32+00:00,SAT-54178,177.27609817947695,44.49265748558651,778.672090013142,-4.967145847287154,173970.45857809775,10.5,10500173970.458578,47.655,-122.3035,60.0,5.533333333333333
2026-01-20T23:05:33+00:00,SAT-54178,176.76159036571894,44.64755528148912,773.7181898881142,-4.935410632781158,172858.9571262735,10.5,10500172858.957127,47.655,-122.3035,60.0,5.55
2026-01-20T23:05:34+00:00,SAT-54178,176.2382008651025,44.80186699024048,768.7959403503538,-4.903056162149823,171725.7667054891,10.5,10500171725.766705,47.655,-122.3035,60.0,5.566666666666666
2026-01-20T23:05:35+00:00,SAT-54178,175.70576756848,44.95550437311389,763.9059590046364,-4.870070624406647,170570.4736450368,10.5,10500170570.473644,47.655,-122.3035,60.0,5.583333333333333
2026-01-20T23:05:36+00:00,SAT-54178,175.16412825079527,45.108374924349796,759.0488752352283,-4.836442097062345,169392.6603689097,10.5,10500169392.660368,47.655,-122.3035,60.0,5.6
2026-01-20T23:05:37+00:00,SAT-54178,174.61312088369132,45.260381738782954,754.2253303170913,-4.802158557236437,168191.9057849767,10.5,10500168191.905785,47.655,-122.3035,60.0,5.616666666666666
2026-01-20T23:05:38+00:00,SAT-54178,174.05258397641174,45.411423381206575,749.4359775160075,-4.767207890271829,166967.78558670147,10.5,10500166967.785587,47.655,-122.3035,60.0,5.633333333333334
2026-01-20T23:05:39+00:00,SAT-54178,173.4823569467064,45.561393757956616,744.6814821801097,-4.731577901169129,165719.87265362046,10.5,10500165719.872654,47.655,-122.3035,60.0,5.65
2026-01-20T23:05:40+00:00,SAT-54178,172.90228052305315,45.71018199167515,739.9625218200104,-4.695256320838887,164447.73727032286,10.5,10500164447.73727,47.655,-122.3035,60.0,5.666666666666667
2026-01-20T23:05:41+00:00,SAT-54178,172.31219718021748,45.857672299886694,735.2797861826938,-4.658230845440595,163150.9485042691,10.5,10500163150.948503,47.655,-122.3035,60.0,5.683333333333334
2026-01-20T23:05:42+00:00,SAT-54178,171.71195160570386,46.003743879590196,730.6339772861743,-4.620489086645905,161829.0724637976,10.5,10500161829.072464,47.655,-122.3035,60.0,5.7
2026-01-20T23:05:43+00:00,SAT-54178,171.10139120929327,46.14827079571181,726.0258095037595,-4.582018670032621,160481.6757442995,10.5,10500160481.675745,47.655,-122.3035,60.0,5.716666666666667
2026-01-20T23:05:44+00:00,SAT-54178,170.480366658746,46.29112187975838,721.4560095501803,-4.54280718770555,159108.32376879966,10.5,10500159108.323769,47.655,-122.3035,60.0,5.733333333333333
2026-01-20T23:05:45+00:00,SAT-54178,169.84873246073224,46.432160634748634,716.9253165149753,-4.502842242551757,157708.58233796342,10.5,10500157708.582338,47.655,-122.3035,60.0,5.75
2026-01-20T23:05:46+00:00,SAT-54178,169.20634757673722,46.57124515109275,712.434481851737,-4.462111463544338,156282.01816609927,10.5,10500156282.018166,47.655,-122.3035,60.0,5.766666666666667
2026-01-20T23:05:47+00:00,SAT-54178,168.5530760780371,46.708228033557035,707.9842693520955,-4.420602504140644,154828.19882505768,10.5,10500154828.198826,47.655,-122.3035,60.0,5.783333333333333
2026-01-20T23:05:48+00:00,SAT-54178,167.88878784310216,46.84295634050793,703.5754551212991,-4.378303124145804,153346.69561143842,10.5,10500153346.695612,47.655,-122.3035,60.0,5.8
2026-01-20T23:05:49+00:00,SAT-54178,167.21335928530968,46.975271539653264,699.2088274721511,-4.335201112473361,151837.08084134088,10.5,10500151837.080841,47.655,-122.3035,60.0,5.816666666666666
2026-01-20T23:05:50+00:00,SAT-54178,166.5266741344126,47.10500947675021,694.8851868959777,-4.291284424342758,150298.93265560057,10.5,10500150298.932655,47.655,-122.3035,60.0,5.833333333333333
2026-01-20T23:05:51+00:00,SAT-54178,165.82862423931556,47.23200036604437,690.6053458967665,-4.246541109352896,148731.83250062086,10.5,10500148731.8325,47.655,-122.3035,60.0,5.85
2026-01-20T23:05:52+00:00,SAT-54178,165.11911042298263,47.356068797546556,686.3701288970385,-4.2009593961543485,147135.36809395207,10.5,10500147135.368093,47.655,-122.3035,60.0,5.866666666666666
2026-01-20T23:05:53+00:00,SAT-54178,164.39804336408082,47.47703376796282,682.1803720592739,-4.154527703472387,145509.13381036444,10.5,10500145509.13381,47.655,-122.3035,60.0,5.883333333333334
2026-01-20T23:05:54+00:00,SAT-54178,163.6653445149096,47.59470873505677,678.0369230963441,-4.107234650182569,143852.73103473795,10.5,10500143852.731035,47.655,-122.3035,60.0,5.9
2026-01-20T23:05:55+00:00,SAT-54178,162.9209470537702,47.708901697255655,673.9406410718954,-4.059069140851498,142165.77115806137,10.5,10500142165.771158,47.655,-122.3035,60.0,5.916666666666667
2026-01-20T23:05:56+00:00,SAT-54178,162.16479685551218,47.81941530298277,669.8923961154195,-4.010020329239899,140447.8742991558,10.5,10500140447.8743,47.655,-122.3035,60.0,5.933333333333334
2026-01-20T23:05:57+00:00,SAT-54178,161.39685349791915,47.92604698788075,665.8930691737243,-3.9600776860145306,138698.67167623198,10.5,10500138698.671677,47.655,-122.3035,60.0,5.95
2026-01-20T23:05:58+00:00,SAT-54178,160.61709128165344,48.028589145288706,661.9435516948724,-3.9092310624162936,136917.80783681717,10.5,10500136917.807837,47.655,-122.3035,60.0,5.966666666666667
2026-01-20T23:05:59+00:00,SAT-54178,159.82550025807464,48.12682933150357,658.0447452486225,-3.8574706675580654,135104.93986262885,10.5,10500135104.939863,47.655,-122.3035,60.0,5.983333333333333
2026-01-20T23:06:00+00:00,SAT-54178,159.02208727614348,48.220550505556545,654.1975611695113,-3.8047871393146115,133259.73985243958,10.5,10500133259.739853,47.655,-122.3035,60.0,6.0
2026-01-20T23:06:01+00:00,SAT-54178,158.20687702378518,48.30953130771057,650.4029201292349,-3.7511715979978475,131381.89680201162,10.5,10500131381.896803,47.655,-122.3035,60.0,6.016666666666667
2026-01-20T23:06:02+00:00,SAT-54178,157.37991305894516,48.393546378002725,646.6617516554983,-3.6966156528422216,129471.1168312424,10.5,10500129471.11683,47.655,-122.3035,60.0,6.033333333333333
2026-01-20T23:06:03+00:00,SAT-54178,156.54125883196738,48.472366714898826,642.974993644397,-3.641111478342253,127527.12585782814,10.5,10500127527.125858,47.655,-122.3035,60.0,6.05
2026-01-20T23:06:04+00:00,SAT-54178,155.69099867559,48.54576007735414,639.3435917966638,-3.584651816861982,125549.66968865778,10.5,10500125549.66969,47.655,-122.3035,60.0,6.066666666666666
2026-01-20T23:06:05+00:00,SAT-54178,154.82923876875017,48.61349142917868,635.7684990513134,-3.527230073099431,123538.51732835795,10.5,10500123538.517328,47.655,-122.3035,60.0,6.083333333333333
2026-01-20T23:06:06+00:00,SAT-54178,153.95610804310624,48.67532342900733,632.2506749250755,-3.468840312777178,121493.46093343137,10.5,10500121493.460934,47.655,-122.3035,60.0,6.1
2026-01-20T23:06:07+00:00,SAT-54178,153.07175904291617,48.73101696359422,628.7910848531324,-3.4094773305096404,119414.3181892562,10.5,10500119414.31819,47.655,-122.3035,60.0,6.116666666666666
2026-01-20T23:06:08+00:00,SAT-54178,152.17636871107078,48.78033172647394,625.3906994621708,-3.3491367060232404,117300.93427915397,10.5,10500117300.934278,47.655,-122.3035,60.0,6.133333333333334
2026-01-20T23:06:09+00:00,SAT-54178,151.27013909107754,48.823026840817974,622.0504937873636,-3.287814843558168,115153.1832644061,10.5,10500115153.183264,47.655,-122.3035,60.0,6.15
2026-01-20T23:06:10+00:00,SAT-54178,150.35329793711313,48.85886152556241,618.7714464500549,-3.2255089880769128,112970.96865194516,10.5,10500112970.968653,47.655,-122.3035,60.0,6.166666666666667
2026-01-20T23:06:11+00:00,SAT-54178,149.42609922673816,48.88759580302043,615.5545388192795,-3.162217344457171,110754.22756899473,10.5,10500110754.22757,47.655,-122.3035,60.0,6.183333333333334
2026-01-20T23:06:12+00:00,SAT-54178,148.48882353543206,48.90899124762641,612.4007540544076,-3.0979390380553893,108502.92938183784,10.5,10500108502.929382,47.655,-122.3035,60.0,6.2
2026-01-20T23:06:13+00:00,SAT-54178,147.54177830522056,48.92281177105323,609.3110761871204,-3.0326742488882186,106217.08039541908,10.5,10500106217.080395,47.655,-122.3035,60.0,6.216666666666667
2026-01-20T23:06:14+00:00,SAT-54178,146.58529794664187,48.92882444299044,606.2864890695625,-2.9664241870205745,103896.72299133035,10.5,10500103896.722992,47.655,-122.3035,60.0,6.233333333333333
2026-01-20T23:06:15+00:00,SAT-54178,145.61974380948075,48.92680034198203,603.3279753470407,-2.899191183257965,101541.9388042398,10.5,10500101541.938805,47.655,-122.3035,60.0,6.25
2026-01-20T23:06:16+00:00,SAT-54178,144.64550397875954,48.916515433474025,600.4365153402714,-2.83097871812454,99152.84973682582,10.5,10500099152.849737,47.655,-122.3035,60.0,6.266666666666667
2026-01-20T23:06:17+00:00,SAT-54178,143.66299290583066,48.89775146956739,597.6130858987285,-2.761791471003377,96729.61968087756,10.5,10500096729.61968,47.655,-122.3035,60.0,6.283333333333333
2026-01-20T23:06:18+00:00,SAT-54178,142.6726508616557,48.870296905310035,594.8586592049812,-2.6916353511014166,94272.45560181796,10.5,10500094272.455603,47.655,-122.3035,60.0,6.3
2026-01-20T23:06:19+00:00,SAT-54178,141.67494321334752,48.83394782574122,592.1742015481493,-2.6205175623928376,91781.60981329555,10.5,10500091781.609814,47.655,-122.3035,60.0,6.316666666666666
2026-01-20T23:06:20+00:00,SAT-54178,140.6703595085999,48.7885088771721,589.5606720325895,-2.5484466171890294,89257.38045246224,10.5,10500089257.380453,47.655,-122.3035,60.0,6.333333333333333
2026-01-20T23:06:21+00:00,SAT-54178,139.65941238497177,48.73379419601882,587.0190212730464,-2.475432383471134,86700.11313775914,10.5,10500086700.113138,47.655,-122.3035,60.0,6.35
2026-01-20T23:06:22+00:00,SAT-54178,138.64263629339445,48.669628328226274,584.5501900425978,-2.4014861247342214,84110.20236442814,10.5,10500084110.202364,47.655,-122.3035,60.0,6.366666666666666
2026-01-20T23:06:23+00:00,SAT-54178,137.6205860410938,48.595847131382165,582.1551078808629,-2.3266205098078756,81488.09184847037,10.5,10500081488.091848,47.655,-122.3035,60.0,6.383333333333334
2026-01-20T23:06:24+00:00,SAT-54178,136.59383517228866,48.512298652915646,579.8346916924145,-2.25084966113923,78834.27621772232,10.5,10500078834.276218,47.655,-122.3035,60.0,6.4
2026-01-20T23:06:25+00:00,SAT-54178,135.56297417876957,48.41884397552459,577.5898442970383,-2.1741891547031416,76149.30100870978,10.5,10500076149.301008,47.655,-122.3035,60.0,6.416666666666667
2026-01-20T23:06:26+00:00,SAT-54178,134.5286085714318,48.31535802379554,575.421452980081,-2.0966560786612947,73433.76472113782,10.5,10500073433.76472,47.655,-122.3035,60.0,6.433333333333334
2026-01-20T23:06:27+00:00,SAT-54178,133.49135679828206,48.20173032186931,573.3303879842962,-2.0182689823302074,70688.31703053444,10.5,10500070688.31703,47.655,-122.3035,60.0,6.45
2026-01-20T23:06:28+00:00,SAT-54178,132.45184807497367,48.07786569956657,571.3175010525855,-1.9390479478119458,67913.66129706115,10.5,10500067913.661297,47.655,-122.3035,60.0,6.466666666666667
2026-01-20T23:06:29+00:00,SAT-54178,131.4107200862142,47.94368493456547,569.383623899301,-1.8590145657705897,65110.553717102484,10.5,10500065110.553717,47.655,-122.3035,60.0,6.483333333333333
2026-01-20T23:06:30+00:00,SAT-54178,130.36861662064305,47.799125328203665,567.5295667057059,-1.7781919206021934,62279.802803855164,10.5,10500062279.802803,47.655,-122.3035,60.0,6.5
2026-01-20T23:06:31+00:00,SAT-54178,129.32618515608044,47.64414120882528,565.7561166302252,-1.6966046153889454,59422.27026132834,10.5,10500059422.270262,47.655,-122.3035,60.0,6.516666666666667
2026-01-20T23:06:32+00:00,SAT-54178,128.28407439227334,47.478704354747286,564.0640362938107,-1.6142787333691206,56538.86963485841,10.5,10500056538.869635,47.655,-122.3035,60.0,6.533333333333333
2026-01-20T23:06:33+00:00,SAT-54178,127.24293178575746,47.30280433595288,562.4540623037306,-1.5312418279428792,53630.56596106974,10.5,10500053630.565962,47.655,-122.3035,60.0,6.55
2026-01-20T23:06:34+00:00,SAT-54178,126.20340109183356,47.116448768989294,560.9269037873289,-1.4475229029246843,50698.375076230855,10.5,10500050698.375076,47.655,-122.3035,60.0,6.566666666666666
2026-01-20T23:06:35+00:00,SAT-54178,125.1661199374144,46.9196634819809,559.4832409454787,-1.3631523610653438,47743.361813278534,10.5,10500047743.361813,47.655,-122.3035,60.0,6.583333333333333
2026-01-20T23:06:36+00:00,SAT-54178,124.13171746557096,46.71249259138622,558.1237236573761,-1.2781619972994829,44766.63976531581,10.5,10500044766.639765,47.655,-122.3035,60.0,6.6
2026-01-20T23:06:37+00:00,SAT-54178,123.10081203748402,46.494998483179764,556.8489700920695,-1.1925849229676906,41769.36863155093,10.5,10500041769.368631,47.655,-122.3035,60.0,6.616666666666666
2026-01-20T23:06:38+00:00,SAT-54178,122.07400905680615,46.267261706762795,555.659565395563,-1.1064555407156722,38752.75333815956,10.5,10500038752.753338,47.655,-122.3035,60.0,6.633333333333334
2026-01-20T23:06:39+00:00,SAT-54178,121.05189889289927,46.02938077468203,554.5560604029558,-1.0198094649783742,35718.04125330241,10.5,10500035718.041254,47.655,-122.3035,60.0,6.65
2026-01-20T23:06:40+00:00,SAT-54178,120.03505495807286,45.7814718778443,553.5389704298841,-0.9326834838625504,32666.520852091548,10.5,10500032666.520853,47.655,-122.3035,60.0,6.666666666666667
2026-01-20T23:06:41+00:00,SAT-54178,119.02403191199832,45.52366851028072,552.6087741019785,-0.8451154708360158,29599.518623574466,10.5,10500029599.518623,47.655,-122.3035,60.0,6.683333333333334
2026-01-20T23:06:42+00:00,SAT-54178,118.01936404489027,45.256121015535555,551.7659122723982,-0.7571443176881868,26518.39672272863,10.5,10500026518.396723,47.655,-122.3035,60.0,6.7
2026-01-20T23:06:43+00:00,SAT-54178,117.02156382567291,44.978996054234564,551.0107870062238,-0.6688098584597468,23424.55030615661,10.5,10500023424.550306,47.655,-122.3035,60.0,6.716666666666667
2026-01-20T23:06:44+00:00,SAT-54178,116.0311206229071,44.6924759973751,550.3437606407199,-0.58015277617066,20319.404265306533,10.5,10500020319.404264,47.655,-122.3035,60.0,6.733333333333333
2026-01-20T23:06:45+00:00,SAT-54178,115.04849961962718,44.396758255499385,549.765154938619,-0.49121452645957886,17204.410552001205,10.5,10500017204.410551,47.655,-122.3035,60.0,6.75
2026-01-20T23:06:46+00:00,SAT-54178,114.0741408938021,44.09205454166944,549.2752503175633,-0.4020372315447436,14081.044464500197,10.5,10500014081.044464,47.655,-122.3035,60.0,6.766666666666667
2026-01-20T23:06:47+00:00,SAT-54178,113.10845870091083,43.778590084373064,548.8742851853027,-0.3126635913183017,10950.801533646878,10.5,10500010950.801533,47.655,-122.3035,60.0,6.783333333333333
2026-01-20T23:06:48+00:00,SAT-54178,112.15184092478799,43.45660278887034,548.5624553635613,-0.22313677928068743,7815.193878050187,10.5,10500007815.193878,47.655,-122.3035,60.0,6.8
2026-01-20T23:06:49+00:00,SAT-54178,111.20464871116106,43.12634235880205,548.3399136156919,-0.13350034080842904,4675.746640992899,10.5,10500004675.746641,47.655,-122.3035,60.0,6.816666666666666
2026-01-20T23:06:50+00:00,SAT-54178,110.26721627051897,42.7880693834778,548.2067692757925,-0.04379808908871787,1533.9943456200544,10.5,10500001533.994345,47.655,-122.3035,60.0,6.833333333333333
2026-01-20T23:06:51+00:00,SAT-54178,109.33985083784378,42.442054396046125,548.1630879816079,0.045926002542375464,-1608.5228758321277,10.5,10499998391.477123,47.655,-122.3035,60.0,6.85
2026-01-20T23:06:52+00:00,SAT-54178,108.42283279175093,42.08857691364219,548.2088915148101,0.13562790706317568,-4750.263010830462,10.5,10499995249.73699,47.655,-122.3035,60.0,6.866666666666666
2026-01-20T23:06:53+00:00,SAT-54178,107.51641590821944,41.72792446127007,548.3441577474545,0.22526365346671978,-7889.686008713927,10.5,10499992110.313992,47.655,-122.3035,60.0,6.883333333333334
2026-01-20T23:06:54+00:00,SAT-54178,106.6208277439851,41.36039158805827,548.5688206978454,0.3147894302661927,-11025.257405891856,10.5,10499988974.742594,47.655,-122.3035,60.0,6.9
2026-01-20T23:06:55+00:00,SAT-54178,105.73627015471642,40.98627888907784,548.8827706896308,0.4041616976242808,-14155.452253088195,10.5,10499985844.547747,47.655,-122.3035,60.0,6.916666666666667
2026-01-20T23:06:56+00:00,SAT-54178,104.86291989204665,40.60589202173003,549.285854622728,0.49333728533139953,-17278.75854695349,10.5,10499982721.241453,47.655,-122.3035,60.0,6.933333333333334
2026-01-20T23:06:57+00:00,SAT-54178,104.0009293214214,40.21954074362441,549.7778763419653,0.5822735019413152,-20393.681052455995,10.5,10499979606.318947,47.655,-122.3035,60.0,6.95
2026-01-20T23:06:58+00:00,SAT-54178,103.15042720104154,39.82753795852003,550.358597114568,0.6709282328825259,-23498.744739157253,10.5,10499976501.25526,47.655,-122.3035,60.0,6.966666666666667
2026-01-20T23:06:59+00:00,SAT-54178,102.31151953860262,39.430198786538625,551.0277362054962,0.7592600349228494,-26592.498089761546,10.5,10499973407.501911,47.655,-122.3035,60.0,6.983333333333333
2026-01-20T23:07:00+00:00,SAT-54178,101.48429050714337,39.027839660747375,551.7849715469927,0.8472282298388362,-29673.516380814955,10.5,10499970326.48362,47.655,-122.3035,60.0,7.0
2026-01-20T23:07:01+00:00,SAT-54178,100.66880340443879,38.620777452144516,552.6299405015518,0.9347930020875415,-32740.40510358398,10.5,10499967259.594896,47.655,-122.3035,60.0,7.016666666666667
2026-01-20T23:07:02+00:00,SAT-54178,99.86510163998265,38.20932862366972,553.5622407223004,1.0219154642483963,-35791.80225610666,10.5,10499964208.197744,47.655,-122.3035,60.0,7.033333333333333
2026-01-20T23:07:03+00:00,SAT-54178,99.073209765185,37.79380842891358,554.5814310786442,1.1085577635031265,-38826.38207256978,10.5,10499961173.617928,47.655,-122.3035,60.0,7.05
2026-01-20T23:07:04+00:00,SAT-54178,98.29313449482939,37.37453013737402,555.6870326881115,1.1946831263034428,-41842.85658776028,10.5,10499958157.143412,47.655,-122.3035,60.0,7.066666666666666
2026-01-20T23:07:05+00:00,SAT-54178,97.52486576060059,36.951804312729934,556.8785299927447,1.2802559485301783,-44839.97879481969,10.5,10499955160.021206,47.655,-122.3035,60.0,7.083333333333333
2026-01-20T23:07:06+00:00,SAT-54178,96.76837774606258,36.52593812458469,558.155371925412,1.3652418488761888,-47816.544514939014,10.5,10499952183.455484,47.655,-122.3035,60.0,7.1
2026-01-20T23:07:07+00:00,SAT-54178,96.02362992155207,36.09723470774644,559.516973129358,1.4496077257249083,-50771.3943894864,10.5,10499949228.60561,47.655,-122.3035,60.0,7.116666666666666
2026-01-20T23:07:08+00:00,SAT-54178,95.29056806457184,35.66599256590199,560.9627152344809,1.5333218138425824,-53703.41586560898,10.5,10499946296.584135,47.655,-122.3035,60.0,7.133333333333334
2026-01-20T23:07:09+00:00,SAT-54178,94.56912525778645,35.23250501877444,562.4919481901534,1.6163537158416468,-56611.544298213434,10.5,10499943388.455702,47.655,-122.3035,60.0,7.15
2026-01-20T23:07:10+00:00,SAT-54178,93.85922286960833,34.797059698443086,564.1039916294194,1.6986744539340808,-59494.76476258735,10.5,10499940505.235237,47.655,-122.3035,60.0,7.166666666666667
2026-01-20T23:07:11+00:00,SAT-54178,93.16077149984538,34.359938087145245,565.7981362848095,1.7802564861017511,-62352.112620753076,10.5,10499937647.887379,47.655,-122.3035,60.0,7.183333333333334
2026-01-20T23:07:12+00:00,SAT-54178,92.47367190133075,33.92141510419749,567.5736454202818,1.8610737550278136,-65182.67523525239,10.5,10499934817.324764,47.655,-122.3035,60.0,7.2
2026-01-20T23:07:13+00:00,SAT-54178,91.79781585794841,33.48175873151653,569.4297563119628,1.9411016773605694,-67985.59159312132,10.5,10499932014.408407,47.655,-122.3035,60.0,7.216666666666667
2026-01-20T23:07:14+00:00,SAT-54178,91.13308703901544,33.041229690053015,571.3656817181839,2.0203171805197564,-70760.05359500219,10.5,10499929239.946405,47.655,-122.3035,60.0,7.233333333333333
2026-01-20T23:07:15+00:00,SAT-54178,90.4793618069088,32.60008115288323,573.3806113862222,2.0986986890597445,-73505.30557752495,10.5,10499926494.694422,47.655,-122.3035,60.0,7.25
2026-01-20T23:07:16+00:00,SAT-54178,89.8365099935562,32.15855850428314,575.4737135454444,2.1762261649175527,-76220.64572296312,10.5,10499923779.354277,47.655,-122.3035,60.0,7.266666666666667
2026-01-20T23:07:17+00:00,SAT-54178,89.20439562564773,31.71689913046086,577.6441364405889,2.252881040790513,-78905.42372583765,10.5,10499921094.576275,47.655,-122.3035,60.0,7.283333333333333
2026-01-20T23:07:18+00:00,SAT-54178,88.58287763028723,31.275332261427014,579.8910097986039,2.328646272579465,-81559.04262969947,10.5,10499918440.95737,47.655,-122.3035,60.0,7.3
2026-01-20T23:07:19+00:00,SAT-54178,87.97181048215401,30.834078836781483,582.2134463477898,2.4035062994175305,-84180.95742716806,10.5,10499915819.042572,47.655,-122.3035,60.0,7.316666666666666
2026-01-20T23:07:20+00:00,SAT-54178,87.37104482052305,30.39335141176055,584.6105432970755,2.47744700387256,-86770.67366605293,10.5,10499913229.326334,47.655,-122.3035,60.0,7.333333333333333
