satellites_20260121_005943/SAT-64305.csv

timestamp,satellite,azimuth_deg,elevation_deg,distance_km,relative_velocity_kms,doppler_shift_hz,tx_freq_ghz,rx_freq_hz,ue_lat,ue_lon,ue_alt_m,time_minutes
2026-01-20T23:00:00+00:00,SAT-64305,323.7575942638047,61.60027463044581,1242.7216707606665,6.07635097043477,-212819.51392374616,10.5,10499787180.486076,47.655,-122.3035,60.0,0.0
2026-01-20T23:00:01+00:00,SAT-64305,323.752745279169,61.404495624119164,1248.7818181285134,6.086426531191734,-213172.40268103476,10.5,10499786827.597319,47.655,-122.3035,60.0,0.016666666666666666
2026-01-20T23:00:02+00:00,SAT-64305,323.7477152024222,61.21032287441117,1254.8520141889553,6.096349311315296,-213519.94041428022,10.5,10499786480.059586,47.655,-122.3035,60.0,0.03333333333333333
2026-01-20T23:00:03+00:00,SAT-64305,323.7425099962575,61.01773578941517,1260.9321065687736,6.106121973785312,-213862.22039230145,10.5,10499786137.779608,47.655,-122.3035,60.0,0.05
2026-01-20T23:00:04+00:00,SAT-64305,323.7371353728343,60.826714070088784,1267.021945550629,6.115747146177519,-214199.33464391538,10.5,10499785800.665356,47.655,-122.3035,60.0,0.06666666666666667
2026-01-20T23:00:05+00:00,SAT-64305,323.7315968069752,60.63723770613494,1273.12138403775,6.125227358110583,-214531.371767068,10.5,10499785468.628233,47.655,-122.3035,60.0,0.08333333333333333
2026-01-20T23:00:06+00:00,SAT-64305,323.72589954807006,60.4492869739606,1279.230277456239,6.134565115745014,-214858.4195381014,10.5,10499785141.580462,47.655,-122.3035,60.0,0.1
2026-01-20T23:00:07+00:00,SAT-64305,323.72004863170366,60.26284243220851,1285.3484837316755,6.143762871025203,-215180.5638344799,10.5,10499784819.436165,47.655,-122.3035,60.0,0.11666666666666667
2026-01-20T23:00:08+00:00,SAT-64305,323.7140488903249,60.07788491834566,1291.4758632350445,6.1528230334978105,-215497.8890487199,10.5,10499784502.11095,47.655,-122.3035,60.0,0.13333333333333333
2026-01-20T23:00:09+00:00,SAT-64305,323.7079049634391,59.8943955448875,1297.6122787404531,6.161747949968756,-215810.4773758916,10.5,10499784189.522625,47.655,-122.3035,60.0,0.15
2026-01-20T23:00:10+00:00,SAT-64305,323.70162130701493,59.71235569629871,1303.7575953625553,6.170539926697162,-216118.4095909451,10.5,10499783881.590408,47.655,-122.3035,60.0,0.16666666666666666
2026-01-20T23:00:11+00:00,SAT-64305,323.6952022025238,59.531747025218465,1309.9116805161145,6.179201266557417,-216421.76635028247,10.5,10499783578.23365,47.655,-122.3035,60.0,0.18333333333333332
2026-01-20T23:00:12+00:00,SAT-64305,323.6886517654213,59.35255144765597,1316.0744039126275,6.187734139570929,-216720.62365723276,10.5,10499783279.376343,47.655,-122.3035,60.0,0.2
2026-01-20T23:00:13+00:00,SAT-64305,323.68197395292896,59.17475114206078,1322.2456374278265,6.1961407612719785,-217015.05910917802,10.5,10499782984.940891,47.655,-122.3035,60.0,0.21666666666666667
2026-01-20T23:00:14+00:00,SAT-64305,323.67517257171187,58.99832854313861,1328.4252551470684,6.204423263173913,-217305.14736073208,10.5,10499782694.85264,47.655,-122.3035,60.0,0.23333333333333334
2026-01-20T23:00:15+00:00,SAT-64305,323.66825128489825,58.823266339552944,1334.6131332815405,6.212583734986211,-217590.96160236033,10.5,10499782409.038397,47.655,-122.3035,60.0,0.25
2026-01-20T23:00:16+00:00,SAT-64305,323.661213618704,58.64954747042346,1340.8091501265667,6.220624231342295,-217872.57379601622,10.5,10499782127.426205,47.655,-122.3035,60.0,0.26666666666666666
2026-01-20T23:00:17+00:00,SAT-64305,323.6540629688382,58.477155121653595,1347.0131860266256,6.228546745438419,-218150.0537518639,10.5,10499781849.946249,47.655,-122.3035,60.0,0.2833333333333333
2026-01-20T23:00:18+00:00,SAT-64305,323.64680260633327,58.30607272308301,1353.2251233140762,6.236353289861968,-218423.47195922676,10.5,10499781576.52804,47.655,-122.3035,60.0,0.3
2026-01-20T23:00:19+00:00,SAT-64305,323.6394356833926,58.136283943378096,1359.4448463284984,6.244045801820913,-218692.89626732233,10.5,10499781307.103733,47.655,-122.3035,60.0,0.31666666666666665
2026-01-20T23:00:20+00:00,SAT-64305,323.63196523858153,57.9677726876922,1365.6722413415146,6.2516261442156535,-218958.3919228027,10.5,10499781041.608078,47.655,-122.3035,60.0,0.3333333333333333
2026-01-20T23:00:21+00:00,SAT-64305,323.62439420187604,57.80052309526573,1371.907196482679,6.259096195580699,-219220.0247198925,10.5,10499780779.97528,47.655,-122.3035,60.0,0.35
2026-01-20T23:00:22+00:00,SAT-64305,323.61672539946244,57.6345195346226,1378.1496017550714,6.266457815262209,-219477.85978075938,10.5,10499780522.140219,47.655,-122.3035,60.0,0.36666666666666664
2026-01-20T23:00:23+00:00,SAT-64305,323.60896155841635,57.46974659978185,1384.3993490161595,6.273712752474363,-219731.958370283,10.5,10499780268.04163,47.655,-122.3035,60.0,0.38333333333333336
2026-01-20T23:00:24+00:00,SAT-64305,323.60110531076936,57.30618910900241,1390.6563318679605,6.280862769888488,-219982.38222466933,10.5,10499780017.617775,47.655,-122.3035,60.0,0.4
2026-01-20T23:00:25+00:00,SAT-64305,323.5931591977289,57.14383210019048,1396.9204456704626,6.2879096175946785,-220229.19263947636,10.5,10499779770.80736,47.655,-122.3035,60.0,0.4166666666666667
2026-01-20T23:00:26+00:00,SAT-64305,323.5851256735417,56.98266082712154,1403.1915875290772,6.29485495952453,-220472.447892627,10.5,10499779527.552107,47.655,-122.3035,60.0,0.43333333333333335
2026-01-20T23:00:27+00:00,SAT-64305,323.577007109127,56.82266075762945,1409.4696562087097,6.301700480274872,-220712.206985828,10.5,10499779287.793015,47.655,-122.3035,60.0,0.45
2026-01-20T23:00:28+00:00,SAT-64305,323.5688057956001,56.66381756905382,1415.7545521543705,6.308447779484957,-220948.52594521255,10.5,10499779051.474054,47.655,-122.3035,60.0,0.4666666666666667
2026-01-20T23:00:29+00:00,SAT-64305,323.56052394754715,56.50611714648041,1422.0461774064436,6.315098457568822,-221181.4608240499,10.5,10499778818.539175,47.655,-122.3035,60.0,0.48333333333333334
2026-01-20T23:00:30+00:00,SAT-64305,323.552163706196,56.34954557881034,1428.3444356014586,6.3216540954360445,-221411.06699248074,10.5,10499778588.933008,47.655,-122.3035,60.0,0.5
2026-01-20T23:00:31+00:00,SAT-64305,323.5437271424657,56.194089155420876,1434.6492319526403,6.3281162116190846,-221637.39763593514,10.5,10499778362.602364,47.655,-122.3035,60.0,0.5166666666666667
2026-01-20T23:00:32+00:00,SAT-64305,323.5352162597084,56.039734363975576,1440.960473187695,6.33448631184962,-221860.50549150576,10.5,10499778139.494509,47.655,-122.3035,60.0,0.5333333333333333
2026-01-20T23:00:33+00:00,SAT-64305,323.5266329965016,55.88646788699428,1447.2780675360466,6.340765889256746,-222080.4428548894,10.5,10499777919.557144,47.655,-122.3035,60.0,0.55
2026-01-20T23:00:34+00:00,SAT-64305,323.51797922924607,55.73427659851323,1453.601924716265,6.346956381884636,-222297.26009247598,10.5,10499777702.739908,47.655,-122.3035,60.0,0.5666666666666667
2026-01-20T23:00:35+00:00,SAT-64305,323.5092567745431,55.58314756184293,1459.9319558811314,6.353059206198197,-222511.00681485812,10.5,10499777488.993185,47.655,-122.3035,60.0,0.5833333333333334
2026-01-20T23:00:36+00:00,SAT-64305,323.5004673916429,55.43306802651464,1466.268073596113,6.359075751045673,-222721.7316653762,10.5,10499777278.268335,47.655,-122.3035,60.0,0.6
2026-01-20T23:00:37+00:00,SAT-64305,323.491612784571,55.284025425472684,1472.6101918118227,6.365007411868443,-222929.48351829,10.5,10499777070.516481,47.655,-122.3035,60.0,0.6166666666666667
2026-01-20T23:00:38+00:00,SAT-64305,323.4826946043807,55.136007371462284,1478.9582258705927,6.370855520247786,-223134.3090112085,10.5,10499776865.690989,47.655,-122.3035,60.0,0.6333333333333333
2026-01-20T23:00:39+00:00,SAT-64305,323.47371445109155,54.9890016551896,1485.3120924427865,6.376621366472633,-223336.25333550802,10.5,10499776663.746664,47.655,-122.3035,60.0,0.65
2026-01-20T23:00:40+00:00,SAT-64305,323.46467387565093,54.842996242943315,1491.671709485615,6.382306286046449,-223535.363266169,10.5,10499776464.636734,47.655,-122.3035,60.0,0.6666666666666666
2026-01-20T23:00:41+00:00,SAT-64305,323.4555743818162,54.69797927226554,1498.0369962882323,6.387911498885991,-223731.68152983658,10.5,10499776268.31847,47.655,-122.3035,60.0,0.6833333333333333
2026-01-20T23:00:42+00:00,SAT-64305,323.44641742791123,54.55393905140911,1504.4078733564545,6.393438314147846,-223925.25397871213,10.5,10499776074.746021,47.655,-122.3035,60.0,0.7
2026-01-20T23:00:43+00:00,SAT-64305,323.4372044285327,54.410864054122136,1510.7842625017645,6.398887877280346,-224116.12073124148,10.5,10499775883.879269,47.655,-122.3035,60.0,0.7166666666666667
2026-01-20T23:00:44+00:00,SAT-64305,323.42793675608857,54.26874292027897,1517.1660866780387,6.404261440878269,-224304.32565859222,10.5,10499775695.674341,47.655,-122.3035,60.0,0.7333333333333333
2026-01-20T23:00:45+00:00,SAT-64305,323.41861574244206,54.12756445035784,1523.5532700884082,6.409560181369497,-224489.90996424507,10.5,10499775510.090036,47.655,-122.3035,60.0,0.75
2026-01-20T23:00:46+00:00,SAT-64305,323.4092426803728,53.9873176041651,1529.945738109294,6.414785214824971,-224672.91273772536,10.5,10499775327.087263,47.655,-122.3035,60.0,0.7666666666666667
2026-01-20T23:00:47+00:00,SAT-64305,323.3998188249047,53.84799149922171,1536.343417230213,6.419937695951513,-224853.3744217504,10.5,10499775146.625578,47.655,-122.3035,60.0,0.7833333333333333
2026-01-20T23:00:48+00:00,SAT-64305,323.39034539475523,53.709575406966096,1542.7462350923083,6.425018742247144,-225031.33415582794,10.5,10499774968.665844,47.655,-122.3035,60.0,0.8
2026-01-20T23:00:49+00:00,SAT-64305,323.38082357359957,53.57205875072203,1549.154120451243,6.4300294505576145,-225206.83035613576,10.5,10499774793.169643,47.655,-122.3035,60.0,0.8166666666666667
2026-01-20T23:00:50+00:00,SAT-64305,323.3712545113117,53.435431103339745,1555.5670031565992,6.434970859358361,-225379.89939447638,10.5,10499774620.100605,47.655,-122.3035,60.0,0.8333333333333334
2026-01-20T23:00:51+00:00,SAT-64305,323.3616393250981,53.299682185691175,1561.9848140936656,6.439844053169532,-225550.57925533297,10.5,10499774449.420744,47.655,-122.3035,60.0,0.85
2026-01-20T23:00:52+00:00,SAT-64305,323.35197910073884,53.16480186293441,1568.4074852293602,6.444650058723384,-225718.90589921223,10.5,10499774281.0941,47.655,-122.3035,60.0,0.8666666666666667
2026-01-20T23:00:53+00:00,SAT-64305,323.3422748935917,53.030780143100365,1574.8349495545938,6.449389884113725,-225884.9146338235,10.5,10499774115.085365,47.655,-122.3035,60.0,0.8833333333333333
2026-01-20T23:00:54+00:00,SAT-64305,323.3325277296871,52.89760717484498,1581.267141065683,6.454064518624383,-226048.64010807112,10.5,10499773951.359892,47.655,-122.3035,60.0,0.9
2026-01-20T23:00:55+00:00,SAT-64305,323.3227386066892,52.76527324526299,1587.7039947455912,6.45867493366942,-226210.11634498462,10.5,10499773789.883656,47.655,-122.3035,60.0,0.9166666666666666
2026-01-20T23:00:56+00:00,SAT-64305,323.3129084948939,52.63376877770929,1594.145446546104,6.46322211538399,-226369.37788318843,10.5,10499773630.622116,47.655,-122.3035,60.0,0.9333333333333333
2026-01-20T23:00:57+00:00,SAT-64305,323.30303833813423,52.503084329007834,1600.5914334025135,6.467707000274569,-226526.45752310075,10.5,10499773473.542477,47.655,-122.3035,60.0,0.95
2026-01-20T23:00:58+00:00,SAT-64305,323.29312905470675,52.37321058801865,1607.041893184121,6.4721304629731495,-226681.38589803374,10.5,10499773318.614101,47.655,-122.3035,60.0,0.9666666666666667
2026-01-20T23:00:59+00:00,SAT-64305,323.2831815381012,52.24413837450241,1613.496764632526,6.47649348311933,-226834.19731910987,10.5,10499773165.802681,47.655,-122.3035,60.0,0.9833333333333333
2026-01-20T23:01:00+00:00,SAT-64305,323.2731966580056,52.11585863457684,1619.955987466357,6.480796907734787,-226984.92145261128,10.5,10499773015.078547,47.655,-122.3035,60.0,1.0
2026-01-20T23:01:01+00:00,SAT-64305,323.2631752609025,51.98836244112118,1626.4195022490046,6.485041623669883,-227133.58935978895,10.5,10499772866.41064,47.655,-122.3035,60.0,1.0166666666666666
2026-01-20T23:01:02+00:00,SAT-64305,323.25311817097077,51.86164099064123,1632.8872504283447,6.489228490193378,-227280.23113586957,10.5,10499772719.768864,47.655,-122.3035,60.0,1.0333333333333334
2026-01-20T23:01:03+00:00,SAT-64305,323.2430261907091,51.73568560159859,1639.3591743092309,6.493358346261759,-227424.8761646581,10.5,10499772575.123835,47.655,-122.3035,60.0,1.05
2026-01-20T23:01:04+00:00,SAT-64305,323.23290010168665,51.610487712586576,1645.835217033236,6.497432048511465,-227567.55444918625,10.5,10499772432.44555,47.655,-122.3035,60.0,1.0666666666666667
2026-01-20T23:01:05+00:00,SAT-64305,323.2227406652063,51.48603887981996,1652.315322596285,6.50145036726746,-227708.29296949267,10.5,10499772291.707031,47.655,-122.3035,60.0,1.0833333333333333
2026-01-20T23:01:06+00:00,SAT-64305,323.2125486229243,51.362330776691266,1658.7994357625728,6.505414118690036,-227847.1203109632,10.5,10499772152.879688,47.655,-122.3035,60.0,1.1
2026-01-20T23:01:07+00:00,SAT-64305,323.2023246974715,51.23935519077055,1665.2875021102795,6.509324116554154,-227984.06497543916,10.5,10499772015.935024,47.655,-122.3035,60.0,1.1166666666666667
2026-01-20T23:01:08+00:00,SAT-64305,323.1920695931273,51.117104021789764,1671.7794680291897,6.513181099046739,-228119.15281734927,10.5,10499771880.847183,47.655,-122.3035,60.0,1.1333333333333333
2026-01-20T23:01:09+00:00,SAT-64305,323.1817839962705,50.99556928109438,1678.2752806453057,6.516985835554839,-228252.41078388237,10.5,10499771747.589216,47.655,-122.3035,60.0,1.15
2026-01-20T23:01:10+00:00,SAT-64305,323.17146857602893,50.874743089032194,1684.7748878519656,6.52073907069563,-228383.86495468178,10.5,10499771616.135046,47.655,-122.3035,60.0,1.1666666666666667
2026-01-20T23:01:11+00:00,SAT-64305,323.16112398475593,50.754617673482414,1691.2782382851394,6.524441530685684,-228513.54076492373,10.5,10499771486.459234,47.655,-122.3035,60.0,1.1833333333333333
2026-01-20T23:01:12+00:00,SAT-64305,323.1507508585822,50.635185368273916,1697.7852813050765,6.528093961899096,-228641.46435578613,10.5,10499771358.535645,47.655,-122.3035,60.0,1.2
2026-01-20T23:01:13+00:00,SAT-64305,323.1403498178881,50.51643861093227,1704.2959670164107,6.531697020871185,-228767.65872191303,10.5,10499771232.341278,47.655,-122.3035,60.0,1.2166666666666666
2026-01-20T23:01:14+00:00,SAT-64305,323.12992146778157,50.398369942489595,1710.8102461785595,6.535251434501067,-228892.14932238622,10.5,10499771107.850677,47.655,-122.3035,60.0,1.2333333333333334
2026-01-20T23:01:15+00:00,SAT-64305,323.11946639855677,50.28097200436046,1717.3280702759018,6.5387578959235055,-229014.96043371712,10.5,10499770985.039566,47.655,-122.3035,60.0,1.25
2026-01-20T23:01:16+00:00,SAT-64305,323.108985186166,50.16423753717809,1723.8493914841029,6.542217041482253,-229136.11434335567,10.5,10499770863.885656,47.655,-122.3035,60.0,1.2666666666666666
2026-01-20T23:01:17+00:00,SAT-64305,323.09847839258,50.048159380083085,1730.3741626134745,6.545629557514131,-229255.63508972054,10.5,10499770744.36491,47.655,-122.3035,60.0,1.2833333333333334
2026-01-20T23:01:18+00:00,SAT-64305,323.0879465662824,49.932730468069025,1736.9023371588353,6.548996079656975,-229373.54493553747,10.5,10499770626.455065,47.655,-122.3035,60.0,1.3
2026-01-20T23:01:19+00:00,SAT-64305,323.0773902425982,49.81794383122053,1743.4338692489466,6.552317232622906,-229489.8657608675,10.5,10499770510.13424,47.655,-122.3035,60.0,1.3166666666666667
2026-01-20T23:01:20+00:00,SAT-64305,323.0668099441171,49.70379259322881,1749.9687136356158,6.555593657859983,-229604.62003193496,10.5,10499770395.379969,47.655,-122.3035,60.0,1.3333333333333333
2026-01-20T23:01:21+00:00,SAT-64305,323.05620618105166,49.59026996945856,1756.506825710388,6.5588259583534265,-229717.82886783287,10.5,10499770282.171133,47.655,-122.3035,60.0,1.35
2026-01-20T23:01:22+00:00,SAT-64305,323.0455794515942,49.4773692660238,1763.048161466186,6.562014754228677,-229829.51398797738,10.5,10499770170.486012,47.655,-122.3035,60.0,1.3666666666666667
2026-01-20T23:01:23+00:00,SAT-64305,323.03493024225844,49.36508387790627,1769.5926775144032,6.565160627739657,-229939.69578536364,10.5,10499770060.304214,47.655,-122.3035,60.0,1.3833333333333333
2026-01-20T23:01:24+00:00,SAT-64305,323.0242590282286,49.25340728806622,1776.1403310471355,6.568264156231138,-230048.39448104778,10.5,10499769951.605518,47.655,-122.3035,60.0,1.4
2026-01-20T23:01:25+00:00,SAT-64305,323.0135662736486,49.142333066001804,1782.6910798322835,6.57132591299611,-230155.6301541754,10.5,10499769844.369846,47.655,-122.3035,60.0,1.4166666666666667
2026-01-20T23:01:26+00:00,SAT-64305,323.0028524319724,49.031854866314404,1789.2448822095116,6.574346478240621,-230261.42312601645,10.5,10499769738.576874,47.655,-122.3035,60.0,1.4333333333333333
2026-01-20T23:01:27+00:00,SAT-64305,322.9921179462398,48.921966427122335,1795.8016970971437,6.577326389050052,-230365.79220757296,10.5,10499769634.207792,47.655,-122.3035,60.0,1.45
2026-01-20T23:01:28+00:00,SAT-64305,322.9813632493732,48.812661569355555,1802.3614839491563,6.580266189937926,-230468.75647001172,10.5,10499769531.24353,47.655,-122.3035,60.0,1.4666666666666666
2026-01-20T23:01:29+00:00,SAT-64305,322.9705887644492,48.70393419520077,1808.9242027625876,6.583166433213089,-230570.33525752483,10.5,10499769429.664743,47.655,-122.3035,60.0,1.4833333333333334
2026-01-20T23:01:30+00:00,SAT-64305,322.9597949049996,48.59577828657485,1815.4898140853122,6.586027622687268,-230670.54621573002,10.5,10499769329.453785,47.655,-122.3035,60.0,1.5
2026-01-20T23:01:31+00:00,SAT-64305,322.94898207523175,48.48818790457391,1822.0582789676723,6.588850309653887,-230769.4086532551,10.5,10499769230.591347,47.655,-122.3035,60.0,1.5166666666666666
2026-01-20T23:01:32+00:00,SAT-64305,322.9381506703252,48.381157187324916,1828.6295590098337,6.591634958121663,-230866.93882164796,10.5,10499769133.061178,47.655,-122.3035,60.0,1.5333333333333334
2026-01-20T23:01:33+00:00,SAT-64305,322.9273010766368,48.27468035011839,1835.2036162747338,6.59438208535388,-230963.15483765685,10.5,10499769036.845161,47.655,-122.3035,60.0,1.55
2026-01-20T23:01:34+00:00,SAT-64305,322.91643367197497,48.1687516832142,1841.7804133411935,6.597092211326446,-231058.0749130376,10.5,10499768941.925087,47.655,-122.3035,60.0,1.5666666666666667
2026-01-20T23:01:35+00:00,SAT-64305,322.90554882579914,48.06336555053109,1848.359913306623,6.5997657864575165,-231151.71482333928,10.5,10499768848.285177,47.655,-122.3035,60.0,1.5833333333333333
2026-01-20T23:01:36+00:00,SAT-64305,322.89464689947226,47.95851638952468,1854.9420797176501,6.602403286511691,-231244.09123185065,10.5,10499768755.908768,47.655,-122.3035,60.0,1.6
2026-01-20T23:01:37+00:00,SAT-64305,322.8837282464431,47.854198709536114,1861.5268765953977,6.605005218839682,-231335.22190813973,10.5,10499768664.778091,47.655,-122.3035,60.0,1.6166666666666667
2026-01-20T23:01:38+00:00,SAT-64305,322.87279321248957,47.75040709007189,1868.1142684669871,6.607571998773169,-231425.1213988788,10.5,10499768574.878601,47.655,-122.3035,60.0,1.6333333333333333
2026-01-20T23:01:39+00:00,SAT-64305,322.86184213588825,47.64713618109779,1874.7042202737634,6.610104084864618,-231513.8057645149,10.5,10499768486.194235,47.655,-122.3035,60.0,1.65
2026-01-20T23:01:40+00:00,SAT-64305,322.8508753476432,47.544380701158744,1881.296697414402,6.61260195027146,-231601.29157702273,10.5,10499768398.708424,47.655,-122.3035,60.0,1.6666666666666667
2026-01-20T23:01:41+00:00,SAT-64305,322.839893171644,47.44213543601057,1887.8916657594727,6.61506600512934,-231687.59320108738,10.5,10499768312.4068,47.655,-122.3035,60.0,1.6833333333333333
2026-01-20T23:01:42+00:00,SAT-64305,322.82889592487874,47.340395238481676,1894.4890915885883,6.617496713890391,-231772.72690378726,10.5,10499768227.273096,47.655,-122.3035,60.0,1.7
2026-01-20T23:01:43+00:00,SAT-64305,322.8178839175816,47.23915502651003,1901.088941644575,6.619894449922839,-231856.70576205692,10.5,10499768143.294237,47.655,-122.3035,60.0,1.7166666666666666
2026-01-20T23:01:44+00:00,SAT-64305,322.8068574534367,47.138409783473385,1907.6911830426313,6.622259680727122,-231939.5461497393,10.5,10499768060.45385,47.655,-122.3035,60.0,1.7333333333333334
2026-01-20T23:01:45+00:00,SAT-64305,322.79581682971707,47.03815455564854,1914.29578336421,6.624592771776021,-232021.26086723708,10.5,10499767978.739132,47.655,-122.3035,60.0,1.75
2026-01-20T23:01:46+00:00,SAT-64305,322.78476233748415,46.93838445273665,1920.902710555261,6.626894160114647,-232101.86522171882,10.5,10499767898.134779,47.655,-122.3035,60.0,1.7666666666666666
2026-01-20T23:01:47+00:00,SAT-64305,322.7736942616931,46.83909464572845,1927.5119329976153,6.629164237440938,-232181.37293210308,10.5,10499767818.627068,47.655,-122.3035,60.0,1.7833333333333334
2026-01-20T23:01:48+00:00,SAT-64305,322.76261288139705,46.74028036657769,1934.1234194637566,6.6314033774486365,-232259.7970867255,10.5,10499767740.202913,47.655,-122.3035,60.0,1.8
2026-01-20T23:01:49+00:00,SAT-64305,322.751518469859,46.64193690747649,1940.737139098865,6.63361199285488,-232337.15214068608,10.5,10499767662.847858,47.655,-122.3035,60.0,1.8166666666666667
2026-01-20T23:01:50+00:00,SAT-64305,322.74041129472005,46.54405961927651,1947.3530614597391,6.635790439174394,-232413.45054561427,10.5,10499767586.549454,47.655,-122.3035,60.0,1.8333333333333333
2026-01-20T23:01:51+00:00,SAT-64305,322.7292916181074,46.44664391139353,1953.9711564577424,6.637939072176006,-232488.70476203927,10.5,10499767511.295238,47.655,-122.3035,60.0,1.85
2026-01-20T23:01:52+00:00,SAT-64305,322.71815969682564,46.349685250833744,1960.5913943590594,6.640058297290258,-232562.9289898537,10.5,10499767437.07101,47.655,-122.3035,60.0,1.8666666666666667
2026-01-20T23:01:53+00:00,SAT-64305,322.7070157824189,46.253179160533875,1967.2137458342236,6.642148480963933,-232636.136063574,10.5,10499767363.863937,47.655,-122.3035,60.0,1.8833333333333333
2026-01-20T23:01:54+00:00,SAT-64305,322.6958601213548,46.15712121902155,1973.8381819192382,6.644209915650062,-232708.3362261423,10.5,10499767291.663774,47.655,-122.3035,60.0,1.9
2026-01-20T23:01:55+00:00,SAT-64305,322.6846929551104,46.06150706060604,1980.46467394178,6.646243001585943,-232779.54349556184,10.5,10499767220.456505,47.655,-122.3035,60.0,1.9166666666666667
2026-01-20T23:01:56+00:00,SAT-64305,322.67351452032307,45.966332372892445,1987.093193628695,6.6482480936093475,-232849.77029975236,10.5,10499767150.2297,47.655,-122.3035,60.0,1.9333333333333333
2026-01-20T23:01:57+00:00,SAT-64305,322.66232504887574,45.87159289659342,1993.7237130607214,6.65022549068818,-232919.0271098344,10.5,10499767080.97289,47.655,-122.3035,60.0,1.95
2026-01-20T23:01:58+00:00,SAT-64305,322.6511247680442,45.77728442547527,2000.3562046167676,6.652175531239883,-232987.32577861837,10.5,10499767012.674221,47.655,-122.3035,60.0,1.9666666666666666
2026-01-20T23:01:59+00:00,SAT-64305,322.6399139005787,45.68340280494313,2006.9906410132576,6.654098577070939,-233054.67897809774,10.5,10499766945.321022,47.655,-122.3035,60.0,1.9833333333333334
2026-01-20T23:02:00+00:00,SAT-64305,322.6286926648263,45.58994393087648,2013.6269953274564,6.655994905542032,-233121.09642261692,10.5,10499766878.903578,47.655,-122.3035,60.0,2.0
2026-01-20T23:02:01+00:00,SAT-64305,322.61746127482564,45.496903750029745,2020.2652409132502,6.657864874053123,-233186.5906298343,10.5,10499766813.40937,47.655,-122.3035,60.0,2.0166666666666666
2026-01-20T23:02:02+00:00,SAT-64305,322.6062199404253,45.404278258081604,2026.9053514809725,6.6597087894983105,-233251.17234847936,10.5,10499766748.827652,47.655,-122.3035,60.0,2.033333333333333
2026-01-20T23:02:03+00:00,SAT-64305,322.59496886735167,45.31206349957736,2033.5473010470323,6.661526908882299,-233314.850579944,10.5,10499766685.14942,47.655,-122.3035,60.0,2.05
2026-01-20T23:02:04+00:00,SAT-64305,322.5837082573474,45.220255567849996,2040.1910638841575,6.663319614623945,-233377.63871815422,10.5,10499766622.361282,47.655,-122.3035,60.0,2.066666666666667
2026-01-20T23:02:05+00:00,SAT-64305,322.5724383082161,45.128850602493635,2046.8366146464757,6.665087142846475,-233439.5450331442,10.5,10499766560.454967,47.655,-122.3035,60.0,2.0833333333333335
2026-01-20T23:02:06+00:00,SAT-64305,322.5611592139563,45.037844790674676,2053.483928223608,6.666829804300864,-233500.58040872755,10.5,10499766499.419592,47.655,-122.3035,60.0,2.1
2026-01-20T23:02:07+00:00,SAT-64305,322.54987116481624,44.94723436534631,2060.1329798150973,6.668547916874514,-233560.75597866575,10.5,10499766439.24402,47.655,-122.3035,60.0,2.1166666666666667
2026-01-20T23:02:08+00:00,SAT-64305,322.5385743474006,44.85701560442888,2066.783744937527,6.670241748331649,-233620.08112119455,10.5,10499766379.918879,47.655,-122.3035,60.0,2.1333333333333333
2026-01-20T23:02:09+00:00,SAT-64305,322.5272689447325,44.767184830800275,2073.4361993745297,6.67191152829663,-233678.56387873046,10.5,10499766321.436121,47.655,-122.3035,60.0,2.15
2026-01-20T23:02:10+00:00,SAT-64305,322.5159551363759,44.677738412107566,2080.090319138751,6.673557623768424,-233736.21710512965,10.5,10499766263.782894,47.655,-122.3035,60.0,2.1666666666666665
2026-01-20T23:02:11+00:00,SAT-64305,322.5046330984495,44.588672758202485,2086.746080608856,6.6751802388912855,-233793.0479503874,10.5,10499766206.95205,47.655,-122.3035,60.0,2.183333333333333
2026-01-20T23:02:12+00:00,SAT-64305,322.4933030037722,44.499984322691446,2093.4034603671103,6.676779675593752,-233849.06698931832,10.5,10499766150.93301,47.655,-122.3035,60.0,2.2
2026-01-20T23:02:13+00:00,SAT-64305,322.4819650218804,44.41166960093915,2100.0624352969025,6.67835617522431,-233904.28267496725,10.5,10499766095.717325,47.655,-122.3035,60.0,2.216666666666667
2026-01-20T23:02:14+00:00,SAT-64305,322.47061931914624,44.323725130231715,2106.722982522326,6.679910020358485,-233958.7049043245,10.5,10499766041.295095,47.655,-122.3035,60.0,2.2333333333333334
2026-01-20T23:02:15+00:00,SAT-64305,322.4592660588106,44.236147488582596,2113.385079449297,6.681441450115459,-234012.34205235518,10.5,10499765987.657948,47.655,-122.3035,60.0,2.25
2026-01-20T23:02:16+00:00,SAT-64305,322.447905401079,44.14893329468053,2120.048703722212,6.682950722327823,-234065.2031494473,10.5,10499765934.79685,47.655,-122.3035,60.0,2.2666666666666666
2026-01-20T23:02:17+00:00,SAT-64305,322.43653750317253,44.062079207018144,2126.713833242614,6.684438091342042,-234117.2971038899,10.5,10499765882.702896,47.655,-122.3035,60.0,2.283333333333333
2026-01-20T23:02:18+00:00,SAT-64305,322.42516251941066,43.97558192332491,2133.380446165712,6.6859037844771905,-234168.63187735862,10.5,10499765831.368122,47.655,-122.3035,60.0,2.3
2026-01-20T23:02:19+00:00,SAT-64305,322.4137806012432,43.889438180328895,2140.048520873431,6.687348060222231,-234219.21652323028,10.5,10499765780.783476,47.655,-122.3035,60.0,2.316666666666667
2026-01-20T23:02:20+00:00,SAT-64305,322.4023918973513,43.80364475274491,2146.718036005492,6.68877115025016,-234269.05915567323,10.5,10499765730.940844,47.655,-122.3035,60.0,2.3333333333333335
2026-01-20T23:02:21+00:00,SAT-64305,322.3909965536732,43.71819845305221,2153.388970432675,6.69017329432204,-234318.168172134,10.5,10499765681.831827,47.655,-122.3035,60.0,2.35
2026-01-20T23:02:22+00:00,SAT-64305,322.37959471348603,43.63309613081448,2160.0613032648794,6.691554711490756,-234366.55124477125,10.5,10499765633.448755,47.655,-122.3035,60.0,2.3666666666666667
2026-01-20T23:02:23+00:00,SAT-64305,322.36818651745085,43.54833467238566,2166.7350138304723,6.69291563488154,-234414.21653861678,10.5,10499765585.78346,47.655,-122.3035,60.0,2.3833333333333333
2026-01-20T23:02:24+00:00,SAT-64305,322.3567721036816,43.46391100016996,2173.410081690328,6.694256282304176,-234461.17168229047,10.5,10499765538.828318,47.655,-122.3035,60.0,2.4
2026-01-20T23:02:25+00:00,SAT-64305,322.34535160777955,43.379822072279936,2180.086486622546,6.695576891613136,-234507.42500646206,10.5,10499765492.574993,47.655,-122.3035,60.0,2.4166666666666665
2026-01-20T23:02:26+00:00,SAT-64305,322.33392516290536,43.29606488173924,2186.764208642448,6.696877662830001,-234552.98351673345,10.5,10499765447.016483,47.655,-122.3035,60.0,2.433333333333333
2026-01-20T23:02:27+00:00,SAT-64305,322.3224928998118,43.21263645644323,2193.4432279648436,6.69815882168312,-234597.85511906625,10.5,10499765402.14488,47.655,-122.3035,60.0,2.45
2026-01-20T23:02:28+00:00,SAT-64305,322.3110549469179,43.129533858307845,2200.123525029669,6.69942056182989,-234642.04659616167,10.5,10499765357.953403,47.655,-122.3035,60.0,2.466666666666667
2026-01-20T23:02:29+00:00,SAT-64305,322.2996114303317,43.046754183170535,2206.8050804700006,6.700663108784195,-234685.56584646984,10.5,10499765314.434153,47.655,-122.3035,60.0,2.4833333333333334
2026-01-20T23:02:30+00:00,SAT-64305,322.2881624739314,42.96429455987735,2213.4878751438278,6.70188666701733,-234728.42003144044,10.5,10499765271.57997,47.655,-122.3035,60.0,2.5
2026-01-20T23:02:31+00:00,SAT-64305,322.2767081993642,42.882152150066176,2220.1718901130666,6.703091421628019,-234770.61563401372,10.5,10499765229.384365,47.655,-122.3035,60.0,2.5166666666666666
2026-01-20T23:02:32+00:00,SAT-64305,322.2652487261435,42.80032414791349,2226.8571066242366,6.7042775944376745,-234812.16042331385,10.5,10499765187.839577,47.655,-122.3035,60.0,2.533333333333333
2026-01-20T23:02:33+00:00,SAT-64305,322.2537841716528,42.71880777920133,2233.5435061450894,6.705445364676345,-234853.06067673533,10.5,10499765146.939323,47.655,-122.3035,60.0,2.55
2026-01-20T23:02:34+00:00,SAT-64305,322.24231465121784,42.637600301374896,2240.2310703221265,6.7065949311817175,-234893.32335841496,10.5,10499765106.676641,47.655,-122.3035,60.0,2.566666666666667
2026-01-20T23:02:35+00:00,SAT-64305,322.2308402781239,42.55669900283929,2246.9197810001588,6.707726490762148,-234932.95536141394,10.5,10499765067.044638,47.655,-122.3035,60.0,2.5833333333333335
2026-01-20T23:02:36+00:00,SAT-64305,322.21936116368886,42.47610120252229,2253.609620220279,6.70884020790246,-234971.96244668646,10.5,10499765028.037554,47.655,-122.3035,60.0,2.6
2026-01-20T23:02:37+00:00,SAT-64305,322.20787741726434,42.39580424983239,2260.300570187627,6.709936296934681,-235010.35212104686,10.5,10499764989.647879,47.655,-122.3035,60.0,2.6166666666666667
2026-01-20T23:02:38+00:00,SAT-64305,322.1963891463119,42.315805523596175,2266.9926133211034,6.711014945684641,-235048.13096295015,10.5,10499764951.869038,47.655,-122.3035,60.0,2.6333333333333333
2026-01-20T23:02:39+00:00,SAT-64305,322.184896456395,42.23610243196152,2273.6857322269325,6.712076288964494,-235085.30369408822,10.5,10499764914.696306,47.655,-122.3035,60.0,2.65
2026-01-20T23:02:40+00:00,SAT-64305,322.1733994512902,42.156692412599114,2280.379909645793,6.713120549412618,-235121.8781121988,10.5,10499764878.121887,47.655,-122.3035,60.0,2.6666666666666665
2026-01-20T23:02:41+00:00,SAT-64305,322.1618982329373,42.077572931230875,2287.0751285404076,6.71414787400642,-235157.85936505249,10.5,10499764842.140635,47.655,-122.3035,60.0,2.683333333333333
2026-01-20T23:02:42+00:00,SAT-64305,322.15039290154914,41.99874148211648,2293.771372020083,6.715158457807002,-235193.2542845141,10.5,10499764806.745716,47.655,-122.3035,60.0,2.7
2026-01-20T23:02:43+00:00,SAT-64305,322.13888355559516,41.92019558707879,2300.468623388669,6.716152453573536,-235228.06822085605,10.5,10499764771.93178,47.655,-122.3035,60.0,2.716666666666667
2026-01-20T23:02:44+00:00,SAT-64305,322.1273702918512,41.841932795607015,2307.1668661023664,6.717130035115661,-235262.3072616271,10.5,10499764737.692738,47.655,-122.3035,60.0,2.7333333333333334
2026-01-20T23:02:45+00:00,SAT-64305,322.11585320545475,41.76395068420428,2313.866083790722,6.718091361826342,-235295.97698944306,10.5,10499764704.02301,47.655,-122.3035,60.0,2.75
2026-01-20T23:02:46+00:00,SAT-64305,322.1043323899022,41.68624685617648,2320.56626024225,6.719036625515337,-235329.0841222932,10.5,10499764670.915878,47.655,-122.3035,60.0,2.7666666666666666
2026-01-20T23:02:47+00:00,SAT-64305,322.09280793709775,41.60881894086558,2327.267379436764,6.719965941068277,-235361.632683958,10.5,10499764638.367315,47.655,-122.3035,60.0,2.783333333333333
2026-01-20T23:02:48+00:00,SAT-64305,322.0812799373948,41.53166459417909,2333.9694254686556,6.720879478792646,-235393.62863932614,10.5,10499764606.37136,47.655,-122.3035,60.0,2.8
2026-01-20T23:02:49+00:00,SAT-64305,322.0697484796197,41.45478149756156,2340.672382602172,6.72177744622558,-235425.079257226,10.5,10499764574.920742,47.655,-122.3035,60.0,2.816666666666667
2026-01-20T23:02:50+00:00,SAT-64305,322.0582136510605,41.37816735720847,2347.376235308541,6.722659929129675,-235455.98754142632,10.5,10499764544.012459,47.655,-122.3035,60.0,2.8333333333333335
2026-01-20T23:02:51+00:00,SAT-64305,322.0466755375757,41.301819905116105,2354.080968144526,6.723527108065247,-235486.35981591337,10.5,10499764513.640184,47.655,-122.3035,60.0,2.85
2026-01-20T23:02:52+00:00,SAT-64305,322.0351342235517,41.225736897628586,2360.78656584697,6.724379144671596,-235516.201741979,10.5,10499764483.798258,47.655,-122.3035,60.0,2.8666666666666667
2026-01-20T23:02:53+00:00,SAT-64305,322.0235897919667,41.14991611530903,2367.4930133139223,6.725216175275625,-235545.51809436802,10.5,10499764454.481905,47.655,-122.3035,60.0,2.8833333333333333
2026-01-20T23:02:54+00:00,SAT-64305,322.0120423243977,41.07435536289182,2374.2002955793973,6.726038334533718,-235574.31358931662,10.5,10499764425.68641,47.655,-122.3035,60.0,2.9
2026-01-20T23:02:55+00:00,SAT-64305,322.00049190107774,40.99905246895842,2380.9083978117055,6.726845771950409,-235602.59346310605,10.5,10499764397.406536,47.655,-122.3035,60.0,2.9166666666666665
2026-01-20T23:02:56+00:00,SAT-64305,321.98893860088776,40.924005285438184,2387.6173053282637,6.727638658321593,-235630.3636977309,10.5,10499764369.636303,47.655,-122.3035,60.0,2.933333333333333
2026-01-20T23:02:57+00:00,SAT-64305,321.97738250138684,40.84921168703844,2394.3270036168306,6.728417110647082,-235657.62839101962,10.5,10499764342.371609,47.655,-122.3035,60.0,2.95
2026-01-20T23:02:58+00:00,SAT-64305,321.96582367885054,40.77466957153752,2401.037478281849,6.729181238584946,-235684.39138366163,10.5,10499764315.608616,47.655,-122.3035,60.0,2.966666666666667
2026-01-20T23:02:59+00:00,SAT-64305,321.95426220831376,40.70037685954124,2407.7487150371308,6.729931247025005,-235710.659851765,10.5,10499764289.340149,47.655,-122.3035,60.0,2.9833333333333334
2026-01-20T23:03:00+00:00,SAT-64305,321.94269816352005,40.626331493105816,2414.4606998008303,6.730667190473827,-235736.43570438048,10.5,10499764263.564295,47.655,-122.3035,60.0,3.0
2026-01-20T23:03:01+00:00,SAT-64305,321.93113161705435,40.55253143711224,2421.173418545463,6.731389258614276,-235761.72558500417,10.5,10499764238.274414,47.655,-122.3035,60.0,3.0166666666666666
2026-01-20T23:03:02+00:00,SAT-64305,321.9195626402572,40.47897467745453,2427.886857432721,6.7320975710919555,-235786.53368413134,10.5,10499764213.466316,47.655,-122.3035,60.0,3.033333333333333
2026-01-20T23:03:03+00:00,SAT-64305,321.9079913033175,40.40565922152191,2434.601002743623,6.732792239704039,-235810.8639173718,10.5,10499764189.136082,47.655,-122.3035,60.0,3.05
2026-01-20T23:03:04+00:00,SAT-64305,321.8964176752671,40.33258309799252,2441.315840870688,6.733473414891705,-235834.7215538121,10.5,10499764165.278446,47.655,-122.3035,60.0,3.066666666666667
2026-01-20T23:03:05+00:00,SAT-64305,321.8848418240049,40.25974435611516,2448.0313583564734,6.734141222146106,-235858.11098868307,10.5,10499764141.889011,47.655,-122.3035,60.0,3.0833333333333335
2026-01-20T23:03:06+00:00,SAT-64305,321.873263816309,40.187141065703344,2454.747541868694,6.734795734242278,-235881.03477087445,10.5,10499764118.965229,47.655,-122.3035,60.0,3.1
2026-01-20T23:03:07+00:00,SAT-64305,321.8616837179045,40.11477131742616,2461.4643781476448,6.735437136453265,-235903.49938943188,10.5,10499764096.50061,47.655,-122.3035,60.0,3.1166666666666667
2026-01-20T23:03:08+00:00,SAT-64305,321.8501015934046,40.042633221303504,2468.181854118401,6.736065543943189,-235925.50887789007,10.5,10499764074.491121,47.655,-122.3035,60.0,3.1333333333333333
2026-01-20T23:03:09+00:00,SAT-64305,321.83851750638115,39.97072490720286,2474.8999568208937,6.73668103559589,-235947.06599909475,10.5,10499764052.934,47.655,-122.3035,60.0,3.15
2026-01-20T23:03:10+00:00,SAT-64305,321.8269315193834,39.899044524963315,2481.618673373728,6.737283746417916,-235968.17548154632,10.5,10499764031.824518,47.655,-122.3035,60.0,3.1666666666666665
2026-01-20T23:03:11+00:00,SAT-64305,321.8153436939512,39.82759024351815,2488.337991030155,6.7378738267696425,-235988.84259150125,10.5,10499764011.157408,47.655,-122.3035,60.0,3.183333333333333
2026-01-20T23:03:12+00:00,SAT-64305,321.8037540905946,39.756360250475645,2495.0578971933874,6.738451339684046,-236009.06953664086,10.5,10499763990.930464,47.655,-122.3035,60.0,3.2
2026-01-20T23:03:13+00:00,SAT-64305,321.792162768886,39.6853527528001,2501.7783793294984,6.739016426833484,-236028.86127893045,10.5,10499763971.138721,47.655,-122.3035,60.0,3.216666666666667
2026-01-20T23:03:14+00:00,SAT-64305,321.7805697874136,39.614565975714356,2508.4994250458603,6.739569200040532,-236048.22173486964,10.5,10499763951.778265,47.655,-122.3035,60.0,3.2333333333333334
2026-01-20T23:03:15+00:00,SAT-64305,321.7689752038279,39.543998162770094,2515.2210220613674,6.740109746128953,-236067.15394539377,10.5,10499763932.846054,47.655,-122.3035,60.0,3.25
2026-01-20T23:03:16+00:00,SAT-64305,321.7573790748549,39.47364757587275,2521.9431581815065,6.740638214228718,-236085.66313366545,10.5,10499763914.336866,47.655,-122.3035,60.0,3.2666666666666666
2026-01-20T23:03:17+00:00,SAT-64305,321.74578145629715,39.40351249437337,2528.665821360498,6.741154682855211,-236103.75204962533,10.5,10499763896.24795,47.655,-122.3035,60.0,3.283333333333333
2026-01-20T23:03:18+00:00,SAT-64305,321.7341824030671,39.333591215583375,2535.3889996308653,6.741659246565259,-236121.4240050536,10.5,10499763878.575994,47.655,-122.3035,60.0,3.3
2026-01-20T23:03:19+00:00,SAT-64305,321.7225819692177,39.26388205436536,2542.1126811194395,6.742152038429093,-236138.68366063255,10.5,10499763861.31634,47.655,-122.3035,60.0,3.316666666666667
2026-01-20T23:03:20+00:00,SAT-64305,321.71098020790515,39.19438334250019,2548.8368540857664,6.74263316195939,-236155.5346418141,10.5,10499763844.465359,47.655,-122.3035,60.0,3.3333333333333335
2026-01-20T23:03:21+00:00,SAT-64305,321.6993771714532,39.12509342876844,2555.561506892627,6.743102684289951,-236171.9792999078,10.5,10499763828.0207,47.655,-122.3035,60.0,3.35
2026-01-20T23:03:22+00:00,SAT-64305,321.6877729113544,39.056010679108844,2562.286627969759,6.743560740682451,-236188.02237234978,10.5,10499763811.977627,47.655,-122.3035,60.0,3.3666666666666667
2026-01-20T23:03:23+00:00,SAT-64305,321.676167478274,38.98713347568207,2569.0122058817997,6.744007436049201,-236203.6675336129,10.5,10499763796.332466,47.655,-122.3035,60.0,3.3833333333333333
2026-01-20T23:03:24+00:00,SAT-64305,321.6645609220582,38.91846021697491,2575.738229298019,6.744442828340981,-236218.9168133786,10.5,10499763781.083187,47.655,-122.3035,60.0,3.4
2026-01-20T23:03:25+00:00,SAT-64305,321.65295329179014,38.84998931806772,2582.464686945485,6.744867025712037,-236233.7739996661,10.5,10499763766.226,47.655,-122.3035,60.0,3.4166666666666665
2026-01-20T23:03:26+00:00,SAT-64305,321.64134463576204,38.78171920990376,2589.191567659128,6.745280169863699,-236248.24405545535,10.5,10499763751.755945,47.655,-122.3035,60.0,3.433333333333333
2026-01-20T23:03:27+00:00,SAT-64305,321.6297350014805,38.71364833873691,2595.918860415206,6.745682309030595,-236262.32867012703,10.5,10499763737.67133,47.655,-122.3035,60.0,3.45
2026-01-20T23:03:28+00:00,SAT-64305,321.61812443571523,38.64577516688984,2602.646554238079,6.74607352503306,-236276.03070937537,10.5,10499763723.96929,47.655,-122.3035,60.0,3.466666666666667
2026-01-20T23:03:29+00:00,SAT-64305,321.60651298451666,38.57809817220007,2609.3746382337117,6.7464539672023225,-236289.35540341176,10.5,10499763710.644596,47.655,-122.3035,60.0,3.4833333333333334
2026-01-20T23:03:30+00:00,SAT-64305,321.5949006931574,38.51061584713662,2616.103101657002,6.74682366907835,-236302.30392694758,10.5,10499763697.696074,47.655,-122.3035,60.0,3.5
2026-01-20T23:03:31+00:00,SAT-64305,321.5832876062438,38.443326699780975,2622.8319337962957,6.747182748838499,-236314.8804190539,10.5,10499763685.119581,47.655,-122.3035,60.0,3.5166666666666666
2026-01-20T23:03:32+00:00,SAT-64305,321.5716737676493,38.37622925277385,2629.5611240578037,6.747531289809973,-236327.08779820177,10.5,10499763672.9122,47.655,-122.3035,60.0,3.533333333333333
2026-01-20T23:03:33+00:00,SAT-64305,321.56005922057085,38.30932204347417,2636.290661930841,6.74786937886532,-236338.9291070353,10.5,10499763661.070892,47.655,-122.3035,60.0,3.55
2026-01-20T23:03:34+00:00,SAT-64305,321.5484440075111,38.242603623741715,2643.020536991363,6.748197102965008,-236350.407391278,10.5,10499763649.59261,47.655,-122.3035,60.0,3.566666666666667
2026-01-20T23:03:35+00:00,SAT-64305,321.53682817031967,38.17607255974296,2649.7507389020534,6.748514546910082,-236361.525621021,10.5,10499763638.474379,47.655,-122.3035,60.0,3.5833333333333335
2026-01-20T23:03:36+00:00,SAT-64305,321.52521175016983,38.10972743179653,2656.4812574101716,6.748821807044268,-236372.28717062925,10.5,10499763627.71283,47.655,-122.3035,60.0,3.6
2026-01-20T23:03:37+00:00,SAT-64305,321.5135947876004,38.043566834071314,2663.212082359064,6.749118931426353,-236382.69372332477,10.5,10499763617.306276,47.655,-122.3035,60.0,3.6166666666666667
2026-01-20T23:03:38+00:00,SAT-64305,321.5019773225139,37.977589374897185,2669.9432036400062,6.749406043126327,-236392.74958953916,10.5,10499763607.25041,47.655,-122.3035,60.0,3.6333333333333333
2026-01-20T23:03:39+00:00,SAT-64305,321.49035939418224,37.91179367583455,2676.6746112670176,6.749683199927254,-236402.45679307973,10.5,10499763597.543207,47.655,-122.3035,60.0,3.65
2026-01-20T23:03:40+00:00,SAT-64305,321.47874104125844,37.8461783721578,2683.406295311745,6.749950482259487,-236411.81815095764,10.5,10499763588.181849,47.655,-122.3035,60.0,3.6666666666666665
2026-01-20T23:03:41+00:00,SAT-64305,321.4671223018032,37.78074211245511,2690.1382459260517,6.750207980654753,-236420.83683397702,10.5,10499763579.163166,47.655,-122.3035,60.0,3.683333333333333
2026-01-20T23:03:42+00:00,SAT-64305,321.45550321326476,37.71548355836435,2696.8704533520913,6.750455790793049,-236429.516193256,10.5,10499763570.483807,47.655,-122.3035,60.0,3.7
2026-01-20T23:03:43+00:00,SAT-64305,321.44388381249775,37.65040138435593,2703.602907927442,6.750693920745411,-236437.8565114764,10.5,10499763562.143488,47.655,-122.3035,60.0,3.716666666666667
2026-01-20T23:03:44+00:00,SAT-64305,321.43226413582204,37.585494278428385,2710.3355999977325,6.750922527498893,-236445.86328698896,10.5,10499763554.136713,47.655,-122.3035,60.0,3.7333333333333334
2026-01-20T23:03:45+00:00,SAT-64305,321.4206442189418,37.520760940489275,2717.0685200651583,6.751141634800062,-236453.53735149888,10.5,10499763546.462648,47.655,-122.3035,60.0,3.75
2026-01-20T23:03:46+00:00,SAT-64305,321.4090240970307,37.45620008349855,2723.8016586555987,6.7513513458276995,-236460.88231876347,10.5,10499763539.117682,47.655,-122.3035,60.0,3.7666666666666666
2026-01-20T23:03:47+00:00,SAT-64305,321.3974038047015,37.39181043253832,2730.535006397837,6.751551705417458,-236467.89975911708,10.5,10499763532.10024,47.655,-122.3035,60.0,3.783333333333333
2026-01-20T23:03:48+00:00,SAT-64305,321.38578337603576,37.32759072522459,2737.268553965374,6.751742826502379,-236474.5936279524,10.5,10499763525.406372,47.655,-122.3035,60.0,3.8
2026-01-20T23:03:49+00:00,SAT-64305,321.37416284456185,37.26353971089709,2744.002292144339,6.75192475790307,-236480.96563517363,10.5,10499763519.034365,47.655,-122.3035,60.0,3.816666666666667
2026-01-20T23:03:50+00:00,SAT-64305,321.36254224329525,37.1996561510883,2750.7362117695543,6.752097536399901,-236487.017068985,10.5,10499763512.982931,47.655,-122.3035,60.0,3.8333333333333335
2026-01-20T23:03:51+00:00,SAT-64305,321.3509216047674,37.13593881948624,2757.4703037125237,6.75226130662968,-236492.7529951792,10.5,10499763507.247005,47.655,-122.3035,60.0,3.85
2026-01-20T23:03:52+00:00,SAT-64305,321.33930096094184,37.07238650075922,2764.204558989002,6.752416080477634,-236498.17383002728,10.5,10499763501.82617,47.655,-122.3035,60.0,3.8666666666666667
2026-01-20T23:03:53+00:00,SAT-64305,321.3276803433312,37.00899799168121,2770.938968626599,6.752561932031023,-236503.28216837847,10.5,10499763496.717833,47.655,-122.3035,60.0,3.8833333333333333
2026-01-20T23:03:54+00:00,SAT-64305,321.31605978294135,36.945772100394166,2777.6735237268113,6.752698969439524,-236508.0817980918,10.5,10499763491.918201,47.655,-122.3035,60.0,3.9
2026-01-20T23:03:55+00:00,SAT-64305,321.3044393102783,36.882707645944954,2784.4082154989987,6.752827201807891,-236512.5730380544,10.5,10499763487.426962,47.655,-122.3035,60.0,3.9166666666666665
2026-01-20T23:03:56+00:00,SAT-64305,321.29281895539975,36.81980345908901,2791.143035161602,6.752946735639679,-236516.7596184712,10.5,10499763483.240381,47.655,-122.3035,60.0,3.933333333333333
2026-01-20T23:03:57+00:00,SAT-64305,321.28119874787757,36.757058381228276,2797.8779740392797,6.753057636216222,-236520.64382577073,10.5,10499763479.356174,47.655,-122.3035,60.0,3.95
2026-01-20T23:03:58+00:00,SAT-64305,321.2695787168117,36.694471264669716,2804.6130235217993,6.753159933435074,-236524.22670709176,10.5,10499763475.773293,47.655,-122.3035,60.0,3.966666666666667
2026-01-20T23:03:59+00:00,SAT-64305,321.25795889088033,36.63204097282471,2811.348175028745,6.753253731348135,-236527.51190677192,10.5,10499763472.488092,47.655,-122.3035,60.0,3.9833333333333334
2026-01-20T23:04:00+00:00,SAT-64305,321.24633929827894,36.569766379381484,2818.0834200834765,6.75333907006614,-236530.50082965885,10.5,10499763469.49917,47.655,-122.3035,60.0,4.0
2026-01-20T23:04:01+00:00,SAT-64305,321.2347199667827,36.5076463687749,2824.8187502493556,6.753416028970478,-236533.19625602462,10.5,10499763466.803743,47.655,-122.3035,60.0,4.016666666666667
2026-01-20T23:04:02+00:00,SAT-64305,321.2231009237159,36.445679835694946,2831.5541571689155,6.7534846294805755,-236535.59893606813,10.5,10499763464.401064,47.655,-122.3035,60.0,4.033333333333333
2026-01-20T23:04:03+00:00,SAT-64305,321.2114821960134,36.383865685496914,2838.289632506051,6.753544989771765,-236537.71300878935,10.5,10499763462.286991,47.655,-122.3035,60.0,4.05
2026-01-20T23:04:04+00:00,SAT-64305,321.1998638101336,36.32220283318246,2845.0251680425167,6.753597124217003,-236539.53897759007,10.5,10499763460.461023,47.655,-122.3035,60.0,4.066666666666666
2026-01-20T23:04:05+00:00,SAT-64305,321.18824579216994,36.2606902042367,2851.7607555744025,6.753641114969003,-236541.0797198058,10.5,10499763458.92028,47.655,-122.3035,60.0,4.083333333333333
2026-01-20T23:04:06+00:00,SAT-64305,321.17662816777573,36.199326733884014,2858.4963869797316,6.753677020978715,-236542.3373001482,10.5,10499763457.6627,47.655,-122.3035,60.0,4.1
2026-01-20T23:04:07+00:00,SAT-64305,321.1650109622139,36.138111367180606,2865.2320541953213,6.753704882857982,-236543.31314101574,10.5,10499763456.68686,47.655,-122.3035,60.0,4.116666666666666
2026-01-20T23:04:08+00:00,SAT-64305,321.15339420035707,36.077043059068394,2871.967749198491,6.753724786966556,-236544.01026709232,10.5,10499763455.989733,47.655,-122.3035,60.0,4.133333333333334
2026-01-20T23:04:09+00:00,SAT-64305,321.1417779066698,36.01612077383687,2878.7034640526927,6.7537367552951055,-236544.4294485841,10.5,10499763455.57055,47.655,-122.3035,60.0,4.15
2026-01-20T23:04:10+00:00,SAT-64305,321.13016210525495,35.95534348560096,2885.4391908433067,6.753740872896244,-236544.5736643934,10.5,10499763455.426336,47.655,-122.3035,60.0,4.166666666666667
2026-01-20T23:04:11+00:00,SAT-64305,321.11854681982265,35.894710177609774,2892.1749217405422,6.753737166242628,-236544.44384170463,10.5,10499763455.556158,47.655,-122.3035,60.0,4.183333333333334
2026-01-20T23:04:12+00:00,SAT-64305,321.10693207372054,35.83421984267118,2898.910648941008,6.753725724856154,-236544.04311595327,10.5,10499763455.956884,47.655,-122.3035,60.0,4.2
2026-01-20T23:04:13+00:00,SAT-64305,321.09531788991546,35.773871482467456,2905.6463647305977,6.753706585466882,-236543.37277358148,10.5,10499763456.627226,47.655,-122.3035,60.0,4.216666666666667
2026-01-20T23:04:14+00:00,SAT-64305,321.08370429101325,35.713664107928686,2912.382061431837,6.753679801810412,-236542.43469663712,10.5,10499763457.565304,47.655,-122.3035,60.0,4.233333333333333
2026-01-20T23:04:15+00:00,SAT-64305,321.07209129927526,35.6535967389696,2919.1177314208426,6.7536453977746,-236541.22972177406,10.5,10499763458.770279,47.655,-122.3035,60.0,4.25
2026-01-20T23:04:16+00:00,SAT-64305,321.0604789366207,35.593668404653954,2925.8533670975567,6.753603506842348,-236539.76252412813,10.5,10499763460.237476,47.655,-122.3035,60.0,4.266666666666667
2026-01-20T23:04:17+00:00,SAT-64305,321.04886722457564,35.53387814210308,2932.5889609950473,6.7535540822345705,-236538.03146529786,10.5,10499763461.968534,47.655,-122.3035,60.0,4.283333333333333
2026-01-20T23:04:18+00:00,SAT-64305,321.03725618438796,35.47422499801693,2939.324505599729,6.7534972448196475,-236536.04077860524,10.5,10499763463.95922,47.655,-122.3035,60.0,4.3
2026-01-20T23:04:19+00:00,SAT-64305,321.0256458369242,35.414708027063284,2946.0599935185624,6.753433021728385,-236533.79141428584,10.5,10499763466.208586,47.655,-122.3035,60.0,4.316666666666666
2026-01-20T23:04:20+00:00,SAT-64305,321.0140362027312,35.35532629262317,2952.7954173855665,6.753361457438655,-236531.28493014284,10.5,10499763468.71507,47.655,-122.3035,60.0,4.333333333333333
2026-01-20T23:04:21+00:00,SAT-64305,321.00242730204207,35.29607886653265,2959.5307698791185,6.753282595595857,-236528.52285482278,10.5,10499763471.477144,47.655,-122.3035,60.0,4.35
2026-01-20T23:04:22+00:00,SAT-64305,320.990819154763,35.236964828994054,2966.266043721126,6.75319651399218,-236525.5079129372,10.5,10499763474.492086,47.655,-122.3035,60.0,4.366666666666666
2026-01-20T23:04:23+00:00,SAT-64305,320.9792117804715,35.17798326817687,2973.001231711081,6.753103249397829,-236522.24139233417,10.5,10499763477.758608,47.655,-122.3035,60.0,4.383333333333334
2026-01-20T23:04:24+00:00,SAT-64305,320.9676051984309,35.119133280488434,2979.736326685147,6.753002821079417,-236518.723967812,10.5,10499763481.276031,47.655,-122.3035,60.0,4.4
2026-01-20T23:04:25+00:00,SAT-64305,320.95599942763175,35.06041397063105,2986.4713214987037,6.752895310489834,-236514.9584921955,10.5,10499763485.041508,47.655,-122.3035,60.0,4.416666666666667
2026-01-20T23:04:26+00:00,SAT-64305,320.94439448672335,35.001824450964996,2993.2062090883655,6.752780753247662,-236510.94621299798,10.5,10499763489.053787,47.655,-122.3035,60.0,4.433333333333334
2026-01-20T23:04:27+00:00,SAT-64305,320.9327903940708,34.94336384181782,2999.940982426271,6.752659212672514,-236506.68934794015,10.5,10499763493.310652,47.655,-122.3035,60.0,4.45
2026-01-20T23:04:28+00:00,SAT-64305,320.9211871677267,34.885031271154304,3006.67563454771,6.752530688532126,-236502.18788888722,10.5,10499763497.81211,47.655,-122.3035,60.0,4.466666666666667
2026-01-20T23:04:29+00:00,SAT-64305,320.90958482549684,34.82682587504151,3013.410158487739,6.752395266478816,-236497.44483574555,10.5,10499763502.555164,47.655,-122.3035,60.0,4.483333333333333
2026-01-20T23:04:30+00:00,SAT-64305,320.89798338486014,34.768746796810206,3020.144547366841,6.7522529739823645,-236492.46115062316,10.5,10499763507.538849,47.655,-122.3035,60.0,4.5
2026-01-20T23:04:31+00:00,SAT-64305,320.8863828630371,34.71079318747712,3026.8787943328925,6.75210387798345,-236487.23917806576,10.5,10499763512.760822,47.655,-122.3035,60.0,4.516666666666667
2026-01-20T23:04:32+00:00,SAT-64305,320.87478327693714,34.652964205317986,3033.6128926005345,6.751947993913658,-236481.77945855266,10.5,10499763518.220541,47.655,-122.3035,60.0,4.533333333333333
2026-01-20T23:04:33+00:00,SAT-64305,320.86318464323443,34.59525901622661,3040.3468353997982,6.7517853763105595,-236476.08390222036,10.5,10499763523.916098,47.655,-122.3035,60.0,4.55
2026-01-20T23:04:34+00:00,SAT-64305,320.85158697830934,34.537676793295,3047.080616015105,6.751616062346363,-236470.15381099685,10.5,10499763529.84619,47.655,-122.3035,60.0,4.566666666666666
2026-01-20T23:04:35+00:00,SAT-64305,320.8399902982914,34.480216716879944,3053.8142277679517,6.751440117482319,-236463.99147761197,10.5,10499763536.008522,47.655,-122.3035,60.0,4.583333333333333
2026-01-20T23:04:36+00:00,SAT-64305,320.8283946190231,34.422877974278904,3060.5476640451207,6.751257543292889,-236457.59695721007,10.5,10499763542.403042,47.655,-122.3035,60.0,4.6
2026-01-20T23:04:37+00:00,SAT-64305,320.8167999561224,34.36565976019935,3067.2809182349647,6.751068415484014,-236450.97290133347,10.5,10499763549.0271,47.655,-122.3035,60.0,4.616666666666666
2026-01-20T23:04:38+00:00,SAT-64305,320.8052063249185,34.30856127604349,3074.013983801341,6.7508727755564175,-236444.12076351297,10.5,10499763555.879236,47.655,-122.3035,60.0,4.633333333333334
2026-01-20T23:04:39+00:00,SAT-64305,320.7936137404993,34.25158173012215,3080.746854249496,6.750670640492257,-236437.0411385356,10.5,10499763562.958862,47.655,-122.3035,60.0,4.65
2026-01-20T23:04:40+00:00,SAT-64305,320.7820222177086,34.19472033778991,3087.4795231016133,6.750462056631523,-236429.73564942385,10.5,10499763570.26435,47.655,-122.3035,60.0,4.666666666666667
2026-01-20T23:04:41+00:00,SAT-64305,320.77043177115524,34.13797632111411,3094.211983926094,6.75024708073728,-236422.2062842603,10.5,10499763577.793716,47.655,-122.3035,60.0,4.683333333333334
2026-01-20T23:04:42+00:00,SAT-64305,320.7588424151798,34.081348908714126,3100.944230347949,6.750025734823575,-236414.4538140701,10.5,10499763585.546186,47.655,-122.3035,60.0,4.7
2026-01-20T23:04:43+00:00,SAT-64305,320.74725416390805,34.02483733598195,3107.676256014147,6.7497980517722285,-236406.47939051353,10.5,10499763593.520609,47.655,-122.3035,60.0,4.716666666666667
2026-01-20T23:04:44+00:00,SAT-64305,320.73566703122856,33.96844084491606,3114.4080546044474,6.749564110794879,-236398.28578791744,10.5,10499763601.714212,47.655,-122.3035,60.0,4.733333333333333
2026-01-20T23:04:45+00:00,SAT-64305,320.7240810307701,33.9121586836566,3121.1396198776138,6.749323891777716,-236389.87230181092,10.5,10499763610.127699,47.655,-122.3035,60.0,4.75
2026-01-20T23:04:46+00:00,SAT-64305,320.71249617597465,33.85599010725474,3127.8709455723465,6.749077484706639,-236381.24208388093,10.5,10499763618.757915,47.655,-122.3035,60.0,4.766666666666667
2026-01-20T23:04:47+00:00,SAT-64305,320.70091248002507,33.799934376671025,3134.602025517094,6.748824885896036,-236372.3950050417,10.5,10499763627.604996,47.655,-122.3035,60.0,4.783333333333333
2026-01-20T23:04:48+00:00,SAT-64305,320.68932995590154,33.74399075949708,3141.3328535366277,6.7485661500994745,-236363.3329829948,10.5,10499763636.667017,47.655,-122.3035,60.0,4.8
2026-01-20T23:04:49+00:00,SAT-64305,320.6777486163669,33.688158529391515,3148.063423510327,6.748301324753678,-236354.05767917493,10.5,10499763645.942322,47.655,-122.3035,60.0,4.816666666666666
2026-01-20T23:04:50+00:00,SAT-64305,320.6661684739418,33.63243696607813,3154.793729364881,6.748030440422478,-236344.57016405667,10.5,10499763655.429836,47.655,-122.3035,60.0,4.833333333333333
2026-01-20T23:04:51+00:00,SAT-64305,320.654589540952,33.576825355417434,3161.5237650574627,6.747753498159411,-236334.87047453946,10.5,10499763665.129526,47.655,-122.3035,60.0,4.85
2026-01-20T23:04:52+00:00,SAT-64305,320.6430118295307,33.52132298958591,3168.2535245462936,6.747470596397498,-236324.96205816403,10.5,10499763675.037941,47.655,-122.3035,60.0,4.866666666666666
2026-01-20T23:04:53+00:00,SAT-64305,320.6314353515565,33.46592916620175,3174.983001887767,6.747181712869599,-236314.8441350409,10.5,10499763685.155865,47.655,-122.3035,60.0,4.883333333333334
2026-01-20T23:04:54+00:00,SAT-64305,320.6198601187521,33.41064318926032,3181.7121911160693,6.746886910689495,-236304.51891568166,10.5,10499763695.481085,47.655,-122.3035,60.0,4.9
2026-01-20T23:04:55+00:00,SAT-64305,320.6082861426071,33.35546436836431,3188.4410863283306,6.746586212638645,-236293.98719798942,10.5,10499763706.012802,47.655,-122.3035,60.0,4.916666666666667
2026-01-20T23:04:56+00:00,SAT-64305,320.59671343443154,33.30039201899317,3195.169681644402,6.746279663951658,-236283.25056627142,10.5,10499763716.749434,47.655,-122.3035,60.0,4.933333333333334
2026-01-20T23:04:57+00:00,SAT-64305,320.5851420053174,33.24542546225646,3201.89797122925,6.745967309805711,-236272.31060282368,10.5,10499763727.689398,47.655,-122.3035,60.0,4.95
2026-01-20T23:04:58+00:00,SAT-64305,320.57357186616235,33.19056402483232,3208.6259492928957,6.745649137128886,-236261.1668498122,10.5,10499763738.83315,47.655,-122.3035,60.0,4.966666666666667
2026-01-20T23:04:59+00:00,SAT-64305,320.5620030277065,33.13580703938563,3215.353610032326,6.745325219162258,-236249.82187244925,10.5,10499763750.178127,47.655,-122.3035,60.0,4.983333333333333
2026-01-20T23:05:00+00:00,SAT-64305,320.55043550046815,33.08115384379847,3222.0809477175703,6.744995576797221,-236238.27640243975,10.5,10499763761.723598,47.655,-122.3035,60.0,5.0
2026-01-20T23:05:01+00:00,SAT-64305,320.53886929478733,33.026603781540494,3228.8079566394963,6.744660247992701,-236226.53176926606,10.5,10499763773.468231,47.655,-122.3035,60.0,5.016666666666667
2026-01-20T23:05:02+00:00,SAT-64305,320.52730442082054,32.972156201470874,3235.5346311268277,6.744319252887929,-236214.58867828906,10.5,10499763785.411322,47.655,-122.3035,60.0,5.033333333333333
2026-01-20T23:05:03+00:00,SAT-64305,320.51574088854244,32.917810457926144,3242.260965528374,6.743972628954454,-236202.448441921,10.5,10499763797.551558,47.655,-122.3035,60.0,5.05
2026-01-20T23:05:04+00:00,SAT-64305,320.50417870775584,32.863565910520144,3248.986954230318,6.743620418529526,-236190.11254299138,10.5,10499763809.887457,47.655,-122.3035,60.0,5.066666666666666
2026-01-20T23:05:05+00:00,SAT-64305,320.4926178880635,32.809421924050035,3255.712591661065,6.7432626124956805,-236177.5806621681,10.5,10499763822.419338,47.655,-122.3035,60.0,5.083333333333333
2026-01-20T23:05:06+00:00,SAT-64305,320.481058438942,32.75537786885552,3262.4378722399274,6.742899292889246,-236164.85567271034,10.5,10499763835.144327,47.655,-122.3035,60.0,5.1
2026-01-20T23:05:07+00:00,SAT-64305,320.4695003696376,32.70143312002704,3269.162790468036,6.742530461471708,-236151.93763631285,10.5,10499763848.062365,47.655,-122.3035,60.0,5.116666666666666
2026-01-20T23:05:08+00:00,SAT-64305,320.4579436892635,32.64758705799938,3275.887340848277,6.742156147829086,-236138.82758920308,10.5,10499763861.172411,47.655,-122.3035,60.0,5.133333333333334
2026-01-20T23:05:09+00:00,SAT-64305,320.44638840675714,32.59383906827441,3282.6115179130447,6.741776399060646,-236125.5271809966,10.5,10499763874.472818,47.655,-122.3035,60.0,5.15
2026-01-20T23:05:10+00:00,SAT-64305,320.4348345308786,32.54018854122536,3289.335316241708,6.741391238517049,-236112.03722953235,10.5,10499763887.96277,47.655,-122.3035,60.0,5.166666666666667
2026-01-20T23:05:11+00:00,SAT-64305,320.4232820702263,32.486634872236955,3296.0587304369224,6.741000666648581,-236098.35775058126,10.5,10499763901.64225,47.655,-122.3035,60.0,5.183333333333334
2026-01-20T23:05:12+00:00,SAT-64305,320.41173103327014,32.43317746183512,3302.781755101793,6.740604752150294,-236084.4911501346,10.5,10499763915.50885,47.655,-122.3035,60.0,5.2
2026-01-20T23:05:13+00:00,SAT-64305,320.4001814282734,32.37981571508999,3309.5043849079375,6.740203506692435,-236070.4378369337,10.5,10499763929.562162,47.655,-122.3035,60.0,5.216666666666667
2026-01-20T23:05:14+00:00,SAT-64305,320.38863326337156,32.32654904202044,3316.2266145386125,6.739796940638621,-236056.19817395645,10.5,10499763943.801826,47.655,-122.3035,60.0,5.233333333333333
