satellites_20260121_005943/SAT-55647.csv

timestamp,satellite,azimuth_deg,elevation_deg,distance_km,relative_velocity_kms,doppler_shift_hz,tx_freq_ghz,rx_freq_hz,ue_lat,ue_lon,ue_alt_m,time_minutes
2026-01-20T23:00:16+00:00,SAT-55647,192.24926266221988,30.083892901123658,1184.8407838834894,-2.2254260153743544,77943.83260112141,10.5,10500077943.832602,47.655,-122.3035,60.0,0.26666666666666666
2026-01-20T23:00:17+00:00,SAT-55647,192.44248743999762,30.380329226578546,1182.6212923374896,-2.1880643702866176,76635.26975054685,10.5,10500076635.26975,47.655,-122.3035,60.0,0.2833333333333333
2026-01-20T23:00:18+00:00,SAT-55647,192.63790058102808,30.677360054651476,1180.4390628055237,-2.15049340049196,75319.37546329328,10.5,10500075319.375463,47.655,-122.3035,60.0,0.3
2026-01-20T23:00:19+00:00,SAT-55647,192.83553064698845,30.974962486089506,1178.2943040540997,-2.1127152050129863,73996.22325601119,10.5,10500073996.223255,47.655,-122.3035,60.0,0.31666666666666665
2026-01-20T23:00:20+00:00,SAT-55647,193.03540655801314,31.273113063873694,1176.1872227563001,-2.074731955384592,72665.8891850382,10.5,10500072665.889185,47.655,-122.3035,60.0,0.3333333333333333
2026-01-20T23:00:21+00:00,SAT-55647,193.23755759224522,31.57178776919252,1174.118023419463,-2.0365459294513366,71328.45303012604,10.5,10500071328.45303,47.655,-122.3035,60.0,0.35
2026-01-20T23:00:22+00:00,SAT-55647,193.44201338812226,31.870962022234014,1172.0869082791571,-1.9981594882678382,69983.99748539472,10.5,10500069983.997486,47.655,-122.3035,60.0,0.36666666666666664
2026-01-20T23:00:23+00:00,SAT-55647,193.64880394422147,32.170610680051794,1170.0940772161912,-1.9595750547543096,68632.607411759,10.5,10500068632.607412,47.655,-122.3035,60.0,0.38333333333333336
2026-01-20T23:00:24+00:00,SAT-55647,193.8579596170905,32.47070803204093,1168.1397276949162,-1.9207951689695206,67274.37177282147,10.5,10500067274.371773,47.655,-122.3035,60.0,0.4
2026-01-20T23:00:25+00:00,SAT-55647,194.06951112352314,32.77122780297649,1166.2240546463972,-1.8818224375815569,65909.38186512467,10.5,10500065909.381865,47.655,-122.3035,60.0,0.4166666666666667
2026-01-20T23:00:26+00:00,SAT-55647,194.28348953804584,33.07214314965128,1164.3472504019826,-1.8426595681215787,64537.73251786267,10.5,10500064537.732517,47.655,-122.3035,60.0,0.43333333333333335
2026-01-20T23:00:27+00:00,SAT-55647,194.4999262931823,33.373426662497295,1162.5095045927094,-1.8033093283506327,63159.52066973494,10.5,10500063159.52067,47.655,-122.3035,60.0,0.45
2026-01-20T23:00:28+00:00,SAT-55647,194.71885317539335,33.67505036180417,1160.7110040892344,-1.7637745985801152,61774.8472014303,10.5,10500061774.847202,47.655,-122.3035,60.0,0.4666666666666667
2026-01-20T23:00:29+00:00,SAT-55647,194.94030232581676,33.97698570181078,1158.9519328895838,-1.7240583361934594,60383.815693026285,10.5,10500060383.815693,47.655,-122.3035,60.0,0.48333333333333334
2026-01-20T23:00:30+00:00,SAT-55647,195.16430623719108,34.279203570193594,1157.2324720422869,-1.6841635720730954,58986.53229884622,10.5,10500058986.532299,47.655,-122.3035,60.0,0.5
2026-01-20T23:00:31+00:00,SAT-55647,195.39089774970256,34.581674287141446,1155.5527995730727,-1.6440934319776968,57583.10649618082,10.5,10500057583.106497,47.655,-122.3035,60.0,0.5166666666666667
2026-01-20T23:00:32+00:00,SAT-55647,195.62011004896522,34.88436760836337,1153.913090390247,-1.6038511212145306,56173.650548449,10.5,10500056173.650549,47.655,-122.3035,60.0,0.5333333333333333
2026-01-20T23:00:33+00:00,SAT-55647,195.8519766615963,35.18725272592682,1152.3135162053554,-1.5634399321265473,54758.279767427455,10.5,10500054758.279768,47.655,-122.3035,60.0,0.55
2026-01-20T23:00:34+00:00,SAT-55647,196.08653145143415,35.49029827096858,1150.7542454463814,-1.5228632352849334,53337.112204776684,10.5,10500053337.112206,47.655,-122.3035,60.0,0.5666666666666667
2026-01-20T23:00:35+00:00,SAT-55647,196.32380861420398,35.79347231547214,1149.235443179724,-1.4821244795086783,51910.268652726154,10.5,10500051910.268652,47.655,-122.3035,60.0,0.5833333333333334
2026-01-20T23:00:36+00:00,SAT-55647,196.56384267135533,36.096742374217115,1147.7572710321606,-1.4412272023135717,50477.87301004252,10.5,10500050477.87301,47.655,-122.3035,60.0,0.6
2026-01-20T23:00:37+00:00,SAT-55647,196.80666846528663,36.40007540960473,1146.3198871023865,-1.4001750101198402,49040.05158881723,10.5,10500049040.051588,47.655,-122.3035,60.0,0.6166666666666667
2026-01-20T23:00:38+00:00,SAT-55647,197.05232115087657,36.70343783306398,1144.9234458922938,-1.3589715992550908,47596.93385007855,10.5,10500047596.93385,47.655,-122.3035,60.0,0.6333333333333333
2026-01-20T23:00:39+00:00,SAT-55647,197.30083618977267,37.0067955112038,1143.5680982173033,-1.3176207271555291,46148.651395136345,10.5,10500046148.651396,47.655,-122.3035,60.0,0.65
2026-01-20T23:00:40+00:00,SAT-55647,197.55224933962788,37.310113766926584,1142.25399114542,-1.276126241004652,44695.33896863025,10.5,10500044695.338968,47.655,-122.3035,60.0,0.6666666666666666
2026-01-20T23:00:41+00:00,SAT-55647,197.80659664730558,37.61335738688868,1140.9812679077247,-1.2344920642764783,43237.13398721666,10.5,10500043237.133987,47.655,-122.3035,60.0,0.6833333333333333
2026-01-20T23:00:42+00:00,SAT-55647,198.063914439268,37.916490626841025,1139.7500678222864,-1.1927221749541366,41774.1757766916,10.5,10500041774.175777,47.655,-122.3035,60.0,0.7
2026-01-20T23:00:43+00:00,SAT-55647,198.32423930808852,38.21947721357909,1138.560526239799,-1.1508206364525002,40306.60665503217,10.5,10500040306.606655,47.655,-122.3035,60.0,0.7166666666666667
2026-01-20T23:00:44+00:00,SAT-55647,198.5876081029493,38.52228035343778,1137.4127744583768,-1.108791581843424,38834.57137989759,10.5,10500038834.57138,47.655,-122.3035,60.0,0.7333333333333333
2026-01-20T23:00:45+00:00,SAT-55647,198.8540579173491,38.82486273876136,1136.3069396540848,-1.0666392058592884,37358.216868559546,10.5,10500037358.21687,47.655,-122.3035,60.0,0.75
2026-01-20T23:00:46+00:00,SAT-55647,199.12362607426087,39.127186553022526,1135.2431448194413,-1.0243677711063688,35877.69241552058,10.5,10500035877.692415,47.655,-122.3035,60.0,0.7666666666666667
2026-01-20T23:00:47+00:00,SAT-55647,199.39635011202628,39.42921347838011,1134.2215086957247,-0.9819816121728995,34393.14983639597,10.5,10500034393.149836,47.655,-122.3035,60.0,0.7833333333333333
2026-01-20T23:00:48+00:00,SAT-55647,199.67226777037376,39.73090470501073,1133.2421457011842,-0.9394851122630389,32904.74264953626,10.5,10500032904.74265,47.655,-122.3035,60.0,0.8
2026-01-20T23:00:49+00:00,SAT-55647,199.9514169707233,40.03222093563438,1132.3051658825536,-0.8968827261086828,31412.626878495957,10.5,10500031412.626879,47.655,-122.3035,60.0,0.8166666666666667
2026-01-20T23:00:50+00:00,SAT-55647,200.23383580087435,40.33312239669948,1131.4106748437148,-0.8541789622764326,29916.960432348646,10.5,10500029916.960432,47.655,-122.3035,60.0,0.8333333333333334
2026-01-20T23:00:51+00:00,SAT-55647,200.51956249501032,40.63356884610333,1130.5587736920045,-0.8113783823883639,28417.90307839506,10.5,10500028417.903078,47.655,-122.3035,60.0,0.85
2026-01-20T23:00:52+00:00,SAT-55647,200.80863541242636,40.93351958136596,1129.7495589853024,-0.7684856110227851,26915.616788929503,10.5,10500026915.616789,47.655,-122.3035,60.0,0.8666666666666667
2026-01-20T23:00:53+00:00,SAT-55647,201.10109301855573,41.23293345207934,1128.9831226692422,-0.7255053133308403,25410.26495727862,10.5,10500025410.264957,47.655,-122.3035,60.0,0.8833333333333333
2026-01-20T23:00:54+00:00,SAT-55647,201.39697385886757,41.53176886662234,1128.2595520367472,-0.6824422093446743,23902.012898933834,10.5,10500023902.0129,47.655,-122.3035,60.0,0.9
2026-01-20T23:00:55+00:00,SAT-55647,201.69631653617114,41.82998380444648,1127.578929673294,-0.6393010669162281,22391.027604238116,10.5,10500022391.027605,47.655,-122.3035,60.0,0.9166666666666666
2026-01-20T23:00:56+00:00,SAT-55647,201.9991596850601,42.12753582729407,1126.9413334092228,-0.5960866954533023,20877.477518996406,10.5,10500020877.477518,47.655,-122.3035,60.0,0.9333333333333333
2026-01-20T23:00:57+00:00,SAT-55647,202.30554194410163,42.424382090015605,1126.3468362782908,-0.5528039447984242,19361.532505208837,10.5,10500019361.532505,47.655,-122.3035,60.0,0.95
2026-01-20T23:00:58+00:00,SAT-55647,202.6155019258941,42.72047935142841,1125.795506477345,-0.5094577094994197,17843.36399064418,10.5,10500017843.36399,47.655,-122.3035,60.0,0.9666666666666667
2026-01-20T23:00:59+00:00,SAT-55647,202.92907818942624,43.0157839893317,1125.2874073217376,-0.466052913019532,16323.144415811441,10.5,10500016323.144415,47.655,-122.3035,60.0,0.9833333333333333
2026-01-20T23:01:00+00:00,SAT-55647,203.24630920427737,43.310252009716216,1124.8225972164862,-0.4225945177766685,14801.04758557675,10.5,10500014801.047586,47.655,-122.3035,60.0,1.0
2026-01-20T23:01:01+00:00,SAT-55647,203.56723331961877,43.603839062669635,1124.4011296174235,-0.37908751630495086,13277.248359603442,10.5,10500013277.24836,47.655,-122.3035,60.0,1.0166666666666666
2026-01-20T23:01:02+00:00,SAT-55647,203.89188872754985,43.89650045507093,1124.0230530011622,-0.3355369261612089,11751.922473955943,10.5,10500011751.922474,47.655,-122.3035,60.0,1.0333333333333334
2026-01-20T23:01:03+00:00,SAT-55647,204.2203134248188,44.188191163834595,1123.6884108401373,-0.2919477943877861,10225.246697406092,10.5,10500010225.246696,47.655,-122.3035,60.0,1.05
2026-01-20T23:01:04+00:00,SAT-55647,204.5525451751547,44.47886585204141,1123.3972415732012,-0.24832518817374694,8697.398504349108,10.5,10500008697.398504,47.655,-122.3035,60.0,1.0666666666666667
2026-01-20T23:01:05+00:00,SAT-55647,204.88862146724858,44.76847888316202,1123.1495785855293,-0.2046741938893861,7168.556040988043,10.5,10500007168.556042,47.655,-122.3035,60.0,1.0833333333333333
2026-01-20T23:01:06+00:00,SAT-55647,205.2285794710135,45.05698433606196,1122.9454501894904,-0.16099991434705158,5638.898029396195,10.5,10500005638.89803,47.655,-122.3035,60.0,1.1
2026-01-20T23:01:07+00:00,SAT-55647,205.5724559923706,45.34433602094767,1122.784879608248,-0.11730747050253693,4108.603827107077,10.5,10500004108.603827,47.655,-122.3035,60.0,1.1166666666666667
2026-01-20T23:01:08+00:00,SAT-55647,205.92028742926897,45.63048749860835,1122.667884957667,-0.07360198718719271,2577.8529273926015,10.5,10500002577.852928,47.655,-122.3035,60.0,1.1333333333333333
2026-01-20T23:01:09+00:00,SAT-55647,206.27210971776478,45.91539209326981,1122.5944792424457,-0.0298885996062784,1046.8251868628504,10.5,10500001046.825188,47.655,-122.3035,60.0,1.15
2026-01-20T23:01:10+00:00,SAT-55647,206.6279582808213,46.199002910350494,1122.5646703457717,0.013827548670157393,-484.29924490179343,10.5,10499999515.700754,47.655,-122.3035,60.0,1.1666666666666667
2026-01-20T23:01:11+00:00,SAT-55647,206.98786798105746,46.48127285950967,1122.5784610209787,0.05754131791446158,-2015.3403528978922,10.5,10499997984.659647,47.655,-122.3035,60.0,1.1833333333333333
2026-01-20T23:01:12+00:00,SAT-55647,207.35187305634997,46.76215466594035,1122.6358488953786,0.10124756551712086,-3546.118021187074,10.5,10499996453.881979,47.655,-122.3035,60.0,1.2
2026-01-20T23:01:13+00:00,SAT-55647,207.7200070701035,47.04160089587819,1122.7368264673878,0.14494115581649442,-5076.45237717485,10.5,10499994923.547623,47.655,-122.3035,60.0,1.2166666666666666
2026-01-20T23:01:14+00:00,SAT-55647,208.09230284282174,47.31956396948314,1122.8813811134553,0.1886169586470841,-6606.163740764897,10.5,10499993393.83626,47.655,-122.3035,60.0,1.2333333333333334
2026-01-20T23:01:15+00:00,SAT-55647,208.4687923978192,47.59599618705798,1123.069495093546,0.23226985474241887,-8135.072813590922,10.5,10499991864.927187,47.655,-122.3035,60.0,1.25
2026-01-20T23:01:16+00:00,SAT-55647,208.84950689071124,47.87084974495494,1123.3011455620092,0.27589473813232723,-9663.000762979287,10.5,10499990336.999237,47.655,-122.3035,60.0,1.2666666666666666
2026-01-20T23:01:17+00:00,SAT-55647,209.23447654506737,48.14407675847148,1123.5763045808399,0.31948651833781166,-11189.769298822795,10.5,10499988810.230701,47.655,-122.3035,60.0,1.2833333333333334
2026-01-20T23:01:18+00:00,SAT-55647,209.62373058374354,48.41562928366543,1123.8949391351287,0.3630401246442872,-12715.200823247578,10.5,10499987284.799177,47.655,-122.3035,60.0,1.3
2026-01-20T23:01:19+00:00,SAT-55647,210.01729715663475,48.68545933867395,1124.2570111527739,0.4065505079437512,-14239.118495133682,10.5,10499985760.881504,47.655,-122.3035,60.0,1.3166666666666667
2026-01-20T23:01:20+00:00,SAT-55647,210.41520326791792,48.953518926839884,1124.6624775260298,0.45001264320663714,-15761.34631668983,10.5,10499984238.653683,47.655,-122.3035,60.0,1.3333333333333333
2026-01-20T23:01:21+00:00,SAT-55647,210.8174746987524,49.219760058717256,1125.1112901355211,0.49342153513855525,-17281.709331576414,10.5,10499982718.290668,47.655,-122.3035,60.0,1.35
2026-01-20T23:01:22+00:00,SAT-55647,211.22413593332377,49.48413477838131,1125.6033958798994,0.536772216165327,-18800.03355433289,10.5,10499981199.966446,47.655,-122.3035,60.0,1.3666666666666667
2026-01-20T23:01:23+00:00,SAT-55647,211.63521007431575,49.74659518447209,1126.1387367034883,0.580059754274055,-20316.146245005195,10.5,10499979683.853754,47.655,-122.3035,60.0,1.3833333333333333
2026-01-20T23:01:24+00:00,SAT-55647,212.0507187652939,50.00709345787877,1126.7172496317512,0.6232792510120074,-21829.875839058226,10.5,10499978170.12416,47.655,-122.3035,60.0,1.4
2026-01-20T23:01:25+00:00,SAT-55647,212.47068210355096,50.26558188487999,1127.3388668047605,0.6664258501071679,-23341.05224930396,10.5,10499976658.94775,47.655,-122.3035,60.0,1.4166666666666667
2026-01-20T23:01:26+00:00,SAT-55647,212.89511855889998,50.522012885927424,1128.0035155192672,0.7094947316771997,-24849.50666307488,10.5,10499975150.493338,47.655,-122.3035,60.0,1.4333333333333333
2026-01-20T23:01:27+00:00,SAT-55647,213.32404488147296,50.77633903909967,1128.7111182649933,0.7524811237697177,-26355.071946413125,10.5,10499973644.928053,47.655,-122.3035,60.0,1.45
2026-01-20T23:01:28+00:00,SAT-55647,213.7574760168752,51.02851310978153,1129.4615927724328,0.7953802986989144,-27857.582515763625,10.5,10499972142.417484,47.655,-122.3035,60.0,1.4666666666666666
2026-01-20T23:01:29+00:00,SAT-55647,214.19542501410928,51.2784880773443,1130.254852057002,0.8381875771180509,-29356.874480609968,10.5,10499970643.125519,47.655,-122.3035,60.0,1.4833333333333334
2026-01-20T23:01:30+00:00,SAT-55647,214.63790293399057,51.526217163551735,1131.0908044672478,0.8808983346090357,-30852.78587426931,10.5,10499969147.214127,47.655,-122.3035,60.0,1.5
2026-01-20T23:01:31+00:00,SAT-55647,215.0849187586455,51.77165386279745,1131.969353739631,0.923507991758797,-32345.15630632499,10.5,10499967654.843693,47.655,-122.3035,60.0,1.5166666666666666
2026-01-20T23:01:32+00:00,SAT-55647,215.5364792924977,52.014751968671405,1132.890399043412,0.9660120334867546,-33833.82763955631,10.5,10499966166.172361,47.655,-122.3035,60.0,1.5333333333333334
2026-01-20T23:01:33+00:00,SAT-55647,215.99258907339933,52.25546560731604,1133.8538350448093,1.0084060006900677,-35318.6436973198,10.5,10499964681.356302,47.655,-122.3035,60.0,1.55
2026-01-20T23:01:34+00:00,SAT-55647,216.45325027610332,52.493749267249925,1134.859551962831,1.0506854888611494,-36799.45021512872,10.5,10499963200.549786,47.655,-122.3035,60.0,1.5666666666666667
2026-01-20T23:01:35+00:00,SAT-55647,216.91846261365623,52.729557828954576,1135.9074356237218,1.0928461617728829,-38276.09531996722,10.5,10499961723.90468,47.655,-122.3035,60.0,1.5833333333333333
2026-01-20T23:01:36+00:00,SAT-55647,217.38822324579306,52.96284659882462,1136.9973675290632,1.1348837441728339,-39748.42927441076,10.5,10499960251.570726,47.655,-122.3035,60.0,1.6
2026-01-20T23:01:37+00:00,SAT-55647,217.86252668158423,53.193571340453666,1138.129224916585,1.176794027923182,-41216.304691672434,10.5,10499958783.695309,47.655,-122.3035,60.0,1.6166666666666667
2026-01-20T23:01:38+00:00,SAT-55647,218.34136468534192,53.42168830794651,1139.3028808271006,1.2185728692911457,-42679.57644070229,10.5,10499957320.42356,47.655,-122.3035,60.0,1.6333333333333333
2026-01-20T23:01:39+00:00,SAT-55647,218.82472618078836,53.64715427849758,1140.5182041687399,1.2602161984370654,-44138.10197850003,10.5,10499955861.898022,47.655,-122.3035,60.0,1.65
2026-01-20T23:01:40+00:00,SAT-55647,219.31259716041563,53.8699265874974,1141.7750597906481,1.3017200148575774,-45591.74119051575,10.5,10499954408.25881,47.655,-122.3035,60.0,1.6666666666666667
2026-01-20T23:01:41+00:00,SAT-55647,219.8049605925417,54.08996316220473,1143.0733085521326,1.3430803849363753,-47040.35630486722,10.5,10499952959.643696,47.655,-122.3035,60.0,1.6833333333333333
2026-01-20T23:01:42+00:00,SAT-55647,220.3017963292447,54.307222555598585,1144.4128073893758,1.3842934641259712,-48483.812669238985,10.5,10499951516.18733,47.655,-122.3035,60.0,1.7
2026-01-20T23:01:43+00:00,SAT-55647,220.8030810248221,54.521663984373816,1145.7934094042641,1.425355463288935,-49921.97757201022,10.5,10499950078.022429,47.655,-122.3035,60.0,1.7166666666666666
2026-01-20T23:01:44+00:00,SAT-55647,221.3087880419864,54.733247360658375,1147.214963919651,1.4662626850553002,-51354.721515644844,10.5,10499948645.278484,47.655,-122.3035,60.0,1.7333333333333334
2026-01-20T23:01:45+00:00,SAT-55647,221.8188873757191,54.94193333068846,1148.6773165708794,1.5070115057718714,-52781.91758447989,10.5,10499947218.082415,47.655,-122.3035,60.0,1.75
2026-01-20T23:01:46+00:00,SAT-55647,222.3333455724534,55.147683310172006,1150.1803093793026,1.5475983712204695,-54203.44129476042,10.5,10499945796.558704,47.655,-122.3035,60.0,1.7666666666666666
2026-01-20T23:01:47+00:00,SAT-55647,222.85212565054073,55.350459518956306,1151.7237808215332,1.5880198304524107,-55619.17177966602,10.5,10499944380.82822,47.655,-122.3035,60.0,1.7833333333333334
2026-01-20T23:01:48+00:00,SAT-55647,223.3751870382191,55.55022502137482,1153.3075659324375,1.6282724864396032,-57028.99006090351,10.5,10499942971.00994,47.655,-122.3035,60.0,1.8
2026-01-20T23:01:49+00:00,SAT-55647,223.9024854961605,55.7469437585355,1154.9314963589134,1.6683530423001858,-58432.780667724306,10.5,10499941567.219332,47.655,-122.3035,60.0,1.8166666666666667
2026-01-20T23:01:50+00:00,SAT-55647,224.4339730627826,55.94058058788528,1156.5954004597675,1.708258277220853,-59830.43079362242,10.5,10499940169.569206,47.655,-122.3035,60.0,1.8333333333333333
2026-01-20T23:01:51+00:00,SAT-55647,224.96959799517637,56.131101318789995,1158.2991033815822,1.747985055439387,-61221.83061094073,10.5,10499938778.16939,47.655,-122.3035,60.0,1.85
2026-01-20T23:01:52+00:00,SAT-55647,225.50930471958876,56.318472749535395,1160.0424271435406,1.7875303195066772,-62606.87303487838,10.5,10499937393.126965,47.655,-122.3035,60.0,1.8666666666666667
2026-01-20T23:01:53+00:00,SAT-55647,226.05303378484007,56.50266270286622,1161.8251907155286,1.8268911106330465,-63985.454436105225,10.5,10499936014.545565,47.655,-122.3035,60.0,1.8833333333333333
2026-01-20T23:01:54+00:00,SAT-55647,226.60072183005914,56.68364006406194,1163.6472101165334,1.8660645377902683,-65357.473558583704,10.5,10499934642.526442,47.655,-122.3035,60.0,1.9
2026-01-20T23:01:55+00:00,SAT-55647,227.15230154832355,56.86137481466317,1165.5082984822227,1.9050478013544576,-66722.832347643,10.5,10499933277.167652,47.655,-122.3035,60.0,1.9166666666666667
2026-01-20T23:01:56+00:00,SAT-55647,227.70770166630342,57.03583806884631,1167.408266156107,1.9438382042780116,-68081.43634126753,10.5,10499931918.56366,47.655,-122.3035,60.0,1.9333333333333333
2026-01-20T23:01:57+00:00,SAT-55647,228.26684693478296,57.20700211006356,1169.3469207918401,1.982433099288118,-69433.19282076549,10.5,10499930566.807178,47.655,-122.3035,60.0,1.95
2026-01-20T23:01:58+00:00,SAT-55647,228.82965811091182,57.374840421803505,1171.3240674028636,2.0208299613555907,-70778.01334893388,10.5,10499929221.98665,47.655,-122.3035,60.0,1.9666666666666666
2026-01-20T23:01:59+00:00,SAT-55647,229.3960519720063,57.53932772496153,1173.3395084843223,2.059026335061849,-72115.81192662765,10.5,10499927884.188074,47.655,-122.3035,60.0,1.9833333333333334
2026-01-20T23:02:00+00:00,SAT-55647,229.96594132178177,57.70044000910424,1175.3930440824904,2.0970198460010874,-73446.50539211169,10.5,10499926553.494608,47.655,-122.3035,60.0,2.0
2026-01-20T23:02:01+00:00,SAT-55647,230.53923500963805,57.85815456412032,1177.4844718755692,2.134808211638639,-74770.01380136692,10.5,10499925229.986198,47.655,-122.3035,60.0,2.0166666666666666
2026-01-20T23:02:02+00:00,SAT-55647,231.1158379630568,58.012450011910055,1179.61358726531,2.1723892441216917,-76086.2605265332,10.5,10499923913.739473,47.655,-122.3035,60.0,2.033333333333333
2026-01-20T23:02:03+00:00,SAT-55647,231.6956512303879,58.163306337009175,1181.7801834714473,2.2097608276939935,-77395.17146487698,10.5,10499922604.828535,47.655,-122.3035,60.0,2.05
2026-01-20T23:02:04+00:00,SAT-55647,232.27857202736598,58.31070491427499,1183.9840516036008,2.2469209333320808,-78696.6755514138,10.5,10499921303.32445,47.655,-122.3035,60.0,2.066666666666667
2026-01-20T23:02:05+00:00,SAT-55647,232.86449379820613,58.45462853651569,1186.2249807477772,2.2838676255828645,-79990.70499838951,10.5,10499920009.295002,47.655,-122.3035,60.0,2.0833333333333335
2026-01-20T23:02:06+00:00,SAT-55647,233.453306289181,58.595061441204756,1188.5027580596918,2.3205990467646016,-81277.19474193148,10.5,10499918722.805258,47.655,-122.3035,60.0,2.1
2026-01-20T23:02:07+00:00,SAT-55647,234.04489562807584,58.73198933447875,1190.817168842332,2.3571134246260192,-82556.08271030356,10.5,10499917443.91729,47.655,-122.3035,60.0,2.1166666666666667
2026-01-20T23:02:08+00:00,SAT-55647,234.6391444166806,58.8653994142027,1193.167996631159,2.3934090726164405,-83827.30983336687,10.5,10499916172.690166,47.655,-122.3035,60.0,2.1333333333333333
2026-01-20T23:02:09+00:00,SAT-55647,235.2359318336496,58.995280391249565,1195.5550232795817,2.429484379119649,-85090.81966550444,10.5,10499914909.180334,47.655,-122.3035,60.0,2.15
2026-01-20T23:02:10+00:00,SAT-55647,235.83513374525376,59.12162250841972,1197.9780290336903,2.4653378264203996,-86346.55904990845,10.5,10499913653.44095,47.655,-122.3035,60.0,2.1666666666666665
2026-01-20T23:02:11+00:00,SAT-55647,236.4366228313906,59.244417558556854,1200.436792625907,2.500967968430165,-87594.47733844169,10.5,10499912405.522661,47.655,-122.3035,60.0,2.183333333333333
2026-01-20T23:02:12+00:00,SAT-55647,237.04026871608806,59.3636588994218,1202.9310913464212,2.536373449972546,-88834.52706709431,10.5,10499911165.472933,47.655,-122.3035,60.0,2.2
2026-01-20T23:02:13+00:00,SAT-55647,237.64593811285846,59.47934146753862,1205.4607011338605,2.571552983607184,-90066.66314425906,10.5,10499909933.336855,47.655,-122.3035,60.0,2.216666666666667
2026-01-20T23:02:14+00:00,SAT-55647,238.25349497394257,59.591461788714696,1208.025396642845,2.606505369156325,-91290.84353463424,10.5,10499908709.156466,47.655,-122.3035,60.0,2.2333333333333334
2026-01-20T23:02:15+00:00,SAT-55647,238.86280065378574,59.700017987337205,1210.6249513310165,2.641229482421578,-92507.02886403688,10.5,10499907492.971136,47.655,-122.3035,60.0,2.25
2026-01-20T23:02:16+00:00,SAT-55647,239.47371407872987,59.805009792844835,1213.2591375348186,2.6757242766483516,-93715.18247069341,10.5,10499906284.81753,47.655,-122.3035,60.0,2.2666666666666666
2026-01-20T23:02:17+00:00,SAT-55647,240.08609192542855,59.906438543888996,1215.9277265467292,2.7099887810708183,-94915.27035427821,10.5,10499905084.729645,47.655,-122.3035,60.0,2.283333333333333
2026-01-20T23:02:18+00:00,SAT-55647,240.69978880707296,60.00430719008774,1218.6304886910502,2.7440220985075325,-96107.26109170195,10.5,10499903892.738909,47.655,-122.3035,60.0,2.3
2026-01-20T23:02:19+00:00,SAT-55647,241.31465746615413,60.09862029115479,1221.3671933972953,2.7778234186518778,-97291.12630259937,10.5,10499902708.873697,47.655,-122.3035,60.0,2.316666666666667
2026-01-20T23:02:20+00:00,SAT-55647,241.93054897770708,60.18938401418942,1224.1376092868309,2.811391971429185,-98466.83901569813,10.5,10499901533.160984,47.655,-122.3035,60.0,2.3333333333333335
2026-01-20T23:02:21+00:00,SAT-55647,242.5473129471303,60.27660612657383,1226.9415042130026,2.8447271031623624,-99634.37633646143,10.5,10499900365.623663,47.655,-122.3035,60.0,2.35
2026-01-20T23:02:22+00:00,SAT-55647,243.16479773197824,60.36029598928757,1229.7786453772235,2.877828197634177,-100793.71668235518,10.5,10499899206.283318,47.655,-122.3035,60.0,2.3666666666666667
2026-01-20T23:02:23+00:00,SAT-55647,243.78285064957487,60.44046454471899,1232.6487993663304,2.9106947238787235,-101944.84145670733,10.5,10499898055.158543,47.655,-122.3035,60.0,2.3833333333333333
2026-01-20T23:02:24+00:00,SAT-55647,244.40131820016057,60.517124303756766,1235.5517322376124,2.9433262058191,-103087.73398529108,10.5,10499896912.266014,47.655,-122.3035,60.0,2.4
2026-01-20T23:02:25+00:00,SAT-55647,245.0200462859641,60.59028932928042,1238.4872095735493,2.9757222578849776,-104222.38076380247,10.5,10499895777.619236,47.655,-122.3035,60.0,2.4166666666666665
2026-01-20T23:02:26+00:00,SAT-55647,245.63888044114105,60.659975218325584,1241.4549965720798,3.007882539716749,-105348.76987140838,10.5,10499894651.23013,47.655,-122.3035,60.0,2.433333333333333
2026-01-20T23:02:27+00:00,SAT-55647,246.25766605277198,60.72619908037347,1244.4548580916905,3.039806775086298,-106466.89163343172,10.5,10499893533.108366,47.655,-122.3035,60.0,2.45
2026-01-20T23:02:28+00:00,SAT-55647,246.87624858733636,60.78897951392618,1247.4865587153768,3.071494773701405,-107576.739385034,10.5,10499892423.260614,47.655,-122.3035,60.0,2.466666666666667
2026-01-20T23:02:29+00:00,SAT-55647,247.49447382156467,60.848336581146704,1250.5498628363482,3.102946382595542,-108678.3077686804,10.5,10499891321.692232,47.655,-122.3035,60.0,2.4833333333333334
2026-01-20T23:02:30+00:00,SAT-55647,248.11218806219074,60.9042917790987,1253.6445346952567,3.1341615201046547,-109771.59392415026,10.5,10499890228.406076,47.655,-122.3035,60.0,2.5
2026-01-20T23:02:31+00:00,SAT-55647,248.72923837099563,60.95686800951279,1256.770338451308,3.16514017659874,-110856.5975141602,10.5,10499889143.402485,47.655,-122.3035,60.0,2.5166666666666666
2026-01-20T23:02:32+00:00,SAT-55647,249.34547278789688,61.00608954646674,1259.9270382541024,3.1958823652307795,-111933.31899938319,10.5,10499888066.681,47.655,-122.3035,60.0,2.533333333333333
2026-01-20T23:02:33+00:00,SAT-55647,249.96074054017998,61.051982001031334,1263.1143982663593,3.2263881916779598,-113001.76208108137,10.5,10499886998.237919,47.655,-122.3035,60.0,2.55
2026-01-20T23:02:34+00:00,SAT-55647,250.57489226249191,61.09457228535512,1266.3321827561927,3.2566578182349266,-114061.93244349973,10.5,10499885938.067556,47.655,-122.3035,60.0,2.566666666666667
2026-01-20T23:02:35+00:00,SAT-55647,251.1877802042008,61.13388857409366,1269.580156153579,3.2866914268392744,-115113.83645886241,10.5,10499884886.163542,47.655,-122.3035,60.0,2.5833333333333335
2026-01-20T23:02:36+00:00,SAT-55647,251.7992584242993,61.16996026370938,1272.8580830699466,3.316489273816727,-116157.48310478055,10.5,10499883842.516895,47.655,-122.3035,60.0,2.6
2026-01-20T23:02:37+00:00,SAT-55647,252.40918299082512,61.20281793094826,1276.1657283723666,3.346051688324202,-117192.88390972171,10.5,10499882807.11609,47.655,-122.3035,60.0,2.6166666666666667
2026-01-20T23:02:38+00:00,SAT-55647,253.01741217356073,61.23249328980238,1279.5028572561885,3.3753790101632823,-118220.05077497468,10.5,10499881779.949224,47.655,-122.3035,60.0,2.6333333333333333
2026-01-20T23:02:39+00:00,SAT-55647,253.62380661661905,61.25901914626259,1282.8692352556582,3.4044716544923417,-119238.99824114183,10.5,10499880761.001759,47.655,-122.3035,60.0,2.65
2026-01-20T23:02:40+00:00,SAT-55647,254.2282295164831,61.28242935278671,1286.2646283190718,3.4333300683643593,-120249.74196590955,10.5,10499879750.258034,47.655,-122.3035,60.0,2.6666666666666665
2026-01-20T23:02:41+00:00,SAT-55647,254.83054678265268,61.302758761078266,1289.6888028405872,3.4619547611395496,-121252.2997892271,10.5,10499878747.70021,47.655,-122.3035,60.0,2.683333333333333
2026-01-20T23:02:42+00:00,SAT-55647,255.43062719592737,61.32004317434388,1293.1415257223637,3.490346273854448,-122246.69066048253,10.5,10499877753.30934,47.655,-122.3035,60.0,2.7
2026-01-20T23:02:43+00:00,SAT-55647,256.02834255119694,61.33431929837231,1296.6225644061544,3.5185052082600623,-123232.9356555416,10.5,10499876767.064344,47.655,-122.3035,60.0,2.716666666666667
2026-01-20T23:02:44+00:00,SAT-55647,256.6235677964236,61.34562469223047,1300.1316869338593,3.5464321738059175,-124211.05611990456,10.5,10499875788.94388,47.655,-122.3035,60.0,2.7333333333333334
2026-01-20T23:02:45+00:00,SAT-55647,257.21618115238397,61.35399771816446,1303.6686619552015,3.5741278762171627,-125181.07677105143,10.5,10499874818.92323,47.655,-122.3035,60.0,2.75
2026-01-20T23:02:46+00:00,SAT-55647,257.80606423806444,61.35947749150477,1307.2332588237489,3.601593000055918,-126143.02158524329,10.5,10499873856.978415,47.655,-122.3035,60.0,2.7666666666666666
2026-01-20T23:02:47+00:00,SAT-55647,258.3931021652571,61.3621038298577,1310.8252475758045,3.6288283121577116,-127096.91742030405,10.5,10499872903.08258,47.655,-122.3035,60.0,2.783333333333333
2026-01-20T23:02:48+00:00,SAT-55647,258.9771836411762,61.36191720259399,1314.4443990124635,3.6558345959938823,-128042.79171671411,10.5,10499871957.208282,47.655,-122.3035,60.0,2.8
2026-01-20T23:02:49+00:00,SAT-55647,259.5582010493941,61.35895868015084,1318.0904847162012,3.6826126893916564,-128980.67381872692,10.5,10499871019.326181,47.655,-122.3035,60.0,2.816666666666667
2026-01-20T23:02:50+00:00,SAT-55647,260.13605052679213,61.353269883530245,1321.7632771050878,3.7091634315717945,-129910.59311940343,10.5,10499870089.406881,47.655,-122.3035,60.0,2.8333333333333335
2026-01-20T23:02:51+00:00,SAT-55647,260.7106320217258,61.34489293410725,1325.4625494341756,3.7354877409011413,-130832.58178383522,10.5,10499869167.418217,47.655,-122.3035,60.0,2.85
2026-01-20T23:02:52+00:00,SAT-55647,261.28184935481926,61.333870403799885,1329.1880758744342,3.7615865224103455,-131746.67151002385,10.5,10499868253.32849,47.655,-122.3035,60.0,2.8666666666666667
2026-01-20T23:02:53+00:00,SAT-55647,261.84961025470136,61.32024526582088,1332.9396314994513,3.7874607460381022,-132652.89626932534,10.5,10499867347.103731,47.655,-122.3035,60.0,2.8833333333333333
2026-01-20T23:02:54+00:00,SAT-55647,262.4138263966686,61.304060845966774,1336.7169923501667,3.8131113931575515,-133551.2904335782,10.5,10499866448.709566,47.655,-122.3035,60.0,2.9
2026-01-20T23:02:55+00:00,SAT-55647,262.9744134232996,61.285360774726115,1340.519935446276,3.8385394929538705,-134441.89004920077,10.5,10499865558.109951,47.655,-122.3035,60.0,2.9166666666666665
2026-01-20T23:02:56+00:00,SAT-55647,263.5312909614003,61.26418894009435,1344.3482388339153,3.8637460707426547,-135324.73102708234,10.5,10499864675.268972,47.655,-122.3035,60.0,2.933333333333333
2026-01-20T23:02:57+00:00,SAT-55647,264.08438262211064,61.24058944152148,1348.2016815818024,3.8887322099915282,-136199.85131484212,10.5,10499863800.148685,47.655,-122.3035,60.0,2.95
2026-01-20T23:02:58+00:00,SAT-55647,264.63361600183663,61.21460654458665,1352.0800438392341,3.913499000585665,-137067.28908486912,10.5,10499862932.710915,47.655,-122.3035,60.0,2.966666666666667
2026-01-20T23:02:59+00:00,SAT-55647,265.1789226670332,61.18628463698261,1355.9831068424849,3.938047566477221,-137927.08370272216,10.5,10499862072.916298,47.655,-122.3035,60.0,2.9833333333333334
2026-01-20T23:03:00+00:00,SAT-55647,265.7202381351264,61.15566818549301,1359.910652948785,3.962379064690757,-138779.27569229557,10.5,10499861220.724308,47.655,-122.3035,60.0,3.0
2026-01-20T23:03:01+00:00,SAT-55647,266.2575018478545,61.122801694173255,1363.862465669303,3.9864946356058697,-139623.90499450668,10.5,10499860376.095005,47.655,-122.3035,60.0,3.0166666666666666
2026-01-20T23:03:02+00:00,SAT-55647,266.79065713006264,61.087729664132674,1367.8383296525474,4.01039548292228,-140461.0137680113,10.5,10499859538.986233,47.655,-122.3035,60.0,3.033333333333333
2026-01-20T23:03:03+00:00,SAT-55647,267.31965115364216,61.050496554086436,1371.8380307475152,4.034082811183349,-141290.64420101308,10.5,10499858709.355799,47.655,-122.3035,60.0,3.05
2026-01-20T23:03:04+00:00,SAT-55647,267.84443488587976,61.011146742674526,1375.8613560045353,4.0575578473436575,-142112.83926665163,10.5,10499857887.160734,47.655,-122.3035,60.0,3.066666666666667
2026-01-20T23:03:05+00:00,SAT-55647,268.3649630352401,60.969724492031695,1379.9080936976193,4.080821836674287,-142927.64257958755,10.5,10499857072.35742,47.655,-122.3035,60.0,3.0833333333333335
2026-01-20T23:03:06+00:00,SAT-55647,268.881193991008,60.92627391279218,1383.9780333427293,4.103876038208651,-143735.0982364968,10.5,10499856264.901764,47.655,-122.3035,60.0,3.1
2026-01-20T23:03:07+00:00,SAT-55647,269.3930897575086,60.88083893059983,1388.0709657115026,4.1267217376306995,-144535.2512674697,10.5,10499855464.748732,47.655,-122.3035,60.0,3.1166666666666667
2026-01-20T23:03:08+00:00,SAT-55647,269.9006158852634,60.8334632539127,1392.1866828578331,4.149360236208183,-145328.1472484072,10.5,10499854671.85275,47.655,-122.3035,60.0,3.1333333333333333
2026-01-20T23:03:09+00:00,SAT-55647,270.4037413966502,60.78419034339626,1396.3249781334114,4.171792815409623,-146113.83106175755,10.5,10499853886.168938,47.655,-122.3035,60.0,3.15
2026-01-20T23:03:10+00:00,SAT-55647,270.9024387032815,60.73306338319279,1400.48564616798,4.194020814721912,-146892.34962201776,10.5,10499853107.650377,47.655,-122.3035,60.0,3.1666666666666665
2026-01-20T23:03:11+00:00,SAT-55647,271.39668353025127,60.68012525280697,1404.6684829271958,4.216045590539904,-147663.75043587317,10.5,10499852336.249563,47.655,-122.3035,60.0,3.183333333333333
2026-01-20T23:03:12+00:00,SAT-55647,271.8864548318129,60.62541850085829,1408.8732857294942,4.23786844492798,-148428.07910712616,10.5,10499851571.920893,47.655,-122.3035,60.0,3.2
2026-01-20T23:03:13+00:00,SAT-55647,272.37173469608473,60.56898532122257,1413.0998531919024,4.259490771241027,-149185.38443695864,10.5,10499850814.615562,47.655,-122.3035,60.0,3.216666666666667
2026-01-20T23:03:14+00:00,SAT-55647,272.852508265521,60.510867528816256,1417.3479853210868,4.280913931416034,-149935.71412616508,10.5,10499850064.285873,47.655,-122.3035,60.0,3.2333333333333334
2026-01-20T23:03:15+00:00,SAT-55647,273.3287636405218,60.4511065383213,1421.617483482019,4.302139300564828,-150679.11633697836,10.5,10499849320.883663,47.655,-122.3035,60.0,3.25
2026-01-20T23:03:16+00:00,SAT-55647,273.8004917870504,60.38974334377273,1425.9081504111157,4.32316825157247,-151415.63915364054,10.5,10499848584.360846,47.655,-122.3035,60.0,3.2666666666666666
2026-01-20T23:03:17+00:00,SAT-55647,274.2676864416124,60.32681849975854,1430.2197902140172,4.344002215713901,-152145.33270545438,10.5,10499847854.667295,47.655,-122.3035,60.0,3.283333333333333
2026-01-20T23:03:18+00:00,SAT-55647,274.7303440222073,60.262372103102116,1434.5522084238225,4.364642556330068,-152868.2447423868,10.5,10499847131.755259,47.655,-122.3035,60.0,3.3
2026-01-20T23:03:19+00:00,SAT-55647,275.1884635244843,60.19644377766852,1438.9052119333357,4.385090711807429,-153584.42564281588,10.5,10499846415.574358,47.655,-122.3035,60.0,3.316666666666667
2026-01-20T23:03:20+00:00,SAT-55647,275.6420464339234,60.1290726584274,1443.2786090699117,4.405348083183373,-154293.9244769974,10.5,10499845706.075523,47.655,-122.3035,60.0,3.3333333333333335
2026-01-20T23:03:21+00:00,SAT-55647,276.09109662555613,60.06029737840686,1447.6722095582065,4.425416095058388,-154996.79114046652,10.5,10499845003.20886,47.655,-122.3035,60.0,3.35
2026-01-20T23:03:22+00:00,SAT-55647,276.53562027067255,59.990156055978034,1452.0858245436782,4.445296169313733,-155693.0754335194,10.5,10499844306.924566,47.655,-122.3035,60.0,3.3666666666666667
2026-01-20T23:03:23+00:00,SAT-55647,276.97562574141796,59.91868628373208,1456.5192665898737,4.464989750519376,-156382.8279511069,10.5,10499843617.172049,47.655,-122.3035,60.0,3.3833333333333333
2026-01-20T23:03:24+00:00,SAT-55647,277.41112351867685,59.84592511810149,1460.9723497010586,4.484498249672288,-157066.0981123115,10.5,10499842933.901888,47.655,-122.3035,60.0,3.4
2026-01-20T23:03:25+00:00,SAT-55647,277.8421260952191,59.77190907099466,1465.4448892887317,4.5038231139943266,-157742.9366049643,10.5,10499842257.063395,47.655,-122.3035,60.0,3.4166666666666665
2026-01-20T23:03:26+00:00,SAT-55647,278.26864788719996,59.69667410139049,1469.9367022077554,4.522965789484575,-158413.39407406986,10.5,10499841586.605927,47.655,-122.3035,60.0,3.433333333333333
2026-01-20T23:03:27+00:00,SAT-55647,278.69070514312614,59.62025560855559,1474.4476067551348,4.54192770521611,-159077.5205718122,10.5,10499840922.479427,47.655,-122.3035,60.0,3.45
2026-01-20T23:03:28+00:00,SAT-55647,279.1083158526949,59.542688426514474,1478.9774226531367,4.560710302662571,-159735.3665846957,10.5,10499840264.633415,47.655,-122.3035,60.0,3.466666666666667
2026-01-20T23:03:29+00:00,SAT-55647,279.5214996603412,59.464006818996715,1483.525971061659,4.579315035515962,-160386.98302716343,10.5,10499839613.016973,47.655,-122.3035,60.0,3.4833333333333334
2026-01-20T23:03:30+00:00,SAT-55647,279.93027778027454,59.38424447527303,1488.0930745904136,4.597743338764277,-161032.42015856487,10.5,10499838967.579842,47.655,-122.3035,60.0,3.5
2026-01-20T23:03:31+00:00,SAT-55647,280.33467291052796,59.303434507392076,1492.6785572802744,4.615996635512822,-161671.72782206757,10.5,10499838328.272179,47.655,-122.3035,60.0,3.5166666666666666
2026-01-20T23:03:32+00:00,SAT-55647,280.73470914957085,59.22160944813605,1497.282244591426,4.6340764172298305,-162304.95825519806,10.5,10499837695.041744,47.655,-122.3035,60.0,3.533333333333333
2026-01-20T23:03:33+00:00,SAT-55647,281.1304119224502,59.13880124834667,1501.903963471543,4.651984066767316,-162932.15989128326,10.5,10499837067.840109,47.655,-122.3035,60.0,3.55
2026-01-20T23:03:34+00:00,SAT-55647,281.5218078924645,59.05504127810064,1506.543542247466,4.669721073151264,-163553.38488231172,10.5,10499836446.615118,47.655,-122.3035,60.0,3.566666666666667
2026-01-20T23:03:35+00:00,SAT-55647,281.9089248949502,58.97036032480759,1511.2008107310885,4.687288834583703,-164168.6821992329,10.5,10499835831.3178,47.655,-122.3035,60.0,3.5833333333333335
2026-01-20T23:03:36+00:00,SAT-55647,282.2917918550784,58.8847885954628,1515.8756001287802,4.704688804897415,-164778.10276142057,10.5,10499835221.897238,47.655,-122.3035,60.0,3.6
2026-01-20T23:03:37+00:00,SAT-55647,282.6704387213189,58.79835571691882,1520.5677430968642,4.7219224119399055,-165381.69657813406,10.5,10499834618.303421,47.655,-122.3035,60.0,3.6166666666666667
2026-01-20T23:03:38+00:00,SAT-55647,283.044896393518,58.711090738200696,1525.277073715706,4.7389910881692465,-165979.5138201145,10.5,10499834020.48618,47.655,-122.3035,60.0,3.6333333333333333
2026-01-20T23:03:39+00:00,SAT-55647,283.41519665629977,58.62302213283252,1530.0034274943066,4.755896238798109,-166571.6037038535,10.5,10499833428.396296,47.655,-122.3035,60.0,3.65
2026-01-20T23:03:40+00:00,SAT-55647,283.7813721117358,58.53417780226267,1534.7466413431343,4.772639320604151,-167158.0172518669,10.5,10499832841.982748,47.655,-122.3035,60.0,3.6666666666666665
2026-01-20T23:03:41+00:00,SAT-55647,284.1434561210174,58.44458507831464,1539.5065536255504,4.789221726814949,-167738.80326087776,10.5,10499832261.19674,47.655,-122.3035,60.0,3.683333333333333
2026-01-20T23:03:42+00:00,SAT-55647,284.50148273873225,58.354270728223625,1544.2830040944273,4.805644861705757,-168314.0109145456,10.5,10499831685.989086,47.655,-122.3035,60.0,3.7
2026-01-20T23:03:43+00:00,SAT-55647,284.8554866557299,58.263260958712706,1549.0758339031684,4.821910156892531,-168883.6903541168,10.5,10499831116.309647,47.655,-122.3035,60.0,3.716666666666667
2026-01-20T23:03:44+00:00,SAT-55647,285.2055031452403,58.171581420138324,1553.884885632976,4.838018994769377,-169447.88999688064,10.5,10499830552.110003,47.655,-122.3035,60.0,3.7333333333333334
2026-01-20T23:03:45+00:00,SAT-55647,285.55156800529164,58.079257212439046,1558.7100032437593,4.853972792532277,-170006.659479035,10.5,10499829993.34052,47.655,-122.3035,60.0,3.75
2026-01-20T23:03:46+00:00,SAT-55647,285.8937175097941,57.986312889823495,1563.5510321088448,4.869772909168007,-170560.04639804538,10.5,10499829439.953602,47.655,-122.3035,60.0,3.7666666666666666
2026-01-20T23:03:47+00:00,SAT-55647,286.23198835468645,57.892772467534016,1568.4078189569216,4.8854207706858395,-171108.1006987885,10.5,10499828891.899302,47.655,-122.3035,60.0,3.783333333333333
2026-01-20T23:03:48+00:00,SAT-55647,286.5664176155843,57.79865942648547,1573.2802119388857,4.900917723823439,-171650.869549714,10.5,10499828349.130451,47.655,-122.3035,60.0,3.8
2026-01-20T23:03:49+00:00,SAT-55647,286.8970426966179,57.703996720962536,1578.1680605487788,4.916265161817781,-172188.4017478742,10.5,10499827811.598251,47.655,-122.3035,60.0,3.816666666666667
2026-01-20T23:03:50+00:00,SAT-55647,287.22390129058385,57.608806784125555,1583.0712156701652,4.931464442747706,-172720.74485893475,10.5,10499827279.25514,47.655,-122.3035,60.0,3.8333333333333335
2026-01-20T23:03:51+00:00,SAT-55647,287.5470313351391,57.513111535291316,1587.9895295410654,4.946516909404552,-173247.9459131283,10.5,10499826752.054087,47.655,-122.3035,60.0,3.85
2026-01-20T23:03:52+00:00,SAT-55647,287.86647097234504,57.41693238701666,1592.9228557387119,4.961423951257861,-173770.05357555574,10.5,10499826229.946424,47.655,-122.3035,60.0,3.8666666666666667
2026-01-20T23:03:53+00:00,SAT-55647,288.18225851445567,57.32029025113251,1597.8710492260996,4.976186888634385,-174287.11408964478,10.5,10499825712.88591,47.655,-122.3035,60.0,3.8833333333333333
2026-01-20T23:03:54+00:00,SAT-55647,288.49443240344016,57.22320554717452,1602.8339662830308,4.99080705075472,-174799.1740103234,10.5,10499825200.825989,47.655,-122.3035,60.0,3.9
2026-01-20T23:03:55+00:00,SAT-55647,288.803031177859,57.12569820941758,1607.8114645149835,5.005285788446433,-175306.28064928687,10.5,10499824693.71935,47.655,-122.3035,60.0,3.9166666666666665
2026-01-20T23:03:56+00:00,SAT-55647,289.1080934420833,57.02778769376333,1612.8034028746608,5.019624419887009,-175808.4801746867,10.5,10499824191.519825,47.655,-122.3035,60.0,3.933333333333333
2026-01-20T23:03:57+00:00,SAT-55647,289.40965783370996,56.929492985775696,1617.8096416294281,5.033824251021092,-176305.81832622844,10.5,10499823694.181673,47.655,-122.3035,60.0,3.95
2026-01-20T23:03:58+00:00,SAT-55647,289.7077629939324,56.83083260839026,1622.8300423491132,5.0478865923007215,-176798.3410014857,10.5,10499823201.658998,47.655,-122.3035,60.0,3.966666666666667
2026-01-20T23:03:59+00:00,SAT-55647,290.0024475405981,56.7318246293532,1627.8644679105012,5.061812741791609,-177286.09366421052,10.5,10499822713.906336,47.655,-122.3035,60.0,3.9833333333333334
2026-01-20T23:04:00+00:00,SAT-55647,290.2937500416799,56.63248666903227,1632.9127824849813,5.075603989241686,-177769.12148683108,10.5,10499822230.878513,47.655,-122.3035,60.0,4.0
2026-01-20T23:04:01+00:00,SAT-55647,290.58170899051925,56.53283590817936,1637.9748515302515,5.089261607373264,-178247.46904546637,10.5,10499821752.530954,47.655,-122.3035,60.0,4.016666666666667
2026-01-20T23:04:02+00:00,SAT-55647,290.86636278191986,56.43288909588363,1643.0505417733386,5.102786890207897,-178721.18166222487,10.5,10499821278.818338,47.655,-122.3035,60.0,4.033333333333333
2026-01-20T23:04:03+00:00,SAT-55647,291.14774969197543,56.3326625567712,1648.139721231839,5.116181093321326,-179190.3033126801,10.5,10499820809.696688,47.655,-122.3035,60.0,4.05
2026-01-20T23:04:04+00:00,SAT-55647,291.42590785552846,56.232172199383875,1653.2422591755783,5.129445454824571,-179654.87736071734,10.5,10499820345.122639,47.655,-122.3035,60.0,4.066666666666666
2026-01-20T23:04:05+00:00,SAT-55647,291.70087524637336,56.13143352412433,1658.3580261091902,5.142581233875312,-180114.94790736458,10.5,10499819885.052094,47.655,-122.3035,60.0,4.083333333333333
2026-01-20T23:04:06+00:00,SAT-55647,291.97268966071863,56.0304616304229,1663.4868937931085,5.15558967658395,-180570.55859667913,10.5,10499819429.441402,47.655,-122.3035,60.0,4.1
2026-01-20T23:04:07+00:00,SAT-55647,292.2413886999523,55.929271224540265,1668.6287352305549,5.168471989734334,-181021.7516953362,10.5,10499818978.248304,47.655,-122.3035,60.0,4.116666666666666
2026-01-20T23:04:08+00:00,SAT-55647,292.50700975299907,55.827876627851566,1673.7834246283164,5.181229422954761,-181468.57097060457,10.5,10499818531.42903,47.655,-122.3035,60.0,4.133333333333334
2026-01-20T23:04:09+00:00,SAT-55647,292.7695899844041,55.72629178345842,1678.9508374394768,5.193863160362738,-181911.05789528816,10.5,10499818088.942104,47.655,-122.3035,60.0,4.15
2026-01-20T23:04:10+00:00,SAT-55647,293.0291663173941,55.6245302648888,1684.1308502980785,5.206374411546465,-182349.25483428233,10.5,10499817650.745165,47.655,-122.3035,60.0,4.166666666666667
2026-01-20T23:04:11+00:00,SAT-55647,293.28577542301576,55.52260528293527,1689.3233410445275,5.218764363707579,-182783.2033684102,10.5,10499817216.79663,47.655,-122.3035,60.0,4.183333333333334
2026-01-20T23:04:12+00:00,SAT-55647,293.53945370750677,55.420529693377006,1694.5281887032652,5.231034212291289,-183212.94536721977,10.5,10499816787.054632,47.655,-122.3035,60.0,4.2
2026-01-20T23:04:13+00:00,SAT-55647,293.79023730229255,55.31831600402154,1699.7452734909903,5.243185117061207,-183638.52145053854,10.5,10499816361.47855,47.655,-122.3035,60.0,4.216666666666667
2026-01-20T23:04:14+00:00,SAT-55647,294.0381620524561,55.21597638253956,1704.9744767810728,5.255218241503398,-184059.97236856996,10.5,10499815940.027632,47.655,-122.3035,60.0,4.233333333333333
2026-01-20T23:04:15+00:00,SAT-55647,294.2832635081987,55.113522663438644,1710.2156811072655,5.267134757274068,-184477.33915767056,10.5,10499815522.660843,47.655,-122.3035,60.0,4.25
2026-01-20T23:04:16+00:00,SAT-55647,294.5255769171406,55.010966354870625,1715.4687701718535,5.2789357825685155,-184890.66098176964,10.5,10499815109.339018,47.655,-122.3035,60.0,4.266666666666667
2026-01-20T23:04:17+00:00,SAT-55647,294.76513721446787,54.908318646556495,1720.7336287923351,5.290622461105346,-185299.97789873063,10.5,10499814700.0221,47.655,-122.3035,60.0,4.283333333333333
2026-01-20T23:04:18+00:00,SAT-55647,295.00197901752847,54.80559041607405,1726.0101429268775,5.302195940827739,-185705.33011437953,10.5,10499814294.669886,47.655,-122.3035,60.0,4.3
2026-01-20T23:04:19+00:00,SAT-55647,295.23613662018636,54.70279223546797,1731.2981996785297,5.313657315501631,-186106.75593702603,10.5,10499813893.244062,47.655,-122.3035,60.0,4.316666666666666
2026-01-20T23:04:20+00:00,SAT-55647,295.467643984867,54.59993437890903,1736.5976872411902,5.325007673735546,-186504.29349434545,10.5,10499813495.706505,47.655,-122.3035,60.0,4.333333333333333
2026-01-20T23:04:21+00:00,SAT-55647,295.69653473776987,54.49702682928964,1741.9084948944624,5.3362481661027,-186897.98308427873,10.5,10499813102.016916,47.655,-122.3035,60.0,4.35
2026-01-20T23:04:22+00:00,SAT-55647,295.92284216757037,54.394079283419046,1747.2305130654554,5.347379830844495,-187287.8610704316,10.5,10499812712.13893,47.655,-122.3035,60.0,4.366666666666666
2026-01-20T23:04:23+00:00,SAT-55647,296.1465992167231,54.2911011605084,1752.563633216751,5.358403777197589,-187673.9663029638,10.5,10499812326.033697,47.655,-122.3035,60.0,4.383333333333334
2026-01-20T23:04:24+00:00,SAT-55647,296.3678384816444,54.1881016069864,1757.9077479172092,5.369321042023057,-188056.3350971361,10.5,10499811943.664904,47.655,-122.3035,60.0,4.4
2026-01-20T23:04:25+00:00,SAT-55647,296.58659220696006,54.085089503994105,1763.262750769787,5.38013272008015,-188435.00579604832,10.5,10499811564.994204,47.655,-122.3035,60.0,4.416666666666667
2026-01-20T23:04:26+00:00,SAT-55647,296.8028922859062,53.98207347225582,1768.6285364692803,5.3908398200519585,-188810.01372804903,10.5,10499811189.986273,47.655,-122.3035,60.0,4.433333333333334
2026-01-20T23:04:27+00:00,SAT-55647,297.01677025498583,53.8790618796223,1774.005000716479,5.401443431440454,-189181.3970521058,10.5,10499810818.602947,47.655,-122.3035,60.0,4.45
2026-01-20T23:04:28+00:00,SAT-55647,297.22825729614664,53.776062845292735,1779.3920402987687,5.41194453467221,-189549.19010690457,10.5,10499810450.809893,47.655,-122.3035,60.0,4.466666666666667
2026-01-20T23:04:29+00:00,SAT-55647,297.43738423130793,53.67308424758738,1784.7895529813484,5.422344182326525,-189913.4297582247,10.5,10499810086.570242,47.655,-122.3035,60.0,4.483333333333333
2026-01-20T23:04:30+00:00,SAT-55647,297.64418152490464,53.57013372812515,1790.1974375791888,5.432643385838246,-190274.1514307928,10.5,10499809725.84857,47.655,-122.3035,60.0,4.5
2026-01-20T23:04:31+00:00,SAT-55647,297.84867928199435,53.46721869807939,1795.6155939159983,5.442843115066785,-190631.3890931881,10.5,10499809368.610907,47.655,-122.3035,60.0,4.516666666666667
2026-01-20T23:04:32+00:00,SAT-55647,298.05090724671726,53.364346344329476,1801.043922782758,5.452944403792648,-190985.17895277674,10.5,10499809014.821047,47.655,-122.3035,60.0,4.533333333333333
2026-01-20T23:04:33+00:00,SAT-55647,298.2508948054142,53.261523633487286,1806.482326001474,5.462948212299372,-191335.5546427502,10.5,10499808664.445356,47.655,-122.3035,60.0,4.55
2026-01-20T23:04:34+00:00,SAT-55647,298.44867098434474,53.158757318453745,1811.9307063518738,5.472855528265575,-191682.55075579166,10.5,10499808317.449244,47.655,-122.3035,60.0,4.566666666666666
2026-01-20T23:04:35+00:00,SAT-55647,298.64426445184154,53.056053942938085,1817.3889675987307,5.482667284041261,-192026.19994674195,10.5,10499807973.800053,47.655,-122.3035,60.0,4.583333333333333
2026-01-20T23:04:36+00:00,SAT-55647,298.83770351742197,52.953419847448515,1822.8570144366813,5.492384481038415,-192366.5372892848,10.5,10499807633.462711,47.655,-122.3035,60.0,4.6
2026-01-20T23:04:37+00:00,SAT-55647,299.02901613591746,52.850861172826335,1828.3347525591034,5.502008028372248,-192703.5946244805,10.5,10499807296.405376,47.655,-122.3035,60.0,4.616666666666666
2026-01-20T23:04:38+00:00,SAT-55647,299.21822990564897,52.748383866730556,1833.8220885660667,5.511538890906628,-193037.40574594308,10.5,10499806962.594254,47.655,-122.3035,60.0,4.633333333333334
2026-01-20T23:04:39+00:00,SAT-55647,299.40537207249287,52.64599368722094,1839.318930019931,5.520977963834342,-193368.0020071105,10.5,10499806631.997993,47.655,-122.3035,60.0,4.65
2026-01-20T23:04:40+00:00,SAT-55647,299.59046952931953,52.543696208613106,1844.8251853758618,5.530326193850911,-193695.41656526452,10.5,10499806304.583435,47.655,-122.3035,60.0,4.666666666666667
2026-01-20T23:04:41+00:00,SAT-55647,299.7735488202319,52.44149682494759,1850.3407640331957,5.539584490684459,-194019.6812829321,10.5,10499805980.318718,47.655,-122.3035,60.0,4.683333333333334
2026-01-20T23:04:42+00:00,SAT-55647,299.9546361415641,52.339400755035136,1855.8655762985716,5.54875372704997,-194340.82672628367,10.5,10499805659.173273,47.655,-122.3035,60.0,4.7
2026-01-20T23:04:43+00:00,SAT-55647,300.1337573432003,52.23741304739129,1861.399533349016,5.557834822653193,-194658.8851073049,10.5,10499805341.114893,47.655,-122.3035,60.0,4.716666666666667
2026-01-20T23:04:44+00:00,SAT-55647,300.3109379329124,52.13553858351989,1866.942547278809,5.566828655911342,-194973.88719188224,10.5,10499805026.112808,47.655,-122.3035,60.0,4.733333333333333
2026-01-20T23:04:45+00:00,SAT-55647,300.4862030777838,52.03378208274072,1872.4945310583046,5.575736091340548,-195285.86325902748,10.5,10499804714.136742,47.655,-122.3035,60.0,4.75
2026-01-20T23:04:46+00:00,SAT-55647,300.65957760663025,51.932148106422375,1878.0553985200684,5.58455799907861,-195594.8437846472,10.5,10499804405.156216,47.655,-122.3035,60.0,4.766666666666667
2026-01-20T23:04:47+00:00,SAT-55647,300.8310860133267,51.83064106175363,1883.6250643644826,5.5932952307801465,-195900.85859728843,10.5,10499804099.141403,47.655,-122.3035,60.0,4.783333333333333
2026-01-20T23:04:48+00:00,SAT-55647,301.0007524592546,51.72926520588187,1889.2034441413139,5.6019486392572375,-196203.93756603776,10.5,10499803796.062433,47.655,-122.3035,60.0,4.8
2026-01-20T23:04:49+00:00,SAT-55647,301.16860077667195,51.628024649590934,1894.7904542508666,5.6105190778045255,-196504.11057688287,10.5,10499803495.889423,47.655,-122.3035,60.0,4.816666666666666
2026-01-20T23:04:50+00:00,SAT-55647,301.33465447193714,51.526923360920016,1900.3860119444637,5.619007348905085,-196801.40573617566,10.5,10499803198.594263,47.655,-122.3035,60.0,4.833333333333333
2026-01-20T23:04:51+00:00,SAT-55647,301.49893672733543,51.425965169620135,1905.9900352737716,5.627414293665179,-197095.8525030152,10.5,10499802904.147497,47.655,-122.3035,60.0,4.85
2026-01-20T23:04:52+00:00,SAT-55647,301.6614704057274,51.325153769905036,1911.6024431293204,5.635740721098762,-197387.47921249238,10.5,10499802612.520788,47.655,-122.3035,60.0,4.866666666666666
2026-01-20T23:04:53+00:00,SAT-55647,301.8222780530426,51.224492724405344,1917.223155208496,5.643987446295053,-197676.3144124795,10.5,10499802323.685587,47.655,-122.3035,60.0,4.883333333333334
2026-01-20T23:04:54+00:00,SAT-55647,301.98138190203906,51.123985467347815,1922.852092021601,5.6521552424852715,-197962.3851848046,10.5,10499802037.614815,47.655,-122.3035,60.0,4.9
2026-01-20T23:04:55+00:00,SAT-55647,302.1388038745874,51.023635308523914,1928.4891748501066,5.660244912826144,-198245.71965941356,10.5,10499801754.28034,47.655,-122.3035,60.0,4.916666666666667
2026-01-20T23:04:56+00:00,SAT-55647,302.29456558625776,50.923445435883295,1934.1343257764984,5.668257237933324,-198526.3451767686,10.5,10499801473.654823,47.655,-122.3035,60.0,4.933333333333334
2026-01-20T23:04:57+00:00,SAT-55647,302.4486883492612,50.82341891900158,1939.7874676617973,5.67619300959034,-198804.28946847812,10.5,10499801195.710531,47.655,-122.3035,60.0,4.95
2026-01-20T23:04:58+00:00,SAT-55647,302.60119317649367,50.72355871186622,1945.4485241566952,5.684052949161282,-199079.57779976397,10.5,10499800920.422201,47.655,-122.3035,60.0,4.966666666666667
2026-01-20T23:04:59+00:00,SAT-55647,302.7521007831646,50.623867657044535,1951.1174196313254,5.6918378514683265,-199352.23800866073,10.5,10499800647.761992,47.655,-122.3035,60.0,4.983333333333333
2026-01-20T23:05:00+00:00,SAT-55647,302.90143159268877,50.52434848721636,1956.7940792485233,5.699548441101488,-199622.29547337585,10.5,10499800377.704527,47.655,-122.3035,60.0,5.0
2026-01-20T23:05:01+00:00,SAT-55647,303.04920573838416,50.425003829194154,1962.4784288937817,5.70718547795579,-199889.77680864735,10.5,10499800110.223192,47.655,-122.3035,60.0,5.016666666666667
2026-01-20T23:05:02+00:00,SAT-55647,303.19544306823997,50.32583620600195,1968.170395210463,5.714749680458324,-200154.70717683097,10.5,10499799845.292824,47.655,-122.3035,60.0,5.033333333333333
2026-01-20T23:05:03+00:00,SAT-55647,303.34016314747515,50.22684804024373,1973.8699055584402,5.722241764155076,-200417.11163937385,10.5,10499799582.888361,47.655,-122.3035,60.0,5.05
2026-01-20T23:05:04+00:00,SAT-55647,303.48338526227224,50.1280416567204,1979.5768880112241,5.729662489840115,-200677.01684250246,10.5,10499799322.983158,47.655,-122.3035,60.0,5.066666666666666
2026-01-20T23:05:05+00:00,SAT-55647,303.6251284246916,50.029419284152354,1985.2912714010913,5.737012524070095,-200934.4461318503,10.5,10499799065.553867,47.655,-122.3035,60.0,5.083333333333333
2026-01-20T23:05:06+00:00,SAT-55647,303.7654113739129,49.93098305926535,1991.0129852250973,5.744292578681763,-201189.4244389514,10.5,10499798810.575562,47.655,-122.3035,60.0,5.1
2026-01-20T23:05:07+00:00,SAT-55647,303.9042525811613,49.83273502838449,1996.7419596902357,5.751503358322844,-201441.97644354968,10.5,10499798558.023556,47.655,-122.3035,60.0,5.116666666666666
2026-01-20T23:05:08+00:00,SAT-55647,304.04167025327337,49.73467714988091,2002.4781257062698,5.7586455552181395,-201692.12639028588,10.5,10499798307.87361,47.655,-122.3035,60.0,5.133333333333334
2026-01-20T23:05:09+00:00,SAT-55647,304.17768233602305,49.636811296658095,2008.2214148733406,5.765719815474302,-201939.89690854787,10.5,10499798060.103092,47.655,-122.3035,60.0,5.15
2026-01-20T23:05:10+00:00,SAT-55647,304.31230651667636,49.539139259144754,2013.9717594359738,5.7727268605064985,-202185.3132653465,10.5,10499797814.686735,47.655,-122.3035,60.0,5.166666666666667
2026-01-20T23:05:11+00:00,SAT-55647,304.44556022955794,49.441662746158556,2019.7290923581857,5.7796673219213615,-202428.39758221767,10.5,10499797571.602417,47.655,-122.3035,60.0,5.183333333333334
2026-01-20T23:05:12+00:00,SAT-55647,304.57746065744465,49.34438338853833,2025.4933472339153,5.786541862898679,-202669.17308652285,10.5,10499797330.826914,47.655,-122.3035,60.0,5.2
2026-01-20T23:05:13+00:00,SAT-55647,304.7080247359696,49.24730274064778,2031.2644583185127,5.793351144812026,-202907.6629423622,10.5,10499797092.337057,47.655,-122.3035,60.0,5.216666666666667
2026-01-20T23:05:14+00:00,SAT-55647,304.83726915722843,49.150422282393265,2037.0423605269386,5.80009581181395,-203143.88971068268,10.5,10499796856.110289,47.655,-122.3035,60.0,5.233333333333333
2026-01-20T23:05:15+00:00,SAT-55647,304.96521037285993,49.053743421462926,2042.8269894165876,5.806776486745563,-203377.87520601472,10.5,10499796622.124794,47.655,-122.3035,60.0,5.25
2026-01-20T23:05:16+00:00,SAT-55647,305.0918645971491,48.957267495568985,2048.618281166035,5.813393819710922,-203609.64219775228,10.5,10499796390.357801,47.655,-122.3035,60.0,5.266666666666667
2026-01-20T23:05:17+00:00,SAT-55647,305.21724781116774,48.860995773832634,2054.416172602227,5.81994841979541,-203839.21201864193,10.5,10499796160.787981,47.655,-122.3035,60.0,5.283333333333333
2026-01-20T23:05:18+00:00,SAT-55647,305.34137576530895,48.7649294592635,2060.2206011595695,5.826440893974028,-204066.60592751566,10.5,10499795933.394072,47.655,-122.3035,60.0,5.3
2026-01-20T23:05:19+00:00,SAT-55647,305.4642639826923,48.66906969054193,2066.0315048778266,5.832871897094299,-204291.8468599038,10.5,10499795708.153141,47.655,-122.3035,60.0,5.316666666666666
2026-01-20T23:05:20+00:00,SAT-55647,305.5859277637231,48.57341754292014,2071.848822449862,5.839241988219823,-204514.9543965784,10.5,10499795485.045603,47.655,-122.3035,60.0,5.333333333333333
2026-01-20T23:05:21+00:00,SAT-55647,305.70638218722434,48.47797403147894,2077.672493126113,5.845551769648454,-204735.949632558,10.5,10499795264.050367,47.655,-122.3035,60.0,5.35
2026-01-20T23:05:22+00:00,SAT-55647,305.82564211487664,48.382740112011994,2083.5024567577093,5.851801861411612,-204954.85428396577,10.5,10499795045.145716,47.655,-122.3035,60.0,5.366666666666666
2026-01-20T23:05:23+00:00,SAT-55647,305.9437221948556,48.287716682314496,2089.338653814157,5.8579928182654815,-205171.6877807098,10.5,10499794828.31222,47.655,-122.3035,60.0,5.383333333333334
2026-01-20T23:05:24+00:00,SAT-55647,306.0606368637285,48.192904584783356,2095.1810253182402,5.864125217925577,-205386.4703568312,10.5,10499794613.529644,47.655,-122.3035,60.0,5.4
2026-01-20T23:05:25+00:00,SAT-55647,306.1764003501876,48.098304607528846,2101.029512868918,5.870199661691359,-205599.22307238053,10.5,10499794400.776928,47.655,-122.3035,60.0,5.416666666666667
2026-01-20T23:05:26+00:00,SAT-55647,306.2910266787921,48.00391748544238,2106.884058664845,5.876216685205622,-205809.96468783426,10.5,10499794190.035313,47.655,-122.3035,60.0,5.433333333333334
2026-01-20T23:05:27+00:00,SAT-55647,306.40452967172496,47.909743902678606,2112.7446054388897,5.882176852549368,-206018.71495969512,10.5,10499793981.28504,47.655,-122.3035,60.0,5.45
2026-01-20T23:05:28+00:00,SAT-55647,306.51692295255924,47.81578449356547,2118.6110964864993,5.888080731625662,-206225.49377833062,10.5,10499793774.506222,47.655,-122.3035,60.0,5.466666666666667
2026-01-20T23:05:29+00:00,SAT-55647,306.6282199494255,47.72203984388383,2124.4834756695072,5.893928849640851,-206430.31960873722,10.5,10499793569.680391,47.655,-122.3035,60.0,5.483333333333333
