satellites_20260121_005943/SAT-65534.csv

timestamp,satellite,azimuth_deg,elevation_deg,distance_km,relative_velocity_kms,doppler_shift_hz,tx_freq_ghz,rx_freq_hz,ue_lat,ue_lon,ue_alt_m,time_minutes
2026-01-20T23:00:00+00:00,SAT-65534,287.12703340540554,33.111778935904624,3967.162285626511,-2.280052763622246,79857.09239567856,10.5,10500079857.092396,47.655,-122.3035,60.0,0.0
2026-01-20T23:00:01+00:00,SAT-65534,286.99807448846065,33.12677211914272,3964.8883130035915,-2.2691608206370955,79475.61047946544,10.5,10500079475.61048,47.655,-122.3035,60.0,0.016666666666666666
2026-01-20T23:00:02+00:00,SAT-65534,286.86892453880324,33.141540623479706,3962.6252032784764,-2.2582474459780664,79093.37793537721,10.5,10500079093.377935,47.655,-122.3035,60.0,0.03333333333333333
2026-01-20T23:00:03+00:00,SAT-65534,286.73958473111355,33.1560836311012,3960.3729778256875,-2.247312700489228,78710.39689443052,10.5,10500078710.396894,47.655,-122.3035,60.0,0.05
2026-01-20T23:00:04+00:00,SAT-65534,286.61005625190955,33.17040032786427,3958.131657959066,-2.2363566290006465,78326.66892676396,10.5,10500078326.668926,47.655,-122.3035,60.0,0.06666666666666667
2026-01-20T23:00:05+00:00,SAT-65534,286.48034030046983,33.18448990326493,3955.9012649477427,-2.225379306945858,77942.19667437901,10.5,10500077942.196674,47.655,-122.3035,60.0,0.08333333333333333
2026-01-20T23:00:06+00:00,SAT-65534,286.350438087149,33.19835155070171,3953.6818199856157,-2.2143807843946735,77556.98189093226,10.5,10500077556.981892,47.655,-122.3035,60.0,0.1
2026-01-20T23:00:07+00:00,SAT-65534,286.220350834809,33.211984467383814,3951.4733442166457,-2.2033611270197597,77171.0268765583,10.5,10500077171.026876,47.655,-122.3035,60.0,0.11666666666666667
2026-01-20T23:00:08+00:00,SAT-65534,286.09007977794846,33.225387854498884,3949.275858719298,-2.1923203865543313,76784.33344317315,10.5,10500076784.333443,47.655,-122.3035,60.0,0.13333333333333333
2026-01-20T23:00:09+00:00,SAT-65534,285.95962616352676,33.23856091719716,3947.0893845204414,-2.181258632045635,76396.90400910343,10.5,10500076396.904009,47.655,-122.3035,60.0,0.15
2026-01-20T23:00:10+00:00,SAT-65534,285.8289912499763,33.251502864767,3944.913942578081,-2.170175924073975,76008.74069612764,10.5,10500076008.740696,47.655,-122.3035,60.0,0.16666666666666666
2026-01-20T23:00:11+00:00,SAT-65534,285.6981763077125,33.26421291065302,3942.749553789805,-2.1590723258395292,75619.84571778338,10.5,10500075619.845718,47.655,-122.3035,60.0,0.18333333333333332
2026-01-20T23:00:12+00:00,SAT-65534,285.5671826189799,33.27669027254172,3940.5962389901674,-2.147947903107459,75230.22137744477,10.5,10500075230.221378,47.655,-122.3035,60.0,0.2
2026-01-20T23:00:13+00:00,SAT-65534,285.43601147772074,33.288934172446574,3938.454018948135,-2.1368027116579342,74839.86962876935,10.5,10500074839.869629,47.655,-122.3035,60.0,0.21666666666666667
2026-01-20T23:00:14+00:00,SAT-65534,285.3046641901618,33.30094383672134,3936.322914377042,-2.1256368401356633,74448.79357646972,10.5,10500074448.793577,47.655,-122.3035,60.0,0.23333333333333334
2026-01-20T23:00:15+00:00,SAT-65534,285.1731420729017,33.31271849631552,3934.202945901813,-2.1144503192787947,74056.99429712586,10.5,10500074056.994297,47.655,-122.3035,60.0,0.25
2026-01-20T23:00:16+00:00,SAT-65534,285.0414464563067,33.32425738652032,3932.0941341167186,-2.1032432497793856,73664.47531739959,10.5,10500073664.475317,47.655,-122.3035,60.0,0.26666666666666666
2026-01-20T23:00:17+00:00,SAT-65534,284.90957868040937,33.33555974742872,3929.9964995156056,-2.0920156764822404,73271.23820794559,10.5,10500073271.238209,47.655,-122.3035,60.0,0.2833333333333333
2026-01-20T23:00:18+00:00,SAT-65534,284.77754009819256,33.34662482369683,3927.910062547594,-2.0807676837442175,72877.28592329792,10.5,10500072877.285923,47.655,-122.3035,60.0,0.3
2026-01-20T23:00:19+00:00,SAT-65534,284.6453320732603,33.357451864829535,3925.834843577673,-2.069499326946026,72482.62040312325,10.5,10500072482.620403,47.655,-122.3035,60.0,0.31666666666666665
2026-01-20T23:00:20+00:00,SAT-65534,284.51295598155394,33.36804012509628,3923.7708629155986,-2.0582106866404963,72087.24446872248,10.5,10500072087.244469,47.655,-122.3035,60.0,0.3333333333333333
2026-01-20T23:00:21+00:00,SAT-65534,284.3804132098532,33.37838886373368,3921.718140790789,-2.0469018352957047,71691.1606582341,10.5,10500071691.160658,47.655,-122.3035,60.0,0.35
2026-01-20T23:00:22+00:00,SAT-65534,284.2477051562294,33.38849734497143,3919.6766973603876,-2.0355728343010404,71294.37112177427,10.5,10500071294.371122,47.655,-122.3035,60.0,0.36666666666666664
2026-01-20T23:00:23+00:00,SAT-65534,284.1148332307497,33.398364838048984,3917.646552720312,-2.0242237561520207,70896.87839844261,10.5,10500070896.878399,47.655,-122.3035,60.0,0.38333333333333336
2026-01-20T23:00:24+00:00,SAT-65534,283.9817988547798,33.40799061734274,3915.627726894176,-2.0128546875905786,70498.6855263086,10.5,10500070498.685526,47.655,-122.3035,60.0,0.4
2026-01-20T23:00:25+00:00,SAT-65534,283.8486034600903,33.41737396250281,3913.620239819086,-2.0014656873232135,70099.7945615221,10.5,10500070099.794561,47.655,-122.3035,60.0,0.4166666666666667
2026-01-20T23:00:26+00:00,SAT-65534,283.71524849058267,33.42651415838937,3911.624111373595,-1.9900568452148681,69700.20865153358,10.5,10500069700.20865,47.655,-122.3035,60.0,0.43333333333333335
2026-01-20T23:00:27+00:00,SAT-65534,283.58173540034375,33.43541049528876,3909.639361346634,-1.9786282233186694,69299.929969706,10.5,10500069299.92997,47.655,-122.3035,60.0,0.45
2026-01-20T23:00:28+00:00,SAT-65534,283.4480656553653,33.44406226885529,3907.6660094652443,-1.9671799013209352,68898.96130699132,10.5,10500068898.961308,47.655,-122.3035,60.0,0.4666666666666667
2026-01-20T23:00:29+00:00,SAT-65534,283.3142407324418,33.45246878026275,3905.7040753769934,-1.9557119611883662,68497.30553421009,10.5,10500068497.305534,47.655,-122.3035,60.0,0.48333333333333334
2026-01-20T23:00:30+00:00,SAT-65534,283.1802621189818,33.46062933628252,3903.7535786477015,-1.9442244758062839,68094.96520411457,10.5,10500068094.965204,47.655,-122.3035,60.0,0.5
2026-01-20T23:00:31+00:00,SAT-65534,283.04613131359014,33.46854324931367,3901.8145387704976,-1.9327175237485137,67691.94306869252,10.5,10500067691.94307,47.655,-122.3035,60.0,0.5166666666666667
2026-01-20T23:00:32+00:00,SAT-65534,282.9118498256745,33.47620983747761,3899.8869751601455,-1.9211911860344355,67288.24196558532,10.5,10500067288.241966,47.655,-122.3035,60.0,0.5333333333333333
2026-01-20T23:00:33+00:00,SAT-65534,282.7774191752684,33.483628424697244,3897.9709071506077,-1.9096455507842742,66883.86498113598,10.5,10500066883.86498,47.655,-122.3035,60.0,0.55
2026-01-20T23:00:34+00:00,SAT-65534,282.6428408925404,33.49079834079246,3896.066353987959,-1.8980806795932497,66478.81427266967,10.5,10500066478.814272,47.655,-122.3035,60.0,0.5666666666666667
2026-01-20T23:00:35+00:00,SAT-65534,282.50811651952256,33.497718921447316,3894.173334856844,-1.8864966734207431,66073.09337621095,10.5,10500066073.093376,47.655,-122.3035,60.0,0.5833333333333334
2026-01-20T23:00:36+00:00,SAT-65534,282.373247607488,33.50438950843019,3892.291868841219,-1.8748936018715179,65666.7047296131,10.5,10500065666.70473,47.655,-122.3035,60.0,0.6
2026-01-20T23:00:37+00:00,SAT-65534,282.23823571899595,33.5108094495431,3890.421974955619,-1.8632715545426861,65259.65147094595,10.5,10500065259.65147,47.655,-122.3035,60.0,0.6166666666666667
2026-01-20T23:00:38+00:00,SAT-65534,282.1030824265383,33.51697809876496,3888.563672125222,-1.8516306153453972,64851.93653913292,10.5,10500064851.936539,47.655,-122.3035,60.0,0.6333333333333333
2026-01-20T23:00:39+00:00,SAT-65534,281.9677893128811,33.5228948162972,3886.716979191518,-1.83997086128816,64443.56263133771,10.5,10500064443.562632,47.655,-122.3035,60.0,0.65
2026-01-20T23:00:40+00:00,SAT-65534,281.832357971532,33.52855896861139,3884.8819149191927,-1.8282923963700186,64034.533390046774,10.5,10500064034.53339,47.655,-122.3035,60.0,0.6666666666666666
2026-01-20T23:00:41+00:00,SAT-65534,281.6967900048032,33.53396992860147,3883.0584979692135,-1.8165952853290235,63624.851082660476,10.5,10500063624.851082,47.655,-122.3035,60.0,0.6833333333333333
2026-01-20T23:00:42+00:00,SAT-65534,281.56108702655894,33.539127075528825,3881.2467469379785,-1.8048796213833527,63214.51897407373,10.5,10500063214.518974,47.655,-122.3035,60.0,0.7
2026-01-20T23:00:43+00:00,SAT-65534,281.4252506601559,33.54402979517982,3879.446680328919,-1.7931455029960128,62803.540512877524,10.5,10500062803.540512,47.655,-122.3035,60.0,0.7166666666666667
2026-01-20T23:00:44+00:00,SAT-65534,281.28928253805293,33.548677479943514,3877.6583165472643,-1.781393011025276,62391.91853107058,10.5,10500062391.918531,47.655,-122.3035,60.0,0.7333333333333333
2026-01-20T23:00:45+00:00,SAT-65534,281.1531843030001,33.553069528827685,3875.8816739176013,-1.7696222288883037,61979.65595027473,10.5,10500061979.65595,47.655,-122.3035,60.0,0.75
2026-01-20T23:00:46+00:00,SAT-65534,281.0169576078516,33.55720534753658,3874.1167706813235,-1.7578332541754877,61566.75618851833,10.5,10500061566.75619,47.655,-122.3035,60.0,0.7666666666666667
2026-01-20T23:00:47+00:00,SAT-65534,280.8806041144872,33.561084348572244,3872.3636249824926,-1.7460261806579493,61153.222530062674,10.5,10500061153.22253,47.655,-122.3035,60.0,0.7833333333333333
2026-01-20T23:00:48+00:00,SAT-65534,280.7441254940493,33.56470595128779,3870.6222548716496,-1.7342010940017214,60739.05797529461,10.5,10500060739.057976,47.655,-122.3035,60.0,0.8
2026-01-20T23:00:49+00:00,SAT-65534,280.60752342748475,33.56806958193513,3868.892678313899,-1.722358083686009,60324.26565815439,10.5,10500060324.265657,47.655,-122.3035,60.0,0.8166666666666667
2026-01-20T23:00:50+00:00,SAT-65534,280.47079960524604,33.57117467374057,3867.1749131851025,-1.71049725158194,59908.84914659985,10.5,10500059908.849146,47.655,-122.3035,60.0,0.8333333333333334
2026-01-20T23:00:51+00:00,SAT-65534,280.3339557262982,33.574020666993135,3865.4689772595248,-1.6986186828854435,59492.81142455277,10.5,10500059492.811424,47.655,-122.3035,60.0,0.85
2026-01-20T23:00:52+00:00,SAT-65534,280.19699349934734,33.576607009076916,3863.77488822646,-1.6867224865385089,59076.15630762247,10.5,10500059076.156307,47.655,-122.3035,60.0,0.8666666666666667
2026-01-20T23:00:53+00:00,SAT-65534,280.0599146409653,33.57893315457516,3862.0926636665527,-1.674808735072737,58658.8863361724,10.5,10500058658.886335,47.655,-122.3035,60.0,0.8833333333333333
2026-01-20T23:00:54+00:00,SAT-65534,279.9227208783474,33.580998565276346,3860.422321088107,-1.6628775445807693,58241.00557625795,10.5,10500058241.005577,47.655,-122.3035,60.0,0.9
2026-01-20T23:00:55+00:00,SAT-65534,279.7854139459098,33.5828027103042,3858.763877883645,-1.6509290048213328,57822.51717160941,10.5,10500057822.517172,47.655,-122.3035,60.0,0.9166666666666666
2026-01-20T23:00:56+00:00,SAT-65534,279.6479955872657,33.58434506614006,3857.11735135617,-1.6389632105753802,57403.42444185668,10.5,10500057403.424442,47.655,-122.3035,60.0,0.9333333333333333
2026-01-20T23:00:57+00:00,SAT-65534,279.51046755478103,33.58562511669315,3855.482758714156,-1.6269802672802185,56983.731079860234,10.5,10500056983.73108,47.655,-122.3035,60.0,0.95
2026-01-20T23:00:58+00:00,SAT-65534,279.3728316087081,33.58664235337458,3853.8601170609218,-1.6149802642381916,56563.44021336592,10.5,10500056563.440214,47.655,-122.3035,60.0,0.9666666666666667
2026-01-20T23:00:59+00:00,SAT-65534,279.2350895183655,33.587396275141714,3852.2494434107216,-1.602963312445006,56142.55572991287,10.5,10500056142.55573,47.655,-122.3035,60.0,0.9833333333333333
2026-01-20T23:01:00+00:00,SAT-65534,279.09724306040476,33.587886388578276,3850.6507546671096,-1.590929502765274,55721.08081196417,10.5,10500055721.080812,47.655,-122.3035,60.0,1.0
2026-01-20T23:01:01+00:00,SAT-65534,278.9592940203102,33.588112207938075,3849.0640676430185,-1.5788789408045218,55299.01915827208,10.5,10500055299.019157,47.655,-122.3035,60.0,1.0166666666666666
2026-01-20T23:01:02+00:00,SAT-65534,278.8212441912132,33.588073255217346,3847.489399046056,-1.566811731170641,54876.37443264743,10.5,10500054876.374434,47.655,-122.3035,60.0,1.0333333333333334
2026-01-20T23:01:03+00:00,SAT-65534,278.683095373857,33.5877690602079,3845.9267654795017,-1.5547279740042714,54453.15014243904,10.5,10500054453.150143,47.655,-122.3035,60.0,1.05
2026-01-20T23:01:04+00:00,SAT-65534,278.54484937692877,33.58719916055686,3844.376183446762,-1.5426277701839874,54029.34982084128,10.5,10500054029.349821,47.655,-122.3035,60.0,1.0666666666666667
2026-01-20T23:01:05+00:00,SAT-65534,278.4065080169316,33.58636310182606,3842.8376693506316,-1.5305112305560782,53604.977350160094,10.5,10500053604.97735,47.655,-122.3035,60.0,1.0833333333333333
2026-01-20T23:01:06+00:00,SAT-65534,278.2680731172974,33.585260437547,3841.311239483357,-1.5183784521732402,53180.03612959143,10.5,10500053180.036129,47.655,-122.3035,60.0,1.1
2026-01-20T23:01:07+00:00,SAT-65534,278.1295465094567,33.58389072928166,3839.7969100403893,-1.5062295461160515,52754.530049647015,10.5,10500052754.53005,47.655,-122.3035,60.0,1.1166666666666667
2026-01-20T23:01:08+00:00,SAT-65534,277.9909300316358,33.58225354667544,3838.294697106396,-1.4940646173669616,52328.46278725629,10.5,10500052328.462788,47.655,-122.3035,60.0,1.1333333333333333
2026-01-20T23:01:09+00:00,SAT-65534,277.8522255292499,33.580348467512586,3836.804616661342,-1.4818837718684468,51901.83805297294,10.5,10500051901.838053,47.655,-122.3035,60.0,1.15
2026-01-20T23:01:10+00:00,SAT-65534,277.71343485480116,33.57817507777381,3835.326684579532,-1.4696871212174365,51474.65975539346,10.5,10500051474.659756,47.655,-122.3035,60.0,1.1666666666666667
2026-01-20T23:01:11+00:00,SAT-65534,277.57455986728144,33.575732971682804,3833.860916623971,-1.4574747727128463,51046.931652579755,10.5,10500051046.931652,47.655,-122.3035,60.0,1.1833333333333333
2026-01-20T23:01:12+00:00,SAT-65534,277.43560243250363,33.57302175176503,3832.407328450652,-1.4452468293484615,50618.65735180985,10.5,10500050618.657352,47.655,-122.3035,60.0,1.2
2026-01-20T23:01:13+00:00,SAT-65534,277.2965644233958,33.570041028909586,3830.965935612849,-1.4330034087039742,50189.84097122193,10.5,10500050189.840971,47.655,-122.3035,60.0,1.2166666666666666
2026-01-20T23:01:14+00:00,SAT-65534,277.15744771865747,33.56679042239994,3829.536753546568,-1.4207446212709367,49760.486380697526,10.5,10500049760.486382,47.655,-122.3035,60.0,1.2333333333333334
2026-01-20T23:01:15+00:00,SAT-65534,277.0182542032806,33.56326955997333,3828.1197975776204,-1.4084705712227126,49330.59722882849,10.5,10500049330.597229,47.655,-122.3035,60.0,1.25
2026-01-20T23:01:16+00:00,SAT-65534,276.87898576909055,33.559478077889075,3826.7150829279212,-1.3961813778440708,48900.177693472004,10.5,10500048900.177694,47.655,-122.3035,60.0,1.2666666666666666
2026-01-20T23:01:17+00:00,SAT-65534,276.73964431325555,33.55541562094601,3825.322624700418,-1.3838771527482052,48469.23168379424,10.5,10500048469.231684,47.655,-122.3035,60.0,1.2833333333333334
2026-01-20T23:01:18+00:00,SAT-65534,276.60023173895013,33.55108184254905,3823.942437886744,-1.371558010460915,48037.76321097313,10.5,10500048037.76321,47.655,-122.3035,60.0,1.3
2026-01-20T23:01:19+00:00,SAT-65534,276.46074995496554,33.5464764047493,3822.574537364311,-1.3592240545995722,47605.77590412734,10.5,10500047605.775904,47.655,-122.3035,60.0,1.3166666666666667
2026-01-20T23:01:20+00:00,SAT-65534,276.3212008767042,33.541598978328516,3821.21893790719,-1.346875414120368,47173.27427984818,10.5,10500047173.27428,47.655,-122.3035,60.0,1.3333333333333333
2026-01-20T23:01:21+00:00,SAT-65534,276.18158642368456,33.536449242770594,3819.875654160841,-1.3345121986071744,46740.262176226366,10.5,10500046740.262177,47.655,-122.3035,60.0,1.35
2026-01-20T23:01:22+00:00,SAT-65534,276.04190852129534,33.5310268863654,3818.5447006614295,-1.3221345219434013,46306.74358194065,10.5,10500046306.743582,47.655,-122.3035,60.0,1.3666666666666667
2026-01-20T23:01:23+00:00,SAT-65534,275.9021691003131,33.5253316062441,3817.226091831545,-1.3097425067299528,45872.722790993306,10.5,10500045872.722792,47.655,-122.3035,60.0,1.3833333333333333
2026-01-20T23:01:24+00:00,SAT-65534,275.7623700959856,33.51936310839387,3815.9198419715,-1.2973362636438808,45438.203679762846,10.5,10500045438.20368,47.655,-122.3035,60.0,1.4
2026-01-20T23:01:25+00:00,SAT-65534,275.6225134490937,33.513121107746215,3814.6259652712256,-1.2849159143265707,45003.190508645115,10.5,10500045003.190508,47.655,-122.3035,60.0,1.4166666666666667
2026-01-20T23:01:26+00:00,SAT-65534,275.4826011048219,33.506605328181486,3813.344475799337,-1.2724815820213153,44567.68759414158,10.5,10500044567.687593,47.655,-122.3035,60.0,1.4333333333333333
2026-01-20T23:01:27+00:00,SAT-65534,275.3426350124758,33.49981550255933,3812.0753875015344,-1.2600333751817059,44131.69873475574,10.5,10500044131.698734,47.655,-122.3035,60.0,1.45
2026-01-20T23:01:28+00:00,SAT-65534,275.2026171269148,33.49275137283175,3810.8187142153533,-1.2475714260317874,43695.22856153296,10.5,10500043695.228561,47.655,-122.3035,60.0,1.4666666666666666
2026-01-20T23:01:29+00:00,SAT-65534,275.0625494060372,33.485412689972094,3809.5744696464576,-1.2350958467133013,43258.28100215137,10.5,10500043258.281002,47.655,-122.3035,60.0,1.4833333333333334
2026-01-20T23:01:30+00:00,SAT-65534,274.9224338127713,33.47779921411477,3808.342667388669,-1.2226067650389454,42820.86053315233,10.5,10500042820.860533,47.655,-122.3035,60.0,1.5
2026-01-20T23:01:31+00:00,SAT-65534,274.78227231334023,33.46991071451323,3807.123320908337,-1.2101042957271353,42382.971172459984,10.5,10500042382.971172,47.655,-122.3035,60.0,1.5166666666666666
2026-01-20T23:01:32+00:00,SAT-65534,274.64206687857825,33.46174696965341,3805.9164435573985,-1.1975885678534939,41944.61744084865,10.5,10500041944.617441,47.655,-122.3035,60.0,1.5333333333333334
2026-01-20T23:01:33+00:00,SAT-65534,274.5018194823057,33.453307767209814,3804.7220485590587,-1.1850597057402668,41505.80369260924,10.5,10500041505.803692,47.655,-122.3035,60.0,1.55
2026-01-20T23:01:34+00:00,SAT-65534,274.36153210175445,33.44459290410715,3803.540149012534,-1.1725178240484397,41066.533943654504,10.5,10500041066.533943,47.655,-122.3035,60.0,1.5666666666666667
2026-01-20T23:01:35+00:00,SAT-65534,274.221206718508,33.435602186622766,3802.370757902683,-1.1599630577581344,40626.812921559256,10.5,10500040626.812922,47.655,-122.3035,60.0,1.5833333333333333
2026-01-20T23:01:36+00:00,SAT-65534,274.0808453162441,33.4263354302906,3801.2138880797456,-1.147395526895613,40186.64483015092,10.5,10500040186.64483,47.655,-122.3035,60.0,1.6
2026-01-20T23:01:37+00:00,SAT-65534,273.940449882233,33.416792460032795,3800.069552274255,-1.1348153603184736,39746.034182567644,10.5,10500039746.034184,47.655,-122.3035,60.0,1.6166666666666667
2026-01-20T23:01:38+00:00,SAT-65534,273.8000224063055,33.40697311013418,3798.9377630882304,-1.1222226794597312,39304.98523190726,10.5,10500039304.985231,47.655,-122.3035,60.0,1.6333333333333333
2026-01-20T23:01:39+00:00,SAT-65534,273.65956488157576,33.396877224331064,3797.8185330025826,-1.10961761451665,38863.50253822872,10.5,10500038863.502539,47.655,-122.3035,60.0,1.65
2026-01-20T23:01:40+00:00,SAT-65534,273.51907930339695,33.38650465578025,3796.7118743683714,-1.097000294906887,38421.590634285785,10.5,10500038421.590633,47.655,-122.3035,60.0,1.6666666666666667
2026-01-20T23:01:41+00:00,SAT-65534,273.3785676693057,33.375855267089214,3795.6177994075847,-1.084370846049424,37979.25391278173,10.5,10500037979.253912,47.655,-122.3035,60.0,1.6833333333333333
2026-01-20T23:01:42+00:00,SAT-65534,273.2380319794359,33.364928930384664,3794.5363202171247,-1.0717293976678652,37536.496917185905,10.5,10500037536.496918,47.655,-122.3035,60.0,1.7
2026-01-20T23:01:43+00:00,SAT-65534,273.09747423589073,33.35372552730403,3793.467448764517,-1.0590760783103024,37093.324149796244,10.5,10500037093.32415,47.655,-122.3035,60.0,1.7166666666666666
2026-01-20T23:01:44+00:00,SAT-65534,272.956896442831,33.34224494903726,3792.4111968890825,-1.0464110225441825,36649.740323733946,10.5,10500036649.740324,47.655,-122.3035,60.0,1.7333333333333334
2026-01-20T23:01:45+00:00,SAT-65534,272.8163006056164,33.33048709629358,3791.3675762959315,-1.0337343536478663,36205.74975672869,10.5,10500036205.749756,47.655,-122.3035,60.0,1.75
2026-01-20T23:01:46+00:00,SAT-65534,272.6756887321295,33.318451879443906,3790.3365985672267,-1.021046206323987,35761.35716663647,10.5,10500035761.357166,47.655,-122.3035,60.0,1.7666666666666666
2026-01-20T23:01:47+00:00,SAT-65534,272.53506283123994,33.30613921843003,3789.318275150786,-1.0083467132819395,35316.56720150166,10.5,10500035316.567202,47.655,-122.3035,60.0,1.7833333333333334
2026-01-20T23:01:48+00:00,SAT-65534,272.394424913005,33.293549042812174,3788.312617362073,-0.995636007555364,34871.38452072508,10.5,10500034871.384521,47.655,-122.3035,60.0,1.8
2026-01-20T23:01:49+00:00,SAT-65534,272.25377698848945,33.28068129178464,3787.319636383871,-0.9829142175713956,34425.81362236822,10.5,10500034425.813622,47.655,-122.3035,60.0,1.8166666666666667
2026-01-20T23:01:50+00:00,SAT-65534,272.11312107029033,33.267535914256314,3786.3393432708804,-0.9701814792584932,33979.859267220716,10.5,10500033979.859266,47.655,-122.3035,60.0,1.8333333333333333
2026-01-20T23:01:51+00:00,SAT-65534,271.9724591714598,33.25411286878486,3785.371748942233,-0.9574379292916912,33533.5262422204,10.5,10500033533.526241,47.655,-122.3035,60.0,1.85
2026-01-20T23:01:52+00:00,SAT-65534,271.83179330536757,33.24041212359245,3784.4168641807523,-0.9446836975790776,33086.81909729802,10.5,10500033086.819098,47.655,-122.3035,60.0,1.8666666666666667
2026-01-20T23:01:53+00:00,SAT-65534,271.6911254864082,33.226433656660866,3783.4746996397002,-0.9319189192816995,32639.742566365174,10.5,10500032639.742567,47.655,-122.3035,60.0,1.8833333333333333
2026-01-20T23:01:54+00:00,SAT-65534,271.55045772930373,33.21217745569702,3782.5452658375366,-0.9191437347795133,32192.30156612175,10.5,10500032192.301565,47.655,-122.3035,60.0,1.9
2026-01-20T23:01:55+00:00,SAT-65534,271.40979204824254,33.197643518072674,3781.628573152717,-0.9063582751698409,31744.5006881505,10.5,10500031744.500689,47.655,-122.3035,60.0,1.9166666666666667
2026-01-20T23:01:56+00:00,SAT-65534,271.2691304580867,33.182831850972455,3780.7246318329476,-0.8935626777263995,31296.34474035766,10.5,10500031296.34474,47.655,-122.3035,60.0,1.9333333333333333
2026-01-20T23:01:57+00:00,SAT-65534,271.12847497340647,33.16774247132421,3779.833451989028,-0.8807570828179645,30847.83863905151,10.5,10500030847.838638,47.655,-122.3035,60.0,1.95
2026-01-20T23:01:58+00:00,SAT-65534,270.98782760798974,33.15237540577133,3778.9550435917645,-0.8679416230588939,30398.987028947828,10.5,10500030398.987028,47.655,-122.3035,60.0,1.9666666666666666
2026-01-20T23:01:59+00:00,SAT-65534,270.8471903757975,33.13673069079918,3778.0894164797,-0.855116439692101,29949.794856970886,10.5,10500029949.794857,47.655,-122.3035,60.0,1.9833333333333334
2026-01-20T23:02:00+00:00,SAT-65534,270.706565289685,33.120808372621504,3777.236580350514,-0.8422816688147742,29500.26688981992,10.5,10500029500.26689,47.655,-122.3035,60.0,2.0
2026-01-20T23:02:01+00:00,SAT-65534,270.56595436202434,33.10460850727328,3776.3965447661494,-0.8294374565065541,29050.408243821857,10.5,10500029050.408243,47.655,-122.3035,60.0,2.0166666666666666
2026-01-20T23:02:02+00:00,SAT-65534,270.4253596031701,33.088131160455184,3775.5693191428604,-0.8165839291357782,28600.223344930415,10.5,10500028600.223345,47.655,-122.3035,60.0,2.033333333333333
2026-01-20T23:02:03+00:00,SAT-65534,270.2847830242553,33.07137640788155,3774.754912770869,-0.8037212409639172,28149.71759603482,10.5,10500028149.717596,47.655,-122.3035,60.0,2.05
2026-01-20T23:02:04+00:00,SAT-65534,270.1442266329738,33.05434433480662,3773.953334786547,-0.7908495219935879,27698.89555037663,10.5,10500027698.89555,47.655,-122.3035,60.0,2.066666666666667
2026-01-20T23:02:05+00:00,SAT-65534,270.003692437109,33.037035036462264,3773.1645941966126,-0.7779689168239873,27247.76227243137,10.5,10500027247.762272,47.655,-122.3035,60.0,2.0833333333333335
2026-01-20T23:02:06+00:00,SAT-65534,269.86318244225987,33.01944861780564,3772.388699863567,-0.765079568086993,26796.32275777073,10.5,10500026796.322758,47.655,-122.3035,60.0,2.1
2026-01-20T23:02:07+00:00,SAT-65534,269.7226986520008,33.00158519355427,3771.6256605076615,-0.7521816161737421,26344.58192348619,10.5,10500026344.581924,47.655,-122.3035,60.0,2.1166666666666667
2026-01-20T23:02:08+00:00,SAT-65534,269.58224306818533,32.98344488824116,3770.8754847091304,-0.7392752025050251,25892.544722732026,10.5,10500025892.544724,47.655,-122.3035,60.0,2.1333333333333333
2026-01-20T23:02:09+00:00,SAT-65534,269.4418176906545,32.965027836196164,3770.1381809071654,-0.7263604691826466,25440.216132514546,10.5,10500025440.216133,47.655,-122.3035,60.0,2.15
2026-01-20T23:02:10+00:00,SAT-65534,269.3014245170997,32.94633418154457,3769.4137573992343,-0.7134375631446307,24987.601299224887,10.5,10500024987.6013,47.655,-122.3035,60.0,2.1666666666666665
2026-01-20T23:02:11+00:00,SAT-65534,269.16106554209546,32.927364078093646,3768.702222336258,-0.7005066239405026,24534.705110477717,10.5,10500024534.70511,47.655,-122.3035,60.0,2.183333333333333
2026-01-20T23:02:12+00:00,SAT-65534,269.0207427583093,32.90811768950584,3768.0035837299815,-0.6875677954213593,24081.532604546952,10.5,10500024081.532604,47.655,-122.3035,60.0,2.2
2026-01-20T23:02:13+00:00,SAT-65534,268.8804581556475,32.888595189201624,3767.3178494486815,-0.6746212257820525,23628.088971843154,10.5,10500023628.088972,47.655,-122.3035,60.0,2.216666666666667
2026-01-20T23:02:14+00:00,SAT-65534,268.74021372044666,32.868796760256586,3766.6450272128345,-0.6616670563762875,23174.379163171005,10.5,10500023174.379164,47.655,-122.3035,60.0,2.2333333333333334
2026-01-20T23:02:15+00:00,SAT-65534,268.60001143653335,32.84872259555949,3765.985124601942,-0.6487054323927959,22720.40826365404,10.5,10500022720.408264,47.655,-122.3035,60.0,2.25
2026-01-20T23:02:16+00:00,SAT-65534,268.45985328451513,32.82837289772639,3765.338149050702,-0.63573649985379,22266.1813876078,10.5,10500022266.181387,47.655,-122.3035,60.0,2.2666666666666666
2026-01-20T23:02:17+00:00,SAT-65534,268.31974124150884,32.807747879070206,3764.7041078481816,-0.6227604029742517,21811.703586051,10.5,10500021811.703587,47.655,-122.3035,60.0,2.283333333333333
2026-01-20T23:02:18+00:00,SAT-65534,268.1796772814425,32.786847761654556,3764.083008139615,-0.6097772935665415,21356.980176094643,10.5,10500021356.980177,47.655,-122.3035,60.0,2.3
2026-01-20T23:02:19+00:00,SAT-65534,268.0396633734258,32.76567277705738,3763.4748569188314,-0.5967873102399779,20902.01601242339,10.5,10500020902.016012,47.655,-122.3035,60.0,2.316666666666667
2026-01-20T23:02:20+00:00,SAT-65534,267.8997014843089,32.744223166762076,3762.8796610414183,-0.5837906072672123,20446.81649831808,10.5,10500020446.816498,47.655,-122.3035,60.0,2.3333333333333335
2026-01-20T23:02:21+00:00,SAT-65534,267.75979357548266,32.722499181681194,3762.297427209104,-0.570787325735135,19991.386575238386,10.5,10500019991.386576,47.655,-122.3035,60.0,2.35
2026-01-20T23:02:22+00:00,SAT-65534,267.619941605432,32.70050108254971,3761.728161982904,-0.5577776181843845,19535.73158580273,10.5,10500019535.731586,47.655,-122.3035,60.0,2.3666666666666667
2026-01-20T23:02:23+00:00,SAT-65534,267.4801475273339,32.67822913955857,3761.1718717717017,-0.544761628909226,19079.856583806628,10.5,10500019079.856585,47.655,-122.3035,60.0,2.3833333333333333
2026-01-20T23:02:24+00:00,SAT-65534,267.3404132907035,32.65568363261682,3760.62856284047,-0.5317395076352686,18623.766813274266,10.5,10500018623.766813,47.655,-122.3035,60.0,2.4
2026-01-20T23:02:25+00:00,SAT-65534,267.20074084012083,32.63286485115105,3760.098241304855,-0.5187114045846529,18167.467535620443,10.5,10500018167.467535,47.655,-122.3035,60.0,2.4166666666666665
2026-01-20T23:02:26+00:00,SAT-65534,267.06113211509273,32.60977309408231,3759.5809131306823,-0.5056774659823702,17710.96387226288,10.5,10500017710.963873,47.655,-122.3035,60.0,2.433333333333333
2026-01-20T23:02:27+00:00,SAT-65534,266.9215890507804,32.586408669947126,3759.0765841379425,-0.492637842177616,17254.261089066385,10.5,10500017254.26109,47.655,-122.3035,60.0,2.45
2026-01-20T23:02:28+00:00,SAT-65534,266.78211357709387,32.562771896747634,3758.5852599966775,-0.479592681099443,16797.364367132115,10.5,10500016797.364367,47.655,-122.3035,60.0,2.466666666666667
2026-01-20T23:02:29+00:00,SAT-65534,266.64270761907954,32.53886310201694,3758.106946229394,-0.46654213800644917,16340.279144272925,10.5,10500016340.279144,47.655,-122.3035,60.0,2.4833333333333334
2026-01-20T23:02:30+00:00,SAT-65534,266.50337309524184,32.514682622527516,3757.6416482037557,-0.45348635514731483,15883.0104026393,10.5,10500015883.010403,47.655,-122.3035,60.0,2.5
2026-01-20T23:02:31+00:00,SAT-65534,266.36411192037906,32.49023080477667,3757.1893711455555,-0.44042548817501664,15425.563593856903,10.5,10500015425.563593,47.655,-122.3035,60.0,2.5166666666666666
2026-01-20T23:02:32+00:00,SAT-65534,266.22492600245823,32.46550800444254,3756.7501201253485,-0.42735968794951074,14967.944001679529,10.5,10500014967.944002,47.655,-122.3035,60.0,2.533333333333333
2026-01-20T23:02:33+00:00,SAT-65534,266.08581724357225,32.44051458654099,3756.323900063234,-0.414289100270917,14510.156732644116,10.5,10500014510.156733,47.655,-122.3035,60.0,2.55
2026-01-20T23:02:34+00:00,SAT-65534,265.94678754125107,32.41525092565974,3755.9107157338967,-0.4012138817024338,14052.207270256125,10.5,10500014052.20727,47.655,-122.3035,60.0,2.566666666666667
2026-01-20T23:02:35+00:00,SAT-65534,265.8078387855381,32.38971740542219,3755.510571755879,-0.38813418175011966,13594.100850850145,10.5,10500013594.100851,47.655,-122.3035,60.0,2.5833333333333335
2026-01-20T23:02:36+00:00,SAT-65534,265.6689728608652,32.36391441881963,3755.1234725986137,-0.37505015045874607,13135.842729628755,10.5,10500013135.84273,47.655,-122.3035,60.0,2.6
2026-01-20T23:02:37+00:00,SAT-65534,265.53019164567036,32.33784236813317,3754.7494225818896,-0.3619619431616196,12677.43834702141,10.5,10500012677.438347,47.655,-122.3035,60.0,2.6166666666666667
2026-01-20T23:02:38+00:00,SAT-65534,265.39149701106936,32.31150166467614,3754.3884258705766,-0.3488697080851013,12218.892894542278,10.5,10500012218.892895,47.655,-122.3035,60.0,2.6333333333333333
2026-01-20T23:02:39+00:00,SAT-65534,265.25289082257825,32.284892729106915,3754.040486481713,-0.33577359979051197,11760.211785582598,10.5,10500011760.211786,47.655,-122.3035,60.0,2.65
2026-01-20T23:02:40+00:00,SAT-65534,265.1143749384556,32.25801599110507,3753.7056082781883,-0.32267376997687836,11301.400333283977,10.5,10500011301.400333,47.655,-122.3035,60.0,2.6666666666666665
2026-01-20T23:02:41+00:00,SAT-65534,264.9759512102122,32.230871889451805,3753.3837949715985,-0.30957037174337276,10842.46389982704,10.5,10500010842.4639,47.655,-122.3035,60.0,2.683333333333333
2026-01-20T23:02:42+00:00,SAT-65534,264.83762148238554,32.203460871977995,3753.075050120846,-0.2964635577155068,10383.407830802806,10.5,10500010383.407831,47.655,-122.3035,60.0,2.7
2026-01-20T23:02:43+00:00,SAT-65534,264.6993875924034,32.175783395517485,3752.779377132618,-0.28335348113119674,9924.237493251301,10.5,10500009924.237494,47.655,-122.3035,60.0,2.716666666666667
2026-01-20T23:02:44+00:00,SAT-65534,264.5612513703402,32.14783992584507,3752.4967792607695,-0.2702402948365215,9464.958240488746,10.5,10500009464.95824,47.655,-122.3035,60.0,2.7333333333333334
2026-01-20T23:02:45+00:00,SAT-65534,264.4232146391396,32.11963093770522,3752.2272596067196,-0.2571241520744796,9005.575439733162,10.5,10500009005.57544,47.655,-122.3035,60.0,2.75
2026-01-20T23:02:46+00:00,SAT-65534,264.28527921424484,32.09115691472134,3751.9708211190505,-0.24400520737640669,8546.094503325598,10.5,10500008546.094503,47.655,-122.3035,60.0,2.7666666666666666
2026-01-20T23:02:47+00:00,SAT-65534,264.1474469031661,32.06241834928472,3751.7274665922273,-0.2308836131772318,8086.520770182064,10.5,10500008086.520771,47.655,-122.3035,60.0,2.783333333333333
2026-01-20T23:02:48+00:00,SAT-65534,264.00971950611404,32.033415742669,3751.4971986686846,-0.21775952491393838,7626.859684363217,10.5,10500007626.859684,47.655,-122.3035,60.0,2.8
2026-01-20T23:02:49+00:00,SAT-65534,263.8720988148965,32.00414960477903,3751.2800198358373,-0.20463309490405657,7167.116580673267,10.5,10500007167.116581,47.655,-122.3035,60.0,2.816666666666667
2026-01-20T23:02:50+00:00,SAT-65534,263.7345866138931,31.974620454332605,3751.0759324291867,-0.19150447776125373,6707.296874336859,10.5,10500006707.296875,47.655,-122.3035,60.0,2.8333333333333335
2026-01-20T23:02:51+00:00,SAT-65534,263.59718467928695,31.944828818678552,3750.884938630032,-0.17837382807836008,6247.405979848835,10.5,10500006247.40598,47.655,-122.3035,60.0,2.85
2026-01-20T23:02:52+00:00,SAT-65534,263.4598947788219,31.914775233720185,3750.7070404654955,-0.16524130004823687,5787.449297695432,10.5,10500005787.449297,47.655,-122.3035,60.0,2.8666666666666667
2026-01-20T23:02:53+00:00,SAT-65534,263.3227186720392,31.884460243939813,3750.5422398089145,-0.15210704838212954,5327.432246518891,10.5,10500005327.432247,47.655,-122.3035,60.0,2.8833333333333333
2026-01-20T23:02:54+00:00,SAT-65534,263.185658109811,31.853884402273128,3750.390538379328,-0.13897122667116718,4867.360205730243,10.5,10500004867.360207,47.655,-122.3035,60.0,2.9
2026-01-20T23:02:55+00:00,SAT-65534,263.04871483501927,31.82304827023314,3750.2519377425947,-0.12583399007891086,4407.2386098137395,10.5,10500004407.23861,47.655,-122.3035,60.0,2.9166666666666665
2026-01-20T23:02:56+00:00,SAT-65534,262.91189058154976,31.791952417660497,3750.126439309822,-0.11269549395391353,3947.072899732828,10.5,10500003947.072899,47.655,-122.3035,60.0,2.933333333333333
2026-01-20T23:02:57+00:00,SAT-65534,262.775187074194,31.760597422669704,3750.0140443371856,-0.09955589179734943,3486.868451747939,10.5,10500003486.868452,47.655,-122.3035,60.0,2.95
2026-01-20T23:02:58+00:00,SAT-65534,262.6386060295219,31.72898387182066,3749.9147539277665,-0.0864153393130172,3026.6307192647273,10.5,10500003026.63072,47.655,-122.3035,60.0,2.966666666666667
2026-01-20T23:02:59+00:00,SAT-65534,262.5021491546904,31.69711235981526,3749.8285690293583,-0.07327399102513737,2566.365114375034,10.5,10500002566.365114,47.655,-122.3035,60.0,2.9833333333333334
2026-01-20T23:03:00+00:00,SAT-65534,262.3658181478703,31.664983489565312,3749.7554904356425,-0.06013200221009583,2106.077075514709,10.5,10500002106.077076,47.655,-122.3035,60.0,3.0
2026-01-20T23:03:01+00:00,SAT-65534,262.2296146979485,31.632597872089836,3749.6955187854387,-0.04698952718323478,1645.7720074597912,10.5,10500001645.772007,47.655,-122.3035,60.0,3.0166666666666666
2026-01-20T23:03:02+00:00,SAT-65534,262.093540484837,31.59995612655739,3749.648654563661,-0.0338467214049156,1185.4553550897326,10.5,10500001185.455355,47.655,-122.3035,60.0,3.033333333333333
2026-01-20T23:03:03+00:00,SAT-65534,261.9575971788547,31.56705888010412,3749.6148981001797,-0.020703740414781957,725.1325660607865,10.5,10500000725.132566,47.655,-122.3035,60.0,3.05
2026-01-20T23:03:04+00:00,SAT-65534,261.82178644017364,31.533906767663172,3749.594249569739,-0.007560737625577795,264.8090135361806,10.5,10500000264.809013,47.655,-122.3035,60.0,3.066666666666667
2026-01-20T23:03:05+00:00,SAT-65534,261.68610992102316,31.50050043246825,3749.5867089940807,0.005582130550439887,-195.50982426522154,10.5,10499999804.490175,47.655,-122.3035,60.0,3.0833333333333335
2026-01-20T23:03:06+00:00,SAT-65534,261.55056926243185,31.466840525218867,3749.59227623895,0.01872470961852726,-655.8185362839789,10.5,10499999344.181463,47.655,-122.3035,60.0,3.1
2026-01-20T23:03:07+00:00,SAT-65534,261.41516609653314,31.432927704612762,3749.6109510160095,0.03186684398923513,-1116.1116731194381,10.5,10499998883.888327,47.655,-122.3035,60.0,3.1166666666666667
2026-01-20T23:03:08+00:00,SAT-65534,261.2799020445176,31.398762636791833,3749.642732881748,0.045008379681629865,-1576.3838417079642,10.5,10499998423.616158,47.655,-122.3035,60.0,3.1333333333333333
2026-01-20T23:03:09+00:00,SAT-65534,261.14477871925834,31.36434599596808,3749.687621239084,0.058149160997503224,-2036.6295888397026,10.5,10499997963.37041,47.655,-122.3035,60.0,3.15
2026-01-20T23:03:10+00:00,SAT-65534,261.00979772228703,31.32967846361862,3749.745615335652,0.07128903322408509,-2496.843495819009,10.5,10499997503.156504,47.655,-122.3035,60.0,3.1666666666666665
2026-01-20T23:03:11+00:00,SAT-65534,260.87496064567665,31.29476072892083,3749.816714264787,0.08442784148445041,-2957.0201382008395,10.5,10499997042.979862,47.655,-122.3035,60.0,3.183333333333333
2026-01-20T23:03:12+00:00,SAT-65534,260.74026907096186,31.25959348843629,3749.9009169653614,0.0975654308818535,-3417.154090845947,10.5,10499996582.84591,47.655,-122.3035,60.0,3.2
2026-01-20T23:03:13+00:00,SAT-65534,260.6057245694027,31.224177446131826,3749.9982222217604,0.11070164675841201,-3877.2399369810905,10.5,10499996122.760063,47.655,-122.3035,60.0,3.216666666666667
2026-01-20T23:03:14+00:00,SAT-65534,260.47132870199687,31.18851331334189,3750.108628664128,0.12383633420619942,-4337.272251075422,10.5,10499995662.727749,47.655,-122.3035,60.0,3.2333333333333334
2026-01-20T23:03:15+00:00,SAT-65534,260.3370830195158,31.152601808735554,3750.2321347681095,0.13696933890784066,-4797.245628281706,10.5,10499995202.754372,47.655,-122.3035,60.0,3.25
2026-01-20T23:03:16+00:00,SAT-65534,260.20298906177726,31.1164436580726,3750.3687388554467,0.15010050608652992,-5257.154647661498,10.5,10499994742.845352,47.655,-122.3035,60.0,3.2666666666666666
2026-01-20T23:03:17+00:00,SAT-65534,260.0690483584399,31.080039594372913,3750.518439093517,0.16322968141218652,-5716.993903922555,10.5,10499994283.006096,47.655,-122.3035,60.0,3.283333333333333
2026-01-20T23:03:18+00:00,SAT-65534,259.93526242816233,31.043390357643442,3750.681233495779,0.17635671042919965,-6176.757987376041,10.5,10499993823.242012,47.655,-122.3035,60.0,3.3
2026-01-20T23:03:19+00:00,SAT-65534,259.8016327789816,31.006496694928533,3750.857119921647,0.18948143919424387,-6636.441506275521,10.5,10499993363.558495,47.655,-122.3035,60.0,3.316666666666667
2026-01-20T23:03:20+00:00,SAT-65534,259.6681609079002,30.969359360149728,3751.0460960770033,0.20260371299556557,-7096.03904196095,10.5,10499992903.960958,47.655,-122.3035,60.0,3.3333333333333335
2026-01-20T23:03:21+00:00,SAT-65534,259.5348483016951,30.93197911428113,3751.2481595134313,0.2157233784976702,-7555.545223974705,10.5,10499992444.454777,47.655,-122.3035,60.0,3.35
2026-01-20T23:03:22+00:00,SAT-65534,259.4016964354406,30.89435672488552,3751.4633076295863,0.22884028159053627,-8014.954654731944,10.5,10499991985.045345,47.655,-122.3035,60.0,3.3666666666666667
2026-01-20T23:03:23+00:00,SAT-65534,259.26870677342697,30.856492966317273,3751.6915376704255,0.24195426813466564,-8474.261935615436,10.5,10499991525.738064,47.655,-122.3035,60.0,3.3833333333333333
2026-01-20T23:03:24+00:00,SAT-65534,259.1358807695052,30.818388619774716,3751.9328467271785,0.25506518521943544,-8933.461711048356,10.5,10499991066.538288,47.655,-122.3035,60.0,3.4
2026-01-20T23:03:25+00:00,SAT-65534,259.0032198654389,30.78004447277197,3752.1872317385705,0.26817287913123566,-9392.548597329873,10.5,10499990607.451403,47.655,-122.3035,60.0,3.4166666666666665
2026-01-20T23:03:26+00:00,SAT-65534,258.8707254923312,30.741461319493897,3752.4546894900245,0.28127719682629,-9851.517234219564,10.5,10499990148.482765,47.655,-122.3035,60.0,3.433333333333333
2026-01-20T23:03:27+00:00,SAT-65534,258.7383990697247,30.7026399604802,3752.7352166143255,0.2943779847343062,-10310.3622430362,10.5,10499989689.637756,47.655,-122.3035,60.0,3.45
2026-01-20T23:03:28+00:00,SAT-65534,258.60624200637744,30.66358120280071,3753.0288095911005,0.3074750901606551,-10769.078275767959,10.5,10499989230.921724,47.655,-122.3035,60.0,3.466666666666667
2026-01-20T23:03:29+00:00,SAT-65534,258.47425569938275,30.624285859736194,3753.3354647476876,0.32056836104496544,-11227.660006617436,10.5,10499988772.339993,47.655,-122.3035,60.0,3.4833333333333334
2026-01-20T23:03:30+00:00,SAT-65534,258.34244153409713,30.58475475069943,3753.65517825977,0.3336576436075586,-11686.10204956979,10.5,10499988313.897951,47.655,-122.3035,60.0,3.5
2026-01-20T23:03:31+00:00,SAT-65534,258.2108008851651,30.544988701483994,3753.987946149661,0.34674278692698396,-12144.399118717429,10.5,10499987855.600882,47.655,-122.3035,60.0,3.5166666666666666
2026-01-20T23:03:32+00:00,SAT-65534,258.0793351149783,30.504988543739902,3754.333764289156,0.3598236380046967,-12602.545855404125,10.5,10499987397.454145,47.655,-122.3035,60.0,3.533333333333333
2026-01-20T23:03:33+00:00,SAT-65534,257.9480455746931,30.46475511522514,3754.6926283974594,0.3729000453088743,-13060.536952344477,10.5,10499986939.463047,47.655,-122.3035,60.0,3.55
2026-01-20T23:03:34+00:00,SAT-65534,257.81693360396633,30.424289259659414,3755.0645340426477,0.38597185664853306,-13518.367079166472,10.5,10499986481.632921,47.655,-122.3035,60.0,3.566666666666667
2026-01-20T23:03:35+00:00,SAT-65534,257.6860005308182,30.383591826627008,3755.449476641012,0.39903892172275873,-13976.030971696315,10.5,10499986023.969028,47.655,-122.3035,60.0,3.5833333333333335
2026-01-20T23:03:36+00:00,SAT-65534,257.5552476712582,30.342663671393325,3755.8474514589434,0.41210108821910324,-14433.523295307796,10.5,10499985566.476706,47.655,-122.3035,60.0,3.6
2026-01-20T23:03:37+00:00,SAT-65534,257.42467632989786,30.301505655035402,3756.2584536109275,0.42515820577719043,-14890.838783744519,10.5,10499985109.161217,47.655,-122.3035,60.0,3.6166666666666667
2026-01-20T23:03:38+00:00,SAT-65534,257.294287799572,30.260118644258903,3756.682478061489,0.43821012417335564,-15347.9721755383,10.5,10499984652.027824,47.655,-122.3035,60.0,3.6333333333333333
2026-01-20T23:03:39+00:00,SAT-65534,257.16408336091195,30.218503511197305,3757.119519625331,0.4512566918884816,-15804.918163848728,10.5,10499984195.081837,47.655,-122.3035,60.0,3.65
2026-01-20T23:03:40+00:00,SAT-65534,257.0340642833283,30.176661133662623,3757.5695729660415,0.46429775931486583,-16261.671508781224,10.5,10499983738.328491,47.655,-122.3035,60.0,3.6666666666666665
2026-01-20T23:03:41+00:00,SAT-65534,256.9042318240614,30.134592394772927,3758.0326325979977,0.4773331779440852,-16718.227008942617,10.5,10499983281.772991,47.655,-122.3035,60.0,3.683333333333333
2026-01-20T23:03:42+00:00,SAT-65534,256.7745872280333,30.092298182835396,3758.5086928874675,0.4903627955165463,-17174.57933155789,10.5,10499982825.420668,47.655,-122.3035,60.0,3.7
2026-01-20T23:03:43+00:00,SAT-65534,256.64513172917333,30.049779391715735,3758.997748048863,0.5033864649214305,-17630.723324183895,10.5,10499982369.276676,47.655,-122.3035,60.0,3.716666666666667
2026-01-20T23:03:44+00:00,SAT-65534,256.5158665487278,30.00703692021322,3759.4997921498775,0.5164040372137537,-18086.653770137254,10.5,10499981913.34623,47.655,-122.3035,60.0,3.7333333333333334
