satellites_20260121_005943/SAT-64798.csv

timestamp,satellite,azimuth_deg,elevation_deg,distance_km,relative_velocity_kms,doppler_shift_hz,tx_freq_ghz,rx_freq_hz,ue_lat,ue_lon,ue_alt_m,time_minutes
2026-01-20T23:06:50+00:00,SAT-64798,249.81050435562943,30.04682408065014,3143.783289698711,-3.9303399915424855,137657.1318254981,10.5,10500137657.131826,47.655,-122.3035,60.0,6.833333333333333
2026-01-20T23:06:51+00:00,SAT-64798,249.91356951755762,30.11713186925487,3139.863430613813,-3.9210931188703197,137333.26723028623,10.5,10500137333.267231,47.655,-122.3035,60.0,6.85
2026-01-20T23:06:52+00:00,SAT-64798,250.01710629697936,30.187399497366656,3135.9527937432595,-3.9118069978094763,137008.02799048234,10.5,10500137008.02799,47.655,-122.3035,60.0,6.866666666666666
2026-01-20T23:06:53+00:00,SAT-64798,250.12111654312463,30.25762557089442,3132.0514182307775,-3.9024814980239446,136681.40954116805,10.5,10500136681.409542,47.655,-122.3035,60.0,6.883333333333334
2026-01-20T23:06:54+00:00,SAT-64798,250.2256021033322,30.327808680996302,3128.1593433500816,-3.8931165457054786,136353.40929726633,10.5,10500136353.409298,47.655,-122.3035,60.0,6.9
2026-01-20T23:06:55+00:00,SAT-64798,250.33056482433147,30.397947404989782,3124.276608448498,-3.883712041227246,136024.02376942412,10.5,10500136024.02377,47.655,-122.3035,60.0,6.916666666666667
2026-01-20T23:06:56+00:00,SAT-64798,250.43600655133906,30.4680403058104,3120.403252972714,-3.8742678886820796,135693.24959856673,10.5,10500135693.2496,47.655,-122.3035,60.0,6.933333333333334
2026-01-20T23:06:57+00:00,SAT-64798,250.5419291279331,30.538085931992786,3116.5393164650686,-3.8647839833797564,135361.08311799975,10.5,10500135361.083118,47.655,-122.3035,60.0,6.95
2026-01-20T23:06:58+00:00,SAT-64798,250.6483343955763,30.608082817425725,3112.684838572311,-3.855260237167525,135027.52124024087,10.5,10500135027.52124,47.655,-122.3035,60.0,6.966666666666667
2026-01-20T23:06:59+00:00,SAT-64798,250.75522419383,30.6780294815641,3108.839859029109,-3.8456965626742745,134692.56090518422,10.5,10500134692.560905,47.655,-122.3035,60.0,6.983333333333333
2026-01-20T23:07:00+00:00,SAT-64798,250.86260036015693,30.747924429358157,3105.0044176572687,-3.83609284755396,134356.19817799615,10.5,10500134356.198177,47.655,-122.3035,60.0,7.0
2026-01-20T23:07:01+00:00,SAT-64798,250.97046472894607,30.817766150721145,3101.1785543906417,-3.826449018408467,134018.43048796413,10.5,10500134018.430489,47.655,-122.3035,60.0,7.016666666666667
2026-01-20T23:07:02+00:00,SAT-64798,251.0788191323931,30.887553121146553,3097.3623092362823,-3.8167649801163344,133679.25450353225,10.5,10500133679.254503,47.655,-122.3035,60.0,7.033333333333333
2026-01-20T23:07:03+00:00,SAT-64798,251.18766539961086,30.95728380123582,3093.5557222961133,-3.8070406382213573,133338.66691644475,10.5,10500133338.666916,47.655,-122.3035,60.0,7.05
2026-01-20T23:07:04+00:00,SAT-64798,251.2970053564082,31.02695663662907,3089.75883376626,-3.7972758991689197,132996.66445002315,10.5,10500132996.66445,47.655,-122.3035,60.0,7.066666666666666
2026-01-20T23:07:05+00:00,SAT-64798,251.40684082503276,31.096570057938536,3085.971683936156,-3.787470676322796,132653.2440699004,10.5,10500132653.24407,47.655,-122.3035,60.0,7.083333333333333
2026-01-20T23:07:06+00:00,SAT-64798,251.5171736241072,31.16612248079433,3082.1943131816365,-3.7776248839534277,132308.40277346468,10.5,10500132308.402773,47.655,-122.3035,60.0,7.1
2026-01-20T23:07:07+00:00,SAT-64798,251.62800556839522,31.23561230578108,3078.4267619640405,-3.7677384241939493,131962.13713300443,10.5,10500131962.137133,47.655,-122.3035,60.0,7.116666666666666
2026-01-20T23:07:08+00:00,SAT-64798,251.73933846814668,31.305037918141277,3074.6690708423107,-3.757811228598339,131614.4447512504,10.5,10500131614.444752,47.655,-122.3035,60.0,7.133333333333334
2026-01-20T23:07:09+00:00,SAT-64798,251.85117412970817,31.37439768822926,3070.921280443655,-3.74784318187796,131265.3215903069,10.5,10500131265.32159,47.655,-122.3035,60.0,7.15
2026-01-20T23:07:10+00:00,SAT-64798,251.9635143538212,31.443689970586682,3067.183431510263,-3.7378342266669957,130914.76564098037,10.5,10500130914.76564,47.655,-122.3035,60.0,7.166666666666667
2026-01-20T23:07:11+00:00,SAT-64798,252.07636093706992,31.512913104917036,3063.455564841533,-3.7277842587931005,130562.77325471462,10.5,10500130562.773254,47.655,-122.3035,60.0,7.183333333333334
2026-01-20T23:07:12+00:00,SAT-64798,252.1897156701754,31.582065415162013,3059.7377213407635,-3.7176932003644794,130209.34170340947,10.5,10500130209.341703,47.655,-122.3035,60.0,7.2
2026-01-20T23:07:13+00:00,SAT-64798,252.30358033848648,31.65114520990462,3056.0299419889334,-3.7075609681316846,129854.46807131715,10.5,10500129854.468071,47.655,-122.3035,60.0,7.216666666666667
2026-01-20T23:07:14+00:00,SAT-64798,252.41795672149428,31.72015078219876,3052.3322678500504,-3.6973874791425785,129498.14945310289,10.5,10500129498.149452,47.655,-122.3035,60.0,7.233333333333333
2026-01-20T23:07:15+00:00,SAT-64798,252.5328465925567,31.78908040950716,3048.644740070852,-3.687172654982406,129140.38310235032,10.5,10500129140.383102,47.655,-122.3035,60.0,7.25
2026-01-20T23:07:16+00:00,SAT-64798,252.64825171869,31.857932353710904,3044.9673998762823,-3.676916408722212,128781.16597443965,10.5,10500128781.165974,47.655,-122.3035,60.0,7.266666666666667
2026-01-20T23:07:17+00:00,SAT-64798,252.7641738599969,31.92670486088451,3041.300288577984,-3.66661866338652,128420.49537336413,10.5,10500128420.495373,47.655,-122.3035,60.0,7.283333333333333
2026-01-20T23:07:18+00:00,SAT-64798,252.8806147696337,31.995396161413247,3037.6434475643664,-3.6562793462714427,128058.36875272609,10.5,10500128058.368753,47.655,-122.3035,60.0,7.3
2026-01-20T23:07:19+00:00,SAT-64798,252.9975761936282,32.0640044700036,3033.9969182963514,-3.6458983700018055,127694.78305227733,10.5,10500127694.783052,47.655,-122.3035,60.0,7.316666666666666
2026-01-20T23:07:20+00:00,SAT-64798,253.1150598700552,32.13252798534931,3030.360742322003,-3.635475654719003,127329.73547503163,10.5,10500127329.735476,47.655,-122.3035,60.0,7.333333333333333
2026-01-20T23:07:21+00:00,SAT-64798,253.23306752892563,32.20096489020319,3026.73496126903,-3.6250111330452914,126963.22366113547,10.5,10500126963.223661,47.655,-122.3035,60.0,7.35
2026-01-20T23:07:22+00:00,SAT-64798,253.35160089225343,32.26931335155138,3023.1196168323395,-3.6145047273358704,126595.24489113946,10.5,10500126595.24489,47.655,-122.3035,60.0,7.366666666666666
2026-01-20T23:07:23+00:00,SAT-64798,253.47066167335078,32.33757152035592,3019.5147507842767,-3.6039563689902194,126225.7967623632,10.5,10500126225.796762,47.655,-122.3035,60.0,7.383333333333334
2026-01-20T23:07:24+00:00,SAT-64798,253.59025157677115,32.40573753167097,3015.9204049656037,-3.593365970324166,125854.87620373606,10.5,10500125854.876204,47.655,-122.3035,60.0,7.4
2026-01-20T23:07:25+00:00,SAT-64798,253.7103722972962,32.47380950422217,3012.3366213045333,-3.5827334708758194,125482.48109762688,10.5,10500125482.481098,47.655,-122.3035,60.0,7.416666666666667
2026-01-20T23:07:26+00:00,SAT-64798,253.83102552047131,32.54178554086486,3008.76344178958,-3.5720588031495297,125108.60908005251,10.5,10500125108.60908,47.655,-122.3035,60.0,7.433333333333334
2026-01-20T23:07:27+00:00,SAT-64798,253.95221292199324,32.60966372839293,3005.2009084765723,-3.5613418787358944,124733.25705454168,10.5,10500124733.257055,47.655,-122.3035,60.0,7.45
2026-01-20T23:07:28+00:00,SAT-64798,254.0739361666079,32.67744213709985,3001.6490635095133,-3.55058265326072,124356.42346692245,10.5,10500124356.423468,47.655,-122.3035,60.0,7.466666666666667
2026-01-20T23:07:29+00:00,SAT-64798,254.19619690921573,32.74511882154767,2998.107949076661,-3.5397810435868764,123978.10540538082,10.5,10500123978.105406,47.655,-122.3035,60.0,7.483333333333333
2026-01-20T23:07:30+00:00,SAT-64798,254.31899679315597,32.81269181979659,2994.57760744919,-3.528936980548193,123598.30044742498,10.5,10500123598.300447,47.655,-122.3035,60.0,7.5
2026-01-20T23:07:31+00:00,SAT-64798,254.4423374502653,32.88015915361394,2991.0580809672574,-3.5180504102647374,123217.0067059517,10.5,10500123217.006706,47.655,-122.3035,60.0,7.516666666666667
2026-01-20T23:07:32+00:00,SAT-64798,254.5662205010072,32.947518828721655,2987.549412024753,-3.5071212629553914,122834.22173693113,10.5,10500122834.221737,47.655,-122.3035,60.0,7.533333333333333
2026-01-20T23:07:33+00:00,SAT-64798,254.6906475534998,33.014768834448724,2984.0516430851653,-3.4961494721531423,122449.94321240728,10.5,10500122449.943213,47.655,-122.3035,60.0,7.55
2026-01-20T23:07:34+00:00,SAT-64798,254.8156202032021,33.081907143757086,2980.5648166782717,-3.485134979184017,122064.16907736946,10.5,10500122064.169077,47.655,-122.3035,60.0,7.566666666666666
2026-01-20T23:07:35+00:00,SAT-64798,254.94114003276871,33.14893171334541,2977.0889753923652,-3.474077723286785,121676.8972037023,10.5,10500121676.897203,47.655,-122.3035,60.0,7.583333333333333
2026-01-20T23:07:36+00:00,SAT-64798,255.06720861152772,33.21584048357484,2973.6241618763406,-3.4629776449285834,121288.12550631318,10.5,10500121288.125505,47.655,-122.3035,60.0,7.6
2026-01-20T23:07:37+00:00,SAT-64798,255.19382749510163,33.282631378457246,2970.170418838465,-3.451834694590002,120897.85225082285,10.5,10500120897.852251,47.655,-122.3035,60.0,7.616666666666666
2026-01-20T23:07:38+00:00,SAT-64798,255.32099822531652,33.34930230581268,2966.727789036394,-3.440648792519669,120506.07464400097,10.5,10500120506.074644,47.655,-122.3035,60.0,7.633333333333334
2026-01-20T23:07:39+00:00,SAT-64798,255.4487223286195,33.415851156660025,2963.296315307321,-3.4294199058398327,120112.79153432953,10.5,10500120112.791534,47.655,-122.3035,60.0,7.65
2026-01-20T23:07:40+00:00,SAT-64798,255.5770013173764,33.482275806087664,2959.87604052123,-3.4181479689418617,119718.00062391679,10.5,10500119718.000624,47.655,-122.3035,60.0,7.666666666666667
2026-01-20T23:07:41+00:00,SAT-64798,255.7058366881764,33.54857411259874,2956.467007613539,-3.4068329313961243,119321.7001465037,10.5,10500119321.700146,47.655,-122.3035,60.0,7.683333333333334
2026-01-20T23:07:42+00:00,SAT-64798,255.8352299219249,33.614743918380945,2953.0692595699597,-3.3954747448251816,118923.88840770772,10.5,10500118923.888409,47.655,-122.3035,60.0,7.7
2026-01-20T23:07:43+00:00,SAT-64798,255.9651824834496,33.68078304932145,2949.682839424454,-3.3840733527673423,118524.56343000161,10.5,10500118524.56343,47.655,-122.3035,60.0,7.716666666666667
2026-01-20T23:07:44+00:00,SAT-64798,256.09569582070105,33.7466893148378,2946.3077902672944,-3.3726287152114782,118123.7238120264,10.5,10500118123.723812,47.655,-122.3035,60.0,7.733333333333333
2026-01-20T23:07:45+00:00,SAT-64798,256.22677136489926,33.81246050817388,2942.9441552286567,-3.361140767488151,117721.36728878478,10.5,10500117721.367289,47.655,-122.3035,60.0,7.75
2026-01-20T23:07:46+00:00,SAT-64798,256.35841052906744,33.878094405915235,2939.591977503215,-3.3496094862411034,117317.49304224187,10.5,10500117317.493042,47.655,-122.3035,60.0,7.766666666666667
2026-01-20T23:07:47+00:00,SAT-64798,256.49061470915206,33.943588768772784,2936.251300308937,-3.3380348039365684,116912.09870707945,10.5,10500116912.098707,47.655,-122.3035,60.0,7.783333333333333
2026-01-20T23:07:48+00:00,SAT-64798,256.62338528177276,34.00894134072639,2932.9221669311446,-3.326416703116181,116505.18367183174,10.5,10500116505.183672,47.655,-122.3035,60.0,7.8
2026-01-20T23:07:49+00:00,SAT-64798,256.75672360569115,34.07414984998181,2929.60462067257,-3.3147551164011797,116096.7455766095,10.5,10500116096.745577,47.655,-122.3035,60.0,7.816666666666666
2026-01-20T23:07:50+00:00,SAT-64798,256.89063101928934,34.13921200801011,2926.298704903146,-3.30305002345261,115686.78370905649,10.5,10500115686.783709,47.655,-122.3035,60.0,7.833333333333333
2026-01-20T23:07:51+00:00,SAT-64798,257.0251088419407,34.20412551045315,2923.004463013089,-3.291301371475585,115275.2962200725,10.5,10500115275.29622,47.655,-122.3035,60.0,7.85
2026-01-20T23:07:52+00:00,SAT-64798,257.16015837214655,34.268888036503355,2919.721938445271,-3.2795091261820435,114862.28190874454,10.5,10500114862.281908,47.655,-122.3035,60.0,7.866666666666666
2026-01-20T23:07:53+00:00,SAT-64798,257.29578088775975,34.333497249267275,2916.451174676759,-3.2676732628110083,114447.73990783848,10.5,10500114447.739908,47.655,-122.3035,60.0,7.883333333333334
2026-01-20T23:07:54+00:00,SAT-64798,257.4319776458274,34.39795079596354,2913.1922152093152,-3.255793728275368,114031.66835801909,10.5,10500114031.668358,47.655,-122.3035,60.0,7.9
2026-01-20T23:07:55+00:00,SAT-64798,257.56874988085815,34.462246307382046,2909.9451035976485,-3.243870509092052,113614.06678705222,10.5,10500113614.066788,47.655,-122.3035,60.0,7.916666666666667
2026-01-20T23:07:56+00:00,SAT-64798,257.70609880592264,34.52638139867608,2906.7098834099143,-3.2319035689868736,113194.93392446243,10.5,10500113194.933924,47.655,-122.3035,60.0,7.933333333333334
2026-01-20T23:07:57+00:00,SAT-64798,257.8440256111312,34.590353668935926,2903.4865982504443,-3.2198928706224534,112774.2684625367,10.5,10500112774.268463,47.655,-122.3035,60.0,7.95
2026-01-20T23:07:58+00:00,SAT-64798,257.9825314630028,34.65416070119126,2900.27529176081,-3.20783839177942,112352.06962305875,10.5,10500112352.069624,47.655,-122.3035,60.0,7.966666666666667
2026-01-20T23:07:59+00:00,SAT-64798,258.1216175045449,34.717800062735236,2897.0760076047422,-3.195740109214853,111928.33659196309,10.5,10500111928.336592,47.655,-122.3035,60.0,7.983333333333333
2026-01-20T23:08:00+00:00,SAT-64798,258.2612848546141,34.781269305133925,2893.8887894691516,-3.1835979934321834,111503.06833615516,10.5,10500111503.068336,47.655,-122.3035,60.0,8.0
2026-01-20T23:08:01+00:00,SAT-64798,258.40153460706586,34.84456596413785,2890.7136810703687,-3.1714120191678075,111076.26397079669,10.5,10500111076.263971,47.655,-122.3035,60.0,8.016666666666667
2026-01-20T23:08:02+00:00,SAT-64798,258.5423678303222,34.90768755980307,2887.550726149919,-3.159182181573309,110647.92332607562,10.5,10500110647.923326,47.655,-122.3035,60.0,8.033333333333333
2026-01-20T23:08:03+00:00,SAT-64798,258.68378556770404,34.970631596933835,2884.399968454163,-3.146908451075887,110218.04536622738,10.5,10500110218.045366,47.655,-122.3035,60.0,8.05
2026-01-20T23:08:04+00:00,SAT-64798,258.82578883570164,35.033395564641204,2881.2614517589564,-3.1345908024083804,109786.62920628909,10.5,10500109786.629206,47.655,-122.3035,60.0,8.066666666666666
2026-01-20T23:08:05+00:00,SAT-64798,258.9683786235495,35.09597693647651,2878.135219865355,-3.122229233011901,109353.67475663766,10.5,10500109353.674757,47.655,-122.3035,60.0,8.083333333333334
2026-01-20T23:08:06+00:00,SAT-64798,259.111555893646,35.15837317093396,2875.021316576964,-3.109823716540337,108919.18109452086,10.5,10500108919.181095,47.655,-122.3035,60.0,8.1
2026-01-20T23:08:07+00:00,SAT-64798,259.25532157982593,35.220581711033084,2871.919785723668,-3.097374261541437,108483.14851931694,10.5,10500108483.14852,47.655,-122.3035,60.0,8.116666666666667
2026-01-20T23:08:08+00:00,SAT-64798,259.3996765883572,35.28259998507484,2868.8306711268237,-3.0848808347623806,108045.57586637152,10.5,10500108045.575867,47.655,-122.3035,60.0,8.133333333333333
2026-01-20T23:08:09+00:00,SAT-64798,259.54462179535346,35.344425405875874,2865.754016640954,-3.0723434434442844,107606.46338929908,10.5,10500107606.463388,47.655,-122.3035,60.0,8.15
2026-01-20T23:08:10+00:00,SAT-64798,259.6901580480191,35.40605537164095,2862.689866113359,-3.059762073868771,107165.81060762408,10.5,10500107165.810608,47.655,-122.3035,60.0,8.166666666666666
2026-01-20T23:08:11+00:00,SAT-64798,259.8362861630221,35.46748726561809,2859.638263405021,-3.0471367288285087,106723.61761915752,10.5,10500106723.617619,47.655,-122.3035,60.0,8.183333333333334
2026-01-20T23:08:12+00:00,SAT-64798,259.9830069266293,35.528718456508386,2856.599252374136,-3.0344673909952355,106279.8838169904,10.5,10500106279.883818,47.655,-122.3035,60.0,8.2
2026-01-20T23:08:13+00:00,SAT-64798,260.1303210930661,35.58974629814217,2853.5728768961835,-3.0217540797544875,105834.60988008617,10.5,10500105834.60988,47.655,-122.3035,60.0,8.216666666666667
2026-01-20T23:08:14+00:00,SAT-64798,260.27822938565,35.650568130300385,2850.559180827308,-3.00899678167249,105387.79533793725,10.5,10500105387.795338,47.655,-122.3035,60.0,8.233333333333333
2026-01-20T23:08:15+00:00,SAT-64798,260.42673249450434,35.71118127814726,2847.558208037053,-2.996195502302054,104939.44038502651,10.5,10500104939.440386,47.655,-122.3035,60.0,8.25
2026-01-20T23:08:16+00:00,SAT-64798,260.5758310768264,35.77158305270746,2844.570002389424,-2.9833502574533868,104489.54557509437,10.5,10500104489.545574,47.655,-122.3035,60.0,8.266666666666667
2026-01-20T23:08:17+00:00,SAT-64798,260.72552575671955,35.83177075116629,2841.5946077326576,-2.9704610416524537,104038.11071641691,10.5,10500104038.110716,47.655,-122.3035,60.0,8.283333333333333
2026-01-20T23:08:18+00:00,SAT-64798,260.87581712344127,35.89174165655226,2838.632067920449,-2.9575278695319183,103585.13632149193,10.5,10500103585.136322,47.655,-122.3035,60.0,8.3
2026-01-20T23:08:19+00:00,SAT-64798,261.0267057317325,35.95149303824516,2835.682426791903,-2.944550752486576,103130.62278941338,10.5,10500103130.62279,47.655,-122.3035,60.0,8.316666666666666
2026-01-20T23:08:20+00:00,SAT-64798,261.17819210095,36.01102215202558,2832.745728174756,-2.9315297064679213,102674.57067887002,10.5,10500102674.570679,47.655,-122.3035,60.0,8.333333333333334
2026-01-20T23:08:21+00:00,SAT-64798,261.3302767146265,36.07032624028442,2829.822015880839,-2.9184647421719463,102216.98036448081,10.5,10500102216.980364,47.655,-122.3035,60.0,8.35
2026-01-20T23:08:22+00:00,SAT-64798,261.4829600194765,36.129402532040366,2826.9113337113126,-2.905355882499543,101757.85264833181,10.5,10500101757.852648,47.655,-122.3035,60.0,8.366666666666667
2026-01-20T23:08:23+00:00,SAT-64798,261.6362424253324,36.18824824331074,2824.0137254445,-2.8922031445370586,101297.18812885918,10.5,10500101297.18813,47.655,-122.3035,60.0,8.383333333333333
2026-01-20T23:08:24+00:00,SAT-64798,261.7901243041399,36.24686057713074,2821.1292348416814,-2.879006543280536,100834.98733128779,10.5,10500100834.987331,47.655,-122.3035,60.0,8.4
2026-01-20T23:08:25+00:00,SAT-64798,261.94460598911667,36.305236723646225,2818.2579056491827,-2.8657661220257236,100371.25177201789,10.5,10500100371.251772,47.655,-122.3035,60.0,8.416666666666666
2026-01-20T23:08:26+00:00,SAT-64798,262.09968777556537,36.363373860826904,2815.3997815701496,-2.852481888063035,99905.98170639058,10.5,10500099905.981707,47.655,-122.3035,60.0,8.433333333333334
2026-01-20T23:08:27+00:00,SAT-64798,262.25536991821025,36.421269153888325,2812.5549063004546,-2.8391538745390714,99439.17829534005,10.5,10500099439.178295,47.655,-122.3035,60.0,8.45
2026-01-20T23:08:28+00:00,SAT-64798,262.41165263186156,36.47891975596785,2809.723323502914,-2.8257821172873916,98970.84279390915,10.5,10500098970.842794,47.655,-122.3035,60.0,8.466666666666667
2026-01-20T23:08:29+00:00,SAT-64798,262.56853609085505,36.53632280833282,2806.9050768046063,-2.8123666514757883,98500.97643382268,10.5,10500098500.976435,47.655,-122.3035,60.0,8.483333333333333
2026-01-20T23:08:30+00:00,SAT-64798,262.7260204282828,36.593475440533574,2804.1002097975347,-2.798907500636869,98029.58003929214,10.5,10500098029.58004,47.655,-122.3035,60.0,8.5
2026-01-20T23:08:31+00:00,SAT-64798,262.8841057346098,36.650374770336306,2801.3087660502324,-2.785404713929715,97556.65533207647,10.5,10500097556.655333,47.655,-122.3035,60.0,8.516666666666667
2026-01-20T23:08:32+00:00,SAT-64798,263.04279205837946,36.707017904414116,2798.530789082207,-2.7718583244460415,97082.2034711875,10.5,10500097082.203472,47.655,-122.3035,60.0,8.533333333333333
2026-01-20T23:08:33+00:00,SAT-64798,263.2020794045585,36.763401938200445,2795.766322379959,-2.758268380931746,96606.22616391281,10.5,10500096606.226164,47.655,-122.3035,60.0,8.55
2026-01-20T23:08:34+00:00,SAT-64798,263.36196773471147,36.819523956392004,2793.0154093813767,-2.744634916605598,96128.72457371418,10.5,10500096128.724573,47.655,-122.3035,60.0,8.566666666666666
2026-01-20T23:08:35+00:00,SAT-64798,263.52245696534015,36.875381032823,2790.2780934912153,-2.7309579873621157,95649.7006582541,10.5,10500095649.700659,47.655,-122.3035,60.0,8.583333333333334
2026-01-20T23:08:36+00:00,SAT-64798,263.6835469684615,36.93097023111979,2787.554418058486,-2.7172376423847764,95169.15614014596,10.5,10500095169.15614,47.655,-122.3035,60.0,8.6
2026-01-20T23:08:37+00:00,SAT-64798,263.84523757049044,36.98628860476557,2784.8444263831475,-2.7034739263318652,94687.09258351184,10.5,10500094687.092583,47.655,-122.3035,60.0,8.616666666666667
2026-01-20T23:08:38+00:00,SAT-64798,264.0075285511954,37.041333197216424,2782.1481617206196,-2.6896669067696775,94203.51235480918,10.5,10500094203.512354,47.655,-122.3035,60.0,8.633333333333333
2026-01-20T23:08:39+00:00,SAT-64798,264.1704196443512,37.09610104257474,2779.4656672589344,-2.6758166197121906,93718.41671539983,10.5,10500093718.416716,47.655,-122.3035,60.0,8.65
2026-01-20T23:08:40+00:00,SAT-64798,264.3339105350545,37.150589165171,2776.796986150208,-2.661923142038317,93231.80835790848,10.5,10500093231.808357,47.655,-122.3035,60.0,8.666666666666666
2026-01-20T23:08:41+00:00,SAT-64798,264.4980008614735,37.20479458061094,2774.142161469882,-2.6479865301060705,92743.68925623118,10.5,10500092743.689257,47.655,-122.3035,60.0,8.683333333333334
2026-01-20T23:08:42+00:00,SAT-64798,264.662690212854,37.25871429559246,2771.5012362371895,-2.634006839200615,92254.06134668824,10.5,10500092254.061346,47.655,-122.3035,60.0,8.7
2026-01-20T23:08:43+00:00,SAT-64798,264.8279781286699,37.31234530811497,2768.8742534162266,-2.6199841440028124,91762.92724491932,10.5,10500091762.927244,47.655,-122.3035,60.0,8.716666666666667
2026-01-20T23:08:44+00:00,SAT-64798,264.9938640990965,37.36568460811554,2766.261255896608,-2.6059185132834375,91270.28935956785,10.5,10500091270.28936,47.655,-122.3035,60.0,8.733333333333333
2026-01-20T23:08:45+00:00,SAT-64798,265.1603475639016,37.41872917759238,2763.66228649936,-2.5918100137138076,90776.15002574542,10.5,10500090776.150026,47.655,-122.3035,60.0,8.75
2026-01-20T23:08:46+00:00,SAT-64798,265.32742791153896,37.47147599081668,2761.0773879790163,-2.57765872340222,90280.51197913494,10.5,10500090280.51198,47.655,-122.3035,60.0,8.766666666666667
2026-01-20T23:08:47+00:00,SAT-64798,265.49510447915213,37.523922014819405,2758.5066030122093,-2.5634647141245517,89783.37773363129,10.5,10500089783.377733,47.655,-122.3035,60.0,8.783333333333333
2026-01-20T23:08:48+00:00,SAT-64798,265.66337655139546,37.576064209528404,2755.9499742039893,-2.549228066982514,89284.75012975943,10.5,10500089284.75013,47.655,-122.3035,60.0,8.8
2026-01-20T23:08:49+00:00,SAT-64798,265.8322433603074,37.627899528224106,2753.4075440785186,-2.534948863131181,88784.63200991334,10.5,10500088784.63201,47.655,-122.3035,60.0,8.816666666666666
2026-01-20T23:08:50+00:00,SAT-64798,266.00170408456427,37.67942491781762,2750.879355079023,-2.520627188683309,88283.02639012602,10.5,10500088283.02639,47.655,-122.3035,60.0,8.833333333333334
2026-01-20T23:08:51+00:00,SAT-64798,266.17175784906897,37.73063731922999,2748.3654495628425,-2.506263125874956,87779.93615065207,10.5,10500087779.936152,47.655,-122.3035,60.0,8.85
2026-01-20T23:08:52+00:00,SAT-64798,266.34240372394265,37.78153366760132,2745.8658698053027,-2.4918567721933464,87275.36470590644,10.5,10500087275.364706,47.655,-122.3035,60.0,8.866666666666667
2026-01-20T23:08:53+00:00,SAT-64798,266.5136407248357,37.83211089289058,2743.3806579845022,-2.477408200557852,86769.314609834,10.5,10500086769.31461,47.655,-122.3035,60.0,8.883333333333333
2026-01-20T23:08:54+00:00,SAT-64798,266.685467810467,37.88236591967917,2740.9098562058125,-2.4629175263943304,86261.78990513654,10.5,10500086261.789906,47.655,-122.3035,60.0,8.9
2026-01-20T23:08:55+00:00,SAT-64798,266.8578838848597,37.93229566833026,2738.4535064594884,-2.4483848381320046,85752.79368897948,10.5,10500085752.79369,47.655,-122.3035,60.0,8.916666666666666
2026-01-20T23:08:56+00:00,SAT-64798,267.0308877947237,37.98189705475639,2736.011650647592,-2.433810233581327,85242.32938709864,10.5,10500085242.329388,47.655,-122.3035,60.0,8.933333333333334
2026-01-20T23:08:57+00:00,SAT-64798,267.20447832938316,38.03116699092292,2733.584330574633,-2.4191938190877917,84730.40072416302,10.5,10500084730.400724,47.655,-122.3035,60.0,8.95
2026-01-20T23:08:58+00:00,SAT-64798,267.3786542206572,38.08010238534178,2731.171587939063,-2.4045356937634024,84217.01117149428,10.5,10500084217.011171,47.655,-122.3035,60.0,8.966666666666667
2026-01-20T23:08:59+00:00,SAT-64798,267.5534141416134,38.12870014325291,2728.773464340483,-2.3898359772232713,83702.16491851956,10.5,10500083702.164919,47.655,-122.3035,60.0,8.983333333333333
2026-01-20T23:09:00+00:00,SAT-64798,267.72875670736084,38.17695716736991,2726.390001259199,-2.3750947622662952,83185.86521544882,10.5,10500083185.865215,47.655,-122.3035,60.0,9.0
2026-01-20T23:09:01+00:00,SAT-64798,267.90468047234606,38.22487035767831,2724.021240082965,-2.3603121777241527,82668.11657451236,10.5,10500082668.116575,47.655,-122.3035,60.0,9.016666666666667
2026-01-20T23:09:02+00:00,SAT-64798,268.0811839323236,38.27243661250626,2721.6672220710484,-2.3454883297858067,82148.9227148969,10.5,10500082148.922714,47.655,-122.3035,60.0,9.033333333333333
2026-01-20T23:09:03+00:00,SAT-64798,268.25826552197117,38.31965282841788,2719.3279883768087,-2.330623348798956,81628.28820193015,10.5,10500081628.288202,47.655,-122.3035,60.0,9.05
2026-01-20T23:09:04+00:00,SAT-64798,268.43592361601327,38.36651590105386,2717.003580023607,-2.3157173406964198,81106.21674582757,10.5,10500081106.216745,47.655,-122.3035,60.0,9.066666666666666
2026-01-20T23:09:05+00:00,SAT-64798,268.6141565266725,38.41302272500394,2714.6940379291523,-2.30077044118914,80582.7130997604,10.5,10500080582.7131,47.655,-122.3035,60.0,9.083333333333334
2026-01-20T23:09:06+00:00,SAT-64798,268.7929625052645,38.45917019477032,2712.399402875806,-2.2857827717548544,80057.78151839288,10.5,10500080057.781519,47.655,-122.3035,60.0,9.1
2026-01-20T23:09:07+00:00,SAT-64798,268.97233974043013,38.50495520485338,2710.119715524776,-2.2707544638293604,79531.42660516256,10.5,10500079531.426605,47.655,-122.3035,60.0,9.116666666666667
2026-01-20T23:09:08+00:00,SAT-64798,269.1522863582411,38.55037465033157,2707.8550164061835,-2.2556856482609504,79003.6529429302,10.5,10500079003.652943,47.655,-122.3035,60.0,9.133333333333333
2026-01-20T23:09:09+00:00,SAT-64798,269.33280042149227,38.59542542723037,2705.605345919651,-2.240576469694055,78474.46559775555,10.5,10500078474.465597,47.655,-122.3035,60.0,9.15
2026-01-20T23:09:10+00:00,SAT-64798,269.51387993016226,38.64010443318681,2703.370744320543,-2.2254270514487073,77943.86888882786,10.5,10500077943.868889,47.655,-122.3035,60.0,9.166666666666666
2026-01-20T23:09:11+00:00,SAT-64798,269.69552281903856,38.684408567419105,2701.1512517412316,-2.21023754565694,77411.86814445435,10.5,10500077411.868145,47.655,-122.3035,60.0,9.183333333333334
2026-01-20T23:09:12+00:00,SAT-64798,269.87772695941806,38.728334731698844,2698.946908162363,-2.1950080925005007,76878.46827439287,10.5,10500076878.468275,47.655,-122.3035,60.0,9.2
2026-01-20T23:09:13+00:00,SAT-64798,270.06049015752046,38.77187983051756,2696.7577534247757,-2.179738833264487,76343.67422704515,10.5,10500076343.674227,47.655,-122.3035,60.0,9.216666666666667
2026-01-20T23:09:14+00:00,SAT-64798,270.24381015392197,38.81504077151942,2694.5838272284,-2.1644299337505153,75807.49180948512,10.5,10500075807.49181,47.655,-122.3035,60.0,9.233333333333333
2026-01-20T23:09:15+00:00,SAT-64798,270.42768462506086,38.85781446639951,2692.425169107806,-2.149081521109073,75269.9254750607,10.5,10500075269.925474,47.655,-122.3035,60.0,9.25
2026-01-20T23:09:16+00:00,SAT-64798,270.6121111793017,38.900197830561886,2690.2818184707535,-2.133693777544062,74730.98160532328,10.5,10500074730.981606,47.655,-122.3035,60.0,9.266666666666667
2026-01-20T23:09:17+00:00,SAT-64798,270.7970873611,38.942187784628096,2688.153814543283,-2.118266843328205,74190.66511321692,10.5,10500074190.665113,47.655,-122.3035,60.0,9.283333333333333
2026-01-20T23:09:18+00:00,SAT-64798,270.98261064679815,38.983781254041745,2686.0411964115365,-2.1028008864682834,73648.98188304983,10.5,10500073648.981884,47.655,-122.3035,60.0,9.3
2026-01-20T23:09:19+00:00,SAT-64798,271.16867844645907,39.02497517004835,2683.9440029940993,-2.0872960658007638,73105.93747794689,10.5,10500073105.937477,47.655,-122.3035,60.0,9.316666666666666
2026-01-20T23:09:20+00:00,SAT-64798,271.3552881025116,39.065766469953665,2681.86227305114,-2.0717525548684663,72561.53797611178,10.5,10500072561.537975,47.655,-122.3035,60.0,9.333333333333334
2026-01-20T23:09:21+00:00,SAT-64798,271.54243689051793,39.106152097855365,2679.796045169752,-2.056170518223295,72015.78914084824,10.5,10500072015.78914,47.655,-122.3035,60.0,9.35
2026-01-20T23:09:22+00:00,SAT-64798,271.7301220178397,39.14612900491506,2677.74535777291,-2.040550133456043,71468.69719213701,10.5,10500071468.697191,47.655,-122.3035,60.0,9.366666666666667
2026-01-20T23:09:23+00:00,SAT-64798,271.918340624304,39.18569415006444,2675.7102491064766,-2.024891565941422,70920.26792210006,10.5,10500070920.267921,47.655,-122.3035,60.0,9.383333333333333
2026-01-20T23:09:24+00:00,SAT-64798,272.10708978055067,39.2248445002255,2673.690757251378,-2.0091950058115615,70370.50798996883,10.5,10500070370.50799,47.655,-122.3035,60.0,9.4
2026-01-20T23:09:25+00:00,SAT-64798,272.2963664898636,39.26357703124985,2671.6869200989154,-1.993460629177318,69819.42356389045,10.5,10500069819.423563,47.655,-122.3035,60.0,9.416666666666666
2026-01-20T23:09:26+00:00,SAT-64798,272.48616768638215,39.301888728113134,2669.698775364749,-1.9776886186141012,69267.02103842807,10.5,10500069267.021038,47.655,-122.3035,60.0,9.433333333333334
2026-01-20T23:09:27+00:00,SAT-64798,272.6764902352186,39.3397765855084,2667.7263605824514,-1.9618791645228908,68713.30708222937,10.5,10500068713.307083,47.655,-122.3035,60.0,9.45
2026-01-20T23:09:28+00:00,SAT-64798,272.8673309327859,39.37723760846861,2665.7697130957004,-1.9460324518580727,68158.28817317935,10.5,10500068158.288174,47.655,-122.3035,60.0,9.466666666666667
2026-01-20T23:09:29+00:00,SAT-64798,273.058686505802,39.414268812739294,2663.8288700637136,-1.930148683327169,67601.97141095281,10.5,10500067601.97141,47.655,-122.3035,60.0,9.483333333333333
2026-01-20T23:09:30+00:00,SAT-64798,273.2505536126504,39.45086722559637,2661.9038684435423,-1.914228040134413,67044.36314208856,10.5,10500067044.363142,47.655,-122.3035,60.0,9.5
2026-01-20T23:09:31+00:00,SAT-64798,273.44292884079294,39.487029885921274,2659.994745011515,-1.8982707339152207,66485.47077895407,10.5,10500066485.47078,47.655,-122.3035,60.0,9.516666666666667
2026-01-20T23:09:32+00:00,SAT-64798,273.6358087094542,39.52275384526417,2658.1015363328897,-1.882276959840214,65925.30115725008,10.5,10500065925.301157,47.655,-122.3035,60.0,9.533333333333333
2026-01-20T23:09:33+00:00,SAT-64798,273.82918966757535,39.5580361680225,2656.224278778276,-1.8662469286767707,65363.861658941714,10.5,10500065363.861658,47.655,-122.3035,60.0,9.55
2026-01-20T23:09:34+00:00,SAT-64798,274.0230680950691,39.59287393222608,2654.363008508076,-1.8501808354669327,64801.159115226284,10.5,10500064801.159115,47.655,-122.3035,60.0,9.566666666666666
2026-01-20T23:09:35+00:00,SAT-64798,274.2174403007954,39.6272642297404,2652.51776148817,-1.834078899926302,64237.201221473595,10.5,10500064237.201221,47.655,-122.3035,60.0,9.583333333333334
2026-01-20T23:09:36+00:00,SAT-64798,274.4123025248528,39.661204167225186,2650.68857346531,-1.8179413366938757,63671.99549524923,10.5,10500063671.995495,47.655,-122.3035,60.0,9.6
2026-01-20T23:09:37+00:00,SAT-64798,274.60765093773296,39.69469086653907,2648.875479972181,-1.8017683618601246,63105.549504955554,10.5,10500063105.549505,47.655,-122.3035,60.0,9.616666666666667
2026-01-20T23:09:38+00:00,SAT-64798,274.8034816402072,39.727721465269475,2647.0785163259525,-1.7855601840995783,62537.870559257266,10.5,10500062537.87056,47.655,-122.3035,60.0,9.633333333333333
2026-01-20T23:09:39+00:00,SAT-64798,274.99979066218106,39.76029311710438,2645.297717635677,-1.7693170372624463,61968.96684857792,10.5,10500061968.966848,47.655,-122.3035,60.0,9.65
2026-01-20T23:09:40+00:00,SAT-64798,275.19657396524804,39.7924029928,2643.5331187771803,-1.753039140226787,61398.84603895294,10.5,10500061398.846039,47.655,-122.3035,60.0,9.666666666666666
2026-01-20T23:09:41+00:00,SAT-64798,275.39382744077227,39.82404828041701,2641.7847544079946,-1.736726722275949,60827.51616085507,10.5,10500060827.516161,47.655,-122.3035,60.0,9.683333333333334
2026-01-20T23:09:42+00:00,SAT-64798,275.5915469108348,39.85522618602075,2640.052658956978,-1.7203800153670243,60254.985338402854,10.5,10500060254.985338,47.655,-122.3035,60.0,9.7
2026-01-20T23:09:43+00:00,SAT-64798,275.78972812834445,39.88593393424263,2638.3368666216516,-1.7039992516116045,59681.26170112607,10.5,10500059681.261702,47.655,-122.3035,60.0,9.716666666666667
2026-01-20T23:09:44+00:00,SAT-64798,275.98836677687086,39.91616876879634,2636.6374113680445,-1.6875846673069792,59106.35352515533,10.5,10500059106.353525,47.655,-122.3035,60.0,9.733333333333333
2026-01-20T23:09:45+00:00,SAT-64798,276.1874584709511,39.94592795306878,2634.9543269265173,-1.6711364990294508,58530.26909639345,10.5,10500058530.269096,47.655,-122.3035,60.0,9.75
2026-01-20T23:09:46+00:00,SAT-64798,276.3869987559809,39.97520877064195,2633.2876467914853,-1.6546549943415079,57953.01708552599,10.5,10500057953.017086,47.655,-122.3035,60.0,9.766666666666667
2026-01-20T23:09:47+00:00,SAT-64798,276.5869831093986,40.00400852600333,2631.6374042104617,-1.63814039407681,57374.605927566416,10.5,10500057374.605928,47.655,-122.3035,60.0,9.783333333333333
2026-01-20T23:09:48+00:00,SAT-64798,276.78740693977846,40.03232454494592,2630.003632190769,-1.6215929460326433,56795.04430142387,10.5,10500056795.044302,47.655,-122.3035,60.0,9.8
2026-01-20T23:09:49+00:00,SAT-64798,276.98826558756707,40.060154175208105,2628.386363492593,-1.6050129062506353,56214.3411747592,10.5,10500056214.341175,47.655,-122.3035,60.0,9.816666666666666
2026-01-20T23:09:50+00:00,SAT-64798,277.1895543260743,40.08749478713391,2626.7856306207586,-1.5884005213693313,55632.505185897564,10.5,10500055632.505186,47.655,-122.3035,60.0,9.833333333333334
2026-01-20T23:09:51+00:00,SAT-64798,277.39126836022,40.11434377403029,2625.2014658341127,-1.571756050485268,55049.54540949564,10.5,10500055049.54541,47.655,-122.3035,60.0,9.85
2026-01-20T23:09:52+00:00,SAT-64798,277.593402828095,40.14069855289937,2623.633901133096,-1.5550797550968287,54465.47100433294,10.5,10500054465.471004,47.655,-122.3035,60.0,9.866666666666667
2026-01-20T23:09:53+00:00,SAT-64798,277.795952801267,40.16655656499542,2622.082968257346,-1.5383718894678877,53880.29087580589,10.5,10500053880.290876,47.655,-122.3035,60.0,9.883333333333333
2026-01-20T23:09:54+00:00,SAT-64798,277.99891328383603,40.19191527622233,2620.5486986929163,-1.521632729639029,53294.01469202339,10.5,10500053294.014692,47.655,-122.3035,60.0,9.9
2026-01-20T23:09:55+00:00,SAT-64798,278.202279215366,40.216772178012114,2619.0311236505563,-1.504862528021158,52706.65129348304,10.5,10500052706.651293,47.655,-122.3035,60.0,9.916666666666666
2026-01-20T23:09:56+00:00,SAT-64798,278.4060454677454,40.241124787451554,2617.5302740892766,-1.4880615746146393,52118.21083722431,10.5,10500052118.210836,47.655,-122.3035,60.0,9.933333333333334
2026-01-20T23:09:57+00:00,SAT-64798,278.6102068504091,40.264970648410255,2616.046180678861,-1.4712301238536007,51528.70223460661,10.5,10500051528.702234,47.655,-122.3035,60.0,9.95
2026-01-20T23:09:58+00:00,SAT-64798,278.8147581055194,40.288307331475835,2614.5788738353376,-1.4543684600122941,50938.13544211673,10.5,10500050938.135443,47.655,-122.3035,60.0,9.966666666666667
2026-01-20T23:09:59+00:00,SAT-64798,279.0196939122146,40.31113243494966,2613.1283836912185,-1.4374768602885204,50346.52016839417,10.5,10500050346.520168,47.655,-122.3035,60.0,9.983333333333333
2026-01-20T23:10:00+00:00,SAT-64798,279.2250088857849,40.33344358524015,2611.6947401025573,-1.4205556068931586,49753.86629765772,10.5,10500049753.866297,47.655,-122.3035,60.0,10.0
2026-01-20T23:10:01+00:00,SAT-64798,279.4306975785329,40.35523843744928,2610.2779726439494,-1.4036049801622665,49160.18364846188,10.5,10500049160.18365,47.655,-122.3035,60.0,10.016666666666667
2026-01-20T23:10:02+00:00,SAT-64798,279.63675447968524,40.37651467584959,2608.878110610401,-1.3866252722698638,48565.48245397677,10.5,10500048565.482454,47.655,-122.3035,60.0,10.033333333333333
2026-01-20T23:10:03+00:00,SAT-64798,279.84317401733966,40.39727001456851,2607.495183005524,-1.3696167666404593,47969.77264092755,10.5,10500047969.77264,47.655,-122.3035,60.0,10.05
2026-01-20T23:10:04+00:00,SAT-64798,280.04995055738675,40.41750219795489,2606.129218550261,-1.352579757305616,47373.064507543306,10.5,10500047373.064508,47.655,-122.3035,60.0,10.066666666666666
2026-01-20T23:10:05+00:00,SAT-64798,280.25707840532795,40.437209001236646,2604.7802456723084,-1.3355145408608666,46775.368441854196,10.5,10500046775.368443,47.655,-122.3035,60.0,10.083333333333334
2026-01-20T23:10:06+00:00,SAT-64798,280.4645518069814,40.45638823105106,2603.448292503557,-1.318421407736021,46176.694615940665,10.5,10500046176.694616,47.655,-122.3035,60.0,10.1
2026-01-20T23:10:07+00:00,SAT-64798,280.6723649477482,40.475037725846796,2602.1333868862407,-1.3013006651743235,45577.053790760794,10.5,10500045577.053791,47.655,-122.3035,60.0,10.116666666666667
2026-01-20T23:10:08+00:00,SAT-64798,280.8805119556201,40.49315535661278,2600.835556356174,-1.284152610952409,44976.45639571191,10.5,10500044976.456396,47.655,-122.3035,60.0,10.133333333333333
2026-01-20T23:10:09+00:00,SAT-64798,281.0889868999717,40.51073902722458,2599.5548281521837,-1.2669775529701421,44374.91321474969,10.5,10500044374.913216,47.655,-122.3035,60.0,10.15
2026-01-20T23:10:10+00:00,SAT-64798,281.29778379358305,40.52778667506601,2598.291229206022,-1.249775792269978,43772.43479165433,10.5,10500043772.434792,47.655,-122.3035,60.0,10.166666666666666
2026-01-20T23:10:11+00:00,SAT-64798,281.5068965918115,40.544296271410396,2597.0447861491975,-1.2325476488286071,43169.03233336302,10.5,10500043169.032333,47.655,-122.3035,60.0,10.183333333333334
2026-01-20T23:10:12+00:00,SAT-64798,281.7163191962422,40.560265822144586,2595.8155252940996,-1.2152934227137193,42564.71634951555,10.5,10500042564.716349,47.655,-122.3035,60.0,10.2
2026-01-20T23:10:13+00:00,SAT-64798,281.92604545161373,40.575693367971304,2594.6034726538464,-1.1980134368059734,41959.498148758365,10.5,10500041959.498148,47.655,-122.3035,60.0,10.216666666666667
2026-01-20T23:10:14+00:00,SAT-64798,282.1360691502463,40.59057698516868,2593.4086539195387,-1.1807080090649353,41353.388867380454,10.5,10500041353.388868,47.655,-122.3035,60.0,10.233333333333333
2026-01-20T23:10:15+00:00,SAT-64798,282.34638403163433,40.604914785976874,2592.2310944651645,-1.163377448625444,40746.39933259149,10.5,10500040746.399332,47.655,-122.3035,60.0,10.25
2026-01-20T23:10:16+00:00,SAT-64798,282.5569837812709,40.61870491894434,2591.070819356402,-1.1460220927263831,40138.54135592371,10.5,10500040138.541355,47.655,-122.3035,60.0,10.266666666666667
2026-01-20T23:10:17+00:00,SAT-64798,282.7678620363186,40.63194556971153,2589.9278533225893,-1.1286422562093903,39529.825964463045,10.5,10500039529.825964,47.655,-122.3035,60.0,10.283333333333333
2026-01-20T23:10:18+00:00,SAT-64798,282.9790123819717,40.64463496117783,2588.802220779063,-1.1112382685975573,38920.26469950205,10.5,10500038920.2647,47.655,-122.3035,60.0,10.3
2026-01-20T23:10:19+00:00,SAT-64798,283.1904283547044,40.6567713541095,2587.6939458125153,-1.093810455396497,38309.868961624175,10.5,10500038309.868961,47.655,-122.3035,60.0,10.316666666666666
2026-01-20T23:10:20+00:00,SAT-64798,283.40210344204206,40.668353047520895,2586.603052185,-1.0763591507632484,37698.6504544224,10.5,10500037698.650454,47.655,-122.3035,60.0,10.333333333333334
2026-01-20T23:10:21+00:00,SAT-64798,283.61403108478396,40.67937837918939,2585.5295633253054,-1.0588846900639055,37086.620923835944,10.5,10500037086.620924,47.655,-122.3035,60.0,10.35
2026-01-20T23:10:22+00:00,SAT-64798,283.8262046779006,40.68984572607761,2584.4735023277485,-1.041387407435178,36473.792072745775,10.5,10500036473.792072,47.655,-122.3035,60.0,10.366666666666667
2026-01-20T23:10:23+00:00,SAT-64798,284.0386175708286,40.699753504726175,2583.4348919534,-1.023867639388687,35860.17568721229,10.5,10500035860.175688,47.655,-122.3035,60.0,10.383333333333333
2026-01-20T23:10:24+00:00,SAT-64798,284.2512630685718,40.70910017167933,2582.4137546277157,-1.0063257312185991,35245.783860897835,10.5,10500035245.783861,47.655,-122.3035,60.0,10.4
2026-01-20T23:10:25+00:00,SAT-64798,284.4641344342017,40.717884223957284,2581.4101124317804,-0.9887620181166887,34630.628333636174,10.5,10500034630.628334,47.655,-122.3035,60.0,10.416666666666666
2026-01-20T23:10:26+00:00,SAT-64798,284.6772248872989,40.72610419934997,2580.423987112379,-0.9711768528113615,34014.72145946812,10.5,10500034014.72146,47.655,-122.3035,60.0,10.433333333333334
2026-01-20T23:10:27+00:00,SAT-64798,284.8905276084739,40.73375867694577,2579.4554000645085,-0.9535705749570692,33398.075134529325,10.5,10500033398.075134,47.655,-122.3035,60.0,10.45
2026-01-20T23:10:28+00:00,SAT-64798,285.1040357371239,40.740846277390595,2578.504372344418,-0.9359435366647305,32780.701691233575,10.5,10500032780.70169,47.655,-122.3035,60.0,10.466666666666667
2026-01-20T23:10:29+00:00,SAT-64798,285.31774237490447,40.74736566335034,2577.570924657184,-0.9182960896153101,32162.613446935866,10.5,10500032162.613447,47.655,-122.3035,60.0,10.483333333333333
2026-01-20T23:10:30+00:00,SAT-64798,285.53164058641016,40.753315539855976,2576.655077357141,-0.900628588161992,31543.822812583618,10.5,10500031543.822813,47.655,-122.3035,60.0,10.5
2026-01-20T23:10:31+00:00,SAT-64798,285.74572340052,40.758694654662285,2575.7568504452142,-0.8829413822008729,30924.342043018194,10.5,10500030924.342043,47.655,-122.3035,60.0,10.516666666666667
2026-01-20T23:10:32+00:00,SAT-64798,285.95998381002454,40.76350179855963,2574.876263573366,-0.8652348323631763,30304.183769070507,10.5,10500030304.18377,47.655,-122.3035,60.0,10.533333333333333
2026-01-20T23:10:33+00:00,SAT-64798,286.1744147749963,40.76773580576485,2574.013336033889,-0.847509298138663,29683.360581592628,10.5,10500029683.360582,47.655,-122.3035,60.0,10.55
2026-01-20T23:10:34+00:00,SAT-64798,286.389009223337,40.77139555422766,2573.1680867605455,-0.8297651376042439,29061.88502195262,10.5,10500029061.885021,47.655,-122.3035,60.0,10.566666666666666
2026-01-20T23:10:35+00:00,SAT-64798,286.6037600511152,40.77447996593455,2572.340534329975,-0.8120027135332878,28439.769796008415,10.5,10500028439.769796,47.655,-122.3035,60.0,10.583333333333334
2026-01-20T23:10:36+00:00,SAT-64798,286.8186601246075,40.7769880072315,2571.530696957011,-0.7942223937142768,27817.027785268387,10.5,10500027817.027784,47.655,-122.3035,60.0,10.6
2026-01-20T23:10:37+00:00,SAT-64798,287.03370228244233,40.77891868912683,2570.73859248968,-0.7764245430693336,27193.671770848894,10.5,10500027193.67177,47.655,-122.3035,60.0,10.616666666666667
2026-01-20T23:10:38+00:00,SAT-64798,287.24887933568925,40.780271067559035,2569.964238412059,-0.7586095284513072,26569.714601488497,10.5,10500026569.714602,47.655,-122.3035,60.0,10.633333333333333
2026-01-20T23:10:39+00:00,SAT-64798,287.46418406913773,40.78104424367694,2569.20765184235,-0.7407777191926516,25945.169212771998,10.5,10500025945.169212,47.655,-122.3035,60.0,10.65
2026-01-20T23:10:40+00:00,SAT-64798,287.67960924284284,40.78123736410577,2568.4688495304085,-0.7229294886727743,25320.04868202565,10.5,10500025320.048681,47.655,-122.3035,60.0,10.666666666666666
2026-01-20T23:10:41+00:00,SAT-64798,287.89514759416113,40.78084962120049,2567.747847853706,-0.7050652106126065,24694.366098537303,10.5,10500024694.366098,47.655,-122.3035,60.0,10.683333333333334
2026-01-20T23:10:42+00:00,SAT-64798,288.1107918387719,40.779880253279416,2567.044662816988,-0.6871852560242682,24068.134456720774,10.5,10500024068.134457,47.655,-122.3035,60.0,10.7
2026-01-20T23:10:43+00:00,SAT-64798,288.326534670564,40.77832854486632,2566.3593100549797,-0.6692900073929406,23441.367152825027,10.5,10500023441.367153,47.655,-122.3035,60.0,10.716666666666667
2026-01-20T23:10:44+00:00,SAT-64798,288.5423687662959,40.776193826883144,2565.69180482094,-0.6513798378850875,22814.077256718105,10.5,10500022814.077257,47.655,-122.3035,60.0,10.733333333333333
2026-01-20T23:10:45+00:00,SAT-64798,288.758286783332,40.77347547688379,2565.0421619959557,-0.6334551291859518,22186.278136631758,10.5,10500022186.278137,47.655,-122.3035,60.0,10.75
2026-01-20T23:10:46+00:00,SAT-64798,288.97428136341443,40.770172919227285,2564.4103960804478,-0.6155162609229953,21557.9830887255,10.5,10500021557.98309,47.655,-122.3035,60.0,10.766666666666667
2026-01-20T23:10:47+00:00,SAT-64798,289.19034513276324,40.76628562527542,2563.7965211962205,-0.5975636175543082,20929.205578347923,10.5,10500020929.205578,47.655,-122.3035,60.0,10.783333333333333
2026-01-20T23:10:48+00:00,SAT-64798,289.4064707047856,40.76181311353987,2563.200551081646,-0.5795975824925728,20299.959034232987,10.5,10500020299.959034,47.655,-122.3035,60.0,10.8
2026-01-20T23:10:49+00:00,SAT-64798,289.62265068055495,40.75675494985264,2562.622499092707,-0.561618538427783,19670.25685980306,10.5,10500019670.25686,47.655,-122.3035,60.0,10.816666666666666
2026-01-20T23:10:50+00:00,SAT-64798,289.83887764933957,40.75111074753885,2562.062378203715,-0.5436268764940039,19040.112754227597,10.5,10500019040.112755,47.655,-122.3035,60.0,10.833333333333334
2026-01-20T23:10:51+00:00,SAT-64798,290.05514419292115,40.74488016747392,2561.5202009988916,-0.5256229815955429,18409.54019848358,10.5,10500018409.5402,47.655,-122.3035,60.0,10.85
2026-01-20T23:10:52+00:00,SAT-64798,290.27144288394055,40.73806291828206,2560.9959796785806,-0.5076072446540292,17778.55288430007,10.5,10500017778.552885,47.655,-122.3035,60.0,10.866666666666667
2026-01-20T23:10:53+00:00,SAT-64798,290.4877662893261,40.730658756388436,2560.4897260532452,-0.4895800541867049,17147.164419194298,10.5,10500017147.16442,47.655,-122.3035,60.0,10.883333333333333
2026-01-20T23:10:54+00:00,SAT-64798,290.70410697010243,40.72266748616741,2560.0014515458697,-0.47154180383722405,16515.388590232156,10.5,10500016515.38859,47.655,-122.3035,60.0,10.9
2026-01-20T23:10:55+00:00,SAT-64798,290.92045748462976,40.714088959960876,2559.5311671868426,-0.4534928846253026,15883.239092578095,10.5,10500015883.239092,47.655,-122.3035,60.0,10.916666666666666
2026-01-20T23:10:56+00:00,SAT-64798,291.13681038824495,40.70492307821554,2559.078883616577,-0.4354336932799971,15250.729821361849,10.5,10500015250.729822,47.655,-122.3035,60.0,10.933333333333334
2026-01-20T23:10:57+00:00,SAT-64798,291.3531582370442,40.695169789441245,2558.644611079812,-0.4173646220397345,14617.87451443229,10.5,10500014617.874514,47.655,-122.3035,60.0,10.95
2026-01-20T23:10:58+00:00,SAT-64798,291.56949358643885,40.684829090378344,2558.228359430098,-0.3992860680548857,13984.687081675347,10.5,10500013984.687082,47.655,-122.3035,60.0,10.966666666666667
2026-01-20T23:10:59+00:00,SAT-64798,291.7858089945694,40.67390102594418,2557.830138124891,-0.381198428891545,13351.181447537358,10.5,10500013351.181448,47.655,-122.3035,60.0,10.983333333333333
2026-01-20T23:11:00+00:00,SAT-64798,292.00209702359143,40.66238568925295,2557.449956225143,-0.36310210062519876,12717.371484257243,10.5,10500012717.371485,47.655,-122.3035,60.0,11.0
2026-01-20T23:11:01+00:00,SAT-64798,292.21835023945266,40.650283221711184,2557.0878223967866,-0.3449974851092835,12083.271266442189,10.5,10500012083.271267,47.655,-122.3035,60.0,11.016666666666667
2026-01-20T23:11:02+00:00,SAT-64798,292.4345612166255,40.63759381282735,2556.7437449049708,-0.32688497934576993,11448.894698780528,10.5,10500011448.8947,47.655,-122.3035,60.0,11.033333333333333
2026-01-20T23:11:03+00:00,SAT-64798,292.6507225355029,40.62431770042073,2556.417731618903,-0.3087649862817835,10814.255894185058,10.5,10500010814.255894,47.655,-122.3035,60.0,11.05
2026-01-20T23:11:04+00:00,SAT-64798,292.86682678769034,40.61045517035861,2556.109790005918,-0.29063790526828664,10179.368839615738,10.5,10500010179.36884,47.655,-122.3035,60.0,11.066666666666666
2026-01-20T23:11:05+00:00,SAT-64798,293.0828665739336,40.596006556726294,2555.8199271350636,-0.2725041395675013,9544.247659021374,10.5,10500009544.24766,47.655,-122.3035,60.0,11.083333333333334
2026-01-20T23:11:06+00:00,SAT-64798,293.2988345081184,40.58097224160603,2555.5481496732023,-0.25436409202643356,8908.906461808165,10.5,10500008908.906462,47.655,-122.3035,60.0,11.1
2026-01-20T23:11:07+00:00,SAT-64798,293.5147232177361,40.565352655062384,2555.294463885421,-0.23621816579600524,8273.359368026713,10.5,10500008273.359367,47.655,-122.3035,60.0,11.116666666666667
2026-01-20T23:11:08+00:00,SAT-64798,293.7305253451571,40.54914827506798,2555.058875634734,-0.2180667650095267,7637.620532135035,10.5,10500007637.620533,47.655,-122.3035,60.0,11.133333333333333
2026-01-20T23:11:09+00:00,SAT-64798,293.94623354897396,40.53235962741438,2554.8413903810974,-0.1999102944371078,7001.704130894554,10.5,10500007001.70413,47.655,-122.3035,60.0,11.15
2026-01-20T23:11:10+00:00,SAT-64798,294.16184050580114,40.51498728556909,2554.642013180779,-0.18174915925340135,6365.624355235495,10.5,10500006365.624355,47.655,-122.3035,60.0,11.166666666666666
2026-01-20T23:11:11+00:00,SAT-64798,294.37733891126754,40.4970318705854,2554.4607486859504,-0.163583765761308,5729.395435604101,10.5,10500005729.395435,47.655,-122.3035,60.0,11.183333333333334
2026-01-20T23:11:12+00:00,SAT-64798,294.592721482676,40.47849405085702,2554.297601143564,-0.14541451894743923,5093.0315563445965,10.5,10500005093.031557,47.655,-122.3035,60.0,11.2
2026-01-20T23:11:13+00:00,SAT-64798,294.80798095727175,40.459374542233924,2554.1525743966677,-0.12724182626327238,4456.546988131236,10.5,10500004456.546988,47.655,-122.3035,60.0,11.216666666666667
2026-01-20T23:11:14+00:00,SAT-64798,295.0231100970533,40.43967410757074,2554.0256718819405,-0.1090660945311087,3819.955979601866,10.5,10500003819.95598,47.655,-122.3035,60.0,11.233333333333333
2026-01-20T23:11:15+00:00,SAT-64798,295.2381016886419,40.4193935566739,2553.9168966303287,-0.09088773061289061,3183.272780782735,10.5,10500003183.272781,47.655,-122.3035,60.0,11.25
2026-01-20T23:11:16+00:00,SAT-64798,295.4529485433769,40.39853374624068,2553.826251266997,-0.07270714256081122,2546.511683387705,10.5,10500002546.511683,47.655,-122.3035,60.0,11.266666666666667
2026-01-20T23:11:17+00:00,SAT-64798,295.6676435020362,40.37709557933501,2553.75373801015,-0.05452473765101208,1909.686951950028,10.5,10500001909.686953,47.655,-122.3035,60.0,11.283333333333333
2026-01-20T23:11:18+00:00,SAT-64798,295.8821794316546,40.35508000561684,2553.6993586717995,-0.036340924073413806,1272.812883007367,10.5,10500001272.812883,47.655,-122.3035,60.0,11.3
2026-01-20T23:11:19+00:00,SAT-64798,296.09654923112237,40.33248802069491,2553.6631146568566,-0.018156109802960153,635.9037655679837,10.5,10500000635.903765,47.655,-122.3035,60.0,11.316666666666666
2026-01-20T23:11:20+00:00,SAT-64798,296.3107458288784,40.30932066625917,2553.6450069633465,2.929683625823307e-05,-1.0260991312578225,10.5,10499999998.973902,47.655,-122.3035,60.0,11.333333333333334
2026-01-20T23:11:21+00:00,SAT-64798,296.5247621864954,40.28557902960123,2553.645036182058,0.01821488785964145,-637.962421743896,10.5,10499999362.037579,47.655,-122.3035,60.0,11.35
2026-01-20T23:11:22+00:00,SAT-64798,296.7385912997696,40.26126424336692,2553.6632024968835,0.036400254672217684,-1274.890891545663,10.5,10499998725.109108,47.655,-122.3035,60.0,11.366666666666667
2026-01-20T23:11:23+00:00,SAT-64798,296.9522261983061,40.236377485476496,2553.6995056842097,0.054584989425589946,-1911.797223960499,10.5,10499998088.202776,47.655,-122.3035,60.0,11.383333333333333
2026-01-20T23:11:24+00:00,SAT-64798,297.16565994874907,40.21091997862093,2553.7539451136636,0.07276868357255908,-2548.6671099373366,10.5,10499997451.33289,47.655,-122.3035,60.0,11.4
2026-01-20T23:11:25+00:00,SAT-64798,297.3788856544943,40.184892990144036,2553.8265197474134,0.09095092952696952,-3185.4862740849203,10.5,10499996814.513725,47.655,-122.3035,60.0,11.416666666666666
2026-01-20T23:11:26+00:00,SAT-64798,297.5918964578318,40.15829783162969,2553.917228141128,0.10913131930930355,-3822.240427234788,10.5,10499996177.759573,47.655,-122.3035,60.0,11.433333333333334
2026-01-20T23:11:27+00:00,SAT-64798,297.8046855406982,40.13113585864138,2554.0260684435857,0.12730944454617318,-4458.915266423474,10.5,10499995541.084734,47.655,-122.3035,60.0,11.45
2026-01-20T23:11:28+00:00,SAT-64798,298.01724612494735,40.103408470515724,2554.15303839628,0.1454848988310009,-5095.496557573539,10.5,10499994904.503443,47.655,-122.3035,60.0,11.466666666666667
2026-01-20T23:11:29+00:00,SAT-64798,298.2295714756427,40.075117109755716,2554.2981353353807,0.1636572745862709,-5731.9700255963235,10.5,10499994268.029974,47.655,-122.3035,60.0,11.483333333333333
2026-01-20T23:11:30+00:00,SAT-64798,298.4416549003451,40.04626326192019,2554.461356190568,0.18182616467204457,-6368.321410728979,10.5,10499993631.678589,47.655,-122.3035,60.0,11.5
2026-01-20T23:11:31+00:00,SAT-64798,298.65348975041627,40.01684845525252,2554.6426974854676,0.19999116333328204,-7004.536501713667,10.5,10499992995.4635,47.655,-122.3035,60.0,11.516666666666667
2026-01-20T23:11:32+00:00,SAT-64798,298.8650694231265,39.986874260175625,2554.842155339032,0.21815186434382397,-7640.601070791954,10.5,10499992359.39893,47.655,-122.3035,60.0,11.533333333333333
2026-01-20T23:11:33+00:00,SAT-64798,299.0763873616684,39.956342289063365,2555.059725465071,0.23630786204214294,-8276.500909981201,10.5,10499991723.49909,47.655,-122.3035,60.0,11.55
2026-01-20T23:11:34+00:00,SAT-64798,299.28743705651243,39.92525419581776,2555.295403172814,0.25445875072910346,-8912.221809981578,10.5,10499991087.77819,47.655,-122.3035,60.0,11.566666666666666
2026-01-20T23:11:35+00:00,SAT-64798,299.4982120459071,39.89361167555545,2555.549183366875,0.27260412719991245,-9547.749648855677,10.5,10499990452.25035,47.655,-122.3035,60.0,11.583333333333334
2026-01-20T23:11:36+00:00,SAT-64798,299.7087059184377,39.86141646397804,2555.8210605497356,0.2907435871311853,-10183.070265488286,10.5,10499989816.929735,47.655,-122.3035,60.0,11.6
2026-01-20T23:11:37+00:00,SAT-64798,299.9189123124354,39.82867033719204,2556.111028820634,0.30887672729373455,-10818.169537087597,10.5,10499989181.830463,47.655,-122.3035,60.0,11.616666666666667
2026-01-20T23:11:38+00:00,SAT-64798,300.1288249175767,39.79537511119737,2556.419081876655,0.32700314381598294,-11453.0333183626,10.5,10499988546.966682,47.655,-122.3035,60.0,11.633333333333333
2026-01-20T23:11:39+00:00,SAT-64798,300.33843747480756,39.76153264162279,2556.745213012088,0.34512243674269455,-12087.64760118913,10.5,10499987912.352398,47.655,-122.3035,60.0,11.65
2026-01-20T23:11:40+00:00,SAT-64798,300.54774377930374,39.727144822966125,2557.0894151223324,0.36323420385654753,-12721.99829821519,10.5,10499987278.001701,47.655,-122.3035,60.0,11.666666666666666
2026-01-20T23:11:41+00:00,SAT-64798,300.7567376794517,39.69221358845624,2557.4516807016457,0.3813380461740223,-13356.071435350232,10.5,10499986643.928564,47.655,-122.3035,60.0,11.683333333333334
2026-01-20T23:11:42+00:00,SAT-64798,300.9654130790815,39.6567409093786,2557.832001846363,0.3994335610351375,-13989.852909738454,10.5,10499986010.14709,47.655,-122.3035,60.0,11.7
2026-01-20T23:11:43+00:00,SAT-64798,301.17376393603575,39.62072879500248,2558.2303702512354,0.41752035295800777,-14623.328869931349,10.5,10499985376.67113,47.655,-122.3035,60.0,11.716666666666667
2026-01-20T23:11:44+00:00,SAT-64798,301.3817842661196,39.58417929158816,2558.646777216585,0.43559802472619363,-15256.48540372898,10.5,10499984743.514597,47.655,-122.3035,60.0,11.733333333333333
2026-01-20T23:11:45+00:00,SAT-64798,301.589468142334,39.54709448217116,2559.0812136465793,0.45366617652981034,-15889.308508097989,10.5,10499984110.691492,47.655,-122.3035,60.0,11.75
2026-01-20T23:11:46+00:00,SAT-64798,301.7968096943695,39.50947648631662,2559.5336700466382,0.47172441571165785,-16521.78443052229,10.5,10499983478.215569,47.655,-122.3035,60.0,11.766666666666667
2026-01-20T23:11:47+00:00,SAT-64798,302.0038031118343,39.471327459194896,2560.004136530574,0.48977234453233864,-17153.89924048575,10.5,10499982846.10076,47.655,-122.3035,60.0,11.783333333333333
2026-01-20T23:11:48+00:00,SAT-64798,302.21044264249707,39.4326495915347,2560.4926028155214,0.5078095730866629,-17785.63928185932,10.5,10499982214.360718,47.655,-122.3035,60.0,11.8
2026-01-20T23:11:49+00:00,SAT-64798,302.4167225956123,39.393445108646404,2560.999058229747,0.5258357061422809,-18416.99071193429,10.5,10499981583.009289,47.655,-122.3035,60.0,11.816666666666666
2026-01-20T23:11:50+00:00,SAT-64798,302.62263734012265,39.35371627037317,2561.523491707339,0.5438503534108057,-19047.939861160416,10.5,10499980952.060139,47.655,-122.3035,60.0,11.833333333333334
2026-01-20T23:11:51+00:00,SAT-64798,302.8281813067222,39.31346537032239,2562.0658917931405,0.5618531242851955,-19678.47304882684,10.5,10499980321.52695,47.655,-122.3035,60.0,11.85
2026-01-20T23:11:52+00:00,SAT-64798,303.0333489879311,39.27269473545342,2562.6262466424278,0.57984363262871,-20308.57675079156,10.5,10499979691.423248,47.655,-122.3035,60.0,11.866666666666667
2026-01-20T23:11:53+00:00,SAT-64798,303.23813493973677,39.231406725351945,2563.2045440253696,0.5978214866440574,-20938.237244656113,10.5,10499979061.762754,47.655,-122.3035,60.0,11.883333333333333
2026-01-20T23:11:54+00:00,SAT-64798,303.44253377990975,39.189603732154474,2563.800771321383,0.615786303403397,-21567.44111866773,10.5,10499978432.558882,47.655,-122.3035,60.0,11.9
2026-01-20T23:11:55+00:00,SAT-64798,303.64654019098117,39.1472881795369,2564.414915527977,0.6337376951685879,-22196.174792596597,10.5,10499977803.825207,47.655,-122.3035,60.0,11.916666666666666
2026-01-20T23:11:56+00:00,SAT-64798,303.85014891884526,39.1044625225677,2565.0469632559584,0.6516752832071439,-22824.42500162899,10.5,10499977175.574999,47.655,-122.3035,60.0,11.933333333333334
2026-01-20T23:11:57+00:00,SAT-64798,304.05335477551534,39.06112924670568,2565.69690073841,0.6695986807953307,-23452.17820106392,10.5,10499976547.821798,47.655,-122.3035,60.0,11.95
2026-01-20T23:11:58+00:00,SAT-64798,304.25615263682334,39.01729086783441,2566.3647138227234,0.6875075098354284,-24079.421148319878,10.5,10499975920.578852,47.655,-122.3035,60.0,11.966666666666667
2026-01-20T23:11:59+00:00,SAT-64798,304.45853744495383,38.97294993128411,2567.0503879791995,0.7054013899630569,-24706.140521427318,10.5,10499975293.859478,47.655,-122.3035,60.0,11.983333333333333
2026-01-20T23:12:00+00:00,SAT-64798,304.6605042078179,38.92810901150433,2567.753908298789,0.7232799437396571,-25332.323100891354,10.5,10499974667.676899,47.655,-122.3035,60.0,12.0
2026-01-20T23:12:01+00:00,SAT-64798,304.8620479998125,38.88277071143683,2568.4752594960123,0.7411427984820829,-25957.955833771743,10.5,10499974042.044167,47.655,-122.3035,60.0,12.016666666666667
2026-01-20T23:12:02+00:00,SAT-64798,305.0631639630297,38.836937661772176,2569.2144259136985,0.7589895733060449,-26583.02537988955,10.5,10499973416.97462,47.655,-122.3035,60.0,12.033333333333333
2026-01-20T23:12:03+00:00,SAT-64798,305.26384730508585,38.79061252096129,2569.971391514809,0.7768199029321424,-27207.51894561502,10.5,10499972792.481054,47.655,-122.3035,60.0,12.05
