satellites_20260121_005943/SAT-55400.csv

timestamp,satellite,azimuth_deg,elevation_deg,distance_km,relative_velocity_kms,doppler_shift_hz,tx_freq_ghz,rx_freq_hz,ue_lat,ue_lon,ue_alt_m,time_minutes
2026-01-20T23:09:58+00:00,SAT-55400,247.80103530727573,30.007304557127362,3489.1283515886357,-6.741126115258924,236102.75149156255,10.5,10500236102.751492,47.655,-122.3035,60.0,9.966666666666667
2026-01-20T23:09:59+00:00,SAT-55400,247.7611875713497,30.04780774263669,3482.405201809684,-6.741516006473739,236116.40713114353,10.5,10500236116.407131,47.655,-122.3035,60.0,9.983333333333333
2026-01-20T23:10:00+00:00,SAT-55400,247.72121133718758,30.08834247990779,3475.681663179228,-6.741900415327769,236129.87075525956,10.5,10500236129.870756,47.655,-122.3035,60.0,10.0
2026-01-20T23:10:01+00:00,SAT-55400,247.68110579956624,30.128908904116425,3468.9577411650075,-6.742279244591464,236143.13895852034,10.5,10500236143.138958,47.655,-122.3035,60.0,10.016666666666667
2026-01-20T23:10:02+00:00,SAT-55400,247.64087014695394,30.169507150601575,3462.233441331735,-6.742652546264852,236156.21356218687,10.5,10500236156.213562,47.655,-122.3035,60.0,10.033333333333333
2026-01-20T23:10:03+00:00,SAT-55400,247.6005035606529,30.210137355776286,3455.5087691922604,-6.743020240024811,236169.0917530037,10.5,10500236169.091753,47.655,-122.3035,60.0,10.05
2026-01-20T23:10:04+00:00,SAT-55400,247.5600052154321,30.25079965632429,3448.783730339542,-6.743382278658747,236181.77187738605,10.5,10500236181.771877,47.655,-122.3035,60.0,10.066666666666666
2026-01-20T23:10:05+00:00,SAT-55400,247.51937427926205,30.291494189400723,3442.0583304136267,-6.74373870401093,236194.25540089727,10.5,10500236194.255402,47.655,-122.3035,60.0,10.083333333333334
2026-01-20T23:10:06+00:00,SAT-55400,247.4786099128035,30.33222109318165,3435.3325750128265,-6.744089432482262,236206.53939554325,10.5,10500236206.539396,47.655,-122.3035,60.0,10.1
2026-01-20T23:10:07+00:00,SAT-55400,247.43771126996722,30.372980506096592,3428.6064698188306,-6.7444344235589835,236218.62244236088,10.5,10500236218.622442,47.655,-122.3035,60.0,10.116666666666667
2026-01-20T23:10:08+00:00,SAT-55400,247.39667749762825,30.413772567094824,3421.8800205537345,-6.744773687039575,236230.50488453425,10.5,10500236230.504885,47.655,-122.3035,60.0,10.133333333333333
2026-01-20T23:10:09+00:00,SAT-55400,247.35550773527868,30.454597415954026,3415.15323292986,-6.7451071928414885,236242.18566844543,10.5,10500236242.185669,47.655,-122.3035,60.0,10.15
2026-01-20T23:10:10+00:00,SAT-55400,247.3142011151724,30.495455193040232,3408.426112689533,-6.745434863923181,236253.66209577362,10.5,10500236253.662096,47.655,-122.3035,60.0,10.166666666666666
2026-01-20T23:10:11+00:00,SAT-55400,247.27275676247908,30.536346039018678,3401.698665651914,-6.745756715348799,236264.93469412893,10.5,10500236264.934694,47.655,-122.3035,60.0,10.183333333333334
2026-01-20T23:10:12+00:00,SAT-55400,247.23117379474013,30.577270095422143,3394.9708976211396,-6.746072680840892,236276.0011421947,10.5,10500236276.001143,47.655,-122.3035,60.0,10.2
2026-01-20T23:10:13+00:00,SAT-55400,247.18945132219727,30.618227504150514,3388.2428144674473,-6.746382763830958,236286.8615601566,10.5,10500236286.86156,47.655,-122.3035,60.0,10.216666666666667
2026-01-20T23:10:14+00:00,SAT-55400,247.1475884473703,30.65921840790535,3381.5144220576535,-6.746686920194343,236297.5144025825,10.5,10500236297.514402,47.655,-122.3035,60.0,10.233333333333333
2026-01-20T23:10:15+00:00,SAT-55400,247.10558426519844,30.70024294989323,3374.7857263025794,-6.746985095016376,236307.9577461283,10.5,10500236307.957747,47.655,-122.3035,60.0,10.25
2026-01-20T23:10:16+00:00,SAT-55400,247.06343786304694,30.74130127376513,3368.056733167816,-6.747277261169301,236318.19064066533,10.5,10500236318.190641,47.655,-122.3035,60.0,10.266666666666667
2026-01-20T23:10:17+00:00,SAT-55400,247.02114832045407,30.7823935237852,3361.3274486460105,-6.747563437736262,236328.213754566,10.5,10500236328.213755,47.655,-122.3035,60.0,10.283333333333333
2026-01-20T23:10:18+00:00,SAT-55400,246.9787147088116,30.82351984512005,3354.5978787107747,-6.747843516261128,236338.02328923778,10.5,10500236338.023289,47.655,-122.3035,60.0,10.3
2026-01-20T23:10:19+00:00,SAT-55400,246.93613609195322,30.86468038305016,3347.8680294438905,-6.748117515201933,236347.61989115915,10.5,10500236347.61989,47.655,-122.3035,60.0,10.316666666666666
2026-01-20T23:10:20+00:00,SAT-55400,246.8934115254034,30.905875283756338,3341.137906908729,-6.748385371456077,236357.00135021014,10.5,10500236357.00135,47.655,-122.3035,60.0,10.333333333333334
2026-01-20T23:10:21+00:00,SAT-55400,246.85054005670804,30.94710469381485,3334.4075172315966,-6.748647068458138,236366.16708619954,10.5,10500236366.167086,47.655,-122.3035,60.0,10.35
2026-01-20T23:10:22+00:00,SAT-55400,246.80752072512178,30.988368760488477,3327.676866555321,-6.748902577069336,236375.11607856397,10.5,10500236375.11608,47.655,-122.3035,60.0,10.366666666666667
2026-01-20T23:10:23+00:00,SAT-55400,246.7643525615576,31.029667631648106,3320.9459610517906,-6.749151821987761,236383.8456899122,10.5,10500236383.84569,47.655,-122.3035,60.0,10.383333333333333
2026-01-20T23:10:24+00:00,SAT-55400,246.721034588777,31.07100145548628,3314.2148069679947,-6.749394819690917,236392.356497356,10.5,10500236392.356497,47.655,-122.3035,60.0,10.4
2026-01-20T23:10:25+00:00,SAT-55400,246.6775658207738,31.112370381088592,3307.4834105344894,-6.749631511564293,236400.64644796727,10.5,10500236400.646448,47.655,-122.3035,60.0,10.416666666666666
2026-01-20T23:10:26+00:00,SAT-55400,246.6339452631065,31.15377455796782,3300.7517780402895,-6.749861855603018,236408.71407055773,10.5,10500236408.714071,47.655,-122.3035,60.0,10.433333333333334
2026-01-20T23:10:27+00:00,SAT-55400,246.59017191270732,31.19521413616646,3294.0199158163014,-6.750085809779348,236416.55789313806,10.5,10500236416.557894,47.655,-122.3035,60.0,10.45
2026-01-20T23:10:28+00:00,SAT-55400,246.54624475779895,31.236689266257855,3287.287830235348,-6.7503033659698986,236424.1776311929,10.5,10500236424.177631,47.655,-122.3035,60.0,10.466666666666667
2026-01-20T23:10:29+00:00,SAT-55400,246.5021627775883,31.278200099556834,3280.5555276783543,-6.750514469918653,236431.5713844471,10.5,10500236431.571384,47.655,-122.3035,60.0,10.483333333333333
2026-01-20T23:10:30+00:00,SAT-55400,246.45792494245305,31.319746787833484,3273.823014580355,-6.7507190722932275,236438.7374250719,10.5,10500236438.737425,47.655,-122.3035,60.0,10.5
2026-01-20T23:10:31+00:00,SAT-55400,246.41353021379075,31.361329483341493,3267.0902974255882,-6.7509171584802665,236445.6752412457,10.5,10500236445.675241,47.655,-122.3035,60.0,10.516666666666667
2026-01-20T23:10:32+00:00,SAT-55400,246.36897754374655,31.40294833903775,3260.357382712864,-6.751108661093392,236452.3824728126,10.5,10500236452.382473,47.655,-122.3035,60.0,10.533333333333333
2026-01-20T23:10:33+00:00,SAT-55400,246.3242658753938,31.444603508248967,3253.6242770082,-6.751293587872278,236458.85939084872,10.5,10500236458.85939,47.655,-122.3035,60.0,10.55
2026-01-20T23:10:34+00:00,SAT-55400,246.27939414221325,31.486295145145345,3246.890986869895,-6.751471835729122,236465.10238478307,10.5,10500236465.102385,47.655,-122.3035,60.0,10.566666666666666
2026-01-20T23:10:35+00:00,SAT-55400,246.23436126861583,31.528023404040333,3240.1575189590617,-6.7516434351306795,236471.1125216904,10.5,10500236471.112522,47.655,-122.3035,60.0,10.583333333333334
2026-01-20T23:10:36+00:00,SAT-55400,246.18916616908794,31.569788440234916,3233.423879906424,-6.751808276286745,236476.88595625322,10.5,10500236476.885956,47.655,-122.3035,60.0,10.6
2026-01-20T23:10:37+00:00,SAT-55400,246.14380774886672,31.611590409128546,3226.690076452208,-6.751966382715695,236482.42351218456,10.5,10500236482.423512,47.655,-122.3035,60.0,10.616666666666667
2026-01-20T23:10:38+00:00,SAT-55400,246.0982849030906,31.653429467062114,3219.9561153131795,-6.75211766728325,236487.7221376734,10.5,10500236487.722137,47.655,-122.3035,60.0,10.633333333333333
2026-01-20T23:10:39+00:00,SAT-55400,246.05259651730577,31.69530577061691,3213.222003293009,-6.752262112109224,236492.78120648005,10.5,10500236492.781206,47.655,-122.3035,60.0,10.65
2026-01-20T23:10:40+00:00,SAT-55400,246.00674146697833,31.737219477052275,3206.487747213199,-6.752399669645082,236497.59905325357,10.5,10500236497.599052,47.655,-122.3035,60.0,10.666666666666666
2026-01-20T23:10:41+00:00,SAT-55400,245.96071861753092,31.779170744114904,3199.7533539426727,-6.752530303841271,236502.1744153862,10.5,10500236502.174416,47.655,-122.3035,60.0,10.683333333333334
2026-01-20T23:10:42+00:00,SAT-55400,245.91452682418463,31.821159730112697,3193.0188303863083,-6.752653960474808,236506.50539375973,10.5,10500236506.505394,47.655,-122.3035,60.0,10.7
2026-01-20T23:10:43+00:00,SAT-55400,245.8681649319347,31.86318659379527,3186.2841835030617,-6.75277059108897,236510.5902912147,10.5,10500236510.590292,47.655,-122.3035,60.0,10.716666666666667
2026-01-20T23:10:44+00:00,SAT-55400,245.82163177541173,31.905251494391315,3179.5494203002154,-6.752880198328026,236514.4292003646,10.5,10500236514.429201,47.655,-122.3035,60.0,10.733333333333333
2026-01-20T23:10:45+00:00,SAT-55400,245.77492617844993,31.947354591928566,3172.814547782416,-6.752982651929152,236518.0175588543,10.5,10500236518.01756,47.655,-122.3035,60.0,10.75
2026-01-20T23:10:46+00:00,SAT-55400,245.7280469547767,31.98949604639003,3166.0795730842256,-6.753078011441472,236521.3574523461,10.5,10500236521.357452,47.655,-122.3035,60.0,10.766666666666667
2026-01-20T23:10:47+00:00,SAT-55400,245.68099290673285,32.03167601891599,3159.344503280815,-6.7531661340318525,236524.44387821943,10.5,10500236524.443878,47.655,-122.3035,60.0,10.783333333333333
2026-01-20T23:10:48+00:00,SAT-55400,245.63376282639243,32.07389467051566,3152.6093455898067,-6.7532470611527335,236527.27828831406,10.5,10500236527.278288,47.655,-122.3035,60.0,10.8
2026-01-20T23:10:49+00:00,SAT-55400,245.5863554943027,32.116152163237565,3145.874107187484,-6.753320689364619,236529.8570597413,10.5,10500236529.85706,47.655,-122.3035,60.0,10.816666666666666
2026-01-20T23:10:50+00:00,SAT-55400,245.5387696802567,32.158448659243575,3139.138795353291,-6.753386978193902,236532.17877494427,10.5,10500236532.178776,47.655,-122.3035,60.0,10.833333333333334
2026-01-20T23:10:51+00:00,SAT-55400,245.49100414276995,32.20078432120648,3132.4034174070384,-6.7534459157040265,236534.24301585427,10.5,10500236534.243015,47.655,-122.3035,60.0,10.85
2026-01-20T23:10:52+00:00,SAT-55400,245.44305762878287,32.24315931249039,3125.667980680443,-6.753497420010626,236536.04691453432,10.5,10500236536.046915,47.655,-122.3035,60.0,10.866666666666667
2026-01-20T23:10:53+00:00,SAT-55400,245.3949288739559,32.285573796699445,3118.932492586886,-6.753541449372589,236537.58900903433,10.5,10500236537.589008,47.655,-122.3035,60.0,10.883333333333333
2026-01-20T23:10:54+00:00,SAT-55400,245.3466166023008,32.328027937931644,3112.1969605813783,-6.753577967112207,236538.86801474562,10.5,10500236538.868015,47.655,-122.3035,60.0,10.9
2026-01-20T23:10:55+00:00,SAT-55400,245.2981195259976,32.37052190080734,3105.461392155512,-6.753606924611651,236539.88222886625,10.5,10500236539.882229,47.655,-122.3035,60.0,10.916666666666666
2026-01-20T23:10:56+00:00,SAT-55400,245.24943634535322,32.41305585038855,3098.725794849366,-6.7536282551823215,236540.62931567937,10.5,10500236540.629316,47.655,-122.3035,60.0,10.933333333333334
2026-01-20T23:10:57+00:00,SAT-55400,245.20056574875542,32.45562995205823,3091.990176269531,-6.75364192663104,236541.10814764368,10.5,10500236541.108149,47.655,-122.3035,60.0,10.95
2026-01-20T23:10:58+00:00,SAT-55400,245.1515064123416,32.49824437173892,3085.2545440547037,-6.753647882739043,236541.31675574023,10.5,10500236541.316755,47.655,-122.3035,60.0,10.966666666666667
2026-01-20T23:10:59+00:00,SAT-55400,245.10225699998304,32.54089927573145,3078.518905899652,-6.75364607283936,236541.25336539748,10.5,10500236541.253365,47.655,-122.3035,60.0,10.983333333333333
2026-01-20T23:11:00+00:00,SAT-55400,245.05281616313124,32.583594830747955,3071.783269549674,-6.753636457030641,236540.91657910132,10.5,10500236540.916578,47.655,-122.3035,60.0,11.0
2026-01-20T23:11:01+00:00,SAT-55400,245.00318254058624,32.62633120397458,3065.047642789862,-6.7536189432656455,236540.303172968,10.5,10500236540.303173,47.655,-122.3035,60.0,11.016666666666667
2026-01-20T23:11:02+00:00,SAT-55400,244.95335475869587,32.669108562731545,3058.3120334971113,-6.753593536249983,236539.4133118079,10.5,10500236539.413311,47.655,-122.3035,60.0,11.033333333333333
2026-01-20T23:11:03+00:00,SAT-55400,244.9033314305728,32.711927075087395,3051.576449543625,-6.753560131500272,236538.24333617112,10.5,10500236538.243336,47.655,-122.3035,60.0,11.05
2026-01-20T23:11:04+00:00,SAT-55400,244.85311115666582,32.7547869091537,3044.8408989058084,-6.753518727093922,236536.79317872023,10.5,10500236536.793179,47.655,-122.3035,60.0,11.066666666666666
2026-01-20T23:11:05+00:00,SAT-55400,244.8026925239212,32.79768823373813,3038.105389561987,-6.753469205454791,236535.0587214416,10.5,10500236535.058722,47.655,-122.3035,60.0,11.083333333333334
2026-01-20T23:11:06+00:00,SAT-55400,244.75207410640297,32.840631217590634,3031.3699296077466,-6.753411580843024,236533.0404637856,10.5,10500236533.040464,47.655,-122.3035,60.0,11.1
2026-01-20T23:11:07+00:00,SAT-55400,244.7012544642513,32.88361603024953,3024.6345271244527,-6.753345729069018,236530.7340561072,10.5,10500236530.734056,47.655,-122.3035,60.0,11.116666666666667
2026-01-20T23:11:08+00:00,SAT-55400,244.65023214445904,32.92664284113972,3017.899190317328,-6.7532716570135625,236528.13973940068,10.5,10500236528.13974,47.655,-122.3035,60.0,11.133333333333333
2026-01-20T23:11:09+00:00,SAT-55400,244.59900567981956,32.96971182041113,3011.1639273847327,-6.753189256522917,236525.25372566452,10.5,10500236525.253725,47.655,-122.3035,60.0,11.15
2026-01-20T23:11:10+00:00,SAT-55400,244.5475735895438,33.01282313818777,3004.428746632894,-6.75309852210119,236522.07582240945,10.5,10500236522.075823,47.655,-122.3035,60.0,11.166666666666666
2026-01-20T23:11:11+00:00,SAT-55400,244.49593437840247,33.05597696522553,2997.6936563735185,-6.752999332382456,236518.60177888724,10.5,10500236518.601778,47.655,-122.3035,60.0,11.183333333333334
2026-01-20T23:11:12+00:00,SAT-55400,244.44408653733987,33.09917347214874,2990.9586650393558,-6.752891692551061,236514.8317766758,10.5,10500236514.831778,47.655,-122.3035,60.0,11.2
2026-01-20T23:11:13+00:00,SAT-55400,244.39202854244678,33.14241283026906,2984.223781057985,-6.7527754970629745,236510.76211917656,10.5,10500236510.76212,47.655,-122.3035,60.0,11.216666666666667
2026-01-20T23:11:14+00:00,SAT-55400,244.3397588555447,33.185695210850355,2977.489012962247,-6.752650714900526,236506.39172001963,10.5,10500236506.39172,47.655,-122.3035,60.0,11.233333333333333
2026-01-20T23:11:15+00:00,SAT-55400,244.28727592348997,33.22902078558785,2970.75436931592,-6.752517256880298,236501.71745562434,10.5,10500236501.717455,47.655,-122.3035,60.0,11.25
2026-01-20T23:11:16+00:00,SAT-55400,244.23457817841592,33.27238972621799,2964.0198587717246,-6.752375102068714,236496.73859280843,10.5,10500236496.738592,47.655,-122.3035,60.0,11.266666666666667
2026-01-20T23:11:17+00:00,SAT-55400,244.18166403706203,33.315802204954366,2957.285490003261,-6.752224142578344,236491.45135289765,10.5,10500236491.451353,47.655,-122.3035,60.0,11.283333333333333
2026-01-20T23:11:18+00:00,SAT-55400,244.1285319012111,33.35925839390812,2950.55127179173,-6.7520643676273036,236485.85535826485,10.5,10500236485.855358,47.655,-122.3035,60.0,11.3
2026-01-20T23:11:19+00:00,SAT-55400,244.07518015681893,33.402758465713006,2943.817212929083,-6.75189565073697,236479.94617909362,10.5,10500236479.946178,47.655,-122.3035,60.0,11.316666666666666
2026-01-20T23:11:20+00:00,SAT-55400,244.02160717463875,33.44630259275517,2937.083322333415,-6.751717985376215,236473.72358663622,10.5,10500236473.723587,47.655,-122.3035,60.0,11.333333333333334
2026-01-20T23:11:21+00:00,SAT-55400,243.96781130919166,33.48989094794842,2930.3496089293326,-6.751531284006212,236467.18451491275,10.5,10500236467.184515,47.655,-122.3035,60.0,11.35
2026-01-20T23:11:22+00:00,SAT-55400,243.9137908991486,33.53352370419138,2923.6160817287505,-6.751335469420252,236460.32625981752,10.5,10500236460.32626,47.655,-122.3035,60.0,11.366666666666667
2026-01-20T23:11:23+00:00,SAT-55400,243.85954426704626,33.57720103441896,2916.882749820582,-6.7511304931346725,236453.1471232477,10.5,10500236453.147123,47.655,-122.3035,60.0,11.383333333333333
2026-01-20T23:11:24+00:00,SAT-55400,243.80506971891498,33.62092311178334,2910.149622342096,-6.750916287590806,236445.644739013,10.5,10500236445.64474,47.655,-122.3035,60.0,11.4
2026-01-20T23:11:25+00:00,SAT-55400,243.75036554417616,33.66469010950803,2903.4167084979385,-6.750692768605606,236437.81615866686,10.5,10500236437.816158,47.655,-122.3035,60.0,11.416666666666666
2026-01-20T23:11:26+00:00,SAT-55400,243.69543001560103,33.70850220077254,2896.684017576716,-6.750459884524121,236429.6595730346,10.5,10500236429.659573,47.655,-122.3035,60.0,11.433333333333334
2026-01-20T23:11:27+00:00,SAT-55400,243.64026138883918,33.75235955890458,2889.9515589185507,-6.750217566189331,236421.17255994468,10.5,10500236421.17256,47.655,-122.3035,60.0,11.45
2026-01-20T23:11:28+00:00,SAT-55400,243.58485790234369,33.79626235725372,2883.2193419325376,-6.749965726418165,236412.3520658773,10.5,10500236412.352066,47.655,-122.3035,60.0,11.466666666666667
2026-01-20T23:11:29+00:00,SAT-55400,243.5292177773046,33.840210769055176,2876.4873761147232,-6.749704317275337,236403.1964119359,10.5,10500236403.196411,47.655,-122.3035,60.0,11.483333333333333
2026-01-20T23:11:30+00:00,SAT-55400,243.47333921712658,33.88420496767352,2869.7556710089607,-6.74943323846317,236393.70208527154,10.5,10500236393.702085,47.655,-122.3035,60.0,11.5
2026-01-20T23:11:31+00:00,SAT-55400,243.4172204076175,33.92824512623828,2863.0242362591334,-6.749152451896687,236383.86775198733,10.5,10500236383.867752,47.655,-122.3035,60.0,11.516666666666667
2026-01-20T23:11:32+00:00,SAT-55400,243.36085951628888,33.97233141804092,2856.2930815471086,-6.748861867310468,236373.69025060633,10.5,10500236373.69025,47.655,-122.3035,60.0,11.533333333333333
2026-01-20T23:11:33+00:00,SAT-55400,243.3042546925397,34.01646401617061,2849.5622166447774,-6.7485614044164635,236363.16676910152,10.5,10500236363.166769,47.655,-122.3035,60.0,11.55
2026-01-20T23:11:34+00:00,SAT-55400,243.24740406733395,34.06064309355837,2842.831651404106,-6.7482509827822845,236352.29449039037,10.5,10500236352.29449,47.655,-122.3035,60.0,11.566666666666666
2026-01-20T23:11:35+00:00,SAT-55400,243.19030575299095,34.10486882296153,2836.101395757278,-6.747930560618548,236341.0719508319,10.5,10500236341.07195,47.655,-122.3035,60.0,11.583333333333334
2026-01-20T23:11:36+00:00,SAT-55400,243.1329578426462,34.1491413771975,2829.371459678154,-6.747600021438737,236329.49507057562,10.5,10500236329.495071,47.655,-122.3035,60.0,11.6
2026-01-20T23:11:37+00:00,SAT-55400,243.0753584105991,34.19346092863008,2822.6418532567727,-6.747259315751403,236317.56211622152,10.5,10500236317.562117,47.655,-122.3035,60.0,11.616666666666667
2026-01-20T23:11:38+00:00,SAT-55400,243.01750551153583,34.23782764958963,2815.9125866325303,-6.7469083425722545,236305.26955087268,10.5,10500236305.26955,47.655,-122.3035,60.0,11.633333333333333
2026-01-20T23:11:39+00:00,SAT-55400,242.9593971807153,34.28224171201397,2809.183670045538,-6.74654703341512,236292.61497585362,10.5,10500236292.614975,47.655,-122.3035,60.0,11.65
2026-01-20T23:11:40+00:00,SAT-55400,242.90103143343788,34.32670328763622,2802.455113804212,-6.7461753254869095,236279.5961918847,10.5,10500236279.596191,47.655,-122.3035,60.0,11.666666666666666
2026-01-20T23:11:41+00:00,SAT-55400,242.84240626478345,34.37121254800759,2795.7269282795933,-6.745793102542005,236266.20912755266,10.5,10500236266.209127,47.655,-122.3035,60.0,11.683333333333334
2026-01-20T23:11:42+00:00,SAT-55400,242.78351964974337,34.415769664106705,2788.999123958658,-6.745400299771714,236252.451512983,10.5,10500236252.451513,47.655,-122.3035,60.0,11.7
2026-01-20T23:11:43+00:00,SAT-55400,242.72436954258595,34.46037480666762,2782.271711393019,-6.74499685666485,236238.32122881798,10.5,10500236238.321228,47.655,-122.3035,60.0,11.716666666666667
2026-01-20T23:11:44+00:00,SAT-55400,242.66495387654754,34.5050281461794,2775.5447011946385,-6.744582643293503,236223.81372443258,10.5,10500236223.813725,47.655,-122.3035,60.0,11.733333333333333
2026-01-20T23:11:45+00:00,SAT-55400,242.60527056412775,34.549729852395565,2768.8181041050602,-6.7441575910556315,236208.92659709312,10.5,10500236208.926598,47.655,-122.3035,60.0,11.75
2026-01-20T23:11:46+00:00,SAT-55400,242.5453174963141,34.59448009471418,2762.0919309342476,-6.743721637044805,236193.65764355037,10.5,10500236193.657644,47.655,-122.3035,60.0,11.766666666666667
2026-01-20T23:11:47+00:00,SAT-55400,242.485092542298,34.639279042196954,2755.3661925549013,-6.743274664955947,236178.00279030847,10.5,10500236178.00279,47.655,-122.3035,60.0,11.783333333333333
2026-01-20T23:11:48+00:00,SAT-55400,242.42459354958902,34.68412686317357,2748.640899955719,-6.742816626963037,236161.960362298,10.5,10500236161.960361,47.655,-122.3035,60.0,11.8
2026-01-20T23:11:49+00:00,SAT-55400,242.36381834322202,34.7290237256819,2741.9160641730946,-6.742347358335277,236145.52458994952,10.5,10500236145.52459,47.655,-122.3035,60.0,11.816666666666666
2026-01-20T23:11:50+00:00,SAT-55400,242.30276472637198,34.77396979663429,2735.191696407715,-6.741866838029824,236128.6947362537,10.5,10500236128.694736,47.655,-122.3035,60.0,11.833333333333334
2026-01-20T23:11:51+00:00,SAT-55400,242.24143047895404,34.818965242773565,2728.467807881253,-6.7413749685823285,236111.4673875967,10.5,10500236111.467388,47.655,-122.3035,60.0,11.85
2026-01-20T23:11:52+00:00,SAT-55400,242.17981335791546,34.86401023011652,2721.744409912587,-6.74087161114105,236093.83768080326,10.5,10500236093.83768,47.655,-122.3035,60.0,11.866666666666667
2026-01-20T23:11:53+00:00,SAT-55400,242.1179110972862,34.909104923635695,2715.0215139590755,-6.7403567121579195,236075.8037403935,10.5,10500236075.80374,47.655,-122.3035,60.0,11.883333333333333
2026-01-20T23:11:54+00:00,SAT-55400,242.0557214071854,34.95424948781052,2708.2991315314835,-6.739830159511525,236057.36163940126,10.5,10500236057.361639,47.655,-122.3035,60.0,11.9
2026-01-20T23:11:55+00:00,SAT-55400,241.9932419740013,34.99944408619227,2701.577274252397,-6.739291885752465,236038.5090154632,10.5,10500236038.509016,47.655,-122.3035,60.0,11.916666666666666
2026-01-20T23:11:56+00:00,SAT-55400,241.9304704596974,35.04468888167257,2694.8559538116733,-6.738741736072927,236019.240446555,10.5,10500236019.240446,47.655,-122.3035,60.0,11.933333333333334
2026-01-20T23:11:57+00:00,SAT-55400,241.86740450224153,35.08998403584567,2688.1351820535633,-6.738179675278699,235999.55470002632,10.5,10500235999.5547,47.655,-122.3035,60.0,11.95
2026-01-20T23:11:58+00:00,SAT-55400,241.80404171427807,35.135329709793965,2681.4149708574187,-6.737605551932993,235979.44647192032,10.5,10500235979.446472,47.655,-122.3035,60.0,11.966666666666667
2026-01-20T23:11:59+00:00,SAT-55400,241.74037968378957,35.18072606324757,2674.695332253624,-6.737019311125709,235958.91383905313,10.5,10500235958.91384,47.655,-122.3035,60.0,11.983333333333333
2026-01-20T23:12:00+00:00,SAT-55400,241.67641597294852,35.226173255208565,2667.976278327328,-6.736420816268216,235937.95201751296,10.5,10500235937.952017,47.655,-122.3035,60.0,12.0
2026-01-20T23:12:01+00:00,SAT-55400,241.61214811847924,35.27167144334686,2661.2578212999033,-6.735809957996699,235916.55717691645,10.5,10500235916.557177,47.655,-122.3035,60.0,12.016666666666667
2026-01-20T23:12:02+00:00,SAT-55400,241.54757363108672,35.31722078414106,2654.5399735017945,-6.735186689509707,235894.72767807895,10.5,10500235894.727678,47.655,-122.3035,60.0,12.033333333333333
2026-01-20T23:12:03+00:00,SAT-55400,241.48268999459617,35.362821433274746,2647.8227473101233,-6.734550829718881,235872.45717851998,10.5,10500235872.457178,47.655,-122.3035,60.0,12.05
2026-01-20T23:12:04+00:00,SAT-55400,241.41749466672582,35.408473544651386,2641.1061552826172,-6.733902323528623,235849.7437485587,10.5,10500235849.743748,47.655,-122.3035,60.0,12.066666666666666
2026-01-20T23:12:05+00:00,SAT-55400,241.3519850776927,35.454177271230535,2634.3902100319515,-6.733241027207272,235826.58235410426,10.5,10500235826.582354,47.655,-122.3035,60.0,12.083333333333334
2026-01-20T23:12:06+00:00,SAT-55400,241.28615863057496,35.49993276435228,2627.6749243141503,-6.732566871825484,235802.97058095963,10.5,10500235802.970581,47.655,-122.3035,60.0,12.1
2026-01-20T23:12:07+00:00,SAT-55400,241.22001270035153,35.54574017422282,2620.9603109539826,-6.7318797051043555,235778.9030956734,10.5,10500235778.903095,47.655,-122.3035,60.0,12.116666666666667
2026-01-20T23:12:08+00:00,SAT-55400,241.15354463420925,35.59159964926811,2614.246382928092,-6.731179437706475,235754.37676927145,10.5,10500235754.37677,47.655,-122.3035,60.0,12.133333333333333
2026-01-20T23:12:09+00:00,SAT-55400,241.08675175066242,35.63751133653002,2607.533153302219,-6.730465943797134,235729.3871944901,10.5,10500235729.387194,47.655,-122.3035,60.0,12.15
2026-01-20T23:12:10+00:00,SAT-55400,241.01963133946873,35.68347538135222,2600.8206352676057,-6.729739136973384,235703.93134513253,10.5,10500235703.931345,47.655,-122.3035,60.0,12.166666666666666
2026-01-20T23:12:11+00:00,SAT-55400,240.9521806609136,35.72949192760714,2594.1088421016643,-6.728998842186547,235678.00309025368,10.5,10500235678.00309,47.655,-122.3035,60.0,12.183333333333334
2026-01-20T23:12:12+00:00,SAT-55400,240.88439694618987,35.77556111700651,2587.3977872563905,-6.728244998870042,235651.6003085556,10.5,10500235651.60031,47.655,-122.3035,60.0,12.2
2026-01-20T23:12:13+00:00,SAT-55400,240.81627739600745,35.82168308985749,2580.6874842441835,-6.727477463789241,235624.71798335577,10.5,10500235624.717983,47.655,-122.3035,60.0,12.216666666666667
2026-01-20T23:12:14+00:00,SAT-55400,240.7478191809006,35.867857984413746,2573.977946720298,-6.726696104002494,235597.35145847528,10.5,10500235597.351458,47.655,-122.3035,60.0,12.233333333333333
2026-01-20T23:12:15+00:00,SAT-55400,240.67901944075945,35.91408593688804,2567.2691884725728,-6.725900819578547,235569.49723389884,10.5,10500235569.497234,47.655,-122.3035,60.0,12.25
2026-01-20T23:12:16+00:00,SAT-55400,240.60987528409714,35.960367081623104,2560.561223388513,-6.725091457191559,235541.14993950707,10.5,10500235541.149939,47.655,-122.3035,60.0,12.266666666666667
2026-01-20T23:12:17+00:00,SAT-55400,240.54038378813442,36.006701550645644,2553.8540655085408,-6.724267924966073,235512.30635743268,10.5,10500235512.306358,47.655,-122.3035,60.0,12.283333333333333
2026-01-20T23:12:18+00:00,SAT-55400,240.4705419977945,36.05308947403525,2547.1477289647078,-6.723430077987793,235482.9614121641,10.5,10500235482.961412,47.655,-122.3035,60.0,12.3
2026-01-20T23:12:19+00:00,SAT-55400,240.4003469257695,36.09953097947927,2540.442228033595,-6.722577775055482,235453.11015823676,10.5,10500235453.110159,47.655,-122.3035,60.0,12.316666666666666
2026-01-20T23:12:20+00:00,SAT-55400,240.32979555204116,36.146026192224696,2533.737577132606,-6.721710897094264,235422.74842514473,10.5,10500235422.748425,47.655,-122.3035,60.0,12.333333333333334
2026-01-20T23:12:21+00:00,SAT-55400,240.2588848232548,36.19257523517013,2527.033790797904,-6.720829327954066,235391.87214482122,10.5,10500235391.872145,47.655,-122.3035,60.0,12.35
2026-01-20T23:12:22+00:00,SAT-55400,240.1876116521978,36.2391782288003,2520.3308836814913,-6.719932899294714,235360.47542128127,10.5,10500235360.475422,47.655,-122.3035,60.0,12.366666666666667
2026-01-20T23:12:23+00:00,SAT-55400,240.11597291788263,36.2858352907484,2513.6288706032615,-6.719021497352741,235328.554270047,10.5,10500235328.55427,47.655,-122.3035,60.0,12.383333333333333
2026-01-20T23:12:24+00:00,SAT-55400,240.04396546452148,36.3325465360948,2506.927766496568,-6.718094984469197,235296.10386971963,10.5,10500235296.10387,47.655,-122.3035,60.0,12.4
2026-01-20T23:12:25+00:00,SAT-55400,239.97158610131856,36.379312077123814,2500.2275864320573,-6.717153197622424,235263.11851059127,10.5,10500235263.118511,47.655,-122.3035,60.0,12.416666666666666
2026-01-20T23:12:26+00:00,SAT-55400,239.898831602204,36.42613202304967,2493.528345642962,-6.716196041473448,235229.59485348762,10.5,10500235229.594854,47.655,-122.3035,60.0,12.433333333333334
2026-01-20T23:12:27+00:00,SAT-55400,239.82569870472628,36.4730064804253,2486.830059457599,-6.715223303201171,235195.52544451368,10.5,10500235195.525444,47.655,-122.3035,60.0,12.45
2026-01-20T23:12:28+00:00,SAT-55400,239.75218411066783,36.519935552197104,2480.13274341654,-6.714234912913182,235160.9078357415,10.5,10500235160.907835,47.655,-122.3035,60.0,12.466666666666667
2026-01-20T23:12:29+00:00,SAT-55400,239.67828448418845,36.56691933865884,2473.4364131300613,-6.713230688216517,235125.73563899804,10.5,10500235125.73564,47.655,-122.3035,60.0,12.483333333333333
2026-01-20T23:12:30+00:00,SAT-55400,239.60399645237572,36.6139579365305,2466.7410843903463,-6.71221045151073,235090.00263396444,10.5,10500235090.002634,47.655,-122.3035,60.0,12.5
2026-01-20T23:12:31+00:00,SAT-55400,239.52931660472123,36.66105143890593,2460.0467731667068,-6.711174109156837,235053.7055410073,10.5,10500235053.705542,47.655,-122.3035,60.0,12.516666666666667
2026-01-20T23:12:32+00:00,SAT-55400,239.45424149174377,36.708199935759595,2453.3534955218406,-6.710121462178669,235016.8373911395,10.5,10500235016.83739,47.655,-122.3035,60.0,12.533333333333333
2026-01-20T23:12:33+00:00,SAT-55400,239.37876762552514,36.755403513082136,2446.661267716895,-6.709052378253075,234979.39354984468,10.5,10500234979.393549,47.655,-122.3035,60.0,12.55
2026-01-20T23:12:34+00:00,SAT-55400,239.30289147848202,36.80266225325798,2439.9701061449837,-6.707966694657741,234941.36831789906,10.5,10500234941.368319,47.655,-122.3035,60.0,12.566666666666666
2026-01-20T23:12:35+00:00,SAT-55400,239.2266094831501,36.84997623473912,2433.2800273615117,-6.706864257803066,234902.7563159451,10.5,10500234902.756315,47.655,-122.3035,60.0,12.583333333333334
2026-01-20T23:12:36+00:00,SAT-55400,239.14991803151807,36.897345532001566,2426.5910480750626,-6.70574488342279,234863.55109019886,10.5,10500234863.55109,47.655,-122.3035,60.0,12.6
2026-01-20T23:12:37+00:00,SAT-55400,239.0728134747871,36.94477021520684,2419.903185177996,-6.704608448056611,234823.7483165584,10.5,10500234823.748316,47.655,-122.3035,60.0,12.616666666666667
2026-01-20T23:12:38+00:00,SAT-55400,238.99529212216953,36.9922503505309,2413.2164556858006,-6.7034547402449505,234783.3405888149,10.5,10500234783.34059,47.655,-122.3035,60.0,12.633333333333333
2026-01-20T23:12:39+00:00,SAT-55400,238.91735024122715,37.03978599940189,2406.530876824863,-6.702283637906313,234742.3236311578,10.5,10500234742.323631,47.655,-122.3035,60.0,12.65
2026-01-20T23:12:40+00:00,SAT-55400,238.8389840563384,37.087377219031524,2399.8464659433243,-6.701094930647871,234700.69007474047,10.5,10500234700.690075,47.655,-122.3035,60.0,12.666666666666666
2026-01-20T23:12:41+00:00,SAT-55400,238.76018974903874,37.13502406164025,2393.163240599158,-6.699888469103842,234658.4346881413,10.5,10500234658.434689,47.655,-122.3035,60.0,12.683333333333334
2026-01-20T23:12:42+00:00,SAT-55400,238.68096345676145,37.18272657477929,2386.481218499305,-6.698664072769297,234615.55114931418,10.5,10500234615.55115,47.655,-122.3035,60.0,12.7
2026-01-20T23:12:43+00:00,SAT-55400,238.60130127256622,37.23048480096651,2379.80041753073,-6.697421564329411,234572.03324794385,10.5,10500234572.033247,47.655,-122.3035,60.0,12.716666666666667
2026-01-20T23:12:44+00:00,SAT-55400,238.52119924445472,37.27829877757275,2373.1208557572386,-6.696160770247463,234527.87490604035,10.5,10500234527.874907,47.655,-122.3035,60.0,12.733333333333333
2026-01-20T23:12:45+00:00,SAT-55400,238.44065337472585,37.326168536713475,2366.442551415712,-6.694881491085813,234483.06913845392,10.5,10500234483.069138,47.655,-122.3035,60.0,12.75
2026-01-20T23:12:46+00:00,SAT-55400,238.35965961958408,37.374094104907364,2359.7655229419356,-6.693583554143259,234437.60989645784,10.5,10500234437.609896,47.655,-122.3035,60.0,12.766666666666667
2026-01-20T23:12:47+00:00,SAT-55400,238.27821388821815,37.42207550313299,2353.089788943937,-6.69226678358948,234391.49102173056,10.5,10500234391.491022,47.655,-122.3035,60.0,12.783333333333333
2026-01-20T23:12:48+00:00,SAT-55400,238.19631204215113,37.47011274664751,2346.4153682051037,-6.690930979076618,234344.70549724266,10.5,10500234344.705498,47.655,-122.3035,60.0,12.8
2026-01-20T23:12:49+00:00,SAT-55400,238.1139498948639,37.51820584465907,2339.742279708638,-6.689575930504083,234297.2459643827,10.5,10500234297.245964,47.655,-122.3035,60.0,12.816666666666666
2026-01-20T23:12:50+00:00,SAT-55400,238.03112321117416,37.56635480007697,2333.0705426472823,-6.688201484091686,234249.107037118,10.5,10500234249.107037,47.655,-122.3035,60.0,12.833333333333334
2026-01-20T23:12:51+00:00,SAT-55400,237.94782770597746,37.61455960978839,2326.4001763671477,-6.686807407245029,234200.28056900887,10.5,10500234200.28057,47.655,-122.3035,60.0,12.85
2026-01-20T23:12:52+00:00,SAT-55400,237.86405904435583,37.662820263879695,2319.731200446322,-6.685393500434489,234150.75957168386,10.5,10500234150.759571,47.655,-122.3035,60.0,12.866666666666667
2026-01-20T23:12:53+00:00,SAT-55400,237.77981284055414,37.711136745727636,2313.0636346618885,-6.683959594810653,234100.53813132233,10.5,10500234100.538132,47.655,-122.3035,60.0,12.883333333333333
2026-01-20T23:12:54+00:00,SAT-55400,237.6950846568653,37.759509032040924,2306.3974989593307,-6.6825054391767535,234049.60744995097,10.5,10500234049.60745,47.655,-122.3035,60.0,12.9
2026-01-20T23:12:55+00:00,SAT-55400,237.6098700038521,37.807937092066354,2299.732813534659,-6.681030864750974,233997.96161611652,10.5,10500233997.961617,47.655,-122.3035,60.0,12.916666666666666
2026-01-20T23:12:56+00:00,SAT-55400,237.52416433864244,37.8564208880134,2293.0695987522136,-6.679535637399515,233945.592429463,10.5,10500233945.59243,47.655,-122.3035,60.0,12.933333333333334
2026-01-20T23:12:57+00:00,SAT-55400,237.43796306493695,37.90496037437674,2286.407875209847,-6.678019554000404,233892.4927757997,10.5,10500233892.492775,47.655,-122.3035,60.0,12.95
2026-01-20T23:12:58+00:00,SAT-55400,237.35126153185848,37.95355549796614,2279.747663707991,-6.676482380179452,233838.6544463512,10.5,10500233838.654446,47.655,-122.3035,60.0,12.966666666666667
2026-01-20T23:12:59+00:00,SAT-55400,237.26405503356366,38.00220619747139,2273.0889852808255,-6.674923912367202,233784.0703112539,10.5,10500233784.07031,47.655,-122.3035,60.0,12.983333333333333
2026-01-20T23:13:00+00:00,SAT-55400,237.17633880805556,38.05091240348205,2266.4318611655576,-6.673343921870856,233728.73236071866,10.5,10500233728.73236,47.655,-122.3035,60.0,13.0
2026-01-20T23:13:01+00:00,SAT-55400,237.088108036716,38.099674038092004,2259.7763128274787,-6.6717421815540385,233672.63263946888,10.5,10500233672.632639,47.655,-122.3035,60.0,13.016666666666667
2026-01-20T23:13:02+00:00,SAT-55400,236.9993578434216,38.14849101467995,2253.122361958409,-6.670118461590369,233615.76309801254,10.5,10500233615.763098,47.655,-122.3035,60.0,13.033333333333333
2026-01-20T23:13:03+00:00,SAT-55400,236.91008329377982,38.197363237667844,2246.4700304793823,-6.668472528960575,233558.11557502905,10.5,10500233558.115576,47.655,-122.3035,60.0,13.05
2026-01-20T23:13:04+00:00,SAT-55400,236.82027939431237,38.24629060226646,2239.8193405438324,-6.666804153086873,233499.68199470907,10.5,10500233499.681995,47.655,-122.3035,60.0,13.066666666666666
2026-01-20T23:13:05+00:00,SAT-55400,236.7299410915772,38.29527299425549,2233.1703145351535,-6.665113071122573,233440.45315104962,10.5,10500233440.453152,47.655,-122.3035,60.0,13.083333333333334
2026-01-20T23:13:06+00:00,SAT-55400,236.63906327168428,38.34431028948762,2226.5229750988874,-6.66339908579048,233380.42213456897,10.5,10500233380.422134,47.655,-122.3035,60.0,13.1
2026-01-20T23:13:07+00:00,SAT-55400,236.54764075862727,38.39340235414635,2219.8773450773256,-6.661661887452622,233319.5781004355,10.5,10500233319.5781,47.655,-122.3035,60.0,13.116666666666667
2026-01-20T23:13:08+00:00,SAT-55400,236.455668314751,38.44254904361942,2213.2334476215733,-6.659901283415438,233257.91429970565,10.5,10500233257.914299,47.655,-122.3035,60.0,13.133333333333333
2026-01-20T23:13:09+00:00,SAT-55400,236.36314063843324,38.49175020314043,2206.5913060749135,-6.658116990749428,233195.42082299147,10.5,10500233195.420822,47.655,-122.3035,60.0,13.15
2026-01-20T23:13:10+00:00,SAT-55400,236.27005236423355,38.54100566681095,2199.950944062806,-6.656308758497955,233132.08888073004,10.5,10500233132.08888,47.655,-122.3035,60.0,13.166666666666666
2026-01-20T23:13:11+00:00,SAT-55400,236.17639806162038,38.59031525758296,2193.3123854609976,-6.654476324992129,233067.90930816997,10.5,10500233067.909307,47.655,-122.3035,60.0,13.183333333333334
2026-01-20T23:13:12+00:00,SAT-55400,236.08217223410762,38.639678786874356,2186.6756544062055,-6.652619425602678,233002.8728368748,10.5,10500233002.872837,47.655,-122.3035,60.0,13.2
2026-01-20T23:13:13+00:00,SAT-55400,235.98736931835768,38.68909605426145,2180.040775299071,-6.650737791654904,232936.97005672002,10.5,10500232936.970057,47.655,-122.3035,60.0,13.216666666666667
2026-01-20T23:13:14+00:00,SAT-55400,235.89198368325023,38.73856684714255,2173.407772808194,-6.648831162209463,232870.19182850613,10.5,10500232870.191828,47.655,-122.3035,60.0,13.233333333333333
2026-01-20T23:13:15+00:00,SAT-55400,235.79600962880136,38.788090940491976,2166.776671862417,-6.6468992203011235,232802.52705076986,10.5,10500232802.52705,47.655,-122.3035,60.0,13.25
2026-01-20T23:13:16+00:00,SAT-55400,235.69944138585498,38.83766809609255,2160.147497706703,-6.644941725773425,232733.96731221623,10.5,10500232733.967312,47.655,-122.3035,60.0,13.266666666666667
2026-01-20T23:13:17+00:00,SAT-55400,235.6022731141095,38.88729806282324,2153.520275825532,-6.642958404965526,232664.50302808493,10.5,10500232664.503029,47.655,-122.3035,60.0,13.283333333333333
2026-01-20T23:13:18+00:00,SAT-55400,235.5044989014665,38.936980576049976,2146.895031976313,-6.640948929694002,232594.1227040042,10.5,10500232594.122704,47.655,-122.3035,60.0,13.3
2026-01-20T23:13:19+00:00,SAT-55400,235.4061127637528,38.986715356865425,2140.2717922437646,-6.638913017915686,232522.8164616293,10.5,10500232522.816462,47.655,-122.3035,60.0,13.316666666666666
2026-01-20T23:13:20+00:00,SAT-55400,235.30710864300175,39.03650211208417,2133.6505829938965,-6.636850383876135,232450.5742926309,10.5,10500232450.574293,47.655,-122.3035,60.0,13.333333333333334
2026-01-20T23:13:21+00:00,SAT-55400,235.20748040645307,39.08634053385802,2127.0314308777106,-6.634760720012181,232377.3854248458,10.5,10500232377.385426,47.655,-122.3035,60.0,13.35
2026-01-20T23:13:22+00:00,SAT-55400,235.10722184572347,39.136230299127,2120.414362852952,-6.63264372606047,232303.23934178133,10.5,10500232303.239342,47.655,-122.3035,60.0,13.366666666666667
2026-01-20T23:13:23+00:00,SAT-55400,235.0063266756195,39.186171069299164,2113.7994061768277,-6.630499068422496,232228.12435940668,10.5,10500232228.12436,47.655,-122.3035,60.0,13.383333333333333
2026-01-20T23:13:24+00:00,SAT-55400,234.9047885334408,39.23616248958734,2107.1865884392546,-6.628326465944222,232152.03063051816,10.5,10500232152.03063,47.655,-122.3035,60.0,13.4
2026-01-20T23:13:25+00:00,SAT-55400,234.80260097713696,39.2862041890229,2100.5759375105526,-6.626125587393161,232074.94655395296,10.5,10500232074.946554,47.655,-122.3035,60.0,13.416666666666666
2026-01-20T23:13:26+00:00,SAT-55400,234.69975748481534,39.33629577964687,2093.9674815913927,-6.62389606822378,231996.85936178447,10.5,10500231996.859362,47.655,-122.3035,60.0,13.433333333333334
2026-01-20T23:13:27+00:00,SAT-55400,234.5962514540581,39.386436855815504,2087.3612492460175,-6.621637641274095,231917.75969687,10.5,10500231917.759697,47.655,-122.3035,60.0,13.45
2026-01-20T23:13:28+00:00,SAT-55400,234.49207619932974,39.436626994536496,2080.75726930512,-6.619349949498121,231837.63505394876,10.5,10500231837.635054,47.655,-122.3035,60.0,13.466666666666667
2026-01-20T23:13:29+00:00,SAT-55400,234.3872249520557,39.48686575431011,2074.1555709554873,-6.617032636106519,231756.47293674896,10.5,10500231756.472937,47.655,-122.3035,60.0,13.483333333333333
2026-01-20T23:13:30+00:00,SAT-55400,234.28169085937282,39.53715267466315,2067.5561837397436,-6.614685362430533,231674.26148365813,10.5,10500231674.261484,47.655,-122.3035,60.0,13.5
2026-01-20T23:13:31+00:00,SAT-55400,234.17546698264692,39.58748727582572,2060.9591375382797,-6.612307783998293,231590.9886298143,10.5,10500231590.98863,47.655,-122.3035,60.0,13.516666666666667
2026-01-20T23:13:32+00:00,SAT-55400,234.0685462962681,39.63786905819124,2054.3644625750385,-6.6098995520625365,231506.6421606131,10.5,10500231506.64216,47.655,-122.3035,60.0,13.533333333333333
2026-01-20T23:13:33+00:00,SAT-55400,233.96092168646692,39.68829750179807,2047.7721894217816,-6.6074603224858,231421.2100229049,10.5,10500231421.210022,47.655,-122.3035,60.0,13.55
2026-01-20T23:13:34+00:00,SAT-55400,233.85258594988397,39.738772065834794,2041.182348993489,-6.6049896616608255,231334.6770299294,10.5,10500231334.67703,47.655,-122.3035,60.0,13.566666666666666
2026-01-20T23:13:35+00:00,SAT-55400,233.74353179363936,39.78929218740779,2034.5949726375927,-6.602487271758122,231247.0327504379,10.5,10500231247.032751,47.655,-122.3035,60.0,13.583333333333334
2026-01-20T23:13:36+00:00,SAT-55400,233.63375183194205,39.839857282088765,2028.0100919985591,-6.599952741814413,231158.26279075816,10.5,10500231158.26279,47.655,-122.3035,60.0,13.6
2026-01-20T23:13:37+00:00,SAT-55400,233.523238586447,39.89046674245274,2021.427739130723,-6.597385688718138,231068.3537327028,10.5,10500231068.353733,47.655,-122.3035,60.0,13.616666666666667
2026-01-20T23:13:38+00:00,SAT-55400,233.4119844844418,39.94111993772584,2014.847946470508,-6.594785746640761,230977.29276340897,10.5,10500230977.292763,47.655,-122.3035,60.0,13.633333333333333
2026-01-20T23:13:39+00:00,SAT-55400,233.2999818572107,39.99181621334761,2008.2707468191918,-6.592152486863845,230885.06486734355,10.5,10500230885.064867,47.655,-122.3035,60.0,13.65
2026-01-20T23:13:40+00:00,SAT-55400,233.18722293958388,40.04255488985739,2001.6961734056263,-6.589485531213433,230791.65679925494,10.5,10500230791.6568,47.655,-122.3035,60.0,13.666666666666666
2026-01-20T23:13:41+00:00,SAT-55400,233.07369986771658,40.09333526268543,1995.1242598358292,-6.586784461647261,230697.05391753462,10.5,10500230697.053917,47.655,-122.3035,60.0,13.683333333333334
2026-01-20T23:13:42+00:00,SAT-55400,232.95940467828615,40.144156601201395,1988.5550401327466,-6.584048887421316,230601.24253667454,10.5,10500230601.242537,47.655,-122.3035,60.0,13.7
2026-01-20T23:13:43+00:00,SAT-55400,232.8443293065598,40.19501814828144,1981.9885487090248,-6.581278349549623,230504.2065810443,10.5,10500230504.206581,47.655,-122.3035,60.0,13.716666666666667
2026-01-20T23:13:44+00:00,SAT-55400,232.7284655860219,40.245919119087475,1975.4248204350743,-6.578472467219553,230405.93271297475,10.5,10500230405.932713,47.655,-122.3035,60.0,13.733333333333333
2026-01-20T23:13:45+00:00,SAT-55400,232.61180524560262,40.29685870102025,1968.8638905611006,-6.575630762414837,230306.4041903142,10.5,10500230306.40419,47.655,-122.3035,60.0,13.75
2026-01-20T23:13:46+00:00,SAT-55400,232.49433990971238,40.34783605221693,1962.305794814052,-6.572752840947518,230205.60720693294,10.5,10500230205.607206,47.655,-122.3035,60.0,13.766666666666667
2026-01-20T23:13:47+00:00,SAT-55400,232.37606109534477,40.39885030151827,1955.7505693140138,-6.569838211553309,230103.5245566776,10.5,10500230103.524557,47.655,-122.3035,60.0,13.783333333333333
2026-01-20T23:13:48+00:00,SAT-55400,232.2569602121011,40.449900546931794,1949.1982506710247,-6.566886471557491,230000.14213617626,10.5,10500230000.142136,47.655,-122.3035,60.0,13.8
2026-01-20T23:13:49+00:00,SAT-55400,232.13702855912572,40.50098585559322,1942.6488758967246,-6.563897098824983,229895.4416580497,10.5,10500229895.441658,47.655,-122.3035,60.0,13.816666666666666
2026-01-20T23:13:50+00:00,SAT-55400,232.01625732551076,40.55210526200667,1936.1024825234965,-6.560869675695697,229789.408494075,10.5,10500229789.408495,47.655,-122.3035,60.0,13.833333333333334
2026-01-20T23:13:51+00:00,SAT-55400,231.89463758689988,40.603257768095204,1929.5591085002693,-6.557803723583145,229682.02588212883,10.5,10500229682.025883,47.655,-122.3035,60.0,13.85
2026-01-20T23:13:52+00:00,SAT-55400,231.77216030489402,40.654442341885755,1923.0187922532823,-6.554698724465776,229573.27567890537,10.5,10500229573.275679,47.655,-122.3035,60.0,13.866666666666667
2026-01-20T23:13:53+00:00,SAT-55400,231.64881632601646,40.70565791632051,1916.4815727254152,-6.551554228488036,229463.14212856008,10.5,10500229463.142128,47.655,-122.3035,60.0,13.883333333333333
2026-01-20T23:13:54+00:00,SAT-55400,231.52459637891099,40.75690338896663,1909.947489308203,-6.548369709489235,229351.60680272005,10.5,10500229351.606802,47.655,-122.3035,60.0,13.9
2026-01-20T23:13:55+00:00,SAT-55400,231.39949107390893,40.80817762047931,1903.4165819179393,-6.545144690141744,229238.6529833526,10.5,10500229238.652983,47.655,-122.3035,60.0,13.916666666666666
2026-01-20T23:13:56+00:00,SAT-55400,231.27349090048753,40.859479434101694,1896.8888909469713,-6.541878622793277,229124.2614893581,10.5,10500229124.26149,47.655,-122.3035,60.0,13.933333333333334
2026-01-20T23:13:57+00:00,SAT-55400,231.14658622672434,40.910807614128416,1890.3644573338386,-6.538571008236833,229008.41483639574,10.5,10500229008.414837,47.655,-122.3035,60.0,13.95
2026-01-20T23:13:58+00:00,SAT-55400,231.01876729671935,40.962160905352604,1883.843322514957,-6.5352213104309165,228891.09425002488,10.5,10500228891.09425,47.655,-122.3035,60.0,13.966666666666667
2026-01-20T23:13:59+00:00,SAT-55400,230.89002422942144,41.0135380117582,1877.325528461354,-6.531828990856205,228772.28086902088,10.5,10500228772.280869,47.655,-122.3035,60.0,13.983333333333333
2026-01-20T23:14:00+00:00,SAT-55400,230.7603470169082,41.064937595489674,1870.81111768114,-6.528393501944523,228651.95551523007,10.5,10500228651.955515,47.655,-122.3035,60.0,14.0
2026-01-20T23:14:01+00:00,SAT-55400,230.62972552268727,41.116358275721566,1864.3001332285342,-6.524914287780184,228530.0987181336,10.5,10500228530.098719,47.655,-122.3035,60.0,14.016666666666667
2026-01-20T23:14:02+00:00,SAT-55400,230.49814948004374,41.16779862752371,1857.792618712188,-6.521390782914823,228406.6906733379,10.5,10500228406.690674,47.655,-122.3035,60.0,14.033333333333333
2026-01-20T23:14:03+00:00,SAT-55400,230.3656084903145,41.21925718066944,1851.2886183046944,-6.5178224137525556,228281.7112910887,10.5,10500228281.71129,47.655,-122.3035,60.0,14.05
2026-01-20T23:14:04+00:00,SAT-55400,230.23209202120273,41.270732418452305,1844.788176750712,-6.514208595991333,228155.1401066567,10.5,10500228155.140106,47.655,-122.3035,60.0,14.066666666666666
2026-01-20T23:14:05+00:00,SAT-55400,230.0975894050204,41.322222776408566,1838.291339377643,-6.510548731820372,228026.95618217957,10.5,10500228026.956182,47.655,-122.3035,60.0,14.083333333333334
2026-01-20T23:14:06+00:00,SAT-55400,229.96208983709047,41.37372664103933,1831.7981521091074,-6.506842246021802,227897.13937109424,10.5,10500227897.139372,47.655,-122.3035,60.0,14.1
2026-01-20T23:14:07+00:00,SAT-55400,229.82558237330906,41.425242348752455,1825.3086614424085,-6.503088470593592,227765.66627714402,10.5,10500227765.666277,47.655,-122.3035,60.0,14.116666666666667
2026-01-20T23:14:08+00:00,SAT-55400,229.6880559300264,41.476768183836256,1818.8229145410698,-6.499286844516513,227632.51725106238,10.5,10500227632.517252,47.655,-122.3035,60.0,14.133333333333333
2026-01-20T23:14:09+00:00,SAT-55400,229.54949927997563,41.52830237806841,1812.3409591281386,-6.49543667950091,227497.66818603408,10.5,10500227497.668186,47.655,-122.3035,60.0,14.15
2026-01-20T23:14:10+00:00,SAT-55400,229.40990105278112,41.57984310831558,1805.8628436131164,-6.4915373939657455,227361.09871263115,10.5,10500227361.098713,47.655,-122.3035,60.0,14.166666666666666
2026-01-20T23:14:11+00:00,SAT-55400,229.2692497308339,41.631388496076106,1799.3886169855346,-6.487588278885234,227222.78399777142,10.5,10500227222.783998,47.655,-122.3035,60.0,14.183333333333334
2026-01-20T23:14:12+00:00,SAT-55400,229.12753364981342,41.682936605007605,1792.9183289420598,-6.483588697443491,227082.70173746883,10.5,10500227082.701738,47.655,-122.3035,60.0,14.2
2026-01-20T23:14:13+00:00,SAT-55400,228.9847409951767,41.734485440091106,1786.4520298144762,-6.479537964043915,226940.8279192304,10.5,10500226940.827919,47.655,-122.3035,60.0,14.216666666666667
2026-01-20T23:14:14+00:00,SAT-55400,228.84085980113935,41.78603294576995,1779.9897706183363,-6.475435414066424,226797.13926524945,10.5,10500226797.139265,47.655,-122.3035,60.0,14.233333333333333
2026-01-20T23:14:15+00:00,SAT-55400,228.69587794810832,41.83757700459165,1773.5316030320407,-6.471280316827194,226651.61018388774,10.5,10500226651.610184,47.655,-122.3035,60.0,14.25
2026-01-20T23:14:16+00:00,SAT-55400,228.5497831620119,41.889115435113595,1767.077579462725,-6.467071979946926,226504.21642509341,10.5,10500226504.216425,47.655,-122.3035,60.0,14.266666666666667
2026-01-20T23:14:17+00:00,SAT-55400,228.4025630113909,41.94064599063236,1760.627753008058,-6.462809704710598,226354.93351691082,10.5,10500226354.933517,47.655,-122.3035,60.0,14.283333333333333
2026-01-20T23:14:18+00:00,SAT-55400,228.25420490542166,41.99216635749726,1754.1821774625598,-6.458492702136496,226203.733825863,10.5,10500226203.733826,47.655,-122.3035,60.0,14.3
2026-01-20T23:14:19+00:00,SAT-55400,228.10469609366234,42.043674152648045,1747.740907407629,-6.454120288791768,226050.5934152405,10.5,10500226050.593414,47.655,-122.3035,60.0,14.316666666666666
2026-01-20T23:14:20+00:00,SAT-55400,227.95402366175017,42.095166922823196,1741.303998106274,-6.449691651258475,225895.4837957064,10.5,10500225895.483795,47.655,-122.3035,60.0,14.333333333333334
2026-01-20T23:14:21+00:00,SAT-55400,227.80217453197653,42.146642141657146,1734.8715056327524,-6.445206080351253,225738.38012858934,10.5,10500225738.380129,47.655,-122.3035,60.0,14.35
2026-01-20T23:14:22+00:00,SAT-55400,227.64913545891622,42.19809720877355,1728.4434867686155,-6.440662737750412,225579.2530523878,10.5,10500225579.253052,47.655,-122.3035,60.0,14.366666666666667
2026-01-20T23:14:23+00:00,SAT-55400,227.4948930300713,42.24952944681791,1722.019999131499,-6.436060843530464,225418.0752508119,10.5,10500225418.07525,47.655,-122.3035,60.0,14.383333333333333
2026-01-20T23:14:24+00:00,SAT-55400,227.33943366243238,42.30093610003893,1715.6011011168846,-6.431399621144305,225254.81952589747,10.5,10500225254.819527,47.655,-122.3035,60.0,14.4
2026-01-20T23:14:25+00:00,SAT-55400,227.18274360020246,42.35231433236478,1709.18685189473,-6.426678203226725,225089.45549884584,10.5,10500225089.4555,47.655,-122.3035,60.0,14.416666666666666
2026-01-20T23:14:26+00:00,SAT-55400,227.0248089146799,42.40366122461414,1702.7773115000452,-6.421895757846612,224921.9540319104,10.5,10500224921.954031,47.655,-122.3035,60.0,14.433333333333334
2026-01-20T23:14:27+00:00,SAT-55400,226.86561550126385,42.45497377272948,1696.3725407975528,-6.417051461467882,224752.2862813739,10.5,10500224752.286282,47.655,-122.3035,60.0,14.45
2026-01-20T23:14:28+00:00,SAT-55400,226.7051490771044,42.506248885741215,1689.9726014733155,-6.4121444261571625,224580.42114805372,10.5,10500224580.421148,47.655,-122.3035,60.0,14.466666666666667
2026-01-20T23:14:29+00:00,SAT-55400,226.54339518036412,42.557483383036505,1683.5775560989614,-6.407173776838278,224406.3279830806,10.5,10500224406.327984,47.655,-122.3035,60.0,14.483333333333333
2026-01-20T23:14:30+00:00,SAT-55400,226.38033916776553,42.60867399223775,1677.1874681188613,-6.402138623575723,224229.9756171488,10.5,10500224229.975616,47.655,-122.3035,60.0,14.5
2026-01-20T23:14:31+00:00,SAT-55400,226.21596621274432,42.65981734679053,1670.8024018649487,-6.39703803379156,224051.33138743398,10.5,10500224051.331387,47.655,-122.3035,60.0,14.516666666666667
2026-01-20T23:14:32+00:00,SAT-55400,226.05026130431108,42.71090998325305,1664.4224225992473,-6.391871108584525,223870.36381061163,10.5,10500223870.363811,47.655,-122.3035,60.0,14.533333333333333
2026-01-20T23:14:33+00:00,SAT-55400,225.8832092440527,42.761948339171674,1658.0475964802856,-6.386636911600351,223687.04009159456,10.5,10500223687.040092,47.655,-122.3035,60.0,14.55
2026-01-20T23:14:34+00:00,SAT-55400,225.714794644895,42.81292875029963,1651.6779906004494,-6.381334429325069,223501.3247328364,10.5,10500223501.324734,47.655,-122.3035,60.0,14.566666666666666
2026-01-20T23:14:35+00:00,SAT-55400,225.54500193080574,42.86384744737899,1645.313673062936,-6.375962764768068,223313.18631793172,10.5,10500223313.186317,47.655,-122.3035,60.0,14.583333333333334
2026-01-20T23:14:36+00:00,SAT-55400,225.37381533187332,42.91470055458272,1638.9547128655406,-6.370520859859497,223122.5877887986,10.5,10500223122.58779,47.655,-122.3035,60.0,14.6
2026-01-20T23:14:37+00:00,SAT-55400,225.20121888606758,42.965484085412996,1632.6011800613073,-6.365007761872536,222929.4957769139,10.5,10500222929.495777,47.655,-122.3035,60.0,14.616666666666667
2026-01-20T23:14:38+00:00,SAT-55400,225.02719643462177,43.01619394092635,1626.2531456534664,-6.359422389658566,222733.8724158796,10.5,10500222733.872416,47.655,-122.3035,60.0,14.633333333333333
2026-01-20T23:14:39+00:00,SAT-55400,224.8517316231029,43.06682590578019,1619.9106817235136,-6.353763732991294,222535.68232329775,10.5,10500222535.682323,47.655,-122.3035,60.0,14.65
2026-01-20T23:14:40+00:00,SAT-55400,224.67480789762624,43.11737564600031,1613.573861360477,-6.3480307357226975,222334.8885083971,10.5,10500222334.888508,47.655,-122.3035,60.0,14.666666666666666
2026-01-20T23:14:41+00:00,SAT-55400,224.496408503957,43.16783870562387,1607.2427587067161,-6.342222307414411,222131.45277941355,10.5,10500222131.45278,47.655,-122.3035,60.0,14.683333333333334
2026-01-20T23:14:42+00:00,SAT-55400,224.31651648643276,43.21821050339453,1600.9174489921215,-6.336337327366375,221925.33588469043,10.5,10500221925.335884,47.655,-122.3035,60.0,14.7
2026-01-20T23:14:43+00:00,SAT-55400,224.13511468676552,43.26848632938368,1594.5980085642948,-6.330374727411938,221716.50041251318,10.5,10500221716.500412,47.655,-122.3035,60.0,14.716666666666667
2026-01-20T23:14:44+00:00,SAT-55400,223.95218574076614,43.318661342292316,1588.284514836156,-6.3243333321660815,221504.90519592675,10.5,10500221504.905195,47.655,-122.3035,60.0,14.733333333333333
2026-01-20T23:14:45+00:00,SAT-55400,223.76771207925805,43.36873056525024,1581.9770463928758,-6.318211996014035,221290.51011065583,10.5,10500221290.51011,47.655,-122.3035,60.0,14.75
2026-01-20T23:14:46+00:00,SAT-55400,223.58167592549646,43.41868888275495,1575.6756829621843,-6.312009547154242,221073.2741152532,10.5,10500221073.274115,47.655,-122.3035,60.0,14.766666666666667
2026-01-20T23:14:47+00:00,SAT-55400,223.39405929403148,43.46853103700952,1569.380505440489,-6.305724761614861,220853.15434104763,10.5,10500220853.15434,47.655,-122.3035,60.0,14.783333333333333
2026-01-20T23:14:48+00:00,SAT-55400,223.20484399046217,43.51825162399313,1563.0915959449055,-6.299356474784117,220630.1099984084,10.5,10500220630.109999,47.655,-122.3035,60.0,14.8
2026-01-20T23:14:49+00:00,SAT-55400,223.01401160803547,43.56784509035942,1556.8090377540539,-6.292903393163167,220404.09578353452,10.5,10500220404.095783,47.655,-122.3035,60.0,14.816666666666666
2026-01-20T23:14:50+00:00,SAT-55400,222.8215435296721,43.617305728664036,1550.532915436606,-6.286364276802755,220175.0682681581,10.5,10500220175.068268,47.655,-122.3035,60.0,14.833333333333334
2026-01-20T23:14:51+00:00,SAT-55400,222.62742092487395,43.66662767404731,1544.2633147978745,-6.279737858769186,219942.98307890206,10.5,10500219942.983078,47.655,-122.3035,60.0,14.85
2026-01-20T23:14:52+00:00,SAT-55400,222.43162474902718,43.71580490015718,1538.0003229067288,-6.273022795130937,219707.79314559957,10.5,10500219707.793146,47.655,-122.3035,60.0,14.866666666666667
2026-01-20T23:14:53+00:00,SAT-55400,222.2341357441815,43.76483121452126,1531.744028172385,-6.26621779500319,219469.45325600382,10.5,10500219469.453257,47.655,-122.3035,60.0,14.883333333333333
2026-01-20T23:14:54+00:00,SAT-55400,222.03493443621784,43.81370025496908,1525.4945202915017,-6.2593214844084635,219227.91528761163,10.5,10500219227.915287,47.655,-122.3035,60.0,14.9
2026-01-20T23:14:55+00:00,SAT-55400,221.83400113599538,43.86240548476339,1519.2518903310515,-6.252332498469713,218983.13143665536,10.5,10500218983.131437,47.655,-122.3035,60.0,14.916666666666666
2026-01-20T23:14:56+00:00,SAT-55400,221.63131593798738,43.91094018844999,1513.0162307192445,-6.245249420119031,218735.05207142278,10.5,10500218735.05207,47.655,-122.3035,60.0,14.933333333333334
2026-01-20T23:14:57+00:00,SAT-55400,221.4268587207382,43.95929746704142,1506.7876352975793,-6.23807084135896,218483.62787788705,10.5,10500218483.627878,47.655,-122.3035,60.0,14.95
2026-01-20T23:14:58+00:00,SAT-55400,221.22060914572108,44.00747023369093,1500.566199311797,-6.230795295236517,218228.80747714947,10.5,10500218228.807478,47.655,-122.3035,60.0,14.966666666666667
2026-01-20T23:14:59+00:00,SAT-55400,221.0125466582356,44.05545120859524,1494.3520194706812,-6.223421349646585,217970.54071083115,10.5,10500217970.54071,47.655,-122.3035,60.0,14.983333333333333
