satellites_20260121_005943/SAT-64304.csv

timestamp,satellite,azimuth_deg,elevation_deg,distance_km,relative_velocity_kms,doppler_shift_hz,tx_freq_ghz,rx_freq_hz,ue_lat,ue_lon,ue_alt_m,time_minutes
2026-01-20T23:00:00+00:00,SAT-64304,251.68181507480074,77.65492470072508,803.2443183913574,4.080662397276492,-142922.05833744878,10.5,10499857077.941662,47.655,-122.3035,60.0,0.0
2026-01-20T23:00:01+00:00,SAT-64304,253.727465096291,77.59498923735744,807.3140990222412,4.122816528508516,-144398.4743249926,10.5,10499855601.525675,47.655,-122.3035,60.0,0.016666666666666666
2026-01-20T23:00:02+00:00,SAT-64304,255.73191846120528,77.52032283594332,811.4259213733404,4.164327737913822,-145852.37247060807,10.5,10499854147.62753,47.655,-122.3035,60.0,0.03333333333333333
2026-01-20T23:00:03+00:00,SAT-64304,257.6915430280457,77.43162115175069,815.5791442372864,4.2052026344425,-147283.98424768331,10.5,10499852716.015753,47.655,-122.3035,60.0,0.05
2026-01-20T23:00:04+00:00,SAT-64304,259.60329049957767,77.32960126468164,819.7731329980371,4.245447971065742,-148693.54617383436,10.5,10499851306.453827,47.655,-122.3035,60.0,0.06666666666666667
2026-01-20T23:00:05+00:00,SAT-64304,261.4646902991082,77.21499314940426,824.0072597745133,4.28507062348447,-150081.29906519176,10.5,10499849918.700935,47.655,-122.3035,60.0,0.08333333333333333
2026-01-20T23:00:06+00:00,SAT-64304,263.2738300032752,77.08853174485161,828.2809035430018,4.324077628289034,-151447.48937291428,10.5,10499848552.510628,47.655,-122.3035,60.0,0.1
2026-01-20T23:00:07+00:00,SAT-64304,265.0293249476051,76.9509497709786,832.5934502976155,4.36247607547427,-152792.36541861182,10.5,10499847207.63458,47.655,-122.3035,60.0,0.11666666666666667
2026-01-20T23:00:08+00:00,SAT-64304,266.73027961738404,76.80297139309688,836.9442931035551,4.4002732260668544,-154116.1815141526,10.5,10499845883.818485,47.655,-122.3035,60.0,0.13333333333333333
2026-01-20T23:00:09+00:00,SAT-64304,268.37624351056525,76.64530677533008,841.3328322676858,4.437476340137121,-155419.19193790984,10.5,10499844580.808062,47.655,-122.3035,60.0,0.15
2026-01-20T23:00:10+00:00,SAT-64304,269.9671637058466,76.47864753818516,845.7584753375825,4.474092811123448,-156701.6556393697,10.5,10499843298.34436,47.655,-122.3035,60.0,0.16666666666666666
2026-01-20T23:00:11+00:00,SAT-64304,271.5033363032405,76.30366308293067,850.220637234543,4.5101300802467845,-157963.8332415662,10.5,10499842036.166758,47.655,-122.3035,60.0,0.18333333333333332
2026-01-20T23:00:12+00:00,SAT-64304,272.9853583218941,76.12099773680917,854.7187403012424,4.54559563995117,-159205.98716158257,10.5,10499840794.012838,47.655,-122.3035,60.0,0.2
2026-01-20T23:00:13+00:00,SAT-64304,274.41408140111,75.93126864589178,859.2522143528204,4.5804969975312035,-160428.38033663153,10.5,10499839571.619663,47.655,-122.3035,60.0,0.21666666666666667
2026-01-20T23:00:14+00:00,SAT-64304,275.7905682470449,75.73506433620209,863.8204966916916,4.6148417402085755,-161631.27850331058,10.5,10499838368.721497,47.655,-122.3035,60.0,0.23333333333333334
2026-01-20T23:00:15+00:00,SAT-64304,277.11605250267576,75.53294385347195,868.4230321872595,4.6486374327079885,-162814.94661027755,10.5,10499837185.05339,47.655,-122.3035,60.0,0.25
2026-01-20T23:00:16+00:00,SAT-64304,278.39190236187176,75.32543640301157,873.0592732534803,4.681891687419955,-163979.6512756486,10.5,10499836020.348724,47.655,-122.3035,60.0,0.26666666666666666
2026-01-20T23:00:17+00:00,SAT-64304,279.6195881438388,75.11304140059433,877.7286798964005,4.71461209581958,-165125.65838499376,10.5,10499834874.341616,47.655,-122.3035,60.0,0.2833333333333333
2026-01-20T23:00:18+00:00,SAT-64304,280.8006537733591,74.89622886403218,882.4307196932979,4.746806262451226,-166253.23428162385,10.5,10499833746.765718,47.655,-122.3035,60.0,0.3
2026-01-20T23:00:19+00:00,SAT-64304,281.93669206419736,74.67544007204452,887.1648678057159,4.778481774835284,-167362.6447125981,10.5,10499832637.355288,47.655,-122.3035,60.0,0.31666666666666665
2026-01-20T23:00:20+00:00,SAT-64304,283.02932356362544,74.45108843212407,891.9306069624851,4.809646220042758,-168454.15540923632,10.5,10499831545.844591,47.655,-122.3035,60.0,0.3333333333333333
2026-01-20T23:00:21+00:00,SAT-64304,284.0801786944357,74.22356050227897,896.7274274592743,4.840307139075414,-169528.03048931892,10.5,10499830471.969511,47.655,-122.3035,60.0,0.35
2026-01-20T23:00:22+00:00,SAT-64304,285.09088287068624,73.99321712431346,901.5548271126455,4.870472060026877,-170584.53361852822,10.5,10499829415.466381,47.655,-122.3035,60.0,0.36666666666666664
2026-01-20T23:00:23+00:00,SAT-64304,286.06304428989966,73.76039462709963,906.412311247179,4.90014847293146,-171623.92712954883,10.5,10499828376.07287,47.655,-122.3035,60.0,0.38333333333333336
2026-01-20T23:00:24+00:00,SAT-64304,286.99824407093945,73.52540607129352,911.2993926575159,4.929343828387781,-172646.47197386035,10.5,10499827353.528027,47.655,-122.3035,60.0,0.4
2026-01-20T23:00:25+00:00,SAT-64304,287.898028443667,73.28854250911,916.215591569028,4.958065540896883,-173652.42783865254,10.5,10499826347.57216,47.655,-122.3035,60.0,0.4166666666666667
2026-01-20T23:00:26+00:00,SAT-64304,288.76390270865835,73.05007423878706,921.1604356018158,4.986320935199935,-174642.05126734485,10.5,10499825357.948732,47.655,-122.3035,60.0,0.43333333333333335
2026-01-20T23:00:27+00:00,SAT-64304,289.5973266992109,72.81025204080515,926.1334596811886,5.0141173730839,-175615.60010085694,10.5,10499824384.399899,47.655,-122.3035,60.0,0.45
2026-01-20T23:00:28+00:00,SAT-64304,290.3997115455683,72.56930837526717,931.1342060746109,5.041462036193809,-176573.32587077623,10.5,10499823426.67413,47.655,-122.3035,60.0,0.4666666666666667
2026-01-20T23:00:29+00:00,SAT-64304,291.1724174725447,72.32745854823752,936.1622242120416,5.068362173506196,-177515.482466924,10.5,10499822484.517532,47.655,-122.3035,60.0,0.48333333333333334
2026-01-20T23:00:30+00:00,SAT-64304,291.9167525307546,72.0849018184847,941.2170707530851,5.094824870928158,-178442.31806774024,10.5,10499821557.681932,47.655,-122.3035,60.0,0.5
2026-01-20T23:00:31+00:00,SAT-64304,292.6339720199029,71.84182246358542,946.2983094243574,5.120857176053002,-179354.0795097538,10.5,10499820645.92049,47.655,-122.3035,60.0,0.5166666666666667
2026-01-20T23:00:32+00:00,SAT-64304,293.3252785278349,71.59839078590188,951.4055109812743,5.146466113450405,-180251.0128231086,10.5,10499819748.987177,47.655,-122.3035,60.0,0.5333333333333333
2026-01-20T23:00:33+00:00,SAT-64304,293.99182244792337,71.35476406270588,956.5382531850888,5.171658563911493,-181133.35900221576,10.5,10499818866.640997,47.655,-122.3035,60.0,0.55
2026-01-20T23:00:34+00:00,SAT-64304,294.634702855632,71.11108744695544,961.6961206594965,5.1964413887641046,-182001.35835979937,10.5,10499817998.64164,47.655,-122.3035,60.0,0.5666666666666667
2026-01-20T23:00:35+00:00,SAT-64304,295.25496869591336,70.86749480781911,966.8787048712239,5.220821339002452,-182855.24734423356,10.5,10499817144.752655,47.655,-122.3035,60.0,0.5833333333333334
2026-01-20T23:00:36+00:00,SAT-64304,295.8536201800425,70.62410952261958,972.085604019989,5.2448051042739205,-183695.26025526688,10.5,10499816304.739744,47.655,-122.3035,60.0,0.6
2026-01-20T23:00:37+00:00,SAT-64304,296.43161035152184,70.38104521540505,977.3164229773183,5.268399285853977,-184521.6282974896,10.5,10499815478.371702,47.655,-122.3035,60.0,0.6166666666666667
2026-01-20T23:00:38+00:00,SAT-64304,296.98984676324477,70.1384064478619,982.5707731984099,5.2916104210687935,-185334.58043571707,10.5,10499814665.419565,47.655,-122.3035,60.0,0.6333333333333333
2026-01-20T23:00:39+00:00,SAT-64304,297.52919323125576,69.89628936251655,987.8482726583559,5.314444938622093,-186134.3418303471,10.5,10499813865.658169,47.655,-122.3035,60.0,0.65
2026-01-20T23:00:40+00:00,SAT-64304,298.05047162514825,69.6547822838589,993.1485457438083,5.336909200973696,-186921.13532163575,10.5,10499813078.864677,47.655,-122.3035,60.0,0.6666666666666666
2026-01-20T23:00:41+00:00,SAT-64304,298.55446367826835,69.41396627586482,998.4712231869128,5.359009472948941,-187695.18033026662,10.5,10499812304.81967,47.655,-122.3035,60.0,0.6833333333333333
2026-01-20T23:00:42+00:00,SAT-64304,299.04191278902226,69.1739156617759,1003.8159419679338,5.380751973822063,-188456.69468153085,10.5,10499811543.305319,47.655,-122.3035,60.0,0.7
2026-01-20T23:00:43+00:00,SAT-64304,299.51352580426317,68.93469850483982,1009.1823452698256,5.402142766234222,-189205.89071476687,10.5,10499810794.109285,47.655,-122.3035,60.0,0.7166666666666667
2026-01-20T23:00:44+00:00,SAT-64304,299.9699747569785,68.69637705969822,1014.5700823220166,5.423187888416652,-189942.9799143741,10.5,10499810057.020086,47.655,-122.3035,60.0,0.7333333333333333
2026-01-20T23:00:45+00:00,SAT-64304,300.41189857147697,68.45900818577161,1019.9788083760642,5.44389326089892,-190668.1696423419,10.5,10499809331.830359,47.655,-122.3035,60.0,0.75
2026-01-20T23:00:46+00:00,SAT-64304,300.8399047072411,68.22264373497235,1025.4081845882674,5.4642647441752334,-191381.66515796722,10.5,10499808618.334843,47.655,-122.3035,60.0,0.7666666666666667
2026-01-20T23:00:47+00:00,SAT-64304,301.25457075017226,67.98733090908664,1030.8578779597915,5.484308066681555,-192083.66709530875,10.5,10499807916.332905,47.655,-122.3035,60.0,0.7833333333333333
2026-01-20T23:00:48+00:00,SAT-64304,301.6564459367273,67.7531125944781,1036.3275612049617,5.504028914914031,-192774.37461951535,10.5,10499807225.62538,47.655,-122.3035,60.0,0.8
2026-01-20T23:00:49+00:00,SAT-64304,302.0460526223726,67.52002766888552,1041.816912709436,5.523432865839313,-193453.98305954976,10.5,10499806546.016941,47.655,-122.3035,60.0,0.8166666666666667
2026-01-20T23:00:50+00:00,SAT-64304,302.423887679977,67.28811128894289,1047.3256164209665,5.542525414179104,-194122.68486380862,10.5,10499805877.315136,47.655,-122.3035,60.0,0.8333333333333334
2026-01-20T23:00:51+00:00,SAT-64304,302.7904238361469,67.05739515589094,1052.8533617673745,5.561311977411674,-194780.66977529693,10.5,10499805219.330225,47.655,-122.3035,60.0,0.85
2026-01-20T23:00:52+00:00,SAT-64304,303.1461109441181,66.82790776198097,1058.3998435795131,5.579797840717427,-195428.1229033887,10.5,10499804571.877096,47.655,-122.3035,60.0,0.8666666666666667
2026-01-20T23:00:53+00:00,SAT-64304,303.4913771898724,66.59967462149208,1063.964761959322,5.597988295819718,-196065.22958661968,10.5,10499803934.770412,47.655,-122.3035,60.0,0.8833333333333333
2026-01-20T23:00:54+00:00,SAT-64304,303.8266302469912,66.37271847957106,1069.5478222863528,5.615888466218614,-196692.16927163472,10.5,10499803307.830729,47.655,-122.3035,60.0,0.9
2026-01-20T23:00:55+00:00,SAT-64304,304.15225835964515,66.14705951320647,1075.148735049995,5.633503395028301,-197309.11858962494,10.5,10499802690.88141,47.655,-122.3035,60.0,0.9166666666666666
2026-01-20T23:00:56+00:00,SAT-64304,304.46863137491243,65.92271551443366,1080.767215769303,5.65083811575291,-197916.2538351967,10.5,10499802083.746164,47.655,-122.3035,60.0,0.9333333333333333
2026-01-20T23:00:57+00:00,SAT-64304,304.7761017239179,65.69970205775817,1086.402984983414,5.667897476079609,-198513.74479486034,10.5,10499801486.255205,47.655,-122.3035,60.0,0.95
2026-01-20T23:00:58+00:00,SAT-64304,305.0750053394116,65.47803266262824,1092.055768066224,5.684686324751392,-199101.7612921057,10.5,10499800898.238708,47.655,-122.3035,60.0,0.9666666666666667
2026-01-20T23:00:59+00:00,SAT-64304,305.365662534097,65.2577189372827,1097.7252952274425,5.7012093867982365,-199680.46881746934,10.5,10499800319.531183,47.655,-122.3035,60.0,0.9833333333333333
2026-01-20T23:01:00+00:00,SAT-64304,305.64837882362576,65.0387707172549,1103.4113013892095,5.717471319839473,-200250.030500482,10.5,10499799749.9695,47.655,-122.3035,60.0,1.0
2026-01-20T23:01:01+00:00,SAT-64304,305.92344570674027,64.82119619212436,1109.1135261188626,5.7334766872822955,-200810.60617096678,10.5,10499799189.39383,47.655,-122.3035,60.0,1.0166666666666666
2026-01-20T23:01:02+00:00,SAT-64304,306.19114140098026,64.60500202441892,1114.831713534979,5.749229986898846,-201362.3533599297,10.5,10499798637.64664,47.655,-122.3035,60.0,1.0333333333333334
2026-01-20T23:01:03+00:00,SAT-64304,306.45173153823276,64.39019345927018,1120.5656122419127,5.764735633366314,-201905.42668803997,10.5,10499798094.573313,47.655,-122.3035,60.0,1.05
2026-01-20T23:01:04+00:00,SAT-64304,306.70546982070226,64.17677442711417,1126.3149752469235,5.779997963564246,-202439.97805116425,10.5,10499797560.02195,47.655,-122.3035,60.0,1.0666666666666667
2026-01-20T23:01:05+00:00,SAT-64304,306.952598640043,63.96474763917378,1132.0795598825848,5.795021232881685,-202966.15649102718,10.5,10499797033.84351,47.655,-122.3035,60.0,1.0833333333333333
2026-01-20T23:01:06+00:00,SAT-64304,307.1933496615907,63.75411467653984,1137.8591277255123,5.809809644853253,-203484.1092331921,10.5,10499796515.890766,47.655,-122.3035,60.0,1.1
2026-01-20T23:01:07+00:00,SAT-64304,307.4279443769275,63.54487607212302,1143.6534445446457,5.8243672755371865,-203993.97903846018,10.5,10499796006.020962,47.655,-122.3035,60.0,1.1166666666666667
2026-01-20T23:01:08+00:00,SAT-64304,307.6565946221459,63.33703138974035,1149.462280174115,5.83869818942807,-204495.90826262458,10.5,10499795504.091738,47.655,-122.3035,60.0,1.1333333333333333
2026-01-20T23:01:09+00:00,SAT-64304,307.87950307179733,63.130579293787676,1155.2854085017045,5.852806354545131,-204990.03588250338,10.5,10499795009.964117,47.655,-122.3035,60.0,1.15
2026-01-20T23:01:10+00:00,SAT-64304,308.09686370163683,62.92551761716251,1161.1226073726373,5.866695618267531,-205476.4966495891,10.5,10499794523.503351,47.655,-122.3035,60.0,1.1666666666666667
2026-01-20T23:01:11+00:00,SAT-64304,308.30886222430024,62.721843425523865,1166.9736584692562,5.880369854519513,-205955.42624509547,10.5,10499794044.573755,47.655,-122.3035,60.0,1.1833333333333333
2026-01-20T23:01:12+00:00,SAT-64304,308.5156765068072,62.519553072149066,1172.8383473374972,5.893832770061166,-206426.9544954404,10.5,10499793573.045504,47.655,-122.3035,60.0,1.2
2026-01-20T23:01:13+00:00,SAT-64304,308.7174769567681,62.318642255790984,1178.7164632201714,5.907088086066703,-206891.21173188547,10.5,10499793108.788269,47.655,-122.3035,60.0,1.2166666666666666
2026-01-20T23:01:14+00:00,SAT-64304,308.91442689448667,62.11910606852329,1184.607799071342,5.920139382506819,-207348.32334014753,10.5,10499792651.67666,47.655,-122.3035,60.0,1.2333333333333334
2026-01-20T23:01:15+00:00,SAT-64304,309.1066828982271,61.920939045681344,1190.5121514154955,5.932990221856738,-207798.41409317823,10.5,10499792201.585907,47.655,-122.3035,60.0,1.25
2026-01-20T23:01:16+00:00,SAT-64304,309.29439513531185,61.724135208372594,1196.4293203300938,5.945644105936164,-208241.60663951634,10.5,10499791758.39336,47.655,-122.3035,60.0,1.2666666666666666
2026-01-20T23:01:17+00:00,SAT-64304,309.47770767312613,61.5286881046327,1202.359109385081,5.95810440812115,-208678.0191290605,10.5,10499791321.980871,47.655,-122.3035,60.0,1.2833333333333334
2026-01-20T23:01:18+00:00,SAT-64304,309.65675877098334,61.33459085009863,1208.3013255147803,5.970374512045144,-209107.77007096694,10.5,10499790892.229929,47.655,-122.3035,60.0,1.3
2026-01-20T23:01:19+00:00,SAT-64304,309.83168116067395,61.141836161544184,1214.2557790281267,5.982457724487082,-209530.97528262154,10.5,10499790469.024717,47.655,-122.3035,60.0,1.3166666666666667
2026-01-20T23:01:20+00:00,SAT-64304,310.00260230889967,60.950416391004154,1220.2222835320154,5.994357231065794,-209947.74633787098,10.5,10499790052.253662,47.655,-122.3035,60.0,1.3333333333333333
2026-01-20T23:01:21+00:00,SAT-64304,310.16964466405636,60.76032355912084,1226.200655810465,6.006076236525949,-210358.19548042954,10.5,10499789641.80452,47.655,-122.3035,60.0,1.35
2026-01-20T23:01:22+00:00,SAT-64304,310.33292589432585,60.57154938188464,1232.1907158436934,6.017617846518505,-210762.43148333073,10.5,10499789237.568516,47.655,-122.3035,60.0,1.3666666666666667
2026-01-20T23:01:23+00:00,SAT-64304,310.4925591091783,60.38408529934455,1238.1922867092878,6.0289851034139454,-211160.56090325804,10.5,10499788839.439096,47.655,-122.3035,60.0,1.3833333333333333
2026-01-20T23:01:24+00:00,SAT-64304,310.64865307033625,60.197922501350135,1244.2051945190926,6.04018100712506,-211552.68880984702,10.5,10499788447.31119,47.655,-122.3035,60.0,1.4
2026-01-20T23:01:25+00:00,SAT-64304,310.8013123920675,60.01305195100361,1250.2292683768653,6.051208496331776,-211938.9181280993,10.5,10499788061.081871,47.655,-122.3035,60.0,1.4166666666666667
2026-01-20T23:01:26+00:00,SAT-64304,310.9506377304889,59.82946440715437,1256.264340317207,6.062070444323671,-212319.34949276992,10.5,10499787680.650507,47.655,-122.3035,60.0,1.4333333333333333
2026-01-20T23:01:27+00:00,SAT-64304,311.0967259627497,59.647150445585716,1262.310245240346,6.072769715336388,-212694.08322150682,10.5,10499787305.916779,47.655,-122.3035,60.0,1.45
2026-01-20T23:01:28+00:00,SAT-64304,311.2396703584826,59.466100477136344,1268.366820903108,6.083309039631727,-213063.21493962713,10.5,10499786936.78506,47.655,-122.3035,60.0,1.4666666666666666
2026-01-20T23:01:29+00:00,SAT-64304,311.3795607389441,59.28630476837307,1274.4339077853006,6.093691160651146,-213426.84073405556,10.5,10499786573.159266,47.655,-122.3035,60.0,1.4833333333333334
2026-01-20T23:01:30+00:00,SAT-64304,311.5164836319987,59.10775345659824,1280.5113491028567,6.1039187551569105,-213785.05435632926,10.5,10499786214.945644,47.655,-122.3035,60.0,1.5
2026-01-20T23:01:31+00:00,SAT-64304,311.650522416906,58.93043656622095,1286.5989907413332,6.113994454720635,-214137.9479752178,10.5,10499785862.052025,47.655,-122.3035,60.0,1.5166666666666666
2026-01-20T23:01:32+00:00,SAT-64304,311.7817574624205,58.75434402343913,1292.6966812108412,6.123920785223539,-214485.61005776588,10.5,10499785514.389942,47.655,-122.3035,60.0,1.5333333333333334
2026-01-20T23:01:33+00:00,SAT-64304,311.91026625631764,58.57946567173087,1298.8042715406375,6.133700325699258,-214828.13093264075,10.5,10499785171.869068,47.655,-122.3035,60.0,1.55
2026-01-20T23:01:34+00:00,SAT-64304,312.0361235323794,58.405791281808035,1304.9216153321347,6.14333550549622,-215165.5956859005,10.5,10499784834.404314,47.655,-122.3035,60.0,1.5666666666666667
2026-01-20T23:01:35+00:00,SAT-64304,312.15940138601826,58.23331056665294,1311.0485686096165,6.152828788855956,-215498.09062570726,10.5,10499784501.909374,47.655,-122.3035,60.0,1.5833333333333333
2026-01-20T23:01:36+00:00,SAT-64304,312.28016938867466,58.06201319040764,1317.1849898550354,6.162182547998165,-215825.69883722934,10.5,10499784174.301163,47.655,-122.3035,60.0,1.6
2026-01-20T23:01:37+00:00,SAT-64304,312.3984946934491,57.891888780210934,1323.3307399162388,6.171399084343466,-216148.50092595187,10.5,10499783851.499075,47.655,-122.3035,60.0,1.6166666666666667
2026-01-20T23:01:38+00:00,SAT-64304,312.5144421361909,57.7229269366818,1329.4856819363574,6.180480757655855,-216466.57954079178,10.5,10499783533.42046,47.655,-122.3035,60.0,1.6333333333333333
2026-01-20T23:01:39+00:00,SAT-64304,312.62807433440986,57.55511724018206,1335.649681411993,6.189429761263708,-216780.0115013865,10.5,10499783219.988499,47.655,-122.3035,60.0,1.65
2026-01-20T23:01:40+00:00,SAT-64304,312.73945177655304,57.38844926273793,1341.8226060272266,6.198248332968692,-217088.87518501637,10.5,10499782911.124815,47.655,-122.3035,60.0,1.6666666666666667
2026-01-20T23:01:41+00:00,SAT-64304,312.8486329114206,57.2229125735443,1348.004325697974,6.206938617610188,-217393.24571302917,10.5,10499782606.754288,47.655,-122.3035,60.0,1.6833333333333333
2026-01-20T23:01:42+00:00,SAT-64304,312.9556742305082,57.0584967477261,1354.1947124792705,6.215502760133794,-217693.1982104928,10.5,10499782306.80179,47.655,-122.3035,60.0,1.7
2026-01-20T23:01:43+00:00,SAT-64304,313.06063034823,56.89519137207608,1360.3936405653774,6.223942824161053,-217988.80495416283,10.5,10499782011.195045,47.655,-122.3035,60.0,1.7166666666666666
2026-01-20T23:01:44+00:00,SAT-64304,313.1635540768103,56.73298605252288,1366.600986208674,6.232260869991273,-218280.1381044361,10.5,10499781719.861897,47.655,-122.3035,60.0,1.7333333333333334
2026-01-20T23:01:45+00:00,SAT-64304,313.264496499098,56.57187041907868,1372.8166277163452,6.240458904047637,-218567.26793473968,10.5,10499781432.732065,47.655,-122.3035,60.0,1.75
2026-01-20T23:01:46+00:00,SAT-64304,313.3635070370951,56.411834131728945,1379.0404453966487,6.248538884104757,-218850.26301462174,10.5,10499781149.736986,47.655,-122.3035,60.0,1.7666666666666666
2026-01-20T23:01:47+00:00,SAT-64304,313.4606335172516,56.252866885809006,1385.272321510396,6.2565027415080365,-219129.19098796803,10.5,10499780870.809011,47.655,-122.3035,60.0,1.7833333333333334
2026-01-20T23:01:48+00:00,SAT-64304,313.5559222333508,56.09495841641643,1391.5121402445934,6.2643523814643745,-219404.11858318307,10.5,10499780595.881416,47.655,-122.3035,60.0,1.8
2026-01-20T23:01:49+00:00,SAT-64304,313.64941800634756,55.93809850251763,1397.7597876863738,6.272089657995313,-219675.1107359438,10.5,10499780324.889263,47.655,-122.3035,60.0,1.8166666666666667
2026-01-20T23:01:50+00:00,SAT-64304,313.7411642411239,55.782276971372326,1404.0151517719478,6.279716410840152,-219942.2318817026,10.5,10499780057.768118,47.655,-122.3035,60.0,1.8333333333333333
2026-01-20T23:01:51+00:00,SAT-64304,313.8312029812341,55.62748370173565,1410.278122272359,6.287234383106554,-220205.54307146318,10.5,10499779794.456928,47.655,-122.3035,60.0,1.85
2026-01-20T23:01:52+00:00,SAT-64304,313.9195749599193,55.47370862883077,1416.5485906971107,6.294645377891426,-220465.10745730624,10.5,10499779534.892542,47.655,-122.3035,60.0,1.8666666666666667
2026-01-20T23:01:53+00:00,SAT-64304,314.0063196512837,55.32094174517419,1422.8264503539942,6.301951108268928,-220720.98503833523,10.5,10499779279.014961,47.655,-122.3035,60.0,1.8833333333333333
2026-01-20T23:01:54+00:00,SAT-64304,314.09147531686324,55.169173104896515,1429.1115962593078,6.309153254683734,-220973.2346708309,10.5,10499779026.76533,47.655,-122.3035,60.0,1.9
2026-01-20T23:01:55+00:00,SAT-64304,314.1750790509531,55.01839282640555,1435.4039251053123,6.316253487149306,-221221.91484572878,10.5,10499778778.085154,47.655,-122.3035,60.0,1.9166666666666667
2026-01-20T23:01:56+00:00,SAT-64304,314.25716682441254,54.86859109428979,1441.7033352498293,6.323253418126774,-221467.08203823838,10.5,10499778532.917961,47.655,-122.3035,60.0,1.9333333333333333
2026-01-20T23:01:57+00:00,SAT-64304,314.3377735256963,54.71975816218742,1448.0097266588411,6.330154666823889,-221708.79295986437,10.5,10499778291.20704,47.655,-122.3035,60.0,1.95
2026-01-20T23:01:58+00:00,SAT-64304,314.41693300121227,54.57188435389931,1454.3230009132203,6.336958774883642,-221947.1016054655,10.5,10499778052.898394,47.655,-122.3035,60.0,1.9666666666666666
2026-01-20T23:01:59+00:00,SAT-64304,314.4946780925387,54.42496006637489,1460.6430611313708,6.343667312983875,-222182.0629868237,10.5,10499777817.937014,47.655,-122.3035,60.0,1.9833333333333334
2026-01-20T23:02:00+00:00,SAT-64304,314.57104067373655,54.27897576997973,1466.9698119981867,6.350281765020098,-222413.72907623654,10.5,10499777586.270924,47.655,-122.3035,60.0,2.0
2026-01-20T23:02:01+00:00,SAT-64304,314.64605168529056,54.13392201136419,1473.3031596785002,6.356803639820057,-222642.15271923417,10.5,10499777357.84728,47.655,-122.3035,60.0,2.0166666666666666
2026-01-20T23:02:02+00:00,SAT-64304,314.719741168303,53.98978941355631,1479.643011841947,6.363234360257312,-222867.38375086733,10.5,10499777132.61625,47.655,-122.3035,60.0,2.033333333333333
2026-01-20T23:02:03+00:00,SAT-64304,314.7921382955723,53.84656867851861,1485.989277577244,6.369575380769935,-223089.47311170955,10.5,10499776910.526888,47.655,-122.3035,60.0,2.05
2026-01-20T23:02:04+00:00,SAT-64304,314.8632714031263,53.70425058684444,1492.341867423665,6.375828081521457,-223308.46914092582,10.5,10499776691.530859,47.655,-122.3035,60.0,2.066666666666667
2026-01-20T23:02:05+00:00,SAT-64304,314.9331680188836,53.56282599979237,1498.7006932969691,6.38199385931554,-223524.4207604888,10.5,10499776475.579239,47.655,-122.3035,60.0,2.0833333333333335
2026-01-20T23:02:06+00:00,SAT-64304,315.0018548914306,53.42228585912508,1505.0656685059932,6.3880740430086425,-223737.3745125728,10.5,10499776262.625488,47.655,-122.3035,60.0,2.1
2026-01-20T23:02:07+00:00,SAT-64304,315.0693580164283,53.2826211887741,1511.436707684887,6.394069979309206,-223947.37756460393,10.5,10499776052.622435,47.655,-122.3035,60.0,2.1166666666666667
2026-01-20T23:02:08+00:00,SAT-64304,315.1357026631335,53.14382309446964,1517.8137268109183,6.399982942424815,-224154.47454472174,10.5,10499775845.525455,47.655,-122.3035,60.0,2.1333333333333333
2026-01-20T23:02:09+00:00,SAT-64304,315.2009133985897,53.00588276531162,1524.1966431321632,6.405814246917741,-224358.71149445756,10.5,10499775641.288506,47.655,-122.3035,60.0,2.15
2026-01-20T23:02:10+00:00,SAT-64304,315.2650141123677,52.868791472751504,1530.585375207756,6.411565114336126,-224560.13119759443,10.5,10499775439.868803,47.655,-122.3035,60.0,2.1666666666666665
2026-01-20T23:02:11+00:00,SAT-64304,315.32802803853866,52.73254057244575,1536.9798428151205,6.4172367862481545,-224758.77713910208,10.5,10499775241.22286,47.655,-122.3035,60.0,2.183333333333333
2026-01-20T23:02:12+00:00,SAT-64304,315.38997777827666,52.597121503542304,1543.3799669699386,6.422830476193698,-224954.69182228003,10.5,10499775045.308178,47.655,-122.3035,60.0,2.2
2026-01-20T23:02:13+00:00,SAT-64304,315.4508853208649,52.462525788974666,1549.7856698981957,6.4283473383929595,-225147.9156728021,10.5,10499774852.084328,47.655,-122.3035,60.0,2.216666666666667
2026-01-20T23:02:14+00:00,SAT-64304,315.5107720636075,52.32874503633932,1556.1968749770197,6.43378861251008,-225338.49210895036,10.5,10499774661.50789,47.655,-122.3035,60.0,2.2333333333333334
2026-01-20T23:02:15+00:00,SAT-64304,315.5696588325577,52.195770935657855,1562.6135068198964,6.439155350976977,-225526.4579913423,10.5,10499774473.54201,47.655,-122.3035,60.0,2.25
2026-01-20T23:02:16+00:00,SAT-64304,315.62756589935736,52.06359526285113,1569.0354910899375,6.444448740952082,-225711.85489928792,10.5,10499774288.145102,47.655,-122.3035,60.0,2.2666666666666666
2026-01-20T23:02:17+00:00,SAT-64304,315.6845130010587,51.93220987636819,1575.462754634247,6.4496698582489795,-225894.72051232954,10.5,10499774105.279488,47.655,-122.3035,60.0,2.283333333333333
2026-01-20T23:02:18+00:00,SAT-64304,315.7405193564403,51.80160671895076,1581.895225372874,6.454819795940649,-226075.0931145066,10.5,10499773924.906885,47.655,-122.3035,60.0,2.3
2026-01-20T23:02:19+00:00,SAT-64304,315.7956036830464,51.671777816670875,1588.3328323160254,6.459899590387822,-226253.00900355584,10.5,10499773746.990997,47.655,-122.3035,60.0,2.316666666666667
2026-01-20T23:02:20+00:00,SAT-64304,315.849784212906,51.542715279437104,1594.7755055075054,6.464910344727502,-226428.50681600126,10.5,10499773571.493183,47.655,-122.3035,60.0,2.3333333333333335
2026-01-20T23:02:21+00:00,SAT-64304,315.90307870883254,51.41441129897002,1601.223176091314,6.469853008692586,-226601.61981550633,10.5,10499773398.380184,47.655,-122.3035,60.0,2.35
2026-01-20T23:02:22+00:00,SAT-64304,315.95550447788514,51.28685815120878,1607.67577615865,6.474728648390166,-226772.38534165107,10.5,10499773227.614658,47.655,-122.3035,60.0,2.3666666666666667
2026-01-20T23:02:23+00:00,SAT-64304,316.00707838708075,51.16004819322104,1614.1332388639776,6.479538220436975,-226940.83689919993,10.5,10499773059.163101,47.655,-122.3035,60.0,2.3833333333333333
2026-01-20T23:02:24+00:00,SAT-64304,316.0578168762414,51.03397386464693,1620.5954983158267,6.4842827228345925,-227107.0094423897,10.5,10499772892.990557,47.655,-122.3035,60.0,2.4
2026-01-20T23:02:25+00:00,SAT-64304,316.10773597182595,50.908627686102015,1627.0624896180673,6.488963082546397,-227270.93543739908,10.5,10499772729.064562,47.655,-122.3035,60.0,2.4166666666666665
2026-01-20T23:02:26+00:00,SAT-64304,316.1568512992155,50.78400225977427,1633.5341487990602,6.493580236341617,-227432.64769384885,10.5,10499772567.352306,47.655,-122.3035,60.0,2.433333333333333
2026-01-20T23:02:27+00:00,SAT-64304,316.20517809526297,50.66009026841186,1640.0104128214382,6.498135142570269,-227592.17977721046,10.5,10499772407.820223,47.655,-122.3035,60.0,2.45
2026-01-20T23:02:28+00:00,SAT-64304,316.25273122056814,50.53688447407151,1646.4912196036282,6.502628650826643,-227749.56144386978,10.5,10499772250.438557,47.655,-122.3035,60.0,2.466666666666667
2026-01-20T23:02:29+00:00,SAT-64304,316.2995251699835,50.41437771938575,1652.976507911386,6.507061681983615,-227904.82494669015,10.5,10499772095.175053,47.655,-122.3035,60.0,2.4833333333333334
2026-01-20T23:02:30+00:00,SAT-64304,316.34557408455237,50.29256292530529,1659.4662174288842,6.51143511349354,-228058.00101776468,10.5,10499771941.998981,47.655,-122.3035,60.0,2.5
2026-01-20T23:02:31+00:00,SAT-64304,316.3908917617872,50.171433091086534,1665.9602887154085,6.515749802583408,-228209.11968080862,10.5,10499771790.88032,47.655,-122.3035,60.0,2.5166666666666666
2026-01-20T23:02:32+00:00,SAT-64304,316.4354916659565,50.05098129378336,1672.458663185185,6.52000654760422,-228358.20889745103,10.5,10499771641.791103,47.655,-122.3035,60.0,2.533333333333333
2026-01-20T23:02:33+00:00,SAT-64304,316.4793869375615,49.93120068846381,1678.9612830486624,6.524206224834343,-228505.299358667,10.5,10499771494.700642,47.655,-122.3035,60.0,2.55
2026-01-20T23:02:34+00:00,SAT-64304,316.5225904037395,49.81208450584164,1685.4680913902305,6.528349630492285,-228650.41895139668,10.5,10499771349.581049,47.655,-122.3035,60.0,2.566666666666667
2026-01-20T23:02:35+00:00,SAT-64304,316.56511458686174,49.69362605288579,1691.9790320883747,6.532437574429806,-228793.59604007436,10.5,10499771206.40396,47.655,-122.3035,60.0,2.5833333333333335
2026-01-20T23:02:36+00:00,SAT-64304,316.6069717137333,49.575818711644665,1698.4940498292729,6.536470808117173,-228934.85694436752,10.5,10499771065.143055,47.655,-122.3035,60.0,2.6
2026-01-20T23:02:37+00:00,SAT-64304,316.6481737237236,49.45865593942043,1705.0130900485683,6.540450135730344,-229074.22982991993,10.5,10499770925.77017,47.655,-122.3035,60.0,2.6166666666666667
2026-01-20T23:02:38+00:00,SAT-64304,316.6887322777187,49.342131266869266,1711.5360989839367,6.544376314598599,-229211.74122160638,10.5,10499770788.258778,47.655,-122.3035,60.0,2.6333333333333333
2026-01-20T23:02:39+00:00,SAT-64304,316.7286587657568,49.2262382979617,1718.063023628363,6.548250067802541,-229347.4164447682,10.5,10499770652.583555,47.655,-122.3035,60.0,2.65
2026-01-20T23:02:40+00:00,SAT-64304,316.7679643146865,49.11097070966429,1724.5938116959849,6.552072121148861,-229481.28092022595,10.5,10499770518.71908,47.655,-122.3035,60.0,2.6666666666666665
2026-01-20T23:02:41+00:00,SAT-64304,316.80665979569636,48.996322250979894,1731.1284116248105,6.5558432379729785,-229613.36138321488,10.5,10499770386.638617,47.655,-122.3035,60.0,2.683333333333333
2026-01-20T23:02:42+00:00,SAT-64304,316.8447558320139,48.88228674134738,1737.6667726141488,6.559564091990332,-229743.6814300995,10.5,10499770256.31857,47.655,-122.3035,60.0,2.7
2026-01-20T23:02:43+00:00,SAT-64304,316.8822628052192,48.7688580713398,1744.2088445352272,6.563235372190903,-229872.26519222336,10.5,10499770127.734808,47.655,-122.3035,60.0,2.716666666666667
2026-01-20T23:02:44+00:00,SAT-64304,316.91919086222725,48.656030201463146,1750.7545779464256,6.5668577726135835,-229999.13697776422,10.5,10499770000.863022,47.655,-122.3035,60.0,2.7333333333333334
2026-01-20T23:02:45+00:00,SAT-64304,316.95554992199334,48.5437971611481,1757.3039240983123,6.57043197513455,-230124.32066891014,10.5,10499769875.67933,47.655,-122.3035,60.0,2.75
2026-01-20T23:02:46+00:00,SAT-64304,316.9913496817599,48.43215304806669,1763.8568349215132,6.573958628606366,-230247.83899122252,10.5,10499769752.161009,47.655,-122.3035,60.0,2.7666666666666666
2026-01-20T23:02:47+00:00,SAT-64304,317.02659962304733,48.32109202779458,1770.4132629937765,6.577438375901882,-230369.71446082796,10.5,10499769630.28554,47.655,-122.3035,60.0,2.783333333333333
2026-01-20T23:02:48+00:00,SAT-64304,317.0613090175751,48.21060833301027,1776.9731615340093,6.580871849234546,-230489.96922051566,10.5,10499769510.030779,47.655,-122.3035,60.0,2.8
2026-01-20T23:02:49+00:00,SAT-64304,317.09548693301485,48.10069626277117,1783.536484391646,6.58425970252489,-230608.62617334872,10.5,10499769391.373827,47.655,-122.3035,60.0,2.816666666666667
2026-01-20T23:02:50+00:00,SAT-64304,317.1291422387093,47.991350181262966,1790.1031860682974,6.5876025301123,-230725.70613560648,10.5,10499769274.293865,47.655,-122.3035,60.0,2.8333333333333335
2026-01-20T23:02:51+00:00,SAT-64304,317.1622836107226,47.88256451791626,1796.6732216583296,6.5909009541561145,-230841.23089794075,10.5,10499769158.769102,47.655,-122.3035,60.0,2.85
2026-01-20T23:02:52+00:00,SAT-64304,317.194919537254,47.774333766057346,1803.2465468766077,6.594155537336676,-230955.22016779723,10.5,10499769044.779833,47.655,-122.3035,60.0,2.8666666666666667
2026-01-20T23:02:53+00:00,SAT-64304,317.22705832335913,47.66665248302199,1809.8231179991783,6.597366892666131,-231067.6954154543,10.5,10499768932.304585,47.655,-122.3035,60.0,2.8833333333333333
2026-01-20T23:02:54+00:00,SAT-64304,317.25870809618175,47.55951528844594,1816.4028919134641,6.600535607162451,-231178.67720076445,10.5,10499768821.3228,47.655,-122.3035,60.0,2.9
2026-01-20T23:02:55+00:00,SAT-64304,317.28987680958346,47.45291686383636,1822.9858260923406,6.603662213822641,-231288.18419153738,10.5,10499768711.81581,47.655,-122.3035,60.0,2.9166666666666665
2026-01-20T23:02:56+00:00,SAT-64304,317.3205722483807,47.3468519526059,1829.5718785402598,6.606747297169824,-231396.23686024535,10.5,10499768603.76314,47.655,-122.3035,60.0,2.933333333333333
2026-01-20T23:02:57+00:00,SAT-64304,317.3508020331867,47.241315358368595,1836.1610078446372,6.609791388091897,-231502.85380082816,10.5,10499768497.146198,47.655,-122.3035,60.0,2.95
2026-01-20T23:02:58+00:00,SAT-64304,317.38057362438406,47.136301944979294,1842.7531731223607,6.612795025185429,-231608.05387721598,10.5,10499768391.946123,47.655,-122.3035,60.0,2.966666666666667
2026-01-20T23:02:59+00:00,SAT-64304,317.40989432640765,47.03180663556237,1849.348334027479,6.615758754482503,-231711.856213762,10.5,10499768288.143785,47.655,-122.3035,60.0,2.9833333333333334
2026-01-20T23:03:00+00:00,SAT-64304,317.4387712918302,46.92782441157157,1855.9464507586163,6.618683080519309,-231814.27848145782,10.5,10499768185.72152,47.655,-122.3035,60.0,3.0
2026-01-20T23:03:01+00:00,SAT-64304,317.4672115251057,46.82435031262759,1862.5474840175875,6.621568520876772,-231915.33880817675,10.5,10499768084.661192,47.655,-122.3035,60.0,3.0166666666666666
2026-01-20T23:03:02+00:00,SAT-64304,317.49522188642925,46.72137943550139,1869.1513950224087,6.624415579626822,-232015.0548486501,10.5,10499767984.945152,47.655,-122.3035,60.0,3.033333333333333
2026-01-20T23:03:03+00:00,SAT-64304,317.5228090954201,46.61890693351608,1875.7581454938231,6.62722474125435,-232113.44357158805,10.5,10499767886.556429,47.655,-122.3035,60.0,3.05
2026-01-20T23:03:04+00:00,SAT-64304,317.54997973457233,46.51692801606122,1882.3676976357676,6.629996532175932,-232210.52341432578,10.5,10499767789.476585,47.655,-122.3035,60.0,3.066666666666667
2026-01-20T23:03:05+00:00,SAT-64304,317.57674025302146,46.415437947144994,1888.980014177191,6.632731387519169,-232306.30961687263,10.5,10499767693.690384,47.655,-122.3035,60.0,3.0833333333333335
2026-01-20T23:03:06+00:00,SAT-64304,317.60309696937964,46.31443204604331,1895.59505828101,6.635429784899089,-232400.81890732702,10.5,10499767599.181093,47.655,-122.3035,60.0,3.1
2026-01-20T23:03:07+00:00,SAT-64304,317.6290560753103,46.21390568584987,1902.2127935864828,6.638092216078798,-232494.0685093131,10.5,10499767505.93149,47.655,-122.3035,60.0,3.1166666666666667
2026-01-20T23:03:08+00:00,SAT-64304,317.6546236387652,46.11385429250377,1908.8331842233188,6.640719115609827,-232586.07364266374,10.5,10499767413.926357,47.655,-122.3035,60.0,3.1333333333333333
2026-01-20T23:03:09+00:00,SAT-64304,317.6798056067853,46.014273344911096,1915.4561947546201,6.64331094380029,-232676.85042931617,10.5,10499767323.14957,47.655,-122.3035,60.0,3.15
2026-01-20T23:03:10+00:00,SAT-64304,317.704607808628,45.91515837380151,1922.0817902025703,6.645868126188444,-232766.4137734201,10.5,10499767233.586227,47.655,-122.3035,60.0,3.1666666666666665
2026-01-20T23:03:11+00:00,SAT-64304,317.72903595853404,45.81650496151241,1928.7099360137556,6.648391108728748,-232854.7792941871,10.5,10499767145.220705,47.655,-122.3035,60.0,3.183333333333333
2026-01-20T23:03:12+00:00,SAT-64304,317.7530956586367,45.71830874094952,1935.3405980795278,6.650880336234712,-232941.96257086785,10.5,10499767058.03743,47.655,-122.3035,60.0,3.2
2026-01-20T23:03:13+00:00,SAT-64304,317.77679240173836,45.62056539488134,1941.9737427348657,6.65333619641754,-233027.9771827488,10.5,10499766972.022818,47.655,-122.3035,60.0,3.216666666666667
2026-01-20T23:03:14+00:00,SAT-64304,317.8001315736654,45.52327065608113,1948.6093367014262,6.655759126173947,-233112.83843180083,10.5,10499766887.161568,47.655,-122.3035,60.0,3.2333333333333334
2026-01-20T23:03:15+00:00,SAT-64304,317.8231184561421,45.42642030587755,1955.2473471365972,6.658149538666273,-233196.56078871695,10.5,10499766803.43921,47.655,-122.3035,60.0,3.25
2026-01-20T23:03:16+00:00,SAT-64304,317.8457582291606,45.33001017382089,1961.887741609827,6.66050780204943,-233279.15714783932,10.5,10499766720.842852,47.655,-122.3035,60.0,3.2666666666666666
2026-01-20T23:03:17+00:00,SAT-64304,317.86805597324286,45.23403613764629,1968.5304880577376,6.662834344708722,-233360.64251303338,10.5,10499766639.357487,47.655,-122.3035,60.0,3.283333333333333
2026-01-20T23:03:18+00:00,SAT-64304,317.89001667209646,45.138494121707794,1975.1755548441936,6.665129544423973,-233441.03011574666,10.5,10499766558.969885,47.655,-122.3035,60.0,3.3
2026-01-20T23:03:19+00:00,SAT-64304,317.91164521470597,45.0433800970472,1981.8229107098325,6.667393783710608,-233520.3333532873,10.5,10499766479.666647,47.655,-122.3035,60.0,3.316666666666667
2026-01-20T23:03:20+00:00,SAT-64304,317.9329463975735,44.94869008066111,1988.4725247767865,6.669627445061938,-233598.56562218902,10.5,10499766401.434378,47.655,-122.3035,60.0,3.3333333333333335
2026-01-20T23:03:21+00:00,SAT-64304,317.9539249269489,44.854420134838314,1995.1243665486616,6.6718308989927895,-233675.73989944832,10.5,10499766324.260101,47.655,-122.3035,60.0,3.35
2026-01-20T23:03:22+00:00,SAT-64304,317.97458542085354,44.76056636669127,2001.7784058985906,6.674004466006115,-233751.86741043432,10.5,10499766248.13259,47.655,-122.3035,60.0,3.3666666666666667
2026-01-20T23:03:23+00:00,SAT-64304,317.99493241096144,44.66712492822059,2008.434613019354,6.676148588975801,-233826.96366646394,10.5,10499766173.036333,47.655,-122.3035,60.0,3.3833333333333333
2026-01-20T23:03:24+00:00,SAT-64304,318.014970345143,44.57409201394017,2015.0929585454257,6.678263560313717,-233901.0389090376,10.5,10499766098.96109,47.655,-122.3035,60.0,3.4
2026-01-20T23:03:25+00:00,SAT-64304,318.0347035887494,44.48146386239663,2021.753413402912,6.680349744822551,-233974.1059150887,10.5,10499766025.894085,47.655,-122.3035,60.0,3.4166666666666665
2026-01-20T23:03:26+00:00,SAT-64304,318.0541364268338,44.389236754520866,2028.4159488817484,6.6824074910506015,-234046.17689225296,10.5,10499765953.823109,47.655,-122.3035,60.0,3.433333333333333
2026-01-20T23:03:27+00:00,SAT-64304,318.07327306594726,44.29740701324848,2035.0805366194895,6.684437113997564,-234117.26287315215,10.5,10499765882.737127,47.655,-122.3035,60.0,3.45
2026-01-20T23:03:28+00:00,SAT-64304,318.0921176357661,44.20597100339012,2041.7471485678498,6.686438974065201,-234187.37648058045,10.5,10499765812.62352,47.655,-122.3035,60.0,3.466666666666667
2026-01-20T23:03:29+00:00,SAT-64304,318.11067419107513,44.11492513040049,2048.415757037984,6.688413398332063,-234256.52917021236,10.5,10499765743.470829,47.655,-122.3035,60.0,3.4833333333333334
2026-01-20T23:03:30+00:00,SAT-64304,318.12894671329246,44.024265840264405,2055.086334667254,6.690360675535847,-234324.73105486325,10.5,10499765675.268946,47.655,-122.3035,60.0,3.5
2026-01-20T23:03:31+00:00,SAT-64304,318.14693911200396,43.93398961943999,2061.7588543809884,6.692281173108769,-234391.99500356367,10.5,10499765608.004997,47.655,-122.3035,60.0,3.5166666666666666
2026-01-20T23:03:32+00:00,SAT-64304,318.16465522687656,43.844092993211206,2068.4332894709687,6.694175142246329,-234458.32981424255,10.5,10499765541.670185,47.655,-122.3035,60.0,3.533333333333333
2026-01-20T23:03:33+00:00,SAT-64304,318.18209882878574,43.75457252670946,2075.1096134795025,6.6960429517321005,-234523.74840326057,10.5,10499765476.251596,47.655,-122.3035,60.0,3.55
2026-01-20T23:03:34+00:00,SAT-64304,318.1992736217857,43.66542482276404,2081.7878003166966,6.697884860172954,-234588.25982812422,10.5,10499765411.740171,47.655,-122.3035,60.0,3.566666666666667
2026-01-20T23:03:35+00:00,SAT-64304,318.21618324420274,43.57664652284149,2088.467824150576,6.699701187968925,-234651.87531059812,10.5,10499765348.12469,47.655,-122.3035,60.0,3.5833333333333335
2026-01-20T23:03:36+00:00,SAT-64304,318.2328312702842,43.48823430567688,2095.14965946871,6.7014922238571994,-234714.60496347977,10.5,10499765285.395037,47.655,-122.3035,60.0,3.6
2026-01-20T23:03:37+00:00,SAT-64304,318.2492212115447,43.40018488715819,2101.833281046637,6.703258251126081,-234776.4587087239,10.5,10499765223.541292,47.655,-122.3035,60.0,3.6166666666666667
2026-01-20T23:03:38+00:00,SAT-64304,318.26535651805887,43.31249501988314,2108.518663942427,6.704999577853059,-234837.4473365074,10.5,10499765162.552664,47.655,-122.3035,60.0,3.6333333333333333
2026-01-20T23:03:39+00:00,SAT-64304,318.2812405799656,43.22516149229894,2115.2057835214055,6.706716456450052,-234897.5796873634,10.5,10499765102.420313,47.655,-122.3035,60.0,3.65
2026-01-20T23:03:40+00:00,SAT-64304,318.2968767285056,43.13818112893995,2121.8946154006385,6.708409169339108,-234956.86565290653,10.5,10499765043.134348,47.655,-122.3035,60.0,3.6666666666666665
2026-01-20T23:03:41+00:00,SAT-64304,318.3122682374539,43.0515507895148,2128.5851354788592,6.710078005698038,-235015.31536136707,10.5,10499764984.684639,47.655,-122.3035,60.0,3.683333333333333
2026-01-20T23:03:42+00:00,SAT-64304,318.32741832435636,42.96526736832649,2135.2773199432086,6.711723217268927,-235072.93762981766,10.5,10499764927.06237,47.655,-122.3035,60.0,3.7
2026-01-20T23:03:43+00:00,SAT-64304,318.3423301516207,42.87932779426878,2141.9711452318984,6.713345068315384,-235129.74171388772,10.5,10499764870.258286,47.655,-122.3035,60.0,3.716666666666667
2026-01-20T23:03:44+00:00,SAT-64304,318.35700682772807,42.79372903017838,2148.6665880466985,6.714943836314477,-235185.73733199792,10.5,10499764814.262669,47.655,-122.3035,60.0,3.7333333333333334
2026-01-20T23:03:45+00:00,SAT-64304,318.3714514084464,42.70846807218503,2155.363625366116,6.716519749885309,-235240.93249135625,10.5,10499764759.067509,47.655,-122.3035,60.0,3.75
2026-01-20T23:03:46+00:00,SAT-64304,318.3856668977628,42.62354194987071,2162.0622343966684,6.7180731124584625,-235295.33781938523,10.5,10499764704.66218,47.655,-122.3035,60.0,3.7666666666666666
2026-01-20T23:03:47+00:00,SAT-64304,318.3996562492523,42.538947724843915,2168.7623926474935,6.71960410568591,-235348.9596783054,10.5,10499764651.040321,47.655,-122.3035,60.0,3.783333333333333
2026-01-20T23:03:48+00:00,SAT-64304,318.4134223667026,42.4546824918435,2175.4640778088974,6.721113014368676,-235401.80804305323,10.5,10499764598.191957,47.655,-122.3035,60.0,3.8
2026-01-20T23:03:49+00:00,SAT-64304,318.4269681055294,42.37074337696222,2182.167267855228,6.722600080416571,-235453.89138633368,10.5,10499764546.108614,47.655,-122.3035,60.0,3.816666666666667
2026-01-20T23:03:50+00:00,SAT-64304,318.4402962736282,42.2871275377518,2188.8719410020967,6.724065548105177,-235505.21826371082,10.5,10499764494.781736,47.655,-122.3035,60.0,3.8333333333333335
2026-01-20T23:03:51+00:00,SAT-64304,318.4534096323879,42.203832162750714,2195.5780757087405,6.725509618276338,-235555.79570951563,10.5,10499764444.20429,47.655,-122.3035,60.0,3.85
2026-01-20T23:03:52+00:00,SAT-64304,318.46631089748945,42.12085447160224,2202.2856506347007,6.7269325619324,-235605.63321539664,10.5,10499764394.366785,47.655,-122.3035,60.0,3.8666666666666667
2026-01-20T23:03:53+00:00,SAT-64304,318.4790027400995,42.038191713738065,2208.994644709802,6.728334578939936,-235654.7377815266,10.5,10499764345.262218,47.655,-122.3035,60.0,3.8833333333333333
2026-01-20T23:03:54+00:00,SAT-64304,318.4914877875329,41.955841168854064,2215.705037063198,6.7297159280793695,-235703.11847149063,10.5,10499764296.881529,47.655,-122.3035,60.0,3.9
2026-01-20T23:03:55+00:00,SAT-64304,318.5037686243668,41.87380014575456,2222.4168070821356,6.731076780035546,-235750.78126339402,10.5,10499764249.218737,47.655,-122.3035,60.0,3.9166666666666665
2026-01-20T23:03:56+00:00,SAT-64304,318.5158477930044,41.79206598304026,2229.129934324091,6.732417392782601,-235797.7351925822,10.5,10499764202.264807,47.655,-122.3035,60.0,3.933333333333333
2026-01-20T23:03:57+00:00,SAT-64304,318.5277277948346,41.710636047617214,2235.8443986038264,6.733737970285644,-235843.98740277605,10.5,10499764156.012598,47.655,-122.3035,60.0,3.95
2026-01-20T23:03:58+00:00,SAT-64304,318.5394110908694,41.629507734969465,2242.5601799395245,6.735038718992185,-235889.54512464066,10.5,10499764110.454876,47.655,-122.3035,60.0,3.966666666666667
2026-01-20T23:03:59+00:00,SAT-64304,318.55090010258294,41.54867846873328,2249.277258555266,6.7363198705924985,-235934.41647294955,10.5,10499764065.583527,47.655,-122.3035,60.0,3.9833333333333334
2026-01-20T23:04:00+00:00,SAT-64304,318.5621972127679,41.46814570000161,2255.9956149062036,6.73758160316654,-235978.60768481597,10.5,10499764021.392315,47.655,-122.3035,60.0,4.0
2026-01-20T23:04:01+00:00,SAT-64304,318.5733047661622,41.38790690759447,2262.715229625095,6.738824125375371,-236022.12606843296,10.5,10499763977.873932,47.655,-122.3035,60.0,4.016666666666667
2026-01-20T23:04:02+00:00,SAT-64304,318.584225070285,41.3079595973083,2269.4360835528028,6.7400476490246595,-236064.97904213096,10.5,10499763935.020958,47.655,-122.3035,60.0,4.033333333333333
2026-01-20T23:04:03+00:00,SAT-64304,318.5949603962013,41.22830130150704,2276.1581577414304,6.741252371399986,-236107.17351568546,10.5,10499763892.826485,47.655,-122.3035,60.0,4.05
2026-01-20T23:04:04+00:00,SAT-64304,318.6055129791733,41.1489295789339,2282.88143343984,6.742438470533018,-236148.7157245186,10.5,10499763851.284275,47.655,-122.3035,60.0,4.066666666666666
2026-01-20T23:04:05+00:00,SAT-64304,318.6158850193476,41.069842014575045,2289.6058920744513,6.743606160723266,-236189.61317430573,10.5,10499763810.386826,47.655,-122.3035,60.0,4.083333333333333
2026-01-20T23:04:06+00:00,SAT-64304,318.62607868250666,40.99103621887487,2296.3315152854125,6.744755608797932,-236229.87170804103,10.5,10499763770.128292,47.655,-122.3035,60.0,4.1
2026-01-20T23:04:07+00:00,SAT-64304,318.63609610064236,40.912509827945954,2303.0582848792537,6.745887023825414,-236269.4986481843,10.5,10499763730.501352,47.655,-122.3035,60.0,4.116666666666666
2026-01-20T23:04:08+00:00,SAT-64304,318.6459393727055,40.83426050272429,2309.7861828710156,6.747000567349466,-236308.49965268103,10.5,10499763691.500347,47.655,-122.3035,60.0,4.133333333333334
2026-01-20T23:04:09+00:00,SAT-64304,318.65561056513314,40.756285929186355,2316.5151914368516,6.748096443257186,-236346.8818625199,10.5,10499763653.118137,47.655,-122.3035,60.0,4.15
2026-01-20T23:04:10+00:00,SAT-64304,318.6651117125779,40.678583817516774,2323.2452929562605,6.749174819284474,-236384.6511525216,10.5,10499763615.348848,47.655,-122.3035,60.0,4.166666666666667
2026-01-20T23:04:11+00:00,SAT-64304,318.67444481844024,40.60115190219796,2329.976469976027,6.750235849075317,-236421.81290394848,10.5,10499763578.187096,47.655,-122.3035,60.0,4.183333333333334
2026-01-20T23:04:12+00:00,SAT-64304,318.6836118554074,40.52398794184761,2336.7087051961716,6.751279763312191,-236458.3751962766,10.5,10499763541.624804,47.655,-122.3035,60.0,4.2
2026-01-20T23:04:13+00:00,SAT-64304,318.6926147662678,40.44708971799732,2343.4419815467813,6.752306671174423,-236494.34185342793,10.5,10499763505.658146,47.655,-122.3035,60.0,4.216666666666667
2026-01-20T23:04:14+00:00,SAT-64304,318.70145546413966,40.37045503618844,2350.1762820668328,6.753316781629786,-236529.72019433774,10.5,10499763470.279806,47.655,-122.3035,60.0,4.233333333333333
2026-01-20T23:04:15+00:00,SAT-64304,318.7101358333151,40.29408172449779,2356.911590003712,6.754310255634019,-236564.51585635688,10.5,10499763435.484144,47.655,-122.3035,60.0,4.25
2026-01-20T23:04:16+00:00,SAT-64304,318.71865772965293,40.21796763378832,2363.64788876533,6.755287252571452,-236598.73442179873,10.5,10499763401.265577,47.655,-122.3035,60.0,4.266666666666667
2026-01-20T23:04:17+00:00,SAT-64304,318.72702298114854,40.142110637415136,2370.385161918562,6.756247922856839,-236632.38115882425,10.5,10499763367.618841,47.655,-122.3035,60.0,4.283333333333333
2026-01-20T23:04:18+00:00,SAT-64304,318.7352333883918,40.066508631033535,2377.1233931802913,6.757192444107399,-236665.46228833977,10.5,10499763334.537712,47.655,-122.3035,60.0,4.3
2026-01-20T23:04:19+00:00,SAT-64304,318.74329072518253,39.991159531983996,2383.862566444547,6.758120962527794,-236697.98293105105,10.5,10499763302.017069,47.655,-122.3035,60.0,4.316666666666666
2026-01-20T23:04:20+00:00,SAT-64304,318.751196738925,39.916061279364115,2390.602665751175,6.759033656745076,-236729.94934323296,10.5,10499763270.050657,47.655,-122.3035,60.0,4.333333333333333
2026-01-20T23:04:21+00:00,SAT-64304,318.7589531512167,39.84121183336922,2397.343675318169,6.759930646355554,-236761.36571365417,10.5,10499763238.634287,47.655,-122.3035,60.0,4.35
2026-01-20T23:04:22+00:00,SAT-64304,318.76656165816627,39.766609175674915,2404.0855794828008,6.760812105676573,-236792.23814764552,10.5,10499763207.761852,47.655,-122.3035,60.0,4.366666666666666
2026-01-20T23:04:23+00:00,SAT-64304,318.7740239310126,39.69225130853907,2410.8283627561955,6.761678178490116,-236822.57168106016,10.5,10499763177.428318,47.655,-122.3035,60.0,4.383333333333334
2026-01-20T23:04:24+00:00,SAT-64304,318.78134161648666,39.618136254869896,2417.5720097928765,6.762529023876592,-236852.37188556697,10.5,10499763147.628115,47.655,-122.3035,60.0,4.4
2026-01-20T23:04:25+00:00,SAT-64304,318.7885163373202,39.54426205778061,2424.3165054060223,6.763364752984681,-236881.6426540629,10.5,10499763118.357346,47.655,-122.3035,60.0,4.416666666666667
2026-01-20T23:04:26+00:00,SAT-64304,318.7955496925473,39.47062678085641,2431.0618345196663,6.764185543725863,-236910.39021776046,10.5,10499763089.609783,47.655,-122.3035,60.0,4.433333333333334
2026-01-20T23:04:27+00:00,SAT-64304,318.80244325810685,39.3972285071428,2437.807982235275,6.76499153192085,-236938.61933367557,10.5,10499763061.380667,47.655,-122.3035,60.0,4.45
2026-01-20T23:04:28+00:00,SAT-64304,318.8091985871505,39.32406533935619,2444.5549337897774,6.76578283471227,-236966.33410463858,10.5,10499763033.665895,47.655,-122.3035,60.0,4.466666666666667
2026-01-20T23:04:29+00:00,SAT-64304,318.8158172104286,39.25113539982701,2451.3026745369307,6.766559635494273,-236993.5409538884,10.5,10499763006.459045,47.655,-122.3035,60.0,4.483333333333333
2026-01-20T23:04:30+00:00,SAT-64304,318.82230063681794,39.17843682951988,2458.051190013397,6.767322007930268,-237020.24246142915,10.5,10499762979.757538,47.655,-122.3035,60.0,4.5
2026-01-20T23:04:31+00:00,SAT-64304,318.82865035349994,39.1059677889821,2464.800465829306,6.76807015406302,-237046.4457036531,10.5,10499762953.554296,47.655,-122.3035,60.0,4.516666666666667
2026-01-20T23:04:32+00:00,SAT-64304,318.8348678265858,39.03372645670009,2471.5504877962917,6.7688041500640015,-237072.1533484075,10.5,10499762927.846651,47.655,-122.3035,60.0,4.533333333333333
2026-01-20T23:04:33+00:00,SAT-64304,318.8409545012712,38.96171103021803,2478.3012418019553,6.769524143445526,-237097.3705621975,10.5,10499762902.629438,47.655,-122.3035,60.0,4.55
2026-01-20T23:04:34+00:00,SAT-64304,318.8469118023147,38.88991972512628,2485.0527138810185,6.770230291730312,-237122.10286213493,10.5,10499762877.897139,47.655,-122.3035,60.0,4.566666666666666
2026-01-20T23:04:35+00:00,SAT-64304,318.8527411344462,38.81835077471766,2491.8048902253045,6.770922688259014,-237146.3535174045,10.5,10499762853.646482,47.655,-122.3035,60.0,4.583333333333333
2026-01-20T23:04:36+00:00,SAT-64304,318.85844388257544,38.747002430443295,2498.5577571197277,6.771601475701629,-237170.12752491294,10.5,10499762829.872475,47.655,-122.3035,60.0,4.6
2026-01-20T23:04:37+00:00,SAT-64304,318.8640214122422,38.675872961152706,2505.311300991494,6.772266760817851,-237193.42862383628,10.5,10499762806.571377,47.655,-122.3035,60.0,4.616666666666666
2026-01-20T23:04:38+00:00,SAT-64304,318.86947506987593,38.60496065325113,2512.065508374283,6.772918672113081,-237216.2613149773,10.5,10499762783.738686,47.655,-122.3035,60.0,4.633333333333334
2026-01-20T23:04:39+00:00,SAT-64304,318.8748061831943,38.53426381023718,2518.8203659299375,6.773557369708564,-237238.63120645925,10.5,10499762761.368793,47.655,-122.3035,60.0,4.65
2026-01-20T23:04:40+00:00,SAT-64304,318.88001606154916,38.46378075215738,2525.5758604799935,6.774182893725202,-237260.53970348588,10.5,10499762739.460297,47.655,-122.3035,60.0,4.666666666666667
2026-01-20T23:04:41+00:00,SAT-64304,318.88510599606127,38.39350981664711,2532.331978886002,6.77479544690914,-237281.99390708478,10.5,10499762718.006092,47.655,-122.3035,60.0,4.683333333333334
2026-01-20T23:04:42+00:00,SAT-64304,318.8900772602009,38.32344935700472,2539.0887082117197,6.775395088653988,-237302.99589747144,10.5,10499762697.004103,47.655,-122.3035,60.0,4.7
2026-01-20T23:04:43+00:00,SAT-64304,318.89493110985063,38.253597743487894,2545.8460355801367,6.775981944832569,-237323.55008324454,10.5,10499762676.449917,47.655,-122.3035,60.0,4.716666666666667
2026-01-20T23:04:44+00:00,SAT-64304,318.8996687837108,38.183953362404566,2552.603948239783,6.776556140430356,-237343.66084192396,10.5,10499762656.339159,47.655,-122.3035,60.0,4.733333333333333
2026-01-20T23:04:45+00:00,SAT-64304,318.90429150360876,38.11451461591331,2559.362433563839,6.777117786731214,-237363.33207114154,10.5,10499762636.667929,47.655,-122.3035,60.0,4.75
2026-01-20T23:04:46+00:00,SAT-64304,318.9088004747383,38.045279921969964,2566.1214790364725,6.777666971801498,-237382.56685535342,10.5,10499762617.433146,47.655,-122.3035,60.0,4.766666666666667
2026-01-20T23:04:47+00:00,SAT-64304,318.9131968859303,37.97624771435899,2572.8810722296826,6.778203843831992,-237401.37038482778,10.5,10499762598.629616,47.655,-122.3035,60.0,4.783333333333333
2026-01-20T23:04:48+00:00,SAT-64304,318.9174819099949,37.90741644188068,2579.641200863264,6.778728465451639,-237419.744853095,10.5,10499762580.255146,47.655,-122.3035,60.0,4.8
2026-01-20T23:04:49+00:00,SAT-64304,318.92165670388925,37.838784569031866,2586.4018527194744,6.77924098785124,-237437.69555549664,10.5,10499762562.304445,47.655,-122.3035,60.0,4.816666666666666
2026-01-20T23:04:50+00:00,SAT-64304,318.92572240908885,37.770350574907376,2593.1630157313584,6.779741481988443,-237455.22497726962,10.5,10499762544.775023,47.655,-122.3035,60.0,4.833333333333333
2026-01-20T23:04:51+00:00,SAT-64304,318.92968015174915,37.702112953830245,2599.9246779027285,6.780230056953638,-237472.33693922075,10.5,10499762527.663061,47.655,-122.3035,60.0,4.85
2026-01-20T23:04:52+00:00,SAT-64304,318.9335310429957,37.63407021477328,2606.6868273461964,6.780706826136242,-237489.03541272724,10.5,10499762510.964588,47.655,-122.3035,60.0,4.866666666666666
2026-01-20T23:04:53+00:00,SAT-64304,318.93727617919836,37.5662208811325,2613.449452287463,6.781171885094282,-237505.3237446352,10.5,10499762494.676256,47.655,-122.3035,60.0,4.883333333333334
2026-01-20T23:04:54+00:00,SAT-64304,318.94091664218394,37.498563490722404,2620.21254104753,6.78162534461458,-237521.20581516795,10.5,10499762478.794186,47.655,-122.3035,60.0,4.9
2026-01-20T23:04:55+00:00,SAT-64304,318.9444534994886,37.431096595446476,2626.9760820578927,6.782067274718135,-237536.68407675694,10.5,10499762463.315924,47.655,-122.3035,60.0,4.916666666666667
2026-01-20T23:04:56+00:00,SAT-64304,318.9478878045485,37.36381876152695,2633.7400638198783,6.782497789501301,-237551.76252553912,10.5,10499762448.237474,47.655,-122.3035,60.0,4.933333333333334
2026-01-20T23:04:57+00:00,SAT-64304,318.9512205969762,37.29672856888706,2640.5044749486074,6.782916996441885,-237566.44492584193,10.5,10499762433.555075,47.655,-122.3035,60.0,4.95
2026-01-20T23:04:58+00:00,SAT-64304,318.9544529027999,37.22982461104428,2647.2693041663924,6.783324973047977,-237580.73399232663,10.5,10499762419.266008,47.655,-122.3035,60.0,4.966666666666667
2026-01-20T23:04:59+00:00,SAT-64304,318.95758573461944,37.16310549524189,2654.0345402728453,6.783721813014461,-237594.6330065843,10.5,10499762405.366993,47.655,-122.3035,60.0,4.983333333333333
2026-01-20T23:05:00+00:00,SAT-64304,318.96062009186045,37.09656984211587,2660.8001721610253,6.78410762576665,-237608.1458011523,10.5,10499762391.854198,47.655,-122.3035,60.0,5.0
2026-01-20T23:05:01+00:00,SAT-64304,318.96355696100477,37.03021628537433,2667.566188833123,6.78448249123379,-237621.27517549088,10.5,10499762378.724825,47.655,-122.3035,60.0,5.016666666666667
2026-01-20T23:05:02+00:00,SAT-64304,318.9663973157639,36.96404347192662,2674.3325793710474,6.784846482337792,-237634.02368363386,10.5,10499762365.976316,47.655,-122.3035,60.0,5.033333333333333
2026-01-20T23:05:03+00:00,SAT-64304,318.9691421172572,36.8980500617904,2681.099332929432,6.785199722477973,-237646.39564754735,10.5,10499762353.604353,47.655,-122.3035,60.0,5.05
2026-01-20T23:05:04+00:00,SAT-64304,318.97179231431153,36.83223472743268,2687.866438785983,6.785542270819248,-237658.39313943684,10.5,10499762341.606861,47.655,-122.3035,60.0,5.066666666666666
2026-01-20T23:05:05+00:00,SAT-64304,318.9743488435362,36.76659615424813,2694.6338862774132,6.785874242983647,-237670.02020887495,10.5,10499762329.979792,47.655,-122.3035,60.0,5.083333333333333
2026-01-20T23:05:06+00:00,SAT-64304,318.97681262962766,36.70113303984669,2701.4016648557495,6.786195696031543,-237681.2788543573,10.5,10499762318.721146,47.655,-122.3035,60.0,5.1
2026-01-20T23:05:07+00:00,SAT-64304,318.9791845854481,36.63584409447666,2708.169764029925,6.786506715002333,-237692.17205432334,10.5,10499762307.827946,47.655,-122.3035,60.0,5.116666666666666
2026-01-20T23:05:08+00:00,SAT-64304,318.98146561227986,36.570728040595164,2714.938173393687,6.786807411783143,-237702.7037275334,10.5,10499762297.296272,47.655,-122.3035,60.0,5.133333333333334
2026-01-20T23:05:09+00:00,SAT-64304,318.98365660001855,36.50578361246323,2721.7068826523723,6.787097846509583,-237712.87598019096,10.5,10499762287.12402,47.655,-122.3035,60.0,5.15
2026-01-20T23:05:10+00:00,SAT-64304,318.9857584272999,36.44100955649875,2728.475881571291,6.787378112073046,-237722.69206574565,10.5,10499762277.307934,47.655,-122.3035,60.0,5.166666666666667
2026-01-20T23:05:11+00:00,SAT-64304,318.9877719617083,36.37640463081509,2735.2451600083987,6.787648277973601,-237732.1544183837,10.5,10499762267.845581,47.655,-122.3035,60.0,5.183333333333334
2026-01-20T23:05:12+00:00,SAT-64304,318.9896980599333,36.3119676053025,2742.014707890964,6.787908429378212,-237741.2660210125,10.5,10499762258.733978,47.655,-122.3035,60.0,5.2
2026-01-20T23:05:13+00:00,SAT-64304,318.99153756793703,36.247697261337365,2748.7845152311975,6.788158634119983,-237750.0292494344,10.5,10499762249.97075,47.655,-122.3035,60.0,5.216666666666667
2026-01-20T23:05:14+00:00,SAT-64304,318.99329132113104,36.183592391805064,2755.5545721089597,6.788399003692679,-237758.44800863243,10.5,10499762241.55199,47.655,-122.3035,60.0,5.233333333333333
