satellites_20260121_005943/SAT-54180.csv

timestamp,satellite,azimuth_deg,elevation_deg,distance_km,relative_velocity_kms,doppler_shift_hz,tx_freq_ghz,rx_freq_hz,ue_lat,ue_lon,ue_alt_m,time_minutes
2026-01-20T23:04:45+00:00,SAT-54180,204.84261281766587,30.019666181962247,1451.3589773374815,-6.461944413913109,226324.6273730063,10.5,10500226324.627373,47.655,-122.3035,60.0,4.75
2026-01-20T23:04:46+00:00,SAT-54180,204.7216245362667,30.109192277170973,1444.9142647753388,-6.457421669371559,226166.22172797078,10.5,10500226166.221727,47.655,-122.3035,60.0,4.766666666666667
2026-01-20T23:04:47+00:00,SAT-54180,204.59956607309257,30.199197680721394,1438.4740628970853,-6.452830550181159,226005.42131350806,10.5,10500226005.421314,47.655,-122.3035,60.0,4.783333333333333
2026-01-20T23:04:48+00:00,SAT-54180,204.476421063266,30.289686930908868,1432.0384398950382,-6.4481698984170395,225842.18557419121,10.5,10500225842.185574,47.655,-122.3035,60.0,4.8
2026-01-20T23:04:49+00:00,SAT-54180,204.35217282028685,30.380664599293954,1425.60746511635,-6.443438535843074,225676.4732432071,10.5,10500225676.473244,47.655,-122.3035,60.0,4.816666666666666
2026-01-20T23:04:50+00:00,SAT-54180,204.2268043283939,30.472135290143335,1419.1812090832693,-6.438635261161646,225508.2422460317,10.5,10500225508.242247,47.655,-122.3035,60.0,4.833333333333333
2026-01-20T23:04:51+00:00,SAT-54180,204.10029823484567,30.56410363981394,1412.7597435161376,-6.433758847422489,225337.44960967675,10.5,10500225337.44961,47.655,-122.3035,60.0,4.85
2026-01-20T23:04:52+00:00,SAT-54180,203.9726368419675,30.656574316031136,1406.343141358975,-6.4288080473983875,225164.0516509694,10.5,10500225164.051651,47.655,-122.3035,60.0,4.866666666666666
2026-01-20T23:04:53+00:00,SAT-54180,203.84380209892467,30.749552017196347,1399.931476799703,-6.423781572065628,224988.00322284657,10.5,10500224988.003223,47.655,-122.3035,60.0,4.883333333333334
2026-01-20T23:04:54+00:00,SAT-54180,203.7137755936554,30.84304147132833,1393.5248253118293,-6.418678110007055,224809.25839393225,10.5,10500224809.258394,47.655,-122.3035,60.0,4.9
2026-01-20T23:04:55+00:00,SAT-54180,203.58253854420153,30.93704743520999,1387.1232636767825,-6.413496356198671,224627.77145676574,10.5,10500224627.771458,47.655,-122.3035,60.0,4.916666666666667
2026-01-20T23:04:56+00:00,SAT-54180,203.45007178926429,31.031574693925545,1380.7268699775336,-6.408234927204515,224443.4939575678,10.5,10500224443.493958,47.655,-122.3035,60.0,4.933333333333334
2026-01-20T23:04:57+00:00,SAT-54180,203.31635578010741,31.126628059044176,1374.3357236768018,-6.402892439104042,224256.377425587,10.5,10500224256.377426,47.655,-122.3035,60.0,4.95
2026-01-20T23:04:58+00:00,SAT-54180,203.18137057075884,31.222212367912544,1367.949905617535,-6.397467472290279,224066.37214018212,10.5,10500224066.37214,47.655,-122.3035,60.0,4.966666666666667
2026-01-20T23:04:59+00:00,SAT-54180,203.0450958085825,31.318332482330717,1361.5694980585045,-6.391958577590053,223873.4273451788,10.5,10500223873.427345,47.655,-122.3035,60.0,4.983333333333333
2026-01-20T23:05:00+00:00,SAT-54180,202.90751072450038,31.414993287252656,1355.194584703788,-6.3863642691524865,223677.49099979395,10.5,10500223677.491,47.655,-122.3035,60.0,5.0
2026-01-20T23:05:01+00:00,SAT-54180,202.76859412306567,31.512199689283925,1348.8252507393531,-6.380683057140729,223478.51092363923,10.5,10500223478.510923,47.655,-122.3035,60.0,5.016666666666667
2026-01-20T23:05:02+00:00,SAT-54180,202.6283243715944,31.609956615607356,1342.4615828370315,-6.374913352952789,223276.43147715303,10.5,10500223276.431477,47.655,-122.3035,60.0,5.033333333333333
2026-01-20T23:05:03+00:00,SAT-54180,202.48667939094614,31.70826901132026,1336.10366925302,-6.369053634677306,223071.1993565619,10.5,10500223071.199356,47.655,-122.3035,60.0,5.05
2026-01-20T23:05:04+00:00,SAT-54180,202.34363664260422,31.807141839294196,1329.7515997613682,-6.363102251785709,222862.7567533735,10.5,10500222862.756754,47.655,-122.3035,60.0,5.066666666666666
2026-01-20T23:05:05+00:00,SAT-54180,202.19917311947918,31.906580076823253,1323.405465782254,-6.357057569785034,222651.04642073033,10.5,10500222651.046421,47.655,-122.3035,60.0,5.083333333333333
2026-01-20T23:05:06+00:00,SAT-54180,202.05326533342844,32.006588714479285,1317.0653603659885,-6.35091790098466,222436.00924856798,10.5,10500222436.009249,47.655,-122.3035,60.0,5.1
2026-01-20T23:05:07+00:00,SAT-54180,201.90588930385022,32.107172753724356,1310.731378246073,-6.344681549770574,222217.58584931123,10.5,10500222217.58585,47.655,-122.3035,60.0,5.116666666666666
2026-01-20T23:05:08+00:00,SAT-54180,201.75702054502176,32.20833720516153,1304.403615847102,-6.338346716236219,221995.71318261884,10.5,10500221995.713182,47.655,-122.3035,60.0,5.133333333333334
2026-01-20T23:05:09+00:00,SAT-54180,201.60663405517477,32.310087085055116,1298.0821713887756,-6.33191166200317,221770.33036312505,10.5,10500221770.330362,47.655,-122.3035,60.0,5.15
2026-01-20T23:05:10+00:00,SAT-54180,201.45470430157562,32.41242741446186,1291.7671448245378,-6.325374515536884,221541.37184177357,10.5,10500221541.371841,47.655,-122.3035,60.0,5.166666666666667
2026-01-20T23:05:11+00:00,SAT-54180,201.30120520957138,32.51536321499666,1285.4586379743757,-6.318733409878066,221308.77222975265,10.5,10500221308.77223,47.655,-122.3035,60.0,5.183333333333334
2026-01-20T23:05:12+00:00,SAT-54180,201.1461101482151,32.61889950673241,1279.1567545202572,-6.311986441546748,221072.46485914214,10.5,10500221072.464859,47.655,-122.3035,60.0,5.2
2026-01-20T23:05:13+00:00,SAT-54180,200.98939191637666,32.723041305255954,1272.8616000425548,-6.305131655493647,220832.38125584633,10.5,10500220832.381256,47.655,-122.3035,60.0,5.216666666666667
2026-01-20T23:05:14+00:00,SAT-54180,200.831022728885,32.82779361832849,1266.5732820714757,-6.298167040924637,220588.45099334916,10.5,10500220588.450993,47.655,-122.3035,60.0,5.233333333333333
2026-01-20T23:05:15+00:00,SAT-54180,200.67097420230613,32.93316144225669,1260.29191014266,-6.291090555374602,220340.6025358827,10.5,10500220340.602535,47.655,-122.3035,60.0,5.25
2026-01-20T23:05:16+00:00,SAT-54180,200.50921733983134,33.03914975852687,1254.0175958287664,-6.283900121307196,220088.76311933625,10.5,10500220088.763119,47.655,-122.3035,60.0,5.266666666666667
2026-01-20T23:05:17+00:00,SAT-54180,200.3457225157472,33.145763530175046,1247.7504527744495,-6.276593599208675,219832.8578088882,10.5,10500219832.85781,47.655,-122.3035,60.0,5.283333333333333
2026-01-20T23:05:18+00:00,SAT-54180,200.1804594601767,33.25300769749584,1241.4905967581722,-6.269168806861621,219572.81017405386,10.5,10500219572.810175,47.655,-122.3035,60.0,5.3
2026-01-20T23:05:19+00:00,SAT-54180,200.0133972428965,33.36088717385568,1235.2381457347954,-6.261623520348417,219308.54232383115,10.5,10500219308.542324,47.655,-122.3035,60.0,5.316666666666666
2026-01-20T23:05:20+00:00,SAT-54180,199.84450425670573,33.46940684133329,1228.9932198771678,-6.253955447870062,219039.97398972473,10.5,10500219039.97399,47.655,-122.3035,60.0,5.333333333333333
2026-01-20T23:05:21+00:00,SAT-54180,199.673748200948,33.57857154560937,1222.7559416438255,-6.246162248980755,218767.0231994226,10.5,10500218767.0232,47.655,-122.3035,60.0,5.35
2026-01-20T23:05:22+00:00,SAT-54180,199.50109606417902,33.68838609099957,1216.5264358275087,-6.238241593974397,218489.60835676247,10.5,10500218489.608356,47.655,-122.3035,60.0,5.366666666666666
2026-01-20T23:05:23+00:00,SAT-54180,199.32651410466147,33.798855236266284,1210.3048295444516,-6.230190971854764,218207.64151603516,10.5,10500218207.641516,47.655,-122.3035,60.0,5.383333333333334
2026-01-20T23:05:24+00:00,SAT-54180,199.14996783555537,33.909983686703455,1204.0912524151884,-6.222007945511134,217921.0373193141,10.5,10500217921.03732,47.655,-122.3035,60.0,5.4
2026-01-20T23:05:25+00:00,SAT-54180,198.97142200276687,34.02177609054382,1197.8858364908654,-6.213689957451272,217629.70619240313,10.5,10500217629.706192,47.655,-122.3035,60.0,5.416666666666667
2026-01-20T23:05:26+00:00,SAT-54180,198.7908405674972,34.134237031549674,1191.6887163733006,-6.205234393157386,217333.55656382974,10.5,10500217333.556564,47.655,-122.3035,60.0,5.433333333333334
2026-01-20T23:05:27+00:00,SAT-54180,198.60818668658283,34.24737102242187,1185.5000292718582,-6.196638600163926,217032.49553303045,10.5,10500217032.495533,47.655,-122.3035,60.0,5.45
2026-01-20T23:05:28+00:00,SAT-54180,198.42342269177487,34.36118249823584,1179.319915041295,-6.187899830604617,216726.42685810488,10.5,10500216726.426859,47.655,-122.3035,60.0,5.466666666666667
2026-01-20T23:05:29+00:00,SAT-54180,198.23651007008726,34.47567580844485,1173.1485162769052,-6.179015347145531,216415.2546660399,10.5,10500216415.254665,47.655,-122.3035,60.0,5.483333333333333
2026-01-20T23:05:30+00:00,SAT-54180,198.0474094405837,34.59085521053718,1166.9859783040188,-6.169982265466686,216098.87793574916,10.5,10500216098.877935,47.655,-122.3035,60.0,5.5
2026-01-20T23:05:31+00:00,SAT-54180,197.85608053509492,34.706724860291416,1160.8324493245932,-6.160797684839974,215777.19507146417,10.5,10500215777.195072,47.655,-122.3035,60.0,5.516666666666667
2026-01-20T23:05:32+00:00,SAT-54180,197.66248217466926,34.82328880412765,1154.6880804335794,-6.151458622587101,215450.10160717438,10.5,10500215450.101606,47.655,-122.3035,60.0,5.533333333333333
2026-01-20T23:05:33+00:00,SAT-54180,197.46657224729242,34.94055096977142,1148.5530257006528,-6.141962049395783,215117.49144354966,10.5,10500215117.491444,47.655,-122.3035,60.0,5.55
2026-01-20T23:05:34+00:00,SAT-54180,197.26830768399944,35.058515157160464,1142.4274422167218,-6.132304834546738,214779.2549295578,10.5,10500214779.25493,47.655,-122.3035,60.0,5.566666666666666
2026-01-20T23:05:35+00:00,SAT-54180,197.06764443603078,35.17718502779633,1136.3114901950673,-6.122483799144501,214435.2807268329,10.5,10500214435.280727,47.655,-122.3035,60.0,5.583333333333333
2026-01-20T23:05:36+00:00,SAT-54180,196.86453744982023,35.29656409467865,1130.2053330193871,-6.112495674229821,214085.45434259428,10.5,10500214085.454342,47.655,-122.3035,60.0,5.6
2026-01-20T23:05:37+00:00,SAT-54180,196.65894064261417,35.41665571084518,1124.109137333622,-6.102337170518849,213729.66057220797,10.5,10500213729.660572,47.655,-122.3035,60.0,5.616666666666666
2026-01-20T23:05:38+00:00,SAT-54180,196.45080687528855,35.537463058829275,1118.0230730622245,-6.092004801268856,213367.77729519462,10.5,10500213367.777296,47.655,-122.3035,60.0,5.633333333333334
2026-01-20T23:05:39+00:00,SAT-54180,196.24008793026974,35.65898913590945,1111.9473136070922,-6.08149517618922,212999.68576923574,10.5,10500212999.68577,47.655,-122.3035,60.0,5.65
2026-01-20T23:05:40+00:00,SAT-54180,196.02673447926472,35.781236744795166,1105.882035751373,-6.070804645401206,212625.2581601391,10.5,10500212625.25816,47.655,-122.3035,60.0,5.666666666666667
2026-01-20T23:05:41+00:00,SAT-54180,195.8106960620438,35.90420847634026,1099.8274199183595,-6.0599296318431755,212244.36918407516,10.5,10500212244.369184,47.655,-122.3035,60.0,5.683333333333334
2026-01-20T23:05:42+00:00,SAT-54180,195.59192105362203,36.02790669852449,1093.7836500988678,-6.0488663527332385,211856.8863520209,10.5,10500211856.886353,47.655,-122.3035,60.0,5.7
2026-01-20T23:05:43+00:00,SAT-54180,195.37035664011267,36.152333538889025,1087.7509140564086,-6.037611010045073,211462.676641029,10.5,10500211462.676641,47.655,-122.3035,60.0,5.716666666666667
2026-01-20T23:05:44+00:00,SAT-54180,195.1459487875984,36.27749087029707,1081.7294033423905,-6.026159727260104,211061.60427902127,10.5,10500211061.604279,47.655,-122.3035,60.0,5.733333333333333
2026-01-20T23:05:45+00:00,SAT-54180,194.91864221237228,36.40338029457649,1075.7193133744029,-6.014508472933404,210653.52806774326,10.5,10500210653.528069,47.655,-122.3035,60.0,5.75
2026-01-20T23:05:46+00:00,SAT-54180,194.688380353469,36.530003123781334,1069.7208435907305,-6.002653211348077,210238.30665931833,10.5,10500210238.30666,47.655,-122.3035,60.0,5.766666666666667
2026-01-20T23:05:47+00:00,SAT-54180,194.4551053390479,36.657360363818256,1063.734197454613,-5.990589705358643,209815.7916509886,10.5,10500209815.79165,47.655,-122.3035,60.0,5.783333333333333
2026-01-20T23:05:48+00:00,SAT-54180,194.21875795950544,36.78545269295853,1057.759582655135,-5.978313757431668,209385.8360273777,10.5,10500209385.836027,47.655,-122.3035,60.0,5.8
2026-01-20T23:05:49+00:00,SAT-54180,193.9792776309792,36.91428044473029,1051.7972110677233,-5.965820943427163,208948.2848363891,10.5,10500208948.284836,47.655,-122.3035,60.0,5.816666666666666
2026-01-20T23:05:50+00:00,SAT-54180,193.7366023683489,37.04384358399202,1045.8472989801453,-5.953106826989441,208502.98269808086,10.5,10500208502.982698,47.655,-122.3035,60.0,5.833333333333333
2026-01-20T23:05:51+00:00,SAT-54180,193.4906687495253,37.17414168675261,1039.9100671046945,-5.940166814680851,208049.76873083628,10.5,10500208049.76873,47.655,-122.3035,60.0,5.85
2026-01-20T23:05:52+00:00,SAT-54180,193.24141188487104,37.30517391576332,1033.985740734853,-5.926996274561525,207588.48070452796,10.5,10500207588.480705,47.655,-122.3035,60.0,5.866666666666666
2026-01-20T23:05:53+00:00,SAT-54180,192.9887653813533,37.43693899766347,1028.0745497836901,-5.913590372409702,207118.94930426127,10.5,10500207118.949305,47.655,-122.3035,60.0,5.883333333333334
2026-01-20T23:05:54+00:00,SAT-54180,192.73266131294275,37.56943519530879,1022.1767289856068,-5.899944267512769,206641.0049878042,10.5,10500206641.004988,47.655,-122.3035,60.0,5.9
2026-01-20T23:05:55+00:00,SAT-54180,192.47303018256838,37.702660283376524,1016.2925179028075,-5.886052952711945,206154.47238327598,10.5,10500206154.472383,47.655,-122.3035,60.0,5.916666666666667
2026-01-20T23:05:56+00:00,SAT-54180,192.2098008902611,37.83661151909913,1010.4221610913028,-5.871911312782886,205659.17233388274,10.5,10500205659.172335,47.655,-122.3035,60.0,5.933333333333334
2026-01-20T23:05:57+00:00,SAT-54180,191.94290069858278,37.97128561302696,1004.5659082086872,-5.857514113292582,205154.92150763882,10.5,10500205154.921507,47.655,-122.3035,60.0,5.95
2026-01-20T23:05:58+00:00,SAT-54180,191.6722551983302,38.10667869822371,998.7240141330301,-5.842856020831716,204641.53310598966,10.5,10500204641.533106,47.655,-122.3035,60.0,5.966666666666667
2026-01-20T23:05:59+00:00,SAT-54180,191.39778827301873,38.242786298500775,992.8967390615873,-5.827931584135948,204118.81620259926,10.5,10500204118.816202,47.655,-122.3035,60.0,5.983333333333333
2026-01-20T23:06:00+00:00,SAT-54180,191.11942206414852,38.37960329484137,987.0843486283424,-5.812735203233679,203586.57466277428,10.5,10500203586.574663,47.655,-122.3035,60.0,6.0
2026-01-20T23:06:01+00:00,SAT-54180,190.83707693773655,38.51712388948944,981.2871140523173,-5.797261174654983,203044.60872687236,10.5,10500203044.608727,47.655,-122.3035,60.0,6.016666666666667
2026-01-20T23:06:02+00:00,SAT-54180,190.55067144890933,38.65534156960386,975.5053122407948,-5.781503652261977,202492.71363841568,10.5,10500202492.713638,47.655,-122.3035,60.0,6.033333333333333
2026-01-20T23:06:03+00:00,SAT-54180,190.26012230836125,38.79424906829252,969.7392259316055,-5.765456702037573,201930.68156302493,10.5,10500201930.681562,47.655,-122.3035,60.0,6.05
2026-01-20T23:06:04+00:00,SAT-54180,189.96534434646406,38.93383832535894,963.9891437807732,-5.749114196465092,201358.29788914658,10.5,10500201358.29789,47.655,-122.3035,60.0,6.066666666666666
2026-01-20T23:06:05+00:00,SAT-54180,189.66625048275571,39.07410044357661,958.2553605554988,-5.732469921248816,200775.3449658582,10.5,10500200775.344965,47.655,-122.3035,60.0,6.083333333333333
2026-01-20T23:06:06+00:00,SAT-54180,189.36275169084644,39.21502564588739,952.5381772207066,-5.715517484255117,200181.5989136015,10.5,10500200181.598913,47.655,-122.3035,60.0,6.1
2026-01-20T23:06:07+00:00,SAT-54180,189.05475696834134,39.356603228316004,946.8379011164096,-5.69825043082498,199576.83366291452,10.5,10500199576.833662,47.655,-122.3035,60.0,6.116666666666666
2026-01-20T23:06:08+00:00,SAT-54180,188.74217330171584,39.49882151395877,941.1548460200668,-5.680662060217595,198960.81452551,10.5,10500198960.814526,47.655,-122.3035,60.0,6.133333333333334
2026-01-20T23:06:09+00:00,SAT-54180,188.42490564159803,39.641667800128886,935.4893323920098,-5.662745613540127,198333.3047763708,10.5,10500198333.304777,47.655,-122.3035,60.0,6.15
2026-01-20T23:06:10+00:00,SAT-54180,188.1028568694505,39.78512830830811,929.8416874334391,-5.644494166588423,197694.06190057803,10.5,10500197694.061901,47.655,-122.3035,60.0,6.166666666666667
2026-01-20T23:06:11+00:00,SAT-54180,187.7759277710945,39.92918812913757,924.2122452512949,-5.625900618470395,197042.83719485413,10.5,10500197042.837194,47.655,-122.3035,60.0,6.183333333333334
2026-01-20T23:06:12+00:00,SAT-54180,187.4440170125963,40.07383116484135,918.6013470344737,-5.606957728546348,196379.3770613691,10.5,10500196379.377062,47.655,-122.3035,60.0,6.2
2026-01-20T23:06:13+00:00,SAT-54180,187.107021115964,40.219040070295925,913.0093411932035,-5.587658134364448,195703.42363591646,10.5,10500195703.423635,47.655,-122.3035,60.0,6.216666666666667
2026-01-20T23:06:14+00:00,SAT-54180,186.76483443581756,40.3647961922403,907.4365834805307,-5.56799430473639,195014.713144425,10.5,10500195014.713144,47.655,-122.3035,60.0,6.233333333333333
2026-01-20T23:06:15+00:00,SAT-54180,186.41734914104757,40.51107950475706,901.883437160607,-5.547958539137972,194312.97588196403,10.5,10500194312.975882,47.655,-122.3035,60.0,6.25
2026-01-20T23:06:16+00:00,SAT-54180,186.06445519934866,40.65786854223171,896.3502731775733,-5.527542980237467,193597.93665153979,10.5,10500193597.936651,47.655,-122.3035,60.0,6.266666666666667
2026-01-20T23:06:17+00:00,SAT-54180,185.70604036403992,40.80514033005996,890.8374703119498,-5.506739635678934,192869.31552703973,10.5,10500192869.315527,47.655,-122.3035,60.0,6.283333333333333
2026-01-20T23:06:18+00:00,SAT-54180,185.34199016289915,40.95287031332631,885.3454153152994,-5.485540333596355,192126.82629514893,10.5,10500192126.826296,47.655,-122.3035,60.0,6.3
2026-01-20T23:06:19+00:00,SAT-54180,184.97218789352098,41.1010322815714,879.8745030892593,-5.46393674603506,191370.17727566758,10.5,10500191370.177277,47.655,-122.3035,60.0,6.316666666666666
2026-01-20T23:06:20+00:00,SAT-54180,184.59651462153116,41.249598291480844,874.4251368412137,-5.4419203809729355,190599.0710420601,10.5,10500190599.071041,47.655,-122.3035,60.0,6.333333333333333
2026-01-20T23:06:21+00:00,SAT-54180,184.21484918390536,41.398538586523074,868.9977282479233,-5.419482583916741,189813.20447736478,10.5,10500189813.204477,47.655,-122.3035,60.0,6.35
2026-01-20T23:06:22+00:00,SAT-54180,183.82706819748768,41.547821513879114,863.5926976175637,-5.396614539024135,189012.2688134917,10.5,10500189012.268814,47.655,-122.3035,60.0,6.366666666666666
2026-01-20T23:06:23+00:00,SAT-54180,183.4330460730356,41.69741343848098,858.2104740506436,-5.373307252166612,188195.94903801556,10.5,10500188195.949038,47.655,-122.3035,60.0,6.383333333333334
2026-01-20T23:06:24+00:00,SAT-54180,183.0326550368845,41.8472786537616,852.8514956178161,-5.3495515618863365,187363.92427793008,10.5,10500187363.924278,47.655,-122.3035,60.0,6.4
2026-01-20T23:06:25+00:00,SAT-54180,182.62576515871916,41.9973792897333,847.5162095267615,-5.325338188436186,186515.86951723768,10.5,10500186515.869516,47.655,-122.3035,60.0,6.416666666666667
2026-01-20T23:06:26+00:00,SAT-54180,182.21224438331626,42.14767521975329,842.2050722401611,-5.300657619449982,185651.45159263752,10.5,10500185651.451593,47.655,-122.3035,60.0,6.433333333333334
2026-01-20T23:06:27+00:00,SAT-54180,181.79195857891267,42.298123960942235,836.9185497076963,-5.275500201702852,184770.33240736145,10.5,10500184770.332407,47.655,-122.3035,60.0,6.45
2026-01-20T23:06:28+00:00,SAT-54180,181.36477158806173,42.44868057455333,831.6571175065313,-5.249856128812175,183872.16850040917,10.5,10500183872.1685,47.655,-122.3035,60.0,6.466666666666667
2026-01-20T23:06:29+00:00,SAT-54180,180.93054528895118,42.59929756309761,826.4212609940627,-5.223715431711388,182956.61071290052,10.5,10500182956.610712,47.655,-122.3035,60.0,6.483333333333333
2026-01-20T23:06:30+00:00,SAT-54180,180.48913966819262,42.74992476457507,821.2114754701693,-5.197067949702933,182023.30317422727,10.5,10500182023.303175,47.655,-122.3035,60.0,6.5
2026-01-20T23:06:31+00:00,SAT-54180,180.04041290751306,42.90050924306399,816.0282663683321,-5.169903402299817,181071.8858182486,10.5,10500181071.885818,47.655,-122.3035,60.0,6.516666666666667
2026-01-20T23:06:32+00:00,SAT-54180,179.58422147710056,43.050995179040434,810.8721493751052,-5.1422112911769355,180101.99094921135,10.5,10500180101.99095,47.655,-122.3035,60.0,6.533333333333333
2026-01-20T23:06:33+00:00,SAT-54180,179.12042025066185,43.20132375426036,805.7436506473713,-5.113981046764776,179113.24837608205,10.5,10500179113.248377,47.655,-122.3035,60.0,6.55
2026-01-20T23:06:34+00:00,SAT-54180,178.6488626224423,43.351433038935326,800.6433068833978,-5.085201851649911,178105.27922728483,10.5,10500178105.279228,47.655,-122.3035,60.0,6.566666666666666
2026-01-20T23:06:35+00:00,SAT-54180,178.1694006552174,43.50125787139117,795.571665570019,-5.055862801745719,177077.70159558198,10.5,10500177077.701595,47.655,-122.3035,60.0,6.583333333333333
2026-01-20T23:06:36+00:00,SAT-54180,177.68188523099246,43.65072974093969,790.529285069078,-5.0259528364852155,176030.12809313156,10.5,10500176030.128094,47.655,-122.3035,60.0,6.6
2026-01-20T23:06:37+00:00,SAT-54180,177.1861662255697,43.79977666697796,785.5167347734902,-4.995460724559395,174962.16535198377,10.5,10500174962.165352,47.655,-122.3035,60.0,6.616666666666666
2026-01-20T23:06:38+00:00,SAT-54180,176.6820927039744,43.948323076472164,780.5345952775295,-4.964375158483719,173873.4173361995,10.5,10500173873.417336,47.655,-122.3035,60.0,6.633333333333334
2026-01-20T23:06:39+00:00,SAT-54180,176.16951312704015,44.096289683456746,775.5834584528018,-4.9326845978082465,172763.47985040565,10.5,10500172763.47985,47.655,-122.3035,60.0,6.65
2026-01-20T23:06:40+00:00,SAT-54180,175.64827559537588,44.24359336315545,770.6639276805877,-4.90037751102262,171631.94901233143,10.5,10500171631.949013,47.655,-122.3035,60.0,6.666666666666667
2026-01-20T23:06:41+00:00,SAT-54180,175.11822809199452,44.39014703364822,765.7766178429279,-4.867442147275187,170478.41325744582,10.5,10500170478.413258,47.655,-122.3035,60.0,6.683333333333334
2026-01-20T23:06:42+00:00,SAT-54180,174.57921877252548,44.535859530807485,760.9221555413786,-4.833866678460694,169302.45831547,10.5,10500169302.458315,47.655,-122.3035,60.0,6.7
2026-01-20T23:06:43+00:00,SAT-54180,174.0310962668565,44.68063548877981,756.1011791740605,-4.799639201371837,168103.6672857337,10.5,10500168103.667286,47.655,-122.3035,60.0,6.716666666666667
2026-01-20T23:06:44+00:00,SAT-54180,173.47371000726827,44.82437522213169,751.314339010559,-4.764747668902704,166881.6182276286,10.5,10500166881.618227,47.655,-122.3035,60.0,6.733333333333333
2026-01-20T23:06:45+00:00,SAT-54180,172.90691059284694,44.966974608158296,746.56229733544,-4.7291800304993545,165635.88907978206,10.5,10500165635.88908,47.655,-122.3035,60.0,6.75
2026-01-20T23:06:46+00:00,SAT-54180,172.33055016781873,45.108324976819056,741.8457284516886,-4.6929240924126185,164366.05276551854,10.5,10500164366.052765,47.655,-122.3035,60.0,6.766666666666667
2026-01-20T23:06:47+00:00,SAT-54180,171.74448284700276,45.24831300003124,737.1653188235225,-4.655967660839195,163071.6822062667,10.5,10500163071.682207,47.655,-122.3035,60.0,6.783333333333333
2026-01-20T23:06:48+00:00,SAT-54180,171.14856515699762,45.38682059047542,732.5217670764455,-4.618298459091241,161752.3474204879,10.5,10500161752.34742,47.655,-122.3035,60.0,6.8
2026-01-20T23:06:49+00:00,SAT-54180,170.54265652068716,45.52372480348006,727.9157840799119,-4.5799042324816135,160407.61919720125,10.5,10500160407.619198,47.655,-122.3035,60.0,6.816666666666666
2026-01-20T23:06:50+00:00,SAT-54180,169.92661976327668,45.65889774916343,723.3480929253836,-4.54077265136216,159037.06569997396,10.5,10500159037.0657,47.655,-122.3035,60.0,6.833333333333333
2026-01-20T23:06:51+00:00,SAT-54180,169.30032166621737,45.79220650949188,718.8194290010916,-4.500891475545633,157640.25822567273,10.5,10500157640.258226,47.655,-122.3035,60.0,6.85
2026-01-20T23:06:52+00:00,SAT-54180,168.66363353578984,45.923513069812124,714.3305399028142,-4.460248386668133,156216.76533308718,10.5,10500156216.765333,47.655,-122.3035,60.0,6.866666666666666
2026-01-20T23:06:53+00:00,SAT-54180,168.01643183104818,46.05267425560248,709.8821855118438,-4.418831211485628,154766.16066371853,10.5,10500154766.160664,47.655,-122.3035,60.0,6.883333333333334
2026-01-20T23:06:54+00:00,SAT-54180,167.3585987983583,46.17954168821611,705.4751378502555,-4.376627759835198,153288.01726649702,10.5,10500153288.017267,47.655,-122.3035,60.0,6.9
2026-01-20T23:06:55+00:00,SAT-54180,166.69002316578022,46.30396174893631,701.1101810977799,-4.333625988974501,151781.913353645,10.5,10500151781.913353,47.655,-122.3035,60.0,6.916666666666667
2026-01-20T23:06:56+00:00,SAT-54180,166.0106008510367,46.42577556308596,696.788111444776,-4.289813919899575,150247.42936977267,10.5,10500150247.429369,47.655,-122.3035,60.0,6.933333333333334
2026-01-20T23:06:57+00:00,SAT-54180,165.32023571827588,46.544818998090015,692.5097370286628,-4.245179745672902,148684.1517859848,10.5,10500148684.151787,47.655,-122.3035,60.0,6.95
2026-01-20T23:06:58+00:00,SAT-54180,164.61884035417788,46.660922683116574,688.2758777623116,-4.199711774942277,147091.6711216728,10.5,10500147091.671122,47.655,-122.3035,60.0,6.966666666666667
2026-01-20T23:06:59+00:00,SAT-54180,163.9063368873479,46.77391204690834,684.0873652187692,-4.153398552291821,145469.58615971624,10.5,10500145469.58616,47.655,-122.3035,60.0,6.983333333333333
2026-01-20T23:07:00+00:00,SAT-54180,163.1826578210693,46.88360738100265,679.9450423959502,-4.106228816998037,143817.50250194548,10.5,10500143817.502502,47.655,-122.3035,60.0,7.0
2026-01-20T23:07:01+00:00,SAT-54180,162.447746902928,46.98982392520337,675.8497635224642,-4.058191534019789,142135.0336545417,10.5,10500142135.033655,47.655,-122.3035,60.0,7.016666666666667
2026-01-20T23:07:02+00:00,SAT-54180,161.70156001746903,47.092371979318166,671.802393832535,-4.009275993962333,140421.8045292003,10.5,10500140421.80453,47.655,-122.3035,60.0,7.033333333333333
2026-01-20T23:07:03+00:00,SAT-54180,160.94406608548078,47.19105704494814,667.8038092412232,-3.9594717538998196,138677.44937048454,10.5,10500138677.449371,47.655,-122.3035,60.0,7.05
2026-01-20T23:07:04+00:00,SAT-54180,160.17524799428628,47.285679994526895,663.8548960786673,-3.9087687702702016,136901.6164103672,10.5,10500136901.616411,47.655,-122.3035,60.0,7.066666666666666
2026-01-20T23:07:05+00:00,SAT-54180,159.3951035194203,47.37603727475561,659.9565506917844,-3.85715730430251,135093.96455589402,10.5,10500135093.964556,47.655,-122.3035,60.0,7.083333333333333
2026-01-20T23:07:06+00:00,SAT-54180,158.6036462752517,47.461921139878626,656.1096791402933,-3.8046281332942353,133254.1707890112,10.5,10500133254.17079,47.655,-122.3035,60.0,7.1
2026-01-20T23:07:07+00:00,SAT-54180,157.80090662921324,47.54311992450928,652.3151966820212,-3.7511724169918437,131381.9254866457,10.5,10500131381.925488,47.655,-122.3035,60.0,7.116666666666666
2026-01-20T23:07:08+00:00,SAT-54180,156.9869326407141,47.61941834837612,648.5740273914747,-3.6967818619691175,129476.93817793019,10.5,10500129476.938177,47.655,-122.3035,60.0,7.133333333333334
2026-01-20T23:07:09+00:00,SAT-54180,156.16179095803614,47.690597861977906,644.8871036144708,-3.6414486901747054,127538.93644260526,10.5,10500127538.936443,47.655,-122.3035,60.0,7.15
2026-01-20T23:07:10+00:00,SAT-54180,155.32556770488802,47.75643702923021,641.2553654541366,-3.5851657180610528,125567.66868244916,10.5,10500125567.668682,47.655,-122.3035,60.0,7.166666666666667
2026-01-20T23:07:11+00:00,SAT-54180,154.4783693250834,47.81671195073222,637.6797601779904,-3.5279263988008203,123562.90559987539,10.5,10500123562.9056,47.655,-122.3035,60.0,7.183333333333334
2026-01-20T23:07:12+00:00,SAT-54180,153.62032338348786,47.87119672716135,634.1612415829197,-3.469724836864403,121524.44070849917,10.5,10500121524.440708,47.655,-122.3035,60.0,7.2
2026-01-20T23:07:13+00:00,SAT-54180,152.7515793205648,47.919663962693754,630.7007693456203,-3.410555876416884,119452.09342917253,10.5,10500119452.09343,47.655,-122.3035,60.0,7.216666666666667
2026-01-20T23:07:14+00:00,SAT-54180,151.8723091328516,47.961885309754145,627.2993082848739,-3.3504151130158575,117345.70949969163,10.5,10500117345.7095,47.655,-122.3035,60.0,7.233333333333333
2026-01-20T23:07:15+00:00,SAT-54180,150.98270798724963,47.99763205309344,623.9578276121593,-3.2892989568786875,115205.1631906838,10.5,10500115205.16319,47.655,-122.3035,60.0,7.25
2026-01-20T23:07:16+00:00,SAT-54180,150.08299474624184,48.026675733473475,620.6773001191657,-3.2272046762260325,113030.35882368108,10.5,10500113030.358824,47.655,-122.3035,60.0,7.266666666666667
2026-01-20T23:07:17+00:00,SAT-54180,149.17341239821002,48.048788809114455,617.4587013220763,-3.1641304442936984,110821.2324176742,10.5,10500110821.232418,47.655,-122.3035,60.0,7.283333333333333
2026-01-20T23:07:18+00:00,SAT-54180,148.25422838144783,48.06374535323502,614.3030085589673,-3.10007538477816,108577.75328080695,10.5,10500108577.75328,47.655,-122.3035,60.0,7.3
2026-01-20T23:07:19+00:00,SAT-54180,147.32573479234625,48.07132178548918,611.2112000418819,-3.035039636642202,106299.92628014385,10.5,10500106299.926281,47.655,-122.3035,60.0,7.316666666666666
2026-01-20T23:07:20+00:00,SAT-54180,146.38824846195516,48.07129763450978,608.1842538442708,-2.969024345925595,103987.7915548454,10.5,10500103987.791555,47.655,-122.3035,60.0,7.333333333333333
2026-01-20T23:07:21+00:00,SAT-54180,145.44211091425652,48.06345632801278,605.223146896601,-2.9020318053689462,101641.42940638599,10.5,10500101641.429407,47.655,-122.3035,60.0,7.35
2026-01-20T23:07:22+00:00,SAT-54180,144.48768815275602,48.0475860072026,602.3288538427131,-2.834065396350992,99260.95826495213,10.5,10500099260.958265,47.655,-122.3035,60.0,7.366666666666666
2026-01-20T23:07:23+00:00,SAT-54180,143.52537032920125,48.02348036061688,599.5023459540856,-2.765129710850662,96846.53896107002,10.5,10500096846.538961,47.655,-122.3035,60.0,7.383333333333334
2026-01-20T23:07:24+00:00,SAT-54180,142.55557123249844,47.99093947284124,596.7445899224639,-2.6952305519456523,94398.37474306757,10.5,10500094398.374743,47.655,-122.3035,60.0,7.4
2026-01-20T23:07:25+00:00,SAT-54180,141.5787276318694,47.949770682969046,594.0565466519901,-2.6243749874261715,91916.71315485462,10.5,10500091916.713156,47.655,-122.3035,60.0,7.416666666666667
2026-01-20T23:07:26+00:00,SAT-54180,140.5952984544377,47.899789446808704,591.4391699978637,-2.552571387200433,89401.84734602144,10.5,10500089401.847345,47.655,-122.3035,60.0,7.433333333333334
2026-01-20T23:07:27+00:00,SAT-54180,139.60576380157377,47.840820197178694,588.8934054676957,-2.4798294570649606,86854.11725461781,10.5,10500086854.117254,47.655,-122.3035,60.0,7.45
2026-01-20T23:07:28+00:00,SAT-54180,138.61062380600052,47.77269719554196,586.420188889183,-2.4061602691469584,84273.91067337345,10.5,10500084273.910673,47.655,-122.3035,60.0,7.466666666666667
2026-01-20T23:07:29+00:00,SAT-54180,137.61039733403317,47.69526536889361,584.0204450474205,-2.3315763105596163,81661.66495381272,10.5,10500081661.664953,47.655,-122.3035,60.0,7.483333333333333
2026-01-20T23:07:30+00:00,SAT-54180,136.60562052970195,47.60838112409295,581.6950862736891,-2.2560914712607434,79017.86658101254,10.5,10500079017.866581,47.655,-122.3035,60.0,7.5
2026-01-20T23:07:31+00:00,SAT-54180,135.59684523269834,47.51191313473553,579.4450110463516,-2.1797210956432957,76343.05298052097,10.5,10500076343.05298,47.655,-122.3035,60.0,7.516666666666667
2026-01-20T23:07:32+00:00,SAT-54180,134.58463725285736,47.40574309181986,577.2711025402967,-2.102482006036732,73637.81334147403,10.5,10500073637.813341,47.655,-122.3035,60.0,7.533333333333333
2026-01-20T23:07:33+00:00,SAT-54180,133.56957452189963,47.289766411939034,575.1742271529428,-2.0243925025432405,70902.78861085966,10.5,10500070902.78861,47.655,-122.3035,60.0,7.55
2026-01-20T23:07:34+00:00,SAT-54180,132.55224514510377,47.16389289695288,573.1552330304063,-1.9454723467113006,68138.67092169696,10.5,10500068138.670921,47.655,-122.3035,60.0,7.566666666666666
2026-01-20T23:07:35+00:00,SAT-54180,131.53324537675002,47.028047340627246,571.2149486099529,-1.8657428317594658,65346.20605256985,10.5,10500065346.206053,47.655,-122.3035,60.0,7.583333333333333
2026-01-20T23:07:36+00:00,SAT-54180,130.51317748978568,46.88217007087033,569.3541810924114,-1.7852267209414956,62526.191268913455,10.5,10500062526.191269,47.655,-122.3035,60.0,7.6
2026-01-20T23:07:37+00:00,SAT-54180,129.49264762088137,46.72621742909244,567.5737149760591,-1.703948261762919,59679.475820938256,10.5,10500059679.47582,47.655,-122.3035,60.0,7.616666666666666
2026-01-20T23:07:38+00:00,SAT-54180,128.47226357080987,46.56016217792128,565.8743105763276,-1.6219331837566802,56806.960865723784,10.5,10500056806.960865,47.655,-122.3035,60.0,7.633333333333334
2026-01-20T23:07:39+00:00,SAT-54180,127.45263258347396,46.383993833061254,564.2567025477276,-1.539208665255289,53909.598303438754,10.5,10500053909.598303,47.655,-122.3035,60.0,7.65
2026-01-20T23:07:40+00:00,SAT-54180,126.43435913823437,46.19771891778468,562.721598438913,-1.4558033111418456,50988.38999808787,10.5,10500050988.389997,47.655,-122.3035,60.0,7.666666666666667
2026-01-20T23:07:41+00:00,SAT-54180,125.41804276689169,46.0013611366708,561.2696772699342,-1.371747134567407,48044.387137176665,10.5,10500048044.387136,47.655,-122.3035,60.0,7.683333333333334
2026-01-20T23:07:42+00:00,SAT-54180,124.40427590706015,45.794961464840995,559.9015881277256,-1.2870715016466407,45078.6882947193,10.5,10500045078.688295,47.655,-122.3035,60.0,7.7
2026-01-20T23:07:43+00:00,SAT-54180,123.39364183191482,45.57857815564599,558.6179488167501,-1.2018091064385443,42092.43855495763,10.5,10500042092.438555,47.655,-122.3035,60.0,7.716666666666667
2026-01-20T23:07:44+00:00,SAT-54180,122.3867126488412,45.352286661708746,557.4193445345953,-1.1159939093881366,39086.827356328744,10.5,10500039086.827356,47.655,-122.3035,60.0,7.733333333333333
2026-01-20T23:07:45+00:00,SAT-54180,121.38404740509392,45.11617947429251,556.3063266089655,-1.0296610875423282,36063.08674781421,10.5,10500036063.086748,47.655,-122.3035,60.0,7.75
2026-01-20T23:07:46+00:00,SAT-54180,120.38619030247425,44.87036587962089,555.2794112843233,-0.9428469735133653,33022.48925118168,10.5,10500033022.489252,47.655,-122.3035,60.0,7.766666666666667
2026-01-20T23:07:47+00:00,SAT-54180,119.39366903772192,44.61497163522048,554.3390785694061,-0.8555889833679031,29966.345335355243,10.5,10500029966.345335,47.655,-122.3035,60.0,7.783333333333333
2026-01-20T23:07:48+00:00,SAT-54180,118.40699328557471,44.35013857043631,553.4857711566603,-0.7679255574546019,26896.001343947482,10.5,10500026896.001345,47.655,-122.3035,60.0,7.8
2026-01-20T23:07:49+00:00,SAT-54180,117.42665331387227,44.076024110146236,552.7198934006924,-0.679896062034821,23812.836049950332,10.5,10500023812.83605,47.655,-122.3035,60.0,7.816666666666666
2026-01-20T23:07:50+00:00,SAT-54180,116.45311877496364,43.792800734733035,552.041810394823,-0.5915407299780105,20718.258578636793,10.5,10500020718.25858,47.655,-122.3035,60.0,7.833333333333333
2026-01-20T23:07:51+00:00,SAT-54180,115.48683762730607,43.500655368576304,551.4518471067915,-0.5029005494707929,17613.704509682244,10.5,10500017613.70451,47.655,-122.3035,60.0,7.85
2026-01-20T23:07:52+00:00,SAT-54180,114.52823525062935,43.19978871794461,550.9502876254527,-0.414017198300145,14500.633575483484,10.5,10500014500.633575,47.655,-122.3035,60.0,7.866666666666666
2026-01-20T23:07:53+00:00,SAT-54180,113.57771368297944,42.89041454412302,550.5373744730148,-0.32493292321022016,11380.525435724308,10.5,10500011380.525436,47.655,-122.3035,60.0,7.883333333333334
2026-01-20T23:07:54+00:00,SAT-54180,112.63565106166106,42.57275890141966,550.2133080375996,-0.2356904618300086,8254.876942951949,10.5,10500008254.876944,47.655,-122.3035,60.0,7.9
2026-01-20T23:07:55+00:00,SAT-54180,111.70240118397574,42.24705932252802,549.9782460836678,-0.14633293000787528,5125.198196556001,10.5,10500005125.198196,47.655,-122.3035,60.0,7.916666666666667
2026-01-20T23:07:56+00:00,SAT-54180,110.77829324239649,41.91356397505963,549.8323033748068,-0.05690372203124872,1993.0090480398662,10.5,10500001993.009048,47.655,-122.3035,60.0,7.933333333333334
2026-01-20T23:07:57+00:00,SAT-54180,109.86363170416074,41.572530788929654,549.7755513960342,0.03255359251334148,-1140.1645113770192,10.5,10499998859.83549,47.655,-122.3035,60.0,7.95
2026-01-20T23:07:58+00:00,SAT-54180,108.95869631892666,41.22422655733986,549.8080181789675,0.12199537680735371,-4272.794135725769,10.5,10499995727.205864,47.655,-122.3035,60.0,7.966666666666667
2026-01-20T23:07:59+00:00,SAT-54180,108.063742269149,40.86892602565444,549.9296882347701,0.2113780323097711,-7403.352819678328,10.5,10499992596.64718,47.655,-122.3035,60.0,7.983333333333333
2026-01-20T23:08:00+00:00,SAT-54180,107.17900043307037,40.50691096711737,550.1405025923269,0.3006581038786761,-10530.318580349673,10.5,10499989469.68142,47.655,-122.3035,60.0,8.0
2026-01-20T23:08:01+00:00,SAT-54180,106.30467776777688,40.13846925767319,550.440358941262,0.38979238535384364,-13652.17815524685,10.5,10499986347.821844,47.655,-122.3035,60.0,8.016666666666667
2026-01-20T23:08:02+00:00,SAT-54180,105.44095778639678,39.76389394978562,550.8291118802549,0.47873802414284283,-16767.430665316635,10.5,10499983232.569334,47.655,-122.3035,60.0,8.033333333333333
2026-01-20T23:08:03+00:00,SAT-54180,104.58800112657939,39.38348235352225,551.3065732696666,0.5674526218301279,-19874.591138701504,10.5,10499980125.408861,47.655,-122.3035,60.0,8.05
2026-01-20T23:08:04+00:00,SAT-54180,103.74594620170582,38.99753513099912,551.8725126845053,0.6558943317613961,-22972.1939285566,10.5,10499977027.806072,47.655,-122.3035,60.0,8.066666666666666
2026-01-20T23:08:05+00:00,SAT-54180,102.91490992204962,38.606355408099944,552.5266579647152,0.7440219610806489,-26058.79628681924,10.5,10499973941.203712,47.655,-122.3035,60.0,8.083333333333334
2026-01-20T23:08:06+00:00,SAT-54180,102.09498846653835,38.21024790387803,553.2686958672331,0.8317950521875302,-29132.981217189485,10.5,10499970867.018784,47.655,-122.3035,60.0,8.1
2026-01-20T23:08:07+00:00,SAT-54180,101.28625811728601,37.80951809164738,554.0982727992814,0.9191739867115939,-32193.36111674876,10.5,10499967806.638884,47.655,-122.3035,60.0,8.116666666666667
2026-01-20T23:08:08+00:00,SAT-54180,100.4887761149456,37.404471380352376,555.0149956553618,1.0061200529712366,-35238.580138657075,10.5,10499964761.41986,47.655,-122.3035,60.0,8.133333333333333
2026-01-20T23:08:09+00:00,SAT-54180,99.70258156177754,36.995412336394054,556.0184327215251,1.0925955397597475,-38267.317476937154,10.5,10499961732.682524,47.655,-122.3035,60.0,8.15
2026-01-20T23:08:10+00:00,SAT-54180,98.92769633142461,36.58264393313902,557.1081146731789,1.1785637969120177,-41278.28948777686,10.5,10499958721.710512,47.655,-122.3035,60.0,8.166666666666666
2026-01-20T23:08:11+00:00,SAT-54180,98.16412600332146,36.1664668431154,558.283535633299,1.2639893165056726,-44270.25253353626,10.5,10499955729.747467,47.655,-122.3035,60.0,8.183333333333334
2026-01-20T23:08:12+00:00,SAT-54180,97.41186079321973,35.7471787640061,559.5441543116274,1.3488377862249086,-47242.00485177495,10.5,10499952757.995148,47.655,-122.3035,60.0,8.2
2026-01-20T23:08:13+00:00,SAT-54180,96.67087648971729,35.325073788804595,560.889395197089,1.4330761488423447,-50192.38863855814,10.5,10499949807.61136,47.655,-122.3035,60.0,8.216666666666667
2026-01-20T23:08:14+00:00,SAT-54180,95.94113538196872,34.900441816243216,562.3186498095345,1.5166726602767153,-53120.29208188256,10.5,10499946879.707918,47.655,-122.3035,60.0,8.233333333333333
2026-01-20T23:08:15+00:00,SAT-54180,95.2225871715259,34.473568001760924,563.8312780093838,1.5995969146930809,-56024.65024079208,10.5,10499943975.34976,47.655,-122.3035,60.0,8.25
2026-01-20T23:08:16+00:00,SAT-54180,94.51516987762903,34.04473225672194,565.4266093323043,1.6818199102275249,-58904.44734733457,10.5,10499941095.552652,47.655,-122.3035,60.0,8.266666666666667
2026-01-20T23:08:17+00:00,SAT-54180,93.8188107078105,33.614208783119246,567.1039443894379,1.7633140543802552,-61758.71699545116,10.5,10499938241.283005,47.655,-122.3035,60.0,8.283333333333333
2026-01-20T23:08:18+00:00,SAT-54180,93.1334269174745,33.1822656583029,568.8625562730065,1.8440532126038258,-64586.543842741274,10.5,10499935413.456158,47.655,-122.3035,60.0,8.3
2026-01-20T23:08:19+00:00,SAT-54180,92.45892663210817,32.749164456419024,570.7016920103767,1.92401271411908,-67387.06381416153,10.5,10499932612.936186,47.655,-122.3035,60.0,8.316666666666666
2026-01-20T23:08:20+00:00,SAT-54180,91.79520964654648,32.31515991523417,572.6205740239249,2.0031693630579928,-70159.46449229527,10.5,10499929840.535507,47.655,-122.3035,60.0,8.333333333333334
2026-01-20T23:08:21+00:00,SAT-54180,91.14216819338155,31.880499644263157,574.6184016020146,2.081501468844288,-72902.98618141029,10.5,10499927097.013819,47.655,-122.3035,60.0,8.35
2026-01-20T23:08:22+00:00,SAT-54180,90.49968767125786,31.445423867992798,576.6943524002754,2.158988826317789,-75616.92121132942,10.5,10499924383.078789,47.655,-122.3035,60.0,8.366666666666667
2026-01-20T23:08:23+00:00,SAT-54180,89.86764734771987,31.010165212780123,578.8475839230563,2.2356127086925253,-78300.61369079376,10.5,10499921699.386309,47.655,-122.3035,60.0,8.383333333333333
2026-01-20T23:08:24+00:00,SAT-54180,89.24592102844665,30.574948531344493,581.077234997859,2.3113558963590703,-80953.46051624234,10.5,10499919046.539484,47.655,-122.3035,60.0,8.4
2026-01-20T23:08:25+00:00,SAT-54180,88.63437768120663,30.139990755956394,583.3824272784944,2.3862026191894037,-83574.90935108426,10.5,10499916425.090649,47.655,-122.3035,60.0,8.416666666666666
