satellites_20260121_005943/SAT-66161.csv

timestamp,satellite,azimuth_deg,elevation_deg,distance_km,relative_velocity_kms,doppler_shift_hz,tx_freq_ghz,rx_freq_hz,ue_lat,ue_lon,ue_alt_m,time_minutes
2026-01-20T23:00:39+00:00,SAT-66161,173.98730752755608,30.106782300980377,687.1835218158478,-4.807794846762536,168389.31248566174,10.5,10500168389.312485,47.655,-122.3035,60.0,0.65
2026-01-20T23:00:40+00:00,SAT-66161,173.8816496272888,30.565787586302516,682.3885477553433,-4.767286480657549,166970.53815444637,10.5,10500166970.538155,47.655,-122.3035,60.0,0.6666666666666666
2026-01-20T23:00:41+00:00,SAT-66161,173.77396989506425,31.030833856327178,677.6339740386342,-4.725914210608556,165521.50625280186,10.5,10500165521.506252,47.655,-122.3035,60.0,0.6833333333333333
2026-01-20T23:00:42+00:00,SAT-66161,173.66419458411218,31.501992888165805,672.9206622659207,-4.6836613168508165,164041.63118384243,10.5,10500164041.631184,47.655,-122.3035,60.0,0.7
2026-01-20T23:00:43+00:00,SAT-66161,173.55224634822034,31.979335284274523,668.2494907125814,-4.640511012541319,162530.32500131757,10.5,10500162530.325,47.655,-122.3035,60.0,0.7166666666666667
2026-01-20T23:00:44+00:00,SAT-66161,173.43804402137098,32.46293029704357,663.6213543960736,-4.596446555261172,160987.00131489735,10.5,10500160987.001314,47.655,-122.3035,60.0,0.7333333333333333
2026-01-20T23:00:45+00:00,SAT-66161,173.3215023788467,32.952845652037475,659.0371650316265,-4.5514511424689665,159411.0716285069,10.5,10500159411.071629,47.655,-122.3035,60.0,0.75
2026-01-20T23:00:46+00:00,SAT-66161,173.20253188393488,33.44914734734434,654.4978510922041,-4.505508063254547,157801.95065538553,10.5,10500157801.950655,47.655,-122.3035,60.0,0.7666666666666667
2026-01-20T23:00:47+00:00,SAT-66161,173.081038412184,33.95189945464688,650.0043577171182,-4.458600673133738,156159.05543529132,10.5,10500156159.055435,47.655,-122.3035,60.0,0.7833333333333333
2026-01-20T23:00:48+00:00,SAT-66161,172.95692295600628,34.46116390348017,645.5576466457795,-4.410712448475372,154481.80724076586,10.5,10500154481.807241,47.655,-122.3035,60.0,0.8
2026-01-20T23:00:49+00:00,SAT-66161,172.83008130575251,34.97700025641339,641.1586960971667,-4.361826982608708,152769.63144079974,10.5,10500152769.631441,47.655,-122.3035,60.0,0.8166666666666667
2026-01-20T23:00:50+00:00,SAT-66161,172.70040370701156,35.499465468114686,636.8085006531783,-4.311928123885399,151021.96233634633,10.5,10500151021.962336,47.655,-122.3035,60.0,0.8333333333333334
2026-01-20T23:00:51+00:00,SAT-66161,172.5677744874303,36.0286136441285,632.50807100429,-4.260999891815986,149238.24022306746,10.5,10500149238.240223,47.655,-122.3035,60.0,0.85
2026-01-20T23:00:52+00:00,SAT-66161,172.4320716574712,36.56449577330805,628.2584337788521,-4.209026622235635,147417.91647565117,10.5,10500147417.916475,47.655,-122.3035,60.0,0.8666666666666667
2026-01-20T23:00:53+00:00,SAT-66161,172.2931664752546,37.107159460051086,624.0606312276091,-4.1559929577055135,145560.45321162778,10.5,10500145560.45321,47.655,-122.3035,60.0,0.8833333333333333
2026-01-20T23:00:54+00:00,SAT-66161,172.15092297726343,37.65664863769147,619.9157209177907,-4.101883940418798,143665.3265453308,10.5,10500143665.326546,47.655,-122.3035,60.0,0.9
2026-01-20T23:00:55+00:00,SAT-66161,172.00519746815462,38.21300327523135,615.8247753345464,-4.0466850344633665,141732.02736763094,10.5,10500141732.027369,47.655,-122.3035,60.0,0.9166666666666666
2026-01-20T23:00:56+00:00,SAT-66161,171.8558379682349,38.77625906815464,611.7888814601749,-3.9903821879850847,139760.06352315703,10.5,10500139760.063522,47.655,-122.3035,60.0,0.9333333333333333
2026-01-20T23:00:57+00:00,SAT-66161,171.70268361314479,39.34644711804461,607.8091402913578,-3.9329618944751603,137748.9619568388,10.5,10500137748.961956,47.655,-122.3035,60.0,0.95
2026-01-20T23:00:58+00:00,SAT-66161,171.5455640008684,39.92359360047628,603.886666295268,-3.874411271339537,135698.27146573894,10.5,10500135698.271465,47.655,-122.3035,60.0,0.9666666666666667
2026-01-20T23:00:59+00:00,SAT-66161,171.38429848023344,40.507719423874114,600.0225867873187,-3.814718099556541,133607.56408803212,10.5,10500133607.564089,47.655,-122.3035,60.0,0.9833333333333333
2026-01-20T23:01:00+00:00,SAT-66161,171.21869537633808,41.098839873263564,596.2180412693609,-3.7538708907965823,131476.43745382052,10.5,10500131476.437454,47.655,-122.3035,60.0,1.0
2026-01-20T23:01:01+00:00,SAT-66161,171.0485511455225,41.6969642428335,592.4741807009399,-3.6918589789093357,129304.51798940194,10.5,10500129304.51799,47.655,-122.3035,60.0,1.0166666666666666
2026-01-20T23:01:02+00:00,SAT-66161,170.8736494509662,42.302095460672255,588.7921666793076,-3.6286725521026906,127091.46204431284,10.5,10500127091.462044,47.655,-122.3035,60.0,1.0333333333333334
2026-01-20T23:01:03+00:00,SAT-66161,170.6937601536465,42.91422969694575,585.1731705873439,-3.5643028031985606,124836.9611539223,10.5,10500124836.961153,47.655,-122.3035,60.0,1.05
2026-01-20T23:01:04+00:00,SAT-66161,170.50863820305142,43.533355974070254,581.6183725916204,-3.498741860340931,122540.73961253479,10.5,10500122540.739613,47.655,-122.3035,60.0,1.0666666666666667
2026-01-20T23:01:05+00:00,SAT-66161,170.31802242864177,44.15945574310952,578.1289607095738,-3.431983053949982,120202.56382325273,10.5,10500120202.563824,47.655,-122.3035,60.0,1.0833333333333333
2026-01-20T23:01:06+00:00,SAT-66161,170.12163420213307,44.79250248241711,574.7061296104343,-3.3640208135358134,117822.23868395662,10.5,10500117822.238684,47.655,-122.3035,60.0,1.1
2026-01-20T23:01:07+00:00,SAT-66161,169.91917597706134,45.432461256338435,571.3510795190679,-3.294850859689451,115399.61431164235,10.5,10500115399.614311,47.655,-122.3035,60.0,1.1166666666666667
2026-01-20T23:01:08+00:00,SAT-66161,169.71032967403505,46.079288284222876,568.0650149283376,-3.2244702626729667,112934.58809449487,10.5,10500112934.588095,47.655,-122.3035,60.0,1.1333333333333333
2026-01-20T23:01:09+00:00,SAT-66161,169.4947549013985,46.73293049810956,564.8491432530318,-3.15287745987117,110427.10530312036,10.5,10500110427.105303,47.655,-122.3035,60.0,1.15
2026-01-20T23:01:10+00:00,SAT-66161,169.27208699472558,47.39332507963668,561.704673466387,-3.0800724302293423,107877.1652000935,10.5,10500107877.1652,47.655,-122.3035,60.0,1.1666666666666667
2026-01-20T23:01:11+00:00,SAT-66161,169.04193484200673,48.060399007415135,558.6328145626383,-3.0060566923805085,105284.82097436667,10.5,10500105284.820974,47.655,-122.3035,60.0,1.1833333333333333
2026-01-20T23:01:12+00:00,SAT-66161,168.80387848073258,48.734068580335084,555.6347740214374,-2.9308334115854233,102650.18348676052,10.5,10500102650.183487,47.655,-122.3035,60.0,1.2
2026-01-20T23:01:13+00:00,SAT-66161,168.55746643028334,49.41423893804567,552.7117561656162,-2.854407502122657,99973.42485609793,10.5,10500099973.424856,47.655,-122.3035,60.0,1.2166666666666666
2026-01-20T23:01:14+00:00,SAT-66161,168.3022127253766,50.10080357879269,549.8649604168326,-2.776785625553782,97254.7783984436,10.5,10500097254.778399,47.655,-122.3035,60.0,1.2333333333333334
2026-01-20T23:01:15+00:00,SAT-66161,168.03759362152755,50.79364385066477,547.095579552947,-2.697976350954906,94494.54423908996,10.5,10500094494.544239,47.655,-122.3035,60.0,1.25
2026-01-20T23:01:16+00:00,SAT-66161,167.76304391375146,51.49262845240148,544.4047978055945,-2.617990149839429,91693.08913473069,10.5,10500091693.089134,47.655,-122.3035,60.0,1.2666666666666666
2026-01-20T23:01:17+00:00,SAT-66161,167.47795283270054,52.19761290514862,541.7937889628214,-2.5368394760141677,88850.84927036011,10.5,10500088850.84927,47.655,-122.3035,60.0,1.2833333333333334
2026-01-20T23:01:18+00:00,SAT-66161,167.18165945237254,52.908439012442635,539.2637143920766,-2.454538866212718,85968.33378387905,10.5,10500085968.333784,47.655,-122.3035,60.0,1.3
2026-01-20T23:01:19+00:00,SAT-66161,166.8734475382849,53.6249343141466,536.8157209628404,-2.3711049086058376,83046.12366319534,10.5,10500083046.123663,47.655,-122.3035,60.0,1.3166666666666667
2026-01-20T23:01:20+00:00,SAT-66161,166.55253977374124,54.34691149561715,534.4509390006575,-2.2865563637986637,80084.87598405818,10.5,10500080084.875984,47.655,-122.3035,60.0,1.3333333333333333
2026-01-20T23:01:21+00:00,SAT-66161,166.21809125575558,55.074167789978056,532.1704801204957,-2.2009141690539566,77085.32405797395,10.5,10500077085.324059,47.655,-122.3035,60.0,1.35
2026-01-20T23:01:22+00:00,SAT-66161,165.86918216944926,55.80648433753583,529.9754350558926,-2.114201458046092,74048.27812407466,10.5,10500074048.278124,47.655,-122.3035,60.0,1.3666666666666667
2026-01-20T23:01:23+00:00,SAT-66161,165.50480951848178,56.54362549922086,527.8668714684012,-2.0264436021880337,70974.62679656323,10.5,10500070974.626797,47.655,-122.3035,60.0,1.3833333333333333
2026-01-20T23:01:24+00:00,SAT-66161,165.12387776636274,57.285338123289364,525.8458317158189,-1.9376682307268493,67865.33776854358,10.5,10500067865.337769,47.655,-122.3035,60.0,1.4
2026-01-20T23:01:25+00:00,SAT-66161,164.725188225726,58.03135075044657,523.9133306003741,-1.847905212046433,64721.45715716286,10.5,10500064721.457157,47.655,-122.3035,60.0,1.4166666666666667
2026-01-20T23:01:26+00:00,SAT-66161,164.3074270102678,58.781372731258934,522.0703531355598,-1.7571866606195705,61544.109747102084,10.5,10500061544.109747,47.655,-122.3035,60.0,1.4333333333333333
2026-01-20T23:01:27+00:00,SAT-66161,163.86915131982812,59.53509324944234,520.3178523060352,-1.6655469106943537,58334.49806896315,10.5,10500058334.49807,47.655,-122.3035,60.0,1.45
2026-01-20T23:01:28+00:00,SAT-66161,163.4087738021839,60.29218021987271,518.6567468537694,-1.5730225220844536,55093.90260206867,10.5,10500055093.902601,47.655,-122.3035,60.0,1.4666666666666666
2026-01-20T23:01:29+00:00,SAT-66161,162.92454467381452,61.05227905230015,517.0879190584104,-1.4796521933874822,51823.678735001944,10.5,10500051823.678736,47.655,-122.3035,60.0,1.4833333333333334
2026-01-20T23:01:30+00:00,SAT-66161,162.4145312630087,61.815011212772625,515.6122126042054,-1.3854767525762577,48525.2564360732,10.5,10500048525.256435,47.655,-122.3035,60.0,1.5
2026-01-20T23:01:31+00:00,SAT-66161,161.87659453144022,62.57997258036201,514.2304304563027,-1.2905390771859389,45200.13745793551,10.5,10500045200.137459,47.655,-122.3035,60.0,1.5166666666666666
2026-01-20T23:01:32+00:00,SAT-66161,161.30836209834217,63.34673152469953,512.9433328166558,-1.1948840251108819,41849.892913797914,10.5,10500041849.892914,47.655,-122.3035,60.0,1.5333333333333334
2026-01-20T23:01:33+00:00,SAT-66161,160.707197186365,64.11482665453472,511.75163514894524,-1.0985583683464413,38476.16095678308,10.5,10500038476.160957,47.655,-122.3035,60.0,1.55
2026-01-20T23:01:34+00:00,SAT-66161,160.07016280861686,64.88376417554248,510.6560062695811,-1.0016106674820657,35080.6423841446,10.5,10500035080.642384,47.655,-122.3035,60.0,1.5666666666666667
2026-01-20T23:01:35+00:00,SAT-66161,159.39398043949086,65.65301474159023,509.65706656387897,-0.9040911942306263,31665.09792391634,10.5,10500031665.097923,47.655,-122.3035,60.0,1.5833333333333333
2026-01-20T23:01:36+00:00,SAT-66161,158.67498223788087,66.42200972896951,508.75538627949965,-0.8060518041653594,28231.343777621896,10.5,10500028231.343777,47.655,-122.3035,60.0,1.6
2026-01-20T23:01:37+00:00,SAT-66161,157.90905580474484,67.19013678313567,507.95148394681206,-0.7075458109216874,24781.247214290222,10.5,10500024781.247213,47.655,-122.3035,60.0,1.6166666666666667
2026-01-20T23:01:38+00:00,SAT-66161,157.09158029669442,67.95673448823125,507.24582492471944,-0.6086278558475525,21316.722005058917,10.5,10500021316.722006,47.655,-122.3035,60.0,1.6333333333333333
2026-01-20T23:01:39+00:00,SAT-66161,156.21735258201969,68.72108597632646,506.63882007648755,-0.5093537620819585,17839.723312387545,10.5,10500017839.723312,47.655,-122.3035,60.0,1.65
2026-01-20T23:01:40+00:00,SAT-66161,155.28050202559214,69.48241124299601,506.13082459110444,-0.40978038103207015,14352.242313036228,10.5,10500014352.242313,47.655,-122.3035,60.0,1.6666666666666667
2026-01-20T23:01:41+00:00,SAT-66161,154.27439243214062,70.23985789278449,505.72213695775514,-0.30996544234432416,10856.300943419343,10.5,10500010856.300943,47.655,-122.3035,60.0,1.6833333333333333
2026-01-20T23:01:42+00:00,SAT-66161,153.19150970607404,70.99248999910644,505.41299808992375,-0.20996737630766604,7353.945679415635,10.5,10500007353.945679,47.655,-122.3035,60.0,1.7
2026-01-20T23:01:43+00:00,SAT-66161,152.02333410185108,71.73927465079711,505.20359062661953,-0.10984516129175628,3847.2421930088744,10.5,10500003847.242193,47.655,-122.3035,60.0,1.7166666666666666
2026-01-20T23:01:44+00:00,SAT-66161,150.7601963956041,72.47906577264047,505.09403838575787,-0.009658138071800933,338.2688491580059,10.5,10500000338.268848,47.655,-122.3035,60.0,1.7333333333333334
2026-01-20T23:01:45+00:00,SAT-66161,149.39111858400395,73.21058462943742,505.0844060027209,0.09053415842166894,-3170.8891870372663,10.5,10499996829.110813,47.655,-122.3035,60.0,1.75
2026-01-20T23:01:46+00:00,SAT-66161,147.90364157954562,73.93239644701258,505.1746987367202,0.19067217706554163,-6678.14618334457,10.5,10499993321.853817,47.655,-122.3035,60.0,1.7666666666666666
2026-01-20T23:01:47+00:00,SAT-66161,146.28364580119438,74.64288249133541,505.36486245464687,0.2906965280322556,-10181.422056783975,10.5,10499989818.577944,47.655,-122.3035,60.0,1.7833333333333334
2026-01-20T23:01:48+00:00,SAT-66161,144.51517595695506,75.34020697870602,505.6547837919377,0.39054815706166146,-13678.648477365783,10.5,10499986321.351522,47.655,-122.3035,60.0,1.8
2026-01-20T23:01:49+00:00,SAT-66161,142.58028987038384,76.02227828833003,506.0442904872472,0.4901685152817047,-17167.774815929155,10.5,10499982832.225183,47.655,-122.3035,60.0,1.8166666666666667
2026-01-20T23:01:50+00:00,SAT-66161,140.4589640276628,76.68670428678118,506.53315188648816,0.5894997391626295,-20646.774446899562,10.5,10499979353.225554,47.655,-122.3035,60.0,1.8333333333333333
2026-01-20T23:01:51+00:00,SAT-66161,138.12910727112472,77.33074221112058,507.12107962634633,0.6884848016517542,-24113.65004166789,10.5,10499975886.349958,47.655,-122.3035,60.0,1.85
2026-01-20T23:01:52+00:00,SAT-66161,135.56676024306694,77.95124467219084,507.80772846852705,0.7870676817038975,-27566.43950626311,10.5,10499972433.560493,47.655,-122.3035,60.0,1.8666666666666667
2026-01-20T23:01:53+00:00,SAT-66161,132.74659139204465,78.54460537466359,508.5926973030797,0.8851935124384308,-31003.22117043893,10.5,10499968996.77883,47.655,-122.3035,60.0,1.8833333333333333
2026-01-20T23:01:54+00:00,SAT-66161,129.64283845054766,79.1067111481541,509.47553029948494,0.9828087270128362,-34422.11889678285,10.5,10499965577.881104,47.655,-122.3035,60.0,1.9
2026-01-20T23:01:55+00:00,SAT-66161,126.23087675130718,79.63291133721108,510.4557182032258,1.0798611957339197,-37821.30688293085,10.5,10499962178.693117,47.655,-122.3035,60.0,1.9166666666666667
2026-01-20T23:01:56+00:00,SAT-66161,122.48960118155686,80.1180213203681,511.5326997691044,1.1763003509336987,-41199.01403524913,10.5,10499958800.985964,47.655,-122.3035,60.0,1.9333333333333333
2026-01-20T23:01:57+00:00,SAT-66161,118.40474838696687,80.55638313557408,512.7058633191023,1.2720773032266417,-44553.528040654506,10.5,10499955446.47196,47.655,-122.3035,60.0,1.95
2026-01-20T23:01:58+00:00,SAT-66161,113.97310710404287,80.94201059869243,513.974548416187,1.3671449601530035,-47883.19952200578,10.5,10499952116.800478,47.655,-122.3035,60.0,1.9666666666666666
2026-01-20T23:01:59+00:00,SAT-66161,109.20722182858401,81.2688446326552,515.3380476564463,1.4614581033890308,-51186.44474233179,10.5,10499948813.555258,47.655,-122.3035,60.0,1.9833333333333334
2026-01-20T23:02:00+00:00,SAT-66161,104.139705078999,81.53113100112344,516.7956085382262,1.5549734911125275,-54461.7491901065,10.5,10499945538.25081,47.655,-122.3035,60.0,2.0
2026-01-20T23:02:01+00:00,SAT-66161,98.82579084927383,81.72390293845228,518.3464354333624,1.6476499144206465,-57707.66955523873,10.5,10499942292.330444,47.655,-122.3035,60.0,2.0166666666666666
2026-01-20T23:02:02+00:00,SAT-66161,93.34261198424164,81.8435079266904,519.989691614678,1.7394482806318117,-60922.836646657815,10.5,10499939077.163353,47.655,-122.3035,60.0,2.033333333333333
2026-01-20T23:02:03+00:00,SAT-66161,87.78422682079601,81.88807628297434,521.7245013665614,1.8303316485589654,-64105.956627731895,10.5,10499935894.043373,47.655,-122.3035,60.0,2.05
2026-01-20T23:02:04+00:00,SAT-66161,82.25272338941326,81.85781425472477,523.5499521307243,1.9202652695735973,-67255.81245450402,10.5,10499932744.187546,47.655,-122.3035,60.0,2.066666666666667
2026-01-20T23:02:05+00:00,SAT-66161,76.84728373611148,81.75503565025464,525.4650966929124,2.009216622122318,-70371.26508460843,10.5,10499929628.734915,47.655,-122.3035,60.0,2.0833333333333335
2026-01-20T23:02:06+00:00,SAT-66161,71.65399931377829,81.58391835480126,527.4689554040424,2.0971554322789467,-73451.25419709171,10.5,10499926548.745804,47.655,-122.3035,60.0,2.1
2026-01-20T23:02:07+00:00,SAT-66161,66.73888688305767,81.35005210650269,529.5605184218351,2.1840536699055475,-76494.79805795597,10.5,10499923505.201942,47.655,-122.3035,60.0,2.1166666666666667
2026-01-20T23:02:08+00:00,SAT-66161,62.14519542970537,81.05989235791634,531.738747948621,2.269885542474,-79500.99330376416,10.5,10499920499.006697,47.655,-122.3035,60.0,2.1333333333333333
2026-01-20T23:02:09+00:00,SAT-66161,57.894572735022116,80.72023476163059,534.0025804629818,2.354627520771123,-82469.0158419422,10.5,10499917530.984158,47.655,-122.3035,60.0,2.15
2026-01-20T23:02:10+00:00,SAT-66161,53.990731056770834,80.33778815569681,536.3509289770308,2.438258265151599,-85398.11826784445,10.5,10499914601.881733,47.655,-122.3035,60.0,2.1666666666666665
2026-01-20T23:02:11+00:00,SAT-66161,50.42410739870444,79.91887703169145,538.782685220142,2.5207586416287873,-88287.63042832207,10.5,10499911712.369572,47.655,-122.3035,60.0,2.183333333333333
2026-01-20T23:02:12+00:00,SAT-66161,47.176385891923566,79.46926770108271,541.2967218387264,2.6021116324184486,-91136.95628858586,10.5,10499908863.04371,47.655,-122.3035,60.0,2.2
2026-01-20T23:02:13+00:00,SAT-66161,44.2242669549638,78.99409295973425,543.8918945067917,2.6823023670414803,-93945.57502155556,10.5,10499906054.424978,47.655,-122.3035,60.0,2.216666666666667
2026-01-20T23:02:14+00:00,SAT-66161,41.542289306537185,78.49784509461394,546.5670440675211,2.761318015376751,-96713.03726211781,10.5,10499903286.962738,47.655,-122.3035,60.0,2.2333333333333334
2026-01-20T23:02:15+00:00,SAT-66161,39.1047645890532,77.98441060416759,549.3209985681902,2.8391477361738033,-99438.96330382313,10.5,10499900561.036695,47.655,-122.3035,60.0,2.25
2026-01-20T23:02:16+00:00,SAT-66161,36.88699381274384,77.45712656775329,552.1525752437343,2.9157826338337127,-102123.04158516884,10.5,10499897876.958414,47.655,-122.3035,60.0,2.2666666666666666
2026-01-20T23:02:17+00:00,SAT-66161,34.86595491518526,76.91884520460805,555.0605824572111,2.9912156973413406,-104765.02655074824,10.5,10499895234.97345,47.655,-122.3035,60.0,2.283333333333333
2026-01-20T23:02:18+00:00,SAT-66161,33.02062747422818,76.37199845482817,558.0438215793595,3.0654417146607327,-107364.7356530153,10.5,10499892635.264347,47.655,-122.3035,60.0,2.3
2026-01-20T23:02:19+00:00,SAT-66161,31.332083427948373,75.81865815403732,561.1010887827812,3.138457205798509,-109922.04700788153,10.5,10499890077.952991,47.655,-122.3035,60.0,2.316666666666667
2026-01-20T23:02:20+00:00,SAT-66161,29.783436366835392,75.26058978114365,564.2311767693642,3.2102603448118225,-112436.89666310464,10.5,10499887563.103336,47.655,-122.3035,60.0,2.3333333333333335
2026-01-20T23:02:21+00:00,SAT-66161,28.359712322094364,74.69929921087953,567.4328764199231,3.2808509164404414,-114909.27707936079,10.5,10499885090.722921,47.655,-122.3035,60.0,2.35
2026-01-20T23:02:22+00:00,SAT-66161,27.047682858294586,74.13607268953673,570.7049784005864,3.350230174504082,-117339.23217072013,10.5,10499882660.76783,47.655,-122.3035,60.0,2.3666666666666667
2026-01-20T23:02:23+00:00,SAT-66161,25.835685836217216,73.57201066421166,574.0462746279585,3.4184008306194826,-119726.85690947092,10.5,10499880273.143091,47.655,-122.3035,60.0,2.3833333333333333
2026-01-20T23:02:24+00:00,SAT-66161,24.71344870020665,73.00805620200333,577.4555597230296,3.4853669378352934,-122072.29325052127,10.5,10499877927.706749,47.655,-122.3035,60.0,2.4
2026-01-20T23:02:25+00:00,SAT-66161,23.671922492427324,72.44501879245621,580.9316323490307,3.5511337997096537,-124375.72694691128,10.5,10499875624.273052,47.655,-122.3035,60.0,2.4166666666666665
2026-01-20T23:02:26+00:00,SAT-66161,22.703130493670265,71.88359424948489,584.4732964586078,3.6157079558990524,-126637.38704507385,10.5,10499873362.612955,47.655,-122.3035,60.0,2.433333333333333
2026-01-20T23:02:27+00:00,SAT-66161,21.800032815597124,71.32438134054802,588.0793625266244,3.6790970022999776,-128857.53958543469,10.5,10499871142.460415,47.655,-122.3035,60.0,2.45
2026-01-20T23:02:28+00:00,SAT-66161,20.956406845314774,70.7678957205901,591.7486486035849,3.7413096427408514,-131036.48941288222,10.5,10499868963.510588,47.655,-122.3035,60.0,2.466666666666667
2026-01-20T23:02:29+00:00,SAT-66161,20.16674253175823,70.21458159887338,595.4799814206118,3.8023554756772255,-133174.57270593135,10.5,10499866825.427294,47.655,-122.3035,60.0,2.4833333333333334
2026-01-20T23:02:30+00:00,SAT-66161,19.42615124501948,69.6648215684631,599.2721972816873,3.862245048790861,-135272.15888901395,10.5,10499864727.84111,47.655,-122.3035,60.0,2.5
2026-01-20T23:02:31+00:00,SAT-66161,18.73028668080259,69.11894487828191,603.1241430103481,3.9209896930023422,-137329.64481889867,10.5,10499862670.35518,47.655,-122.3035,60.0,2.5166666666666666
2026-01-20T23:02:32+00:00,SAT-66161,18.07527640403831,68.57723444591316,607.0346767308357,3.9786015057746695,-139347.45419991197,10.5,10499860652.5458,47.655,-122.3035,60.0,2.533333333333333
2026-01-20T23:02:33+00:00,SAT-66161,17.457662635322936,68.0399328063202,611.002668632595,4.03509327611895,-141326.03495732028,10.5,10499858673.965042,47.655,-122.3035,60.0,2.55
2026-01-20T23:02:34+00:00,SAT-66161,16.87435105334261,67.5072471838042,615.0270016599776,4.090478372254831,-143265.8553027232,10.5,10499856734.144697,47.655,-122.3035,60.0,2.566666666666667
2026-01-20T23:02:35+00:00,SAT-66161,16.32256651528401,66.97935383848801,619.1065720899064,4.144770788651324,-145167.40538162205,10.5,10499854832.594618,47.655,-122.3035,60.0,2.5833333333333335
2026-01-20T23:02:36+00:00,SAT-66161,15.799814708384073,66.45640178626005,623.2402901564546,4.197984953313677,-147031.19052379098,10.5,10499852968.809477,47.655,-122.3035,60.0,2.6
2026-01-20T23:02:37+00:00,SAT-66161,15.30384892774427,65.93851602353706,627.4270804832262,4.250135782068362,-148857.73314456697,10.5,10499851142.266855,47.655,-122.3035,60.0,2.6166666666666667
2026-01-20T23:02:38+00:00,SAT-66161,14.832641225775953,65.42580030541562,631.6658825698756,4.301238553865131,-150647.56837740022,10.5,10499849352.431623,47.655,-122.3035,60.0,2.6333333333333333
2026-01-20T23:02:39+00:00,SAT-66161,14.384357336542354,64.91833956852368,635.9556511542639,4.351308885135929,-152401.24317579487,10.5,10499847598.756824,47.655,-122.3035,60.0,2.65
2026-01-20T23:02:40+00:00,SAT-66161,13.957334832804923,64.41620204126018,640.2953565490395,4.40036269759981,-154119.31518570092,10.5,10499845880.684814,47.655,-122.3035,60.0,2.6666666666666665
2026-01-20T23:02:41+00:00,SAT-66161,13.550064064309609,63.919441089422065,644.6839849461122,4.44841614212894,-155802.35007897986,10.5,10499844197.649921,47.655,-122.3035,60.0,2.683333333333333
2026-01-20T23:02:42+00:00,SAT-66161,13.161171495327872,63.42809684080324,649.1205386451956,4.495485571242229,-157450.92059001498,10.5,10499842549.07941,47.655,-122.3035,60.0,2.7
2026-01-20T23:02:43+00:00,SAT-66161,12.789405106393609,62.94219761562127,653.6040362549145,4.541587503311656,-159065.60526206563,10.5,10499840934.394737,47.655,-122.3035,60.0,2.716666666666667
2026-01-20T23:02:44+00:00,SAT-66161,12.43362158009133,62.46176119085183,658.1335128582174,4.586738550750828,-160646.98593212673,10.5,10499839353.014069,47.655,-122.3035,60.0,2.7333333333333334
2026-01-20T23:02:45+00:00,SAT-66161,12.092775032951849,61.986795925232734,662.7080201061661,4.630955447226578,-162195.64868399414,10.5,10499837804.351316,47.655,-122.3035,60.0,2.75
2026-01-20T23:02:46+00:00,SAT-66161,11.765907080204618,61.51730175368349,667.3266263388667,4.674254947155466,-163712.18032820692,10.5,10499836287.819672,47.655,-122.3035,60.0,2.7666666666666666
2026-01-20T23:02:47+00:00,SAT-66161,11.452138067109065,61.05327108112133,671.9884166061631,4.716653839539425,-165197.1688866301,10.5,10499834802.831114,47.655,-122.3035,60.0,2.783333333333333
2026-01-20T23:02:48+00:00,SAT-66161,11.150659307247857,60.59468957745536,676.6924927021305,4.7581689007990216,-166651.2019404762,10.5,10499833348.79806,47.655,-122.3035,60.0,2.8
2026-01-20T23:02:49+00:00,SAT-66161,10.860726202792785,60.141536892088,681.4379731525273,4.798816870673811,-168074.8657862334,10.5,10499831925.134214,47.655,-122.3035,60.0,2.816666666666667
2026-01-20T23:02:50+00:00,SAT-66161,10.581652133406324,59.69378729574514,686.2239931782127,4.838614429058182,-169468.74462435913,10.5,10499830531.255375,47.655,-122.3035,60.0,2.8333333333333335
2026-01-20T23:02:51+00:00,SAT-66161,10.31280301790285,59.25141025819512,691.0497046354601,4.877578176195143,-170833.4198655825,10.5,10499829166.580135,47.655,-122.3035,60.0,2.85
2026-01-20T23:02:52+00:00,SAT-66161,10.053592465398546,58.81437096923499,695.9142759365187,4.9157246006504804,-172169.46900922383,10.5,10499827830.53099,47.655,-122.3035,60.0,2.8666666666666667
2026-01-20T23:02:53+00:00,SAT-66161,9.803477445045992,58.38263081048327,700.8168919382341,4.953070059148744,-173477.46493696587,10.5,10499826522.535063,47.655,-122.3035,60.0,2.8833333333333333
2026-01-20T23:02:54+00:00,SAT-66161,9.561954411344349,57.95614778254609,705.7567538105585,4.989630809967109,-174757.97708244764,10.5,10499825242.022917,47.655,-122.3035,60.0,2.9
2026-01-20T23:02:55+00:00,SAT-66161,9.328555828989394,57.534876887856164,710.7330789383657,5.025422892921308,-176011.5672278645,10.5,10499823988.432772,47.655,-122.3035,60.0,2.9166666666666665
2026-01-20T23:02:56+00:00,SAT-66161,9.102847057211772,57.11877048694918,715.7451007035725,5.060462253482426,-177238.79385106303,10.5,10499822761.206148,47.655,-122.3035,60.0,2.933333333333333
2026-01-20T23:02:57+00:00,SAT-66161,8.884423541911627,56.70777861072179,720.7920683910456,5.094764557163854,-178440.20562458737,10.5,10499821559.794374,47.655,-122.3035,60.0,2.95
2026-01-20T23:02:58+00:00,SAT-66161,8.672908293304587,56.301849258461424,725.8732469093904,5.128345377344976,-179616.34799405877,10.5,10499820383.652006,47.655,-122.3035,60.0,2.966666666666667
2026-01-20T23:02:59+00:00,SAT-66161,8.467949602387737,55.90092865324088,730.9879166990625,5.1612200195150315,-180767.75702245263,10.5,10499819232.242977,47.655,-122.3035,60.0,2.9833333333333334
2026-01-20T23:03:00+00:00,SAT-66161,8.269218983792161,55.504961487548954,736.1353734651922,5.193403589518273,-181894.96178033226,10.5,10499818105.03822,47.655,-122.3035,60.0,3.0
2026-01-20T23:03:01+00:00,SAT-66161,8.076409311227291,55.113891141146226,741.3149279784716,5.224910976118599,-182998.48373518887,10.5,10499817001.516264,47.655,-122.3035,60.0,3.0166666666666666
2026-01-20T23:03:02+00:00,SAT-66161,7.889233127877904,54.72765988048175,746.5259058586539,5.255756859279977,-184078.83704145672,10.5,10499815921.162958,47.655,-122.3035,60.0,3.033333333333333
2026-01-20T23:03:03+00:00,SAT-66161,7.707421112513464,54.346209039402986,751.7676473663092,5.285955646198722,-185136.52630009316,10.5,10499814863.4737,47.655,-122.3035,60.0,3.05
2026-01-20T23:03:04+00:00,SAT-66161,7.530720687106512,53.96947918822076,757.0395071307847,5.3155215328782655,-186172.04871518744,10.5,10499813827.951284,47.655,-122.3035,60.0,3.066666666666667
2026-01-20T23:03:05+00:00,SAT-66161,7.35889474753178,53.597410283152136,762.3408539395753,5.344468482539853,-187185.89333781193,10.5,10499812814.106663,47.655,-122.3035,60.0,3.0833333333333335
2026-01-20T23:03:06+00:00,SAT-66161,7.191720507324879,53.2299418038737,767.6710705061616,5.37281018327005,-188178.53958265865,10.5,10499811821.460417,47.655,-122.3035,60.0,3.1
2026-01-20T23:03:07+00:00,SAT-66161,7.028988443735057,52.867012881565906,773.0295531956098,5.400560115653351,-189150.45959681945,10.5,10499810849.540403,47.655,-122.3035,60.0,3.1166666666666667
2026-01-20T23:03:08+00:00,SAT-66161,6.870501332705754,52.5085624109309,778.4157118176214,5.427731457844233,-190102.11493500762,10.5,10499809897.885065,47.655,-122.3035,60.0,3.1333333333333333
2026-01-20T23:03:09+00:00,SAT-66161,6.716073368625713,52.15452915833226,783.8289693249113,5.454337205609165,-191033.960763937,10.5,10499808966.039236,47.655,-122.3035,60.0,3.15
2026-01-20T23:03:10+00:00,SAT-66161,6.565529354842878,51.80485185237401,789.2687616313056,5.480390045830077,-191946.44143187822,10.5,10499808053.558569,47.655,-122.3035,60.0,3.1666666666666665
2026-01-20T23:03:11+00:00,SAT-66161,6.418703964649811,51.45946927427828,794.7345373036801,5.505902432314871,-192839.9931238635,10.5,10499807160.006876,47.655,-122.3035,60.0,3.183333333333333
2026-01-20T23:03:12+00:00,SAT-66161,6.2754410608100635,51.11832033524241,800.2257573295087,5.530886587702977,-193715.0439284275,10.5,10499806284.956072,47.655,-122.3035,60.0,3.2
2026-01-20T23:03:13+00:00,SAT-66161,6.135593070208747,50.78134414650981,805.7418948863111,5.5553544621886495,-194572.0123919222,10.5,10499805427.987608,47.655,-122.3035,60.0,3.216666666666667
2026-01-20T23:03:14+00:00,SAT-66161,5.999020409384599,50.44848008541682,811.282435069934,5.579317786376448,-195411.30936973973,10.5,10499804588.69063,47.655,-122.3035,60.0,3.2333333333333334
2026-01-20T23:03:15+00:00,SAT-66161,5.865590954264895,50.11966785204033,816.8468746755468,5.602788006543318,-196233.3357589164,10.5,10499803766.664242,47.655,-122.3035,60.0,3.25
2026-01-20T23:03:16+00:00,SAT-66161,5.735179552632164,49.794847524238854,822.4347219140726,5.625776339234735,-197038.48441032067,10.5,10499802961.515589,47.655,-122.3035,60.0,3.2666666666666666
2026-01-20T23:03:17+00:00,SAT-66161,5.6076675730393495,49.47395960416972,828.0454961830694,5.6482937773101005,-197827.1403403886,10.5,10499802172.85966,47.655,-122.3035,60.0,3.283333333333333
2026-01-20T23:03:18+00:00,SAT-66161,5.482942487927639,49.15694505988744,833.67872784364,5.670351065119263,-198599.6798617004,10.5,10499801400.320139,47.655,-122.3035,60.0,3.3
2026-01-20T23:03:19+00:00,SAT-66161,5.360897488704135,48.84374536410148,839.3339579725856,5.691958676256083,-199356.46980381632,10.5,10499800643.530195,47.655,-122.3035,60.0,3.316666666666667
2026-01-20T23:03:20+00:00,SAT-66161,5.241431129806562,48.53430253016919,845.0107380923718,5.713126912898881,-200097.87099259932,10.5,10499799902.129007,47.655,-122.3035,60.0,3.3333333333333335
2026-01-20T23:03:21+00:00,SAT-66161,5.124446997146107,48.22855913891997,850.7086300001695,5.733865788410145,-200824.23413836022,10.5,10499799175.765862,47.655,-122.3035,60.0,3.35
2026-01-20T23:03:22+00:00,SAT-66161,5.0098534027959305,47.92645836875271,856.4272054798106,5.754185141993708,-201535.90385163703,10.5,10499798464.096148,47.655,-122.3035,60.0,3.3666666666666667
2026-01-20T23:03:23+00:00,SAT-66161,4.897563099625575,47.627944016377754,862.1660461280924,5.774094515896402,-202233.2143422775,10.5,10499797766.785658,47.655,-122.3035,60.0,3.3833333333333333
2026-01-20T23:03:24+00:00,SAT-66161,4.78749301835376,47.332960521395215,867.9247430586129,5.793603309314531,-202916.4948098947,10.5,10499797083.50519,47.655,-122.3035,60.0,3.4
2026-01-20T23:03:25+00:00,SAT-66161,4.679564020480583,47.04145298016137,873.7028967591027,5.812720660507601,-203586.06531499137,10.5,10499796413.934685,47.655,-122.3035,60.0,3.4166666666666665
2026-01-20T23:03:26+00:00,SAT-66161,4.573700670411115,46.75336716360462,879.5001168311823,5.831455524163721,-204242.23948862343,10.5,10499795757.760511,47.655,-122.3035,60.0,3.433333333333333
2026-01-20T23:03:27+00:00,SAT-66161,4.469831022022217,46.46864952889312,885.3160218072816,5.84981656168894,-204885.32068986827,10.5,10499795114.67931,47.655,-122.3035,60.0,3.45
2026-01-20T23:03:28+00:00,SAT-66161,4.3678864214701845,46.18724723463071,891.1502388581392,5.867812375998922,-205515.6102292229,10.5,10499794484.38977,47.655,-122.3035,60.0,3.466666666666667
2026-01-20T23:03:29+00:00,SAT-66161,4.2678013196855416,45.909108142704696,897.0024037344689,5.88545123556985,-206133.3977036988,10.5,10499793866.602297,47.655,-122.3035,60.0,3.4833333333333334
2026-01-20T23:03:30+00:00,SAT-66161,4.169513101589215,45.63418083215118,902.8721604334105,5.902741260166836,-206738.9675018168,10.5,10499793261.032497,47.655,-122.3035,60.0,3.5
2026-01-20T23:03:31+00:00,SAT-66161,4.072961923810458,45.36241460237203,908.759161050217,5.919690389683307,-207332.5977122304,10.5,10499792667.402288,47.655,-122.3035,60.0,3.5166666666666666
2026-01-20T23:03:32+00:00,SAT-66161,3.978090563445156,45.093759476676404,914.6630655988611,5.936306355340323,-207914.55911500411,10.5,10499792085.440886,47.655,-122.3035,60.0,3.533333333333333
2026-01-20T23:03:33+00:00,SAT-66161,3.884844277087331,44.82816620594236,920.5835418039205,5.952596715341111,-208485.11643038617,10.5,10499791514.88357,47.655,-122.3035,60.0,3.55
2026-01-20T23:03:34+00:00,SAT-66161,3.793170668316531,44.565586269578446,926.5202649280207,5.9685688073602705,-209044.52665477945,10.5,10499790955.473345,47.655,-122.3035,60.0,3.566666666666667
2026-01-20T23:03:35+00:00,SAT-66161,3.7030195643269113,44.3059718775734,932.4729175518946,5.984229853955804,-209593.04275271643,10.5,10499790406.957247,47.655,-122.3035,60.0,3.5833333333333335
2026-01-20T23:03:36+00:00,SAT-66161,3.6143428988024797,44.04927596702662,938.4411894595733,5.999586849775055,-210130.90970633447,10.5,10499789869.090294,47.655,-122.3035,60.0,3.6
2026-01-20T23:03:37+00:00,SAT-66161,3.527094603683465,43.79545220286019,944.4247774110823,6.014646652013017,-210658.36768360823,10.5,10499789341.632317,47.655,-122.3035,60.0,3.6166666666666667
2026-01-20T23:03:38+00:00,SAT-66161,3.4412305063132047,43.544454973883575,950.4233850053566,6.029415907516334,-211175.64948522323,10.5,10499788824.350515,47.655,-122.3035,60.0,3.6333333333333333
2026-01-20T23:03:39+00:00,SAT-66161,3.3567082339103274,43.29623939129618,956.4367224704529,6.043901164028538,-211682.9844408549,10.5,10499788317.015558,47.655,-122.3035,60.0,3.65
2026-01-20T23:03:40+00:00,SAT-66161,3.2734871223219852,43.05076128198282,962.4645065647106,6.058108755381301,-212180.59438808053,10.5,10499787819.405611,47.655,-122.3035,60.0,3.6666666666666665
2026-01-20T23:03:41+00:00,SAT-66161,3.1915281317551285,42.80797718611448,968.506460363411,6.072044894482773,-212668.696929224,10.5,10499787331.30307,47.655,-122.3035,60.0,3.683333333333333
2026-01-20T23:03:42+00:00,SAT-66161,3.110793766315422,42.56784435044681,974.5623131381751,6.085715602029971,-213147.50293456248,10.5,10499786852.497065,47.655,-122.3035,60.0,3.7
2026-01-20T23:03:43+00:00,SAT-66161,3.031247999172391,42.330320724127155,980.6318001652663,6.099126790367712,-213617.21947942057,10.5,10499786382.780521,47.655,-122.3035,60.0,3.716666666666667
2026-01-20T23:03:44+00:00,SAT-66161,2.9528562010785677,42.09536495080415,986.7146626175264,6.112284222359531,-214078.0484036562,10.5,10499785921.951597,47.655,-122.3035,60.0,3.7333333333333334
2026-01-20T23:03:45+00:00,SAT-66161,2.8755850735326756,41.86293636213082,992.8106474152929,6.12519349892778,-214530.18587526208,10.5,10499785469.814125,47.655,-122.3035,60.0,3.75
2026-01-20T23:03:46+00:00,SAT-66161,2.7994025858736897,41.632994971480116,998.9195070648902,6.137860082544191,-214973.8232131043,10.5,10499785026.176786,47.655,-122.3035,60.0,3.7666666666666666
2026-01-20T23:03:47+00:00,SAT-66161,2.7242779157119723,41.405501466521635,1005.0409995205476,6.1502893268426835,-215409.1479240888,10.5,10499784590.852076,47.655,-122.3035,60.0,3.783333333333333
2026-01-20T23:03:48+00:00,SAT-66161,2.6501813923654147,41.18041720052602,1011.1748880758521,6.162486438569598,-215836.3423704968,10.5,10499784163.657629,47.655,-122.3035,60.0,3.8
2026-01-20T23:03:49+00:00,SAT-66161,2.5770844438972507,40.95770418499417,1017.3209412172522,6.174456491255821,-216255.58424884095,10.5,10499783744.41575,47.655,-122.3035,60.0,3.816666666666667
2026-01-20T23:03:50+00:00,SAT-66161,2.5049595469080828,40.73732508163777,1023.478932491198,6.18620442869745,-216667.0467117729,10.5,10499783332.953289,47.655,-122.3035,60.0,3.8333333333333335
2026-01-20T23:03:51+00:00,SAT-66161,2.433780179067263,40.51924319413461,1029.6486403747522,6.197735102952343,-217070.89969888306,10.5,10499782929.100302,47.655,-122.3035,60.0,3.85
2026-01-20T23:03:52+00:00,SAT-66161,2.3635207738162447,40.30342245850757,1035.8298481840968,6.209053211662772,-217467.30774147462,10.5,10499782532.692259,47.655,-122.3035,60.0,3.8666666666666667
2026-01-20T23:03:53+00:00,SAT-66161,2.2941566781759963,40.089827435694396,1042.0223439205283,6.220163351737525,-217856.43184273838,10.5,10499782143.568157,47.655,-122.3035,60.0,3.8833333333333333
2026-01-20T23:03:54+00:00,SAT-66161,2.2256641122424763,39.878423302193966,1048.2259201699947,6.2310700285963065,-218238.4298015303,10.5,10499781761.570198,47.655,-122.3035,60.0,3.9
2026-01-20T23:03:55+00:00,SAT-66161,2.158020130793142,39.669175840434335,1054.4403740118478,6.241777584764855,-218613.45371147056,10.5,10499781386.54629,47.655,-122.3035,60.0,3.9166666666666665
2026-01-20T23:03:56+00:00,SAT-66161,2.091202587537496,39.462051431616125,1060.6655068563869,6.252290313548208,-218981.65394226223,10.5,10499781018.346058,47.655,-122.3035,60.0,3.933333333333333
2026-01-20T23:03:57+00:00,SAT-66161,2.025190100221208,39.25701704470546,1066.9011243957657,6.262612361574726,-219343.17572637074,10.5,10499780656.824274,47.655,-122.3035,60.0,3.95
2026-01-20T23:03:58+00:00,SAT-66161,1.9599620183927853,39.054040228805626,1073.1470364577094,6.272747794504216,-219698.1614604003,10.5,10499780301.83854,47.655,-122.3035,60.0,3.966666666666667
2026-01-20T23:03:59+00:00,SAT-66161,1.895498392262421,38.85308910338252,1079.4030569247618,6.282700573543729,-220046.7498825776,10.5,10499779953.250118,47.655,-122.3035,60.0,3.9833333333333334
2026-01-20T23:04:00+00:00,SAT-66161,1.831779943332852,38.65413234936003,1085.669003630109,6.292474568784638,-220389.07653987312,10.5,10499779610.92346,47.655,-122.3035,60.0,4.0
2026-01-20T23:04:01+00:00,SAT-66161,1.7687880364207786,38.457139199876515,1091.9446982667105,6.302073544999685,-220725.27329055322,10.5,10499779274.72671,47.655,-122.3035,60.0,4.016666666666667
2026-01-20T23:04:02+00:00,SAT-66161,1.7065046531852572,38.2620794316016,1098.2299662822568,6.3115011651176705,-221055.46842587861,10.5,10499778944.531574,47.655,-122.3035,60.0,4.033333333333333
2026-01-20T23:04:03+00:00,SAT-66161,1.6449123669651111,38.06892335601969,1104.5246367776008,6.32076105498082,-221379.7889381814,10.5,10499778620.211061,47.655,-122.3035,60.0,4.05
2026-01-20T23:04:04+00:00,SAT-66161,1.5839943182775402,37.877641808851195,1110.8285424697683,6.329856680004419,-221698.35620096352,10.5,10499778301.643799,47.655,-122.3035,60.0,4.066666666666666
2026-01-20T23:04:05+00:00,SAT-66161,1.5237341926062502,37.68820614340054,1117.1415195319594,6.338791483371938,-222011.2908090748,10.5,10499777988.70919,47.655,-122.3035,60.0,4.083333333333333
2026-01-20T23:04:06+00:00,SAT-66161,1.4641161980574249,37.500588219788945,1123.4634075713757,6.347568778656569,-222318.70881786488,10.5,10499777681.291182,47.655,-122.3035,60.0,4.1
2026-01-20T23:04:07+00:00,SAT-66161,1.405125045041559,37.31476039758972,1129.794049499956,6.356191846197245,-222620.72511867885,10.5,10499777379.274881,47.655,-122.3035,60.0,4.116666666666666
2026-01-20T23:04:08+00:00,SAT-66161,1.3467459260965424,37.13069552571608,1136.13329150123,6.364663829849833,-222917.4498226478,10.5,10499777082.550177,47.655,-122.3035,60.0,4.133333333333334
2026-01-20T23:04:09+00:00,SAT-66161,1.2889644975334102,36.948366935506954,1142.4809828942002,6.372987855144056,-223208.99239904355,10.5,10499776791.0076,47.655,-122.3035,60.0,4.15
2026-01-20T23:04:10+00:00,SAT-66161,1.2317668609896606,36.767748430488396,1148.8369761150639,6.381166920387999,-223495.45786129814,10.5,10499776504.54214,47.655,-122.3035,60.0,4.166666666666667
2026-01-20T23:04:11+00:00,SAT-66161,1.175139546724569,36.58881427945484,1155.201126590331,6.38920402042089,-223776.95110134943,10.5,10499776223.048899,47.655,-122.3035,60.0,4.183333333333334
2026-01-20T23:04:12+00:00,SAT-66161,1.1190694967024453,36.41153920615749,1161.5732927333638,6.397101994355293,-224053.57155692886,10.5,10499775946.428444,47.655,-122.3035,60.0,4.2
2026-01-20T23:04:13+00:00,SAT-66161,1.0635440496678183,36.235898383465475,1167.9533357890678,6.4048636601270115,-224325.41792406808,10.5,10499775674.582075,47.655,-122.3035,60.0,4.216666666666667
2026-01-20T23:04:14+00:00,SAT-66161,1.0085509258333398,36.06186742386183,1174.3411198127674,6.412491796256106,-224592.58751829277,10.5,10499775407.412481,47.655,-122.3035,60.0,4.233333333333333
2026-01-20T23:04:15+00:00,SAT-66161,0.9540782124605897,35.889422370660625,1180.7365116309004,6.4199890507482404,-224855.17308396238,10.5,10499775144.826916,47.655,-122.3035,60.0,4.25
2026-01-20T23:04:16+00:00,SAT-66161,0.9001143507109498,35.71853969187505,1187.1393807108466,6.427358052368135,-225113.26669153702,10.5,10499774886.733309,47.655,-122.3035,60.0,4.266666666666667
2026-01-20T23:04:17+00:00,SAT-66161,0.8466481223328843,35.54919627116862,1193.5495991417417,6.434601355342202,-225366.95780083005,10.5,10499774633.0422,47.655,-122.3035,60.0,4.283333333333333
2026-01-20T23:04:18+00:00,SAT-66161,0.793668637278709,35.38136940050661,1199.9670415601363,6.441721466495447,-225616.33421145703,10.5,10499774383.665789,47.655,-122.3035,60.0,4.3
2026-01-20T23:04:19+00:00,SAT-66161,0.7411653217396983,35.21503677221334,1206.3915851027211,6.448720788862972,-225861.480087872,10.5,10499774138.519913,47.655,-122.3035,60.0,4.316666666666666
2026-01-20T23:04:20+00:00,SAT-66161,0.6891279070545357,35.05017647267588,1212.823109302814,6.455601734387694,-226102.4799065185,10.5,10499773897.520094,47.655,-122.3035,60.0,4.333333333333333
2026-01-20T23:04:21+00:00,SAT-66161,0.6375464183566563,34.88676697324828,1219.2614960992432,6.462366620867362,-226339.4148464779,10.5,10499773660.585154,47.655,-122.3035,60.0,4.35
2026-01-20T23:04:22+00:00,SAT-66161,0.5864111643910691,34.72478712401714,1225.7066297424549,6.469017712130596,-226572.3641966045,10.5,10499773427.635803,47.655,-122.3035,60.0,4.366666666666666
2026-01-20T23:04:23+00:00,SAT-66161,0.5357127275349921,34.564216146653074,1232.1583967406864,6.475557218767198,-226801.40538110398,10.5,10499773198.59462,47.655,-122.3035,60.0,4.383333333333334
2026-01-20T23:04:24+00:00,SAT-66161,0.48544195419764824,34.40503362740234,1238.6166858068702,6.481987305844208,-227026.61422978222,10.5,10499772973.38577,47.655,-122.3035,60.0,4.4
2026-01-20T23:04:25+00:00,SAT-66161,0.43558994562214964,34.247219510030064,1245.0813878132321,6.488310092583422,-227248.06496675088,10.5,10499772751.935034,47.655,-122.3035,60.0,4.416666666666667
2026-01-20T23:04:26+00:00,SAT-66161,0.38614804903430017,34.09075408894316,1251.5523957455687,6.494527672490215,-227465.8309154237,10.5,10499772534.169085,47.655,-122.3035,60.0,4.433333333333334
2026-01-20T23:04:27+00:00,SAT-66161,0.337107849072699,33.9356180019657,1258.0296046775989,6.500642003158776,-227679.98063902982,10.5,10499772320.019361,47.655,-122.3035,60.0,4.45
2026-01-20T23:04:28+00:00,SAT-66161,0.2884611602625217,33.78179222592823,1264.512911635416,6.506655099912493,-227890.58472271898,10.5,10499772109.415277,47.655,-122.3035,60.0,4.466666666666667
2026-01-20T23:04:29+00:00,SAT-66161,0.24020001857624765,33.62925806770778,1271.0022156550622,6.512568878325181,-228097.71025798924,10.5,10499771902.289742,47.655,-122.3035,60.0,4.483333333333333
2026-01-20T23:04:30+00:00,SAT-66161,0.19231667432457433,33.47799715923014,1277.4974176830451,6.518385226135467,-228301.42336143224,10.5,10499771698.57664,47.655,-122.3035,60.0,4.5
2026-01-20T23:04:31+00:00,SAT-66161,0.14480358491409634,33.327991450878045,1283.9984205485775,6.524105971068584,-228501.7880477171,10.5,10499771498.211952,47.655,-122.3035,60.0,4.516666666666667
2026-01-20T23:04:32+00:00,SAT-66161,0.09765340806062246,33.17922320579835,1290.5051289037233,6.529732922370647,-228698.86768429575,10.5,10499771301.132317,47.655,-122.3035,60.0,4.533333333333333
2026-01-20T23:04:33+00:00,SAT-66161,0.05085899507318356,33.03167499336914,1297.0174492049675,6.535267825248519,-228892.72339569477,10.5,10499771107.276604,47.655,-122.3035,60.0,4.55
2026-01-20T23:04:34+00:00,SAT-66161,0.004413384627356673,32.885329683871106,1303.5352896493487,6.54071239683729,-229083.41532324854,10.5,10499770916.584677,47.655,-122.3035,60.0,4.566666666666666
2026-01-20T23:04:35+00:00,SAT-66161,359.95830979662543,32.74017044245044,1310.0585601464613,6.54606833744947,-229271.00301909342,10.5,10499770728.99698,47.655,-122.3035,60.0,4.583333333333333
2026-01-20T23:04:36+00:00,SAT-66161,359.91254162618924,32.59618072297972,1316.5871723016776,6.551337249014606,-229455.54258957828,10.5,10499770544.45741,47.655,-122.3035,60.0,4.6
2026-01-20T23:04:37+00:00,SAT-66161,359.8671024384037,32.453344263863904,1323.121039318028,6.556520778745641,-229637.09172706818,10.5,10499770362.908274,47.655,-122.3035,60.0,4.616666666666666
2026-01-20T23:04:38+00:00,SAT-66161,359.82198596239675,32.311645080778106,1329.6600760413637,6.561620462255288,-229815.70421521587,10.5,10499770184.295784,47.655,-122.3035,60.0,4.633333333333334
2026-01-20T23:04:39+00:00,SAT-66161,359.7771860866013,32.171067462996746,1336.204198849053,6.566637842469795,-229991.43409382517,10.5,10499770008.565907,47.655,-122.3035,60.0,4.65
2026-01-20T23:04:40+00:00,SAT-66161,359.73269685346014,32.03159596723411,1342.7533256572763,6.57157441340383,-230164.33368960943,10.5,10499769835.666311,47.655,-122.3035,60.0,4.666666666666667
2026-01-20T23:04:41+00:00,SAT-66161,359.688512454719,31.89321541282462,1349.3073758722442,6.576431662340949,-230334.45509352995,10.5,10499769665.544907,47.655,-122.3035,60.0,4.683333333333334
2026-01-20T23:04:42+00:00,SAT-66161,359.6446272265993,31.75591087613339,1355.8662703834857,6.581210994815519,-230501.84753334572,10.5,10499769498.152466,47.655,-122.3035,60.0,4.7
2026-01-20T23:04:43+00:00,SAT-66161,359.60103564563246,31.619667686665476,1362.429931482315,6.585913817555466,-230666.5602786191,10.5,10499769333.439722,47.655,-122.3035,60.0,4.716666666666667
2026-01-20T23:04:44+00:00,SAT-66161,359.5577323241433,31.48447142152632,1368.9982828630234,6.590541518224626,-230828.64193120753,10.5,10499769171.358068,47.655,-122.3035,60.0,4.733333333333333
2026-01-20T23:04:45+00:00,SAT-66161,359.5147120060471,31.35030790043692,1375.5712496038664,6.595095427074778,-230988.1390821552,10.5,10499769011.860918,47.655,-122.3035,60.0,4.75
2026-01-20T23:04:46+00:00,SAT-66161,359.4719695629932,31.217163181661093,1382.1487581098022,6.599576843699339,-231145.09724872082,10.5,10499768854.902752,47.655,-122.3035,60.0,4.766666666666667
2026-01-20T23:04:47+00:00,SAT-66161,359.4294999905328,31.0850235574571,1388.7307360819182,6.603987067188081,-231299.56193052346,10.5,10499768700.43807,47.655,-122.3035,60.0,4.783333333333333
2026-01-20T23:04:48+00:00,SAT-66161,359.3872984042197,30.953875549048156,1395.3171125169274,6.608327359219449,-231451.57731687906,10.5,10499768548.422684,47.655,-122.3035,60.0,4.8
2026-01-20T23:04:49+00:00,SAT-66161,359.3453600361146,30.82370590243668,1401.9078176698554,6.6125989189788985,-231601.18540833486,10.5,10499768398.814592,47.655,-122.3035,60.0,4.816666666666666
2026-01-20T23:04:50+00:00,SAT-66161,359.30368023148793,30.69450158482019,1408.5027829917171,6.616802970527464,-231748.429076686,10.5,10499768251.570923,47.655,-122.3035,60.0,4.833333333333333
2026-01-20T23:04:51+00:00,SAT-66161,359.26225444523413,30.566249779355992,1415.101941154323,6.6209406780817766,-231893.34909772364,10.5,10499768106.650902,47.655,-122.3035,60.0,4.85
2026-01-20T23:04:52+00:00,SAT-66161,359.22107823881515,30.438937881717838,1421.7052259905968,6.625013219445468,-232035.98672311302,10.5,10499767964.013277,47.655,-122.3035,60.0,4.866666666666666
2026-01-20T23:04:53+00:00,SAT-66161,359.18014727696635,30.312553495305327,1428.3125725081236,6.629021670832091,-232176.3796464051,10.5,10499767823.620354,47.655,-122.3035,60.0,4.883333333333334
2026-01-20T23:04:54+00:00,SAT-66161,359.13945732510314,30.187084428767466,1434.9239167878334,6.632967183653679,-232314.56819491982,10.5,10499767685.431805,47.655,-122.3035,60.0,4.9
2026-01-20T23:04:55+00:00,SAT-66161,359.09900424589364,30.06251869022111,1441.5391960589975,6.636850797362723,-232450.5887746802,10.5,10499767549.411226,47.655,-122.3035,60.0,4.916666666666667
