satellites_20260121_005943/SAT-58542.csv

timestamp,satellite,azimuth_deg,elevation_deg,distance_km,relative_velocity_kms,doppler_shift_hz,tx_freq_ghz,rx_freq_hz,ue_lat,ue_lon,ue_alt_m,time_minutes
2026-01-20T23:00:00+00:00,SAT-58542,151.12634431700351,38.59169457630606,564.5329061831127,-3.2738773127532097,114665.03197991959,10.5,10500114665.03198,47.655,-122.3035,60.0,0.0
2026-01-20T23:00:01+00:00,SAT-58542,150.6938790162776,39.17085157377762,561.2677592098601,-3.203478303692464,112199.36089509922,10.5,10500112199.360895,47.655,-122.3035,60.0,0.016666666666666666
2026-01-20T23:00:02+00:00,SAT-58542,150.2495991157395,39.75484912130223,558.0728235149775,-3.1318601262696943,109690.98937716369,10.5,10500109690.989378,47.655,-122.3035,60.0,0.03333333333333333
2026-01-20T23:00:03+00:00,SAT-58542,149.79303539986216,40.34354109341729,554.9493150157111,-3.0590227577474653,107139.91662975187,10.5,10500107139.91663,47.655,-122.3035,60.0,0.05
2026-01-20T23:00:04+00:00,SAT-58542,149.32369666138544,40.93676707552046,551.8984496519844,-2.9849678066821914,104546.19899131356,10.5,10500104546.198992,47.655,-122.3035,60.0,0.06666666666666667
2026-01-20T23:00:05+00:00,SAT-58542,148.84106866711434,41.53435171691623,548.9214417594533,-2.909698547271028,101909.95113808298,10.5,10500101909.951138,47.655,-122.3035,60.0,0.08333333333333333
2026-01-20T23:00:06+00:00,SAT-58542,148.34461310296075,42.13610406635802,546.0195024083083,-2.8332199992360745,99231.34888196147,10.5,10500099231.348883,47.655,-122.3035,60.0,0.1
2026-01-20T23:00:07+00:00,SAT-58542,147.8337664959792,42.74181689888762,543.1938376624036,-2.7555390370524315,96510.63299614606,10.5,10500096510.632996,47.655,-122.3035,60.0,0.11666666666666667
2026-01-20T23:00:08+00:00,SAT-58542,147.30793911271218,43.35126604263975,540.44564672945,-2.676664404904916,93748.10973897688,10.5,10500093748.10974,47.655,-122.3035,60.0,0.13333333333333333
2026-01-20T23:00:09+00:00,SAT-58542,146.76651385724278,43.96420968794968,537.7761200962914,-2.596606818616174,90944.1544238909,10.5,10500090944.154425,47.655,-122.3035,60.0,0.15
2026-01-20T23:00:10+00:00,SAT-58542,146.20884516203841,44.58038769875095,535.1864375625249,-2.5153790432728664,88099.21413821923,10.5,10500088099.214138,47.655,-122.3035,60.0,0.16666666666666666
2026-01-20T23:00:11+00:00,SAT-58542,145.63425788443854,45.19952092469253,532.6777661967008,-2.4329959194240818,85213.80866076644,10.5,10500085213.80866,47.655,-122.3035,60.0,0.18333333333333332
2026-01-20T23:00:12+00:00,SAT-58542,145.04204623217333,45.821310505257955,530.2512582663952,-2.349474411209365,82288.5321474576,10.5,10500082288.532148,47.655,-122.3035,60.0,0.2
2026-01-20T23:00:13+00:00,SAT-58542,144.43147272976904,46.44543717299294,527.9080491202823,-2.2648336656499244,79324.05520796726,10.5,10500079324.055208,47.655,-122.3035,60.0,0.21666666666666667
2026-01-20T23:00:14+00:00,SAT-58542,143.80176724119562,47.07156056257537,525.6492550110742,-2.1790950906763107,76321.12763857876,10.5,10500076321.127638,47.655,-122.3035,60.0,0.23333333333333334
2026-01-20T23:00:15+00:00,SAT-58542,143.15212606259135,47.69931853625651,523.4759708406397,-2.092282299871333,73280.57648684745,10.5,10500073280.576487,47.655,-122.3035,60.0,0.25
2026-01-20T23:00:16+00:00,SAT-58542,142.48171114857468,48.3283264947072,521.3892679602346,-2.004421206436719,70203.30934271052,10.5,10500070203.309343,47.655,-122.3035,60.0,0.26666666666666666
2026-01-20T23:00:17+00:00,SAT-58542,141.78964946185766,48.95817671790697,519.390191877015,-1.9155399935029145,67090.31329861074,10.5,10500067090.3133,47.655,-122.3035,60.0,0.2833333333333333
2026-01-20T23:00:18+00:00,SAT-58542,141.07503251752937,49.58843770911469,517.4797599901615,-1.8256691471819817,63942.656107148665,10.5,10500063942.656107,47.655,-122.3035,60.0,0.3
2026-01-20T23:00:19+00:00,SAT-58542,140.33691614497147,50.21865356635711,515.6589592940386,-1.7348414381119825,60761.48553468886,10.5,10500060761.485535,47.655,-122.3035,60.0,0.31666666666666665
2026-01-20T23:00:20+00:00,SAT-58542,139.57432053275883,50.84834337512411,513.9287440997616,-1.6430918910238854,57548.02829546431,10.5,10500057548.028296,47.655,-122.3035,60.0,0.3333333333333333
2026-01-20T23:00:21+00:00,SAT-58542,138.7862306205243,51.477000626242344,512.2900337871139,-1.5504577688764714,54303.5894959137,10.5,10500054303.589497,47.655,-122.3035,60.0,0.35
2026-01-20T23:00:22+00:00,SAT-58542,137.9715968978752,52.10409267470747,510.7437105722877,-1.4569785397157038,51029.55147395633,10.5,10500051029.551474,47.655,-122.3035,60.0,0.36666666666666664
2026-01-20T23:00:23+00:00,SAT-58542,137.12933669055084,52.72906024651466,509.29061730867795,-1.3626958036340173,47727.37124079747,10.5,10500047727.37124,47.655,-122.3035,60.0,0.38333333333333336
2026-01-20T23:00:24+00:00,SAT-58542,136.25833604037553,53.351316992650155,507.93155536052024,-1.2676532569170669,44398.57922519586,10.5,10500044398.579226,47.655,-122.3035,60.0,0.4
2026-01-20T23:00:25+00:00,SAT-58542,135.35745225421468,53.97024912124931,506.6672825122883,-1.1718965851292154,41044.77552886524,10.5,10500041044.775528,47.655,-122.3035,60.0,0.4166666666666667
2026-01-20T23:00:26+00:00,SAT-58542,134.42551727116285,54.58521509743654,505.4985109847194,-1.0754734060856863,37667.62792911791,10.5,10500037667.62793,47.655,-122.3035,60.0,0.43333333333333335
2026-01-20T23:00:27+00:00,SAT-58542,133.46134193472162,55.195545454261286,504.42590550771666,-0.9784331527460876,34268.86777730052,10.5,10500034268.867777,47.655,-122.3035,60.0,0.45
2026-01-20T23:00:28+00:00,SAT-58542,132.46372133838952,55.800542713113344,503.4500815100445,-0.8808269718832028,30850.286449746607,10.5,10500030850.28645,47.655,-122.3035,60.0,0.4666666666666667
2026-01-20T23:00:29+00:00,SAT-58542,131.4314413733266,56.399481448884345,502.57160341008637,-0.7827075994899292,27413.73098400046,10.5,10500027413.730984,47.655,-122.3035,60.0,0.48333333333333334
2026-01-20T23:00:30+00:00,SAT-58542,130.36328664331106,56.99160852062438,501.7909830308617,-0.6841292346528539,23961.099661336266,10.5,10500023961.09966,47.655,-122.3035,60.0,0.5
2026-01-20T23:00:31+00:00,SAT-58542,129.258049898858,57.57614350349281,501.1086781408346,-0.5851474018974349,20494.337185504068,10.5,10500020494.337185,47.655,-122.3035,60.0,0.5166666666666667
2026-01-20T23:00:32+00:00,SAT-58542,128.11454314845332,58.152279358230196,500.52509113200887,-0.48581879173913084,17015.429098155877,10.5,10500017015.429098,47.655,-122.3035,60.0,0.5333333333333333
2026-01-20T23:00:33+00:00,SAT-58542,126.93161062597962,58.71918336588408,500.04056785704773,-0.3862011185662235,13526.396801300942,10.5,10500013526.396801,47.655,-122.3035,60.0,0.55
2026-01-20T23:00:34+00:00,SAT-58542,125.70814371210352,59.27599839412724,499.655396608131,-0.2863529463107168,10029.291451563222,10.5,10500010029.291452,47.655,-122.3035,60.0,0.5666666666666667
2026-01-20T23:00:35+00:00,SAT-58542,124.44309797126049,59.82184452153987,499.36980726967715,-0.1863335280562107,6526.188342570687,10.5,10500006526.188343,47.655,-122.3035,60.0,0.5833333333333334
2026-01-20T23:00:36+00:00,SAT-58542,123.13551233854335,60.355821092874464,499.1839706310291,-0.08620262477198277,3019.1805562560853,10.5,10500003019.180555,47.655,-122.3035,60.0,0.6
2026-01-20T23:00:37+00:00,SAT-58542,121.78453052693925,60.87700924143206,499.0979978799231,0.01397966691691055,-489.62706936263476,10.5,10499999510.37293,47.655,-122.3035,60.0,0.6166666666666667
2026-01-20T23:00:38+00:00,SAT-58542,120.38942457742633,61.384474949288354,499.1119402677283,0.1141530958878103,-3998.1242851079596,10.5,10499996001.875715,47.655,-122.3035,60.0,0.6333333333333333
2026-01-20T23:00:39+00:00,SAT-58542,118.94962042172048,61.87727269843124,499.22578895536043,0.2142574364982273,-7504.201734225705,10.5,10499992495.798265,47.655,-122.3035,60.0,0.65
2026-01-20T23:00:40+00:00,SAT-58542,117.46472524539091,62.35444975382105,499.43947503869464,0.3142326718448721,-11005.75737089142,10.5,10499988994.24263,47.655,-122.3035,60.0,0.6666666666666666
2026-01-20T23:00:41+00:00,SAT-58542,115.93455620775227,62.81505114601666,499.7528697567479,0.4140191683826944,-14500.702576107808,10.5,10499985499.297424,47.655,-122.3035,60.0,0.6833333333333333
2026-01-20T23:00:42+00:00,SAT-58542,114.3591700874904,63.258125356219466,500.1657848740149,0.5135578572183096,-17986.968507367354,10.5,10499982013.031492,47.655,-122.3035,60.0,0.7
2026-01-20T23:00:43+00:00,SAT-58542,112.7388930747584,63.68273075048006,500.67797324361396,0.6127903979405488,-21462.511836691243,10.5,10499978537.488163,47.655,-122.3035,60.0,0.7166666666666667
2026-01-20T23:00:44+00:00,SAT-58542,111.07434992923481,64.08794273574837,501.2891295338267,0.7116593608775341,-24925.32113404303,10.5,10499975074.678865,47.655,-122.3035,60.0,0.7333333333333333
2026-01-20T23:00:45+00:00,SAT-58542,109.3664913943211,64.47286162954379,501.99889113640853,0.8101083750017166,-28373.42204758875,10.5,10499971626.577953,47.655,-122.3035,60.0,0.75
2026-01-20T23:00:46+00:00,SAT-58542,107.61661879069757,64.83662115557297,502.8068392224103,0.9080822849312885,-31804.882802550455,10.5,10499968195.117197,47.655,-122.3035,60.0,0.7666666666666667
2026-01-20T23:00:47+00:00,SAT-58542,105.82640444008476,65.17839748209353,503.71249995458174,1.005527297251164,-35217.81932598592,10.5,10499964782.180674,47.655,-122.3035,60.0,0.7833333333333333
2026-01-20T23:00:48+00:00,SAT-58542,103.99790658287178,65.49741865923605,504.71534584570685,1.1023911270710463,-38610.40037987208,10.5,10499961389.59962,47.655,-122.3035,60.0,0.8
2026-01-20T23:00:49+00:00,SAT-58542,102.13357743429209,65.79297427670232,505.81479726310573,1.1986231116611425,-41980.851541108466,10.5,10499958019.148458,47.655,-122.3035,60.0,0.8166666666666667
2026-01-20T23:00:50+00:00,SAT-58542,100.23626317814043,66.06442511470645,507.01022404646915,1.294174329064626,-45327.459355827334,10.5,10499954672.540644,47.655,-122.3035,60.0,0.8333333333333334
2026-01-20T23:00:51+00:00,SAT-58542,98.30919481340722,66.31121254068941,508.3009472439896,1.3889977124459365,-48648.57534435484,10.5,10499951351.424656,47.655,-122.3035,60.0,0.85
2026-01-20T23:00:52+00:00,SAT-58542,96.35596909668732,66.53286737107436,509.6862409625357,1.4830481422134942,-51942.61922773818,10.5,10499948057.380772,47.655,-122.3035,60.0,0.8666666666666667
2026-01-20T23:00:53+00:00,SAT-58542,94.38051924505623,66.7290179002772,511.16533430970327,1.5762825259828053,-55208.081728391764,10.5,10499944791.918272,47.655,-122.3035,60.0,0.8833333333333333
2026-01-20T23:00:54+00:00,SAT-58542,92.38707551814412,66.89939680327882,512.7374134156167,1.6686598678310622,-58443.52699568631,10.5,10499941556.473003,47.655,-122.3035,60.0,0.9
2026-01-20T23:00:55+00:00,SAT-58542,90.38011632309792,67.04384663566614,514.4016235238003,1.7601413404985922,-61647.59513474892,10.5,10499938352.404865,47.655,-122.3035,60.0,0.9166666666666666
2026-01-20T23:00:56+00:00,SAT-58542,88.36431100629503,67.1623236905196,516.1570711540576,1.8506903205877774,-64819.003439278196,10.5,10499935180.996561,47.655,-122.3035,60.0,0.9333333333333333
2026-01-20T23:00:57+00:00,SAT-58542,86.34445604788539,67.25490002060883,518.0028263004572,1.94027243534964,-67956.54803020835,10.5,10499932043.45197,47.655,-122.3035,60.0,0.95
2026-01-20T23:00:58+00:00,SAT-58542,84.32540673024054,67.32176350537821,519.9379246759792,2.0288555683025273,-71059.10405249933,10.5,10499928940.895948,47.655,-122.3035,60.0,0.9666666666666667
2026-01-20T23:00:59+00:00,SAT-58542,82.31200671114729,67.36321591613142,521.9613699627662,2.1164099155833953,-74125.62764879712,10.5,10499925874.37235,47.655,-122.3035,60.0,0.9833333333333333
2026-01-20T23:01:00+00:00,SAT-58542,80.30901797319531,67.37966901688696,524.0721361185747,2.2029079380506986,-77155.15428187435,10.5,10499922844.845718,47.655,-122.3035,60.0,1.0
2026-01-20T23:01:01+00:00,SAT-58542,78.32105375726408,67.37163881615724,526.2691696354573,2.288324402304588,-80146.80017133111,10.5,10499919853.19983,47.655,-122.3035,60.0,1.0166666666666666
2026-01-20T23:01:02+00:00,SAT-58542,76.35251669320179,67.33973816135968,528.5513918393557,2.372636314755685,-83099.75998440458,10.5,10499916900.240015,47.655,-122.3035,60.0,1.0333333333333334
2026-01-20T23:01:03+00:00,SAT-58542,74.40754419738191,67.2846679277324,530.9177011239386,2.4558229565582677,-86013.30805947697,10.5,10499913986.69194,47.655,-122.3035,60.0,1.05
2026-01-20T23:01:04+00:00,SAT-58542,72.48996256180189,67.20720709629838,533.3669752192795,2.537865800918341,-88886.79550985429,10.5,10499911113.20449,47.655,-122.3035,60.0,1.0666666666666667
2026-01-20T23:01:05+00:00,SAT-58542,70.60325083907624,67.10820204559053,535.898073378062,2.6187485089808025,-91719.65007971757,10.5,10499908280.34992,47.655,-122.3035,60.0,1.0833333333333333
2026-01-20T23:01:06+00:00,SAT-58542,68.7505149190613,66.98855538468703,538.5098385576856,2.6984568372990156,-94511.37290331587,10.5,10499905488.627096,47.655,-122.3035,60.0,1.1
2026-01-20T23:01:07+00:00,SAT-58542,66.9344718173671,66.84921465008567,541.2010995100851,2.7769786364108393,-97261.53845509287,10.5,10499902738.461544,47.655,-122.3035,60.0,1.1166666666666667
2026-01-20T23:01:08+00:00,SAT-58542,65.15744360800792,66.69116115533974,543.9706728701321,2.8543037757909593,-99969.79192119994,10.5,10499900030.208078,47.655,-122.3035,60.0,1.1333333333333333
2026-01-20T23:01:09+00:00,SAT-58542,63.421360193060806,66.51539925305374,546.8173651691876,2.930424029413961,-102635.84519143103,10.5,10499897364.154808,47.655,-122.3035,60.0,1.15
2026-01-20T23:01:10+00:00,SAT-58542,61.72776979889415,66.3229462239192,549.7399747345232,3.0053331127421226,-105259.47815469155,10.5,10499894740.521845,47.655,-122.3035,60.0,1.1666666666666667
2026-01-20T23:01:11+00:00,SAT-58542,60.07785581823654,66.11482294601227,552.7372936256314,3.079026490151033,-107840.53195422897,10.5,10499892159.468046,47.655,-122.3035,60.0,1.1833333333333333
2026-01-20T23:01:12+00:00,SAT-58542,58.47245878156994,65.89204547452245,555.8081093784754,3.1515013874783624,-110378.90942714378,10.5,10499889621.090572,47.655,-122.3035,60.0,1.2
2026-01-20T23:01:13+00:00,SAT-58542,56.91210199742043,65.65561758715312,558.9512067622537,3.222756687271385,-112874.5714355147,10.5,10499887125.428564,47.655,-122.3035,60.0,1.2166666666666666
2026-01-20T23:01:14+00:00,SAT-58542,55.3970196764846,65.40652433133344,562.1653694316924,3.2927928409538967,-115327.5337901126,10.5,10499884672.46621,47.655,-122.3035,60.0,1.2333333333333334
2026-01-20T23:01:15+00:00,SAT-58542,53.92718639957437,65.1457265661347,565.4493814917371,3.3616118002255653,-117737.86484771554,10.5,10499882262.135153,47.655,-122.3035,60.0,1.25
2026-01-20T23:01:16+00:00,SAT-58542,52.50234694902333,64.87415646269326,568.8020289938287,3.42921693915521,-120105.68278248582,10.5,10499879894.317217,47.655,-122.3035,60.0,1.2666666666666666
2026-01-20T23:01:17+00:00,SAT-58542,51.12204570717409,64.5927139084068,572.2221013544796,3.4956129423096853,-122431.15166777042,10.5,10499877568.848331,47.655,-122.3035,60.0,1.2833333333333334
2026-01-20T23:01:18+00:00,SAT-58542,49.7856550018041,64.30226374711256,575.7083926622764,3.5608057964330517,-124714.48118467025,10.5,10499875285.518816,47.655,-122.3035,60.0,1.3
2026-01-20T23:01:19+00:00,SAT-58542,48.49240188412768,64.0036337667101,579.2597029765856,3.624802627183586,-126955.92090387961,10.5,10499873044.079096,47.655,-122.3035,60.0,1.3166666666666667
2026-01-20T23:01:20+00:00,SAT-58542,47.241393070825104,63.69761336309994,582.8748394634301,3.687611659783648,-129155.75890747827,10.5,10499870844.241093,47.655,-122.3035,60.0,1.3333333333333333
2026-01-20T23:01:21+00:00,SAT-58542,46.031637794275596,63.38495278491499,586.5526174921209,3.74924217097145,-131314.32010607893,10.5,10499868685.679893,47.655,-122.3035,60.0,1.35
2026-01-20T23:01:22+00:00,SAT-58542,44.862068466824006,63.06636287689522,590.2918616839698,3.809704338391903,-133431.96096385783,10.5,10499866568.039036,47.655,-122.3035,60.0,1.3666666666666667
2026-01-20T23:01:23+00:00,SAT-58542,43.73155917294188,62.74251525277435,594.0914068107926,3.86900924847974,-135509.0697746548,10.5,10499864490.930225,47.655,-122.3035,60.0,1.3833333333333333
2026-01-20T23:01:24+00:00,SAT-58542,42.63894198365002,62.414042811197255,597.9500987012765,3.9271687575638174,-137546.0617972587,10.5,10499862453.938202,47.655,-122.3035,60.0,1.4
2026-01-20T23:01:25+00:00,SAT-58542,41.58302123272459,62.08154054202605,601.8667950088201,3.9841954745795105,-139543.37864992206,10.5,10499860456.62135,47.655,-122.3035,60.0,1.4166666666666667
2026-01-20T23:01:26+00:00,SAT-58542,40.562585843961934,61.74556655357554,605.8403659621341,4.040102661167445,-141501.48481139634,10.5,10499858498.515188,47.655,-122.3035,60.0,1.4333333333333333
2026-01-20T23:01:27+00:00,SAT-58542,39.5764198802764,61.406643276669705,609.8696950162051,4.094904169867494,-143420.865456224,10.5,10499856579.134544,47.655,-122.3035,60.0,1.45
2026-01-20T23:01:28+00:00,SAT-58542,38.62331146102421,61.06525879749613,613.9536794416196,4.148614392275787,-145302.02463897795,10.5,10499854697.97536,47.655,-122.3035,60.0,1.4666666666666666
2026-01-20T23:01:29+00:00,SAT-58542,37.7020602069357,60.72186828024798,618.0912308621827,4.201248218058948,-147145.4838587666,10.5,10499852854.516142,47.655,-122.3035,60.0,1.4833333333333334
2026-01-20T23:01:30+00:00,SAT-58542,36.81148337057304,60.37689544653816,622.2812757516601,4.252820921685119,-148951.7780920751,10.5,10499851048.221909,47.655,-122.3035,60.0,1.5
2026-01-20T23:01:31+00:00,SAT-58542,35.95042082060208,60.03073409099074,626.5227558175541,4.303348187066651,-150721.456655857,10.5,10499849278.543344,47.655,-122.3035,60.0,1.5166666666666666
2026-01-20T23:01:32+00:00,SAT-58542,35.11773899474588,59.683749599181915,630.8146284094552,4.352845940795786,-152455.07736674196,10.5,10499847544.922634,47.655,-122.3035,60.0,1.5333333333333334
2026-01-20T23:01:33+00:00,SAT-58542,34.312333994115924,59.33628046638634,635.1558667610756,4.401330471184978,-154153.2107103317,10.5,10499845846.78929,47.655,-122.3035,60.0,1.55
2026-01-20T23:01:34+00:00,SAT-58542,33.53313388565586,58.98863977904783,639.5454603510041,4.448818218648221,-155816.43249946708,10.5,10499844183.567501,47.655,-122.3035,60.0,1.5666666666666667
2026-01-20T23:01:35+00:00,SAT-58542,32.77910038603348,58.641116675377326,643.9824150544025,4.49532582805975,-157445.3257080516,10.5,10499842554.674292,47.655,-122.3035,60.0,1.5833333333333333
2026-01-20T23:01:36+00:00,SAT-58542,32.04922997612741,58.29397775488734,648.4657533469207,4.540870082464145,-159040.47814929858,10.5,10499840959.52185,47.655,-122.3035,60.0,1.6
2026-01-20T23:01:37+00:00,SAT-58542,31.34255455636859,57.947468440697065,652.9945144424984,4.5854678503548785,-160602.48062920323,10.5,10499839397.519371,47.655,-122.3035,60.0,1.6166666666666667
2026-01-20T23:01:38+00:00,SAT-58542,30.658141716990023,57.60181428904772,657.5677543785856,4.629136092400356,-162131.92718211655,10.5,10499837868.072819,47.655,-122.3035,60.0,1.6333333333333333
2026-01-20T23:01:39+00:00,SAT-58542,29.9950946816858,57.25722223870231,662.1845461080728,4.671891771292966,-163629.41191327816,10.5,10499836370.588087,47.655,-122.3035,60.0,1.65
2026-01-20T23:01:40+00:00,SAT-58542,29.352551997967005,56.913881806254146,666.8439795013091,4.713751874541725,-165095.52979711088,10.5,10499834904.470203,47.655,-122.3035,60.0,1.6666666666666667
2026-01-20T23:01:41+00:00,SAT-58542,28.729687008059884,56.57196621818714,671.545161370852,4.754733372613258,-166530.87521114093,10.5,10499833469.124788,47.655,-122.3035,60.0,1.6833333333333333
2026-01-20T23:01:42+00:00,SAT-58542,28.12570715383503,56.23163348495045,676.2872154544716,4.794853135237415,-167936.03900466653,10.5,10499832063.960995,47.655,-122.3035,60.0,1.7
2026-01-20T23:01:43+00:00,SAT-58542,27.539853157074628,55.89302742105195,681.0692823146818,4.834128000251469,-169311.610909973,10.5,10499830688.38909,47.655,-122.3035,60.0,1.7166666666666666
2026-01-20T23:01:44+00:00,SAT-58542,26.9713980876153,55.556278601233075,685.8905193069326,4.872574707660012,-170658.17723283128,10.5,10499829341.822767,47.655,-122.3035,60.0,1.7333333333333334
2026-01-20T23:01:45+00:00,SAT-58542,26.41964636345838,55.22150526468732,690.7501004820388,4.910209867818993,-171976.31973816841,10.5,10499828023.680262,47.655,-122.3035,60.0,1.75
2026-01-20T23:01:46+00:00,SAT-58542,25.883932700301745,54.88881416662838,695.647216456877,4.947049941061313,-173266.6149364698,10.5,10499826733.385063,47.655,-122.3035,60.0,1.7666666666666666
2026-01-20T23:01:47+00:00,SAT-58542,25.363621027445017,54.55830137867507,700.5810742647622,4.9831112350728946,-174529.63399187778,10.5,10499825470.366009,47.655,-122.3035,60.0,1.7833333333333334
2026-01-20T23:01:48+00:00,SAT-58542,24.85810338399127,54.2300530390524,705.5508972032081,5.018409935360954,-175765.94378931983,10.5,10499824234.056211,47.655,-122.3035,60.0,1.8
2026-01-20T23:01:49+00:00,SAT-58542,24.366798805081217,53.90414605306261,710.5559247120748,5.052961991601846,-176976.10295392878,10.5,10499823023.897045,47.655,-122.3035,60.0,1.8166666666666667
2026-01-20T23:01:50+00:00,SAT-58542,23.88915222276384,53.5806487558521,715.5954121383656,5.086783188842119,-178160.6643448057,10.5,10499821839.335655,47.655,-122.3035,60.0,1.8333333333333333
2026-01-20T23:01:51+00:00,SAT-58542,23.424633371168323,53.25962152740265,720.6686305720375,5.1198890874222736,-179320.1729508948,10.5,10499820679.82705,47.655,-122.3035,60.0,1.85
2026-01-20T23:01:52+00:00,SAT-58542,22.972735715804866,52.94111737090557,725.7748666218934,5.1522950541057,-180455.1669812516,10.5,10499819544.83302,47.655,-122.3035,60.0,1.8666666666666667
2026-01-20T23:01:53+00:00,SAT-58542,22.532975403436875,52.62518245096795,730.9134222225215,5.184016239312353,-181566.17706766893,10.5,10499818433.822933,47.655,-122.3035,60.0,1.8833333333333333
2026-01-20T23:01:54+00:00,SAT-58542,22.104890241867604,52.31185659728547,736.083614418529,5.215067528617307,-182653.72456595194,10.5,10499817346.275434,47.655,-122.3035,60.0,1.9
2026-01-20T23:01:55+00:00,SAT-58542,21.688038714055903,52.0011737775622,741.2847751004033,5.245463594526018,-183718.32336930634,10.5,10499816281.67663,47.655,-122.3035,60.0,1.9166666666666667
2026-01-20T23:01:56+00:00,SAT-58542,21.281999020751524,51.693162535402415,746.5162507920106,5.275218895393225,-184760.47987047382,10.5,10499815239.52013,47.655,-122.3035,60.0,1.9333333333333333
2026-01-20T23:01:57+00:00,SAT-58542,20.886368157750347,51.38784639869939,751.7774024370161,5.304347592321383,-185780.69005116372,10.5,10499814219.309948,47.655,-122.3035,60.0,1.95
2026-01-20T23:01:58+00:00,SAT-58542,20.500761034514102,51.08524426509641,757.0676051024246,5.332863628501652,-186779.4422609102,10.5,10499813220.55774,47.655,-122.3035,60.0,1.9666666666666666
2026-01-20T23:01:59+00:00,SAT-58542,20.12480962224235,50.78537075664769,762.3862477612503,5.360780701411353,-187757.21624330926,10.5,10499812242.783756,47.655,-122.3035,60.0,1.9833333333333334
2026-01-20T23:02:00+00:00,SAT-58542,19.758162139816733,50.48823655179691,767.7327330474578,5.388112237613889,-188714.4822534056,10.5,10499811285.517746,47.655,-122.3035,60.0,2.0
2026-01-20T23:02:01+00:00,SAT-58542,19.400482276677224,50.19384869604044,773.1064769857715,5.414871441705905,-189651.70277202906,10.5,10499810348.297228,47.655,-122.3035,60.0,2.0166666666666666
2026-01-20T23:02:02+00:00,SAT-58542,19.051448447301482,49.90221088854736,778.5069087702996,5.441071198966129,-190569.3290961454,10.5,10499809430.670904,47.655,-122.3035,60.0,2.033333333333333
2026-01-20T23:02:03+00:00,SAT-58542,18.710753085851966,49.613323754364274,783.9334704460683,5.466724213419887,-191467.80617445958,10.5,10499808532.193825,47.655,-122.3035,60.0,2.05
2026-01-20T23:02:04+00:00,SAT-58542,18.3781019653857,49.3271850904262,789.3856167282524,5.49184288834393,-192347.56842218916,10.5,10499807652.431578,47.655,-122.3035,60.0,2.066666666666667
2026-01-20T23:02:05+00:00,SAT-58542,18.053213556715384,49.043790100928696,794.8628147022275,5.516439405712615,-193209.0425036058,10.5,10499806790.957497,47.655,-122.3035,60.0,2.0833333333333335
2026-01-20T23:02:06+00:00,SAT-58542,17.735818413626276,48.763131612261105,800.3645436028582,5.540525652691668,-194052.64475753595,10.5,10499805947.355242,47.655,-122.3035,60.0,2.1
2026-01-20T23:02:07+00:00,SAT-58542,17.425658592296948,48.485200276831144,805.890294520476,5.56411329838966,-194878.78388552202,10.5,10499805121.216114,47.655,-122.3035,60.0,2.1166666666666667
2026-01-20T23:02:08+00:00,SAT-58542,17.1224870952636,48.209984758841216,811.4395701834034,5.587213743430916,-195687.85918565243,10.5,10499804312.140814,47.655,-122.3035,60.0,2.1333333333333333
2026-01-20T23:02:09+00:00,SAT-58542,16.826067345846013,47.93747190969411,817.0118846901851,5.609838175202437,-196480.26248754258,10.5,10499803519.737513,47.655,-122.3035,60.0,2.15
2026-01-20T23:02:10+00:00,SAT-58542,16.53617268627808,47.66764692845414,822.6067632969203,5.631997498317234,-197256.37571686663,10.5,10499802743.624283,47.655,-122.3035,60.0,2.1666666666666665
2026-01-20T23:02:11+00:00,SAT-58542,16.25258590468522,47.4004935145117,828.223742135242,5.653702385515213,-198016.57267812165,10.5,10499801983.427322,47.655,-122.3035,60.0,2.183333333333333
2026-01-20T23:02:12+00:00,SAT-58542,15.975098783652665,47.13599400711861,833.8623679810624,5.674963279855626,-198761.21913141682,10.5,10499801238.780869,47.655,-122.3035,60.0,2.2
2026-01-20T23:02:13+00:00,SAT-58542,15.703511671744804,46.874129515084476,839.5221980255052,5.695790374812144,-199490.67209531838,10.5,10499800509.327904,47.655,-122.3035,60.0,2.216666666666667
2026-01-20T23:02:14+00:00,SAT-58542,15.437633077992812,46.61488003827478,845.2027996259845,5.71619366493461,-200205.2816212388,10.5,10499799794.718378,47.655,-122.3035,60.0,2.2333333333333334
2026-01-20T23:02:15+00:00,SAT-58542,15.177279284918072,46.35822457828117,850.9037501078126,5.736182872912267,-200905.38823888227,10.5,10499799094.611761,47.655,-122.3035,60.0,2.25
2026-01-20T23:02:16+00:00,SAT-58542,14.922273984732072,46.104141244560985,856.6246364930638,5.755767529767022,-201591.32576495214,10.5,10499798408.674234,47.655,-122.3035,60.0,2.2666666666666666
2026-01-20T23:02:17+00:00,SAT-58542,14.672447930791481,45.85260734952746,862.3650553094182,5.77495689657998,-202263.41856168307,10.5,10499797736.581438,47.655,-122.3035,60.0,2.283333333333333
2026-01-20T23:02:18+00:00,SAT-58542,14.42763861031644,45.603599500317934,868.1246123209406,5.793760093886353,-202921.98606879797,10.5,10499797078.013931,47.655,-122.3035,60.0,2.3
2026-01-20T23:02:19+00:00,SAT-58542,14.187689928677255,45.35709367847311,873.9029223879098,5.812185965973417,-203567.33805064863,10.5,10499796432.66195,47.655,-122.3035,60.0,2.316666666666667
2026-01-20T23:02:20+00:00,SAT-58542,13.95245191550521,45.11306531968999,879.6996091913073,5.830243155824253,-204199.77722106222,10.5,10499795800.222778,47.655,-122.3035,60.0,2.3333333333333335
2026-01-20T23:02:21+00:00,SAT-58542,13.72178044281332,44.87148938474424,885.5143050320494,5.847940125356702,-204819.5999521955,10.5,10499795180.400047,47.655,-122.3035,60.0,2.35
2026-01-20T23:02:22+00:00,SAT-58542,13.495536956964532,44.632340424451094,891.3466506504052,5.86528511450126,-205427.09484126928,10.5,10499794572.905159,47.655,-122.3035,60.0,2.3666666666666667
2026-01-20T23:02:23+00:00,SAT-58542,13.273588225885227,44.395592641630635,897.1962950046011,5.882286180509082,-206022.54408730112,10.5,10499793977.455914,47.655,-122.3035,60.0,2.3833333333333333
2026-01-20T23:02:24+00:00,SAT-58542,13.055806097815678,44.16121994696713,903.0628950886289,5.898951145685776,-206606.2216605217,10.5,10499793393.77834,47.655,-122.3035,60.0,2.4
2026-01-20T23:02:25+00:00,SAT-58542,12.842067274172317,43.929196012914936,908.9461156979262,5.915287692920822,-207178.39664821932,10.5,10499792821.603352,47.655,-122.3035,60.0,2.4166666666666665
2026-01-20T23:02:26+00:00,SAT-58542,12.632253090714489,43.699494319845776,914.8456292903325,5.931303323708384,-207739.33178445083,10.5,10499792260.668215,47.655,-122.3035,60.0,2.433333333333333
2026-01-20T23:02:27+00:00,SAT-58542,12.426249311278845,43.47208820045442,920.7611158051776,5.947005292669917,-208289.28115674653,10.5,10499791710.718843,47.655,-122.3035,60.0,2.45
2026-01-20T23:02:28+00:00,SAT-58542,12.223945934122735,43.24695088335309,926.6922624170671,5.962400725718693,-208828.49434473188,10.5,10499791171.505655,47.655,-122.3035,60.0,2.466666666666667
2026-01-20T23:02:29+00:00,SAT-58542,12.025237004097912,43.02405552894689,932.6387634075172,5.977496570827155,-209357.21469579174,10.5,10499790642.785305,47.655,-122.3035,60.0,2.4833333333333334
2026-01-20T23:02:30+00:00,SAT-58542,11.830020435979312,42.80337526440404,938.6003199874888,5.992299609250196,-209875.6797181571,10.5,10499790124.320282,47.655,-122.3035,60.0,2.5
2026-01-20T23:02:31+00:00,SAT-58542,11.638197846191769,42.58488321559541,944.5766401311142,6.006816447009926,-210384.12078266565,10.5,10499789615.879217,47.655,-122.3035,60.0,2.5166666666666666
2026-01-20T23:02:32+00:00,SAT-58542,11.449674393289746,42.368552536838784,950.5674384009322,6.02105348093122,-210882.76193318315,10.5,10499789117.238068,47.655,-122.3035,60.0,2.533333333333333
2026-01-20T23:02:33+00:00,SAT-58542,11.264358627250624,42.15435643958384,956.5724357392476,6.035017056566698,-211371.82541780398,10.5,10499788628.174582,47.655,-122.3035,60.0,2.55
2026-01-20T23:02:34+00:00,SAT-58542,11.08216234169084,41.94226821321059,962.5913594169969,6.048713266784906,-211851.5246345574,10.5,10499788148.475365,47.655,-122.3035,60.0,2.566666666666667
2026-01-20T23:02:35+00:00,SAT-58542,10.903000439143895,41.732261251242846,968.623942781737,6.062148120859351,-212322.07005362082,10.5,10499787677.929947,47.655,-122.3035,60.0,2.5833333333333335
2026-01-20T23:02:36+00:00,SAT-58542,10.72679079819252,41.524309069566776,974.669925174274,6.075327406554047,-212783.66438697232,10.5,10499787216.335613,47.655,-122.3035,60.0,2.6
2026-01-20T23:02:37+00:00,SAT-58542,10.553454150820867,41.318385327914434,980.7290517077439,6.088256825806257,-213236.5073405739,10.5,10499786763.492659,47.655,-122.3035,60.0,2.6166666666666667
2026-01-20T23:02:38+00:00,SAT-58542,10.382913962136962,41.114463844920515,986.8010731820148,6.100941943440116,-213680.79381810606,10.5,10499786319.206182,47.655,-122.3035,60.0,2.6333333333333333
2026-01-20T23:02:39+00:00,SAT-58542,10.215096317225504,40.9125186136503,992.885745946939,6.113388152583436,-214116.7127097176,10.5,10499785883.28729,47.655,-122.3035,60.0,2.65
2026-01-20T23:02:40+00:00,SAT-58542,10.04992981443071,40.71252381686737,998.9828317311155,6.1256007156784875,-214544.44832839697,10.5,10499785455.551672,47.655,-122.3035,60.0,2.6666666666666665
2026-01-20T23:02:41+00:00,SAT-58542,9.887345462574618,40.514453839685864,1005.0920975115522,6.13758479260193,-214964.18139485107,10.5,10499785035.818605,47.655,-122.3035,60.0,2.683333333333333
2026-01-20T23:02:42+00:00,SAT-58542,9.727276582487322,40.3182832800983,1011.2133154113739,6.1493453987340185,-215376.08756891137,10.5,10499784623.912432,47.655,-122.3035,60.0,2.7
2026-01-20T23:02:43+00:00,SAT-58542,9.569658714175864,40.123986959894886,1017.3462625557113,6.160887409955917,-215780.33762456136,10.5,10499784219.662374,47.655,-122.3035,60.0,2.716666666666667
2026-01-20T23:02:44+00:00,SAT-58542,9.414429528264249,39.931539934364366,1023.490720932574,6.172215613383257,-216177.09922683978,10.5,10499783822.900774,47.655,-122.3035,60.0,2.7333333333333334
2026-01-20T23:02:45+00:00,SAT-58542,9.261528740420328,39.740917499445324,1029.6464773043215,6.183334650974699,-216566.5349567745,10.5,10499783433.465044,47.655,-122.3035,60.0,2.75
2026-01-20T23:02:46+00:00,SAT-58542,9.110898031039742,39.552095199879574,1035.8133230628937,6.194249087153504,-216948.80467977547,10.5,10499783051.19532,47.655,-122.3035,60.0,2.7666666666666666
2026-01-20T23:02:47+00:00,SAT-58542,8.962480967180326,39.36504883442666,1041.9910541524814,6.204963300266767,-217324.06174407847,10.5,10499782675.938255,47.655,-122.3035,60.0,2.783333333333333
2026-01-20T23:02:48+00:00,SAT-58542,8.816222930486806,39.17975446373652,1048.1794708839475,6.21548164433756,-217692.45864598893,10.5,10499782307.541353,47.655,-122.3035,60.0,2.8
2026-01-20T23:02:49+00:00,SAT-58542,8.672071044876986,38.9961884125499,1054.3783779105668,6.225808313258301,-218054.14227335952,10.5,10499781945.857727,47.655,-122.3035,60.0,2.816666666666667
2026-01-20T23:02:50+00:00,SAT-58542,8.529974110487114,38.81432727550191,1060.587584068323,6.235947435327519,-218409.25721666738,10.5,10499781590.742783,47.655,-122.3035,60.0,2.8333333333333335
2026-01-20T23:02:51+00:00,SAT-58542,8.389882538624446,38.63414791945659,1066.8069023104897,6.245902989571846,-218757.9428382564,10.5,10499781242.057161,47.655,-122.3035,60.0,2.85
2026-01-20T23:02:52+00:00,SAT-58542,8.251748291379739,38.45562748784501,1073.036149558756,6.255678888911099,-219100.33618513026,10.5,10499780899.663815,47.655,-122.3035,60.0,2.8666666666666667
2026-01-20T23:02:53+00:00,SAT-58542,8.115524822271075,38.27874340203481,1079.2751466372968,6.265278960546085,-219436.5713020502,10.5,10499780563.428698,47.655,-122.3035,60.0,2.8833333333333333
2026-01-20T23:02:54+00:00,SAT-58542,7.981167019911704,38.10347336289629,1085.5237181872815,6.2747069017529995,-219766.7776832681,10.5,10499780233.222317,47.655,-122.3035,60.0,2.9
2026-01-20T23:02:55+00:00,SAT-58542,7.848631155122335,37.92979535320935,1091.7816925372963,6.283966350176712,-220091.08273449453,10.5,10499779908.917265,47.655,-122.3035,60.0,2.9166666666666665
2026-01-20T23:02:56+00:00,SAT-58542,7.717874828937338,37.75768763770506,1098.0489016438726,6.293060866274942,-220409.61115801948,10.5,10499779590.388842,47.655,-122.3035,60.0,2.933333333333333
2026-01-20T23:02:57+00:00,SAT-58542,7.5888569233,37.587128763293926,1104.325181014504,6.301993854210298,-220722.48218201715,10.5,10499779277.517818,47.655,-122.3035,60.0,2.95
2026-01-20T23:02:58+00:00,SAT-58542,7.461537555389598,37.418097561172715,1110.61036955177,6.31076872021981,-221029.8151073167,10.5,10499778970.184893,47.655,-122.3035,60.0,2.966666666666667
2026-01-20T23:02:59+00:00,SAT-58542,7.3358780309683835,37.250573144261914,1116.9043095554025,6.319388734595286,-221331.72447337053,10.5,10499778668.275526,47.655,-122.3035,60.0,2.9833333333333334
2026-01-20T23:03:00+00:00,SAT-58542,7.21184080230245,37.084534908223596,1123.2068465867055,6.327857126444556,-221628.32337719397,10.5,10499778371.676622,47.655,-122.3035,60.0,3.0
2026-01-20T23:03:01+00:00,SAT-58542,7.089389426201904,36.91996252964726,1129.5178294274795,6.336176997845161,-221919.7204666643,10.5,10499778080.279533,47.655,-122.3035,60.0,3.0166666666666666
2026-01-20T23:03:02+00:00,SAT-58542,6.968488525343536,36.756835966351474,1135.8371099533304,6.344351408438923,-222206.02290338036,10.5,10499777793.977097,47.655,-122.3035,60.0,3.033333333333333
2026-01-20T23:03:03+00:00,SAT-58542,6.849103749792025,36.59513545521377,1142.1645430913468,6.352383343705954,-222487.33525148427,10.5,10499777512.66475,47.655,-122.3035,60.0,3.05
2026-01-20T23:03:04+00:00,SAT-58542,6.731201740664056,36.434841510715586,1148.499986746136,6.360275728660659,-222763.75995735326,10.5,10499777236.240042,47.655,-122.3035,60.0,3.066666666666667
2026-01-20T23:03:05+00:00,SAT-58542,6.614750095138962,36.27593492297669,1154.8433017395205,6.368031374827142,-223035.3954924543,10.5,10499776964.604507,47.655,-122.3035,60.0,3.0833333333333335
2026-01-20T23:03:06+00:00,SAT-58542,6.499717333791706,36.11839675701256,1161.194351697348,6.375653059062824,-223302.3391140802,10.5,10499776697.660887,47.655,-122.3035,60.0,3.1
2026-01-20T23:03:07+00:00,SAT-58542,6.3860728679894,35.962208349834626,1167.55300301492,6.383143501948423,-223564.68610847587,10.5,10499776435.313892,47.655,-122.3035,60.0,3.1166666666666667
2026-01-20T23:03:08+00:00,SAT-58542,6.273786968983795,35.807351308049796,1173.9191248008633,6.390505316777176,-223822.52800422464,10.5,10499776177.471996,47.655,-122.3035,60.0,3.1333333333333333
2026-01-20T23:03:09+00:00,SAT-58542,6.1628307391310955,35.6538075066057,1180.292588770129,6.397741113322393,-224075.9562066272,10.5,10499775924.043793,47.655,-122.3035,60.0,3.15
2026-01-20T23:03:10+00:00,SAT-58542,6.053176082584983,35.50155908490495,1186.6732692404826,6.404853386507339,-224325.05809844978,10.5,10499775674.941902,47.655,-122.3035,60.0,3.1666666666666665
2026-01-20T23:03:11+00:00,SAT-58542,5.944795679011415,35.35058844558226,1193.0610430179593,6.41184460365996,-224569.92009595377,10.5,10499775430.079905,47.655,-122.3035,60.0,3.183333333333333
2026-01-20T23:03:12+00:00,SAT-58542,5.837662956932158,35.20087825109817,1199.4557893693427,6.4187171528754705,-224810.62584033533,10.5,10499775189.374159,47.655,-122.3035,60.0,3.2
2026-01-20T23:03:13+00:00,SAT-58542,5.7317520690041945,35.05241142152383,1205.8573899431437,6.425473376255197,-225047.2573618899,10.5,10499774952.742638,47.655,-122.3035,60.0,3.216666666666667
2026-01-20T23:03:14+00:00,SAT-58542,5.627037867735588,34.90517113149758,1212.2657287237291,6.432115566896138,-225279.89497457416,10.5,10499774720.105026,47.655,-122.3035,60.0,3.2333333333333334
2026-01-20T23:03:15+00:00,SAT-58542,5.523495882249039,34.7591408072227,1218.6806919824467,6.4386459742259925,-225508.6174628613,10.5,10499774491.382538,47.655,-122.3035,60.0,3.25
2026-01-20T23:03:16+00:00,SAT-58542,5.421102295866151,34.61430412334314,1225.102168234075,6.445066752781996,-225733.50028775894,10.5,10499774266.499712,47.655,-122.3035,60.0,3.2666666666666666
2026-01-20T23:03:17+00:00,SAT-58542,5.3198339253580516,34.470645000948096,1231.530048142183,6.451380038451998,-225954.61825709432,10.5,10499774045.381742,47.655,-122.3035,60.0,3.283333333333333
2026-01-20T23:03:18+00:00,SAT-58542,5.219668199856229,34.32814760382512,1237.9642245005323,6.457587918007459,-226172.04445843105,10.5,10499773827.955542,47.655,-122.3035,60.0,3.3
2026-01-20T23:03:19+00:00,SAT-58542,5.120583141078685,34.186796335412566,1244.4045921840916,6.463692440379066,-226385.85065398872,10.5,10499773614.149345,47.655,-122.3035,60.0,3.316666666666667
2026-01-20T23:03:20+00:00,SAT-58542,5.0225573441134115,34.04657583551368,1250.8510481112964,6.469695564477806,-226596.10545311635,10.5,10499773403.894547,47.655,-122.3035,60.0,3.3333333333333335
2026-01-20T23:03:21+00:00,SAT-58542,4.925569959731709,33.907470978152,1257.3034911542688,6.475599235246505,-226802.8769759388,10.5,10499773197.123024,47.655,-122.3035,60.0,3.35
2026-01-20T23:03:22+00:00,SAT-58542,4.829600676255089,33.76946686775849,1263.761822124888,6.481405359484819,-227006.23200664576,10.5,10499772993.767994,47.655,-122.3035,60.0,3.3666666666666667
2026-01-20T23:03:23+00:00,SAT-58542,4.734629702520602,33.63254883591374,1270.2259437367477,6.487115788844977,-227206.23539793072,10.5,10499772793.764603,47.655,-122.3035,60.0,3.3833333333333333
2026-01-20T23:03:24+00:00,SAT-58542,4.6406377516705115,33.4967024384854,1276.6957605501557,6.492732316663014,-227402.9499600075,10.5,10499772597.05004,47.655,-122.3035,60.0,3.4
2026-01-20T23:03:25+00:00,SAT-58542,4.5476060256259245,33.36191345282941,1283.1711789139742,6.498256721963245,-227596.43800183284,10.5,10499772403.561998,47.655,-122.3035,60.0,3.4166666666666665
2026-01-20T23:03:26+00:00,SAT-58542,4.455516199542938,33.22816787409178,1289.6521069513458,6.503690749752296,-227786.76064092017,10.5,10499772213.239359,47.655,-122.3035,60.0,3.433333333333333
2026-01-20T23:03:27+00:00,SAT-58542,4.364350407135917,33.095451911963195,1296.1384545257652,6.509036061012312,-227973.97605189012,10.5,10499772026.023949,47.655,-122.3035,60.0,3.45
2026-01-20T23:03:28+00:00,SAT-58542,4.274091227154436,32.963751988501855,1302.6301331572815,6.514294317810482,-228158.14244736623,10.5,10499771841.857553,47.655,-122.3035,60.0,3.466666666666667
2026-01-20T23:03:29+00:00,SAT-58542,4.184721669314175,32.833054734203344,1309.127056023578,6.519467111187238,-228339.3155523145,10.5,10499771660.684448,47.655,-122.3035,60.0,3.4833333333333334
2026-01-20T23:03:30+00:00,SAT-58542,4.096225161610656,32.70334698560755,1315.629137889135,6.524556085187281,-228517.5529481347,10.5,10499771482.447052,47.655,-122.3035,60.0,3.5
2026-01-20T23:03:31+00:00,SAT-58542,4.008585536605245,32.57461578041967,1322.1362951580954,6.529562725822091,-228692.90668123463,10.5,10499771307.093319,47.655,-122.3035,60.0,3.5166666666666666
2026-01-20T23:03:32+00:00,SAT-58542,3.9217870207701684,32.44684835694573,1328.6484457166487,6.53448852471135,-228865.42899444516,10.5,10499771134.571005,47.655,-122.3035,60.0,3.533333333333333
2026-01-20T23:03:33+00:00,SAT-58542,3.8358142222444904,32.32003215021722,1335.1655089386272,6.539334987838815,-229035.17263368767,10.5,10499770964.827366,47.655,-122.3035,60.0,3.55
2026-01-20T23:03:34+00:00,SAT-58542,3.7506521188978885,32.194154788048785,1341.687405699832,6.544103574018327,-229202.1886927937,10.5,10499770797.811308,47.655,-122.3035,60.0,3.566666666666667
2026-01-20T23:03:35+00:00,SAT-58542,3.6662860476142605,32.069204088341685,1348.2140583309863,6.548795674869452,-229366.52591216704,10.5,10499770633.474089,47.655,-122.3035,60.0,3.5833333333333335
2026-01-20T23:03:36+00:00,SAT-58542,3.5827016941305314,31.945168056828695,1354.7453905507225,6.553412630434313,-229528.23122575114,10.5,10499770471.768774,47.655,-122.3035,60.0,3.6
2026-01-20T23:03:37+00:00,SAT-58542,3.4998850831083903,31.822034884501164,1361.2813274141424,6.557955826197502,-229687.35315907706,10.5,10499770312.646841,47.655,-122.3035,60.0,3.6166666666666667
2026-01-20T23:03:38+00:00,SAT-58542,3.4178225673673115,31.69979294326607,1367.8217953581368,6.562426603703694,-229843.93869871396,10.5,10499770156.061302,47.655,-122.3035,60.0,3.6333333333333333
2026-01-20T23:03:39+00:00,SAT-58542,3.336500818608991,31.57843078335185,1374.366722157564,6.566826201339364,-229998.03121819466,10.5,10499770001.968782,47.655,-122.3035,60.0,3.65
2026-01-20T23:03:40+00:00,SAT-58542,3.255906819053032,31.45793713187717,1380.9160368223666,6.571155919699632,-230149.6762698618,10.5,10499769850.32373,47.655,-122.3035,60.0,3.6666666666666665
2026-01-20T23:03:41+00:00,SAT-58542,3.176027851565418,31.338300888330473,1387.4696696596136,6.575416953085455,-230298.91568318667,10.5,10499769701.084316,47.655,-122.3035,60.0,3.683333333333333
2026-01-20T23:03:42+00:00,SAT-58542,3.096851491963298,31.21951112326728,1394.0275521674907,6.5796105366830515,-230445.7927196155,10.5,10499769554.207281,47.655,-122.3035,60.0,3.7
2026-01-20T23:03:43+00:00,SAT-58542,3.0183655999880155,31.101557074306662,1400.589617076076,6.583737862220005,-230590.34911848934,10.5,10499769409.65088,47.655,-122.3035,60.0,3.716666666666667
2026-01-20T23:03:44+00:00,SAT-58542,2.940558311497465,30.98442814375757,1407.1557983039968,6.587800051727656,-230732.62417809188,10.5,10499769267.375822,47.655,-122.3035,60.0,3.7333333333333334
2026-01-20T23:03:45+00:00,SAT-58542,2.8634180312192132,30.868113896736862,1413.7260308889197,6.59179825832566,-230872.6582855511,10.5,10499769127.341715,47.655,-122.3035,60.0,3.75
2026-01-20T23:03:46+00:00,SAT-58542,2.786933424645631,30.75260405751385,1420.3002510185565,6.595733582612967,-231010.4899884978,10.5,10499768989.510012,47.655,-122.3035,60.0,3.7666666666666666
2026-01-20T23:03:47+00:00,SAT-58542,2.7110934111236173,30.637888507419074,1426.8783959782827,6.599607107331972,-231146.1572091507,10.5,10499768853.84279,47.655,-122.3035,60.0,3.783333333333333
2026-01-20T23:03:48+00:00,SAT-58542,2.635887156775384,30.523957282167846,1433.4604041333282,6.603419897615005,-231279.6972529494,10.5,10499768720.302748,47.655,-122.3035,60.0,3.8
2026-01-20T23:03:49+00:00,SAT-58542,2.5613040676896532,30.41080056923123,1440.0462149112163,6.607172968239466,-231411.14566169106,10.5,10499768588.854338,47.655,-122.3035,60.0,3.816666666666667
2026-01-20T23:03:50+00:00,SAT-58542,2.4873337836455605,30.29840870581809,1446.6357687515404,6.610867374312541,-231540.5393896923,10.5,10499768459.46061,47.655,-122.3035,60.0,3.8333333333333335
2026-01-20T23:03:51+00:00,SAT-58542,2.4139661711423774,30.186772175330304,1453.2290071461882,6.614504075411597,-231667.91204541168,10.5,10499768332.087955,47.655,-122.3035,60.0,3.85
2026-01-20T23:03:52+00:00,SAT-58542,2.341191318014628,30.075881606222815,1459.8258725440653,6.618084049821573,-231793.29789252576,10.5,10499768206.702108,47.655,-122.3035,60.0,3.8666666666666667
