satellites_20260121_005943/SAT-52852.csv

timestamp,satellite,azimuth_deg,elevation_deg,distance_km,relative_velocity_kms,doppler_shift_hz,tx_freq_ghz,rx_freq_hz,ue_lat,ue_lon,ue_alt_m,time_minutes
2026-01-20T23:11:11+00:00,SAT-52852,210.58112484205182,30.068229764990395,1682.5342392668654,-6.256007785888629,219111.85554851618,10.5,10500219111.855549,47.655,-122.3035,60.0,11.183333333333334
2026-01-20T23:11:12+00:00,SAT-52852,210.56587053299285,30.196677495595754,1676.2949141684057,-6.251051669975452,218938.2714048872,10.5,10500218938.271404,47.655,-122.3035,60.0,11.2
2026-01-20T23:11:13+00:00,SAT-52852,210.5506595240672,30.325890449321072,1670.0605319695503,-6.246032807384255,218762.48960717575,10.5,10500218762.489607,47.655,-122.3035,60.0,11.216666666666667
2026-01-20T23:11:14+00:00,SAT-52852,210.535492481968,30.455876609272465,1663.8311552496525,-6.240950336532603,218584.47997912054,10.5,10500218584.479979,47.655,-122.3035,60.0,11.233333333333333
2026-01-20T23:11:15+00:00,SAT-52852,210.52037008710946,30.5866440591378,1657.6068474473507,-6.235803381879048,218404.21185555644,10.5,10500218404.211855,47.655,-122.3035,60.0,11.25
2026-01-20T23:11:16+00:00,SAT-52852,210.50529303399753,30.71820098455257,1651.38767287449,-6.230591014951811,218221.65271747435,10.5,10500218221.652718,47.655,-122.3035,60.0,11.266666666666667
2026-01-20T23:11:17+00:00,SAT-52852,210.49026203164107,30.850555673656324,1645.173696768911,-6.225312368304622,218036.77218323664,10.5,10500218036.772182,47.655,-122.3035,60.0,11.283333333333333
2026-01-20T23:11:18+00:00,SAT-52852,210.47527780380767,30.98371652008096,1638.9649852335885,-6.219966467165357,217849.53611220015,10.5,10500217849.536112,47.655,-122.3035,60.0,11.3
2026-01-20T23:11:19+00:00,SAT-52852,210.46034108956007,31.117692022392365,1632.761605343669,-6.2145524243322265,217659.91343080543,10.5,10500217659.913431,47.655,-122.3035,60.0,11.316666666666666
2026-01-20T23:11:20+00:00,SAT-52852,210.445452643476,31.252490787708318,1626.5636250591351,-6.209069249784227,217467.86946432912,10.5,10500217467.869465,47.655,-122.3035,60.0,11.333333333333334
2026-01-20T23:11:21+00:00,SAT-52852,210.43061323621018,31.388121531264176,1620.3711133273503,-6.203515954595567,217273.36957640696,10.5,10500217273.369576,47.655,-122.3035,60.0,11.35
2026-01-20T23:11:22+00:00,SAT-52852,210.41582365489194,31.52459307820957,1614.184140081967,-6.197891607747785,217076.38115883403,10.5,10500217076.381159,47.655,-122.3035,60.0,11.366666666666667
2026-01-20T23:11:23+00:00,SAT-52852,210.4010847034192,31.661914366706714,1608.0027761851734,-6.192195128541273,216876.86636093882,10.5,10500216876.866362,47.655,-122.3035,60.0,11.383333333333333
2026-01-20T23:11:24+00:00,SAT-52852,210.38639720315751,31.800094446474667,1601.8270935769747,-6.186425551722862,216674.79137547236,10.5,10500216674.791376,47.655,-122.3035,60.0,11.4
2026-01-20T23:11:25+00:00,SAT-52852,210.37176199315644,31.939142483204787,1595.6571651600564,-6.180581811388752,216470.11886997469,10.5,10500216470.11887,47.655,-122.3035,60.0,11.416666666666666
2026-01-20T23:11:26+00:00,SAT-52852,210.357179930791,32.079067758218685,1589.4930649001647,-6.174662848748941,216262.81176114135,10.5,10500216262.811762,47.655,-122.3035,60.0,11.433333333333334
2026-01-20T23:11:27+00:00,SAT-52852,210.34265189220272,32.21987967053248,1583.3348678190123,-6.16866760410321,216052.8329337882,10.5,10500216052.832933,47.655,-122.3035,60.0,11.45
2026-01-20T23:11:28+00:00,SAT-52852,210.32817877278202,32.36158773878188,1577.182649995187,-6.1625949623764775,215840.14333326893,10.5,10500215840.143333,47.655,-122.3035,60.0,11.466666666666667
2026-01-20T23:11:29+00:00,SAT-52852,210.31376148777147,32.50420160192182,1571.0364886193768,-6.156443826693517,215624.7045423735,10.5,10500215624.704542,47.655,-122.3035,60.0,11.483333333333333
2026-01-20T23:11:30+00:00,SAT-52852,210.29940097273183,32.64773102163073,1564.896461976221,-6.150213081856508,215406.47750215695,10.5,10500215406.477503,47.655,-122.3035,60.0,11.5
2026-01-20T23:11:31+00:00,SAT-52852,210.28509818412456,32.79218588391484,1558.7626494625829,-6.143901507909819,215185.4194846126,10.5,10500215185.419485,47.655,-122.3035,60.0,11.516666666666667
2026-01-20T23:11:32+00:00,SAT-52852,210.27085410001618,32.937576198681036,1552.6351316920275,-6.137508020142971,214961.49249859113,10.5,10500214961.492498,47.655,-122.3035,60.0,11.533333333333333
2026-01-20T23:11:33+00:00,SAT-52852,210.25666972044394,33.0839121049843,1546.5139903599381,-6.131031385553057,214734.6533591152,10.5,10500214734.653358,47.655,-122.3035,60.0,11.55
2026-01-20T23:11:34+00:00,SAT-52852,210.2425460682362,33.23120386962511,1540.3993083914131,-6.124470383856643,214504.8593266971,10.5,10500214504.859327,47.655,-122.3035,60.0,11.566666666666666
2026-01-20T23:11:35+00:00,SAT-52852,210.22848418960822,33.379461889541766,1534.2911699285803,-6.117823814984985,214272.0683698532,10.5,10500214272.068369,47.655,-122.3035,60.0,11.583333333333334
2026-01-20T23:11:36+00:00,SAT-52852,210.214485154758,33.528696694444,1528.189660310435,-6.111090407056874,214036.23594192346,10.5,10500214036.235943,47.655,-122.3035,60.0,11.6
2026-01-20T23:11:37+00:00,SAT-52852,210.2005500586458,33.678918947240945,1522.0948661444638,-6.1042688909957095,213797.31759447715,10.5,10500213797.317595,47.655,-122.3035,60.0,11.616666666666667
2026-01-20T23:11:38+00:00,SAT-52852,210.18668002165185,33.8301394462883,1516.0068753038443,-6.097357978126921,213555.26819267974,10.5,10500213555.268192,47.655,-122.3035,60.0,11.633333333333333
2026-01-20T23:11:39+00:00,SAT-52852,210.17287619033016,33.98236912712417,1509.925776946992,-6.090356334735977,213310.04102420667,10.5,10500213310.041023,47.655,-122.3035,60.0,11.65
2026-01-20T23:11:40+00:00,SAT-52852,210.15913973818698,34.13561906358111,1503.8516615624821,-6.083262632154969,213061.5895534876,10.5,10500213061.589554,47.655,-122.3035,60.0,11.666666666666666
2026-01-20T23:11:41+00:00,SAT-52852,210.145471866447,34.28990047016918,1497.7846209640131,-6.07607552322187,212809.86659720982,10.5,10500212809.866598,47.655,-122.3035,60.0,11.683333333333334
2026-01-20T23:11:42+00:00,SAT-52852,210.13187380485041,34.44522470390665,1491.7247483088531,-6.068793585609204,212554.82233944873,10.5,10500212554.82234,47.655,-122.3035,60.0,11.7
2026-01-20T23:11:43+00:00,SAT-52852,210.11834681258588,34.6016032647069,1485.6721381728055,-6.061415440667173,212296.40849405664,10.5,10500212296.408495,47.655,-122.3035,60.0,11.716666666666667
2026-01-20T23:11:44+00:00,SAT-52852,210.10489217906147,34.759047798823204,1479.6268865066465,-6.053939655328348,212034.57486895032,10.5,10500212034.57487,47.655,-122.3035,60.0,11.733333333333333
2026-01-20T23:11:45+00:00,SAT-52852,210.09151122486907,34.91757009981229,1473.5890906903992,-6.0463647441766275,211769.2694385747,10.5,10500211769.269438,47.655,-122.3035,60.0,11.75
2026-01-20T23:11:46+00:00,SAT-52852,210.07820530274952,35.07718210953504,1467.5588495855404,-6.038689255453275,211500.44135619779,10.5,10500211500.441357,47.655,-122.3035,60.0,11.766666666666667
2026-01-20T23:11:47+00:00,SAT-52852,210.06497579850375,35.237895921436696,1461.536263501435,-6.03091163848525,211228.03631069043,10.5,10500211228.03631,47.655,-122.3035,60.0,11.783333333333333
2026-01-20T23:11:48+00:00,SAT-52852,210.05182413209087,35.39972378034375,1455.5214342939857,-6.023030400301257,210952.0020118825,10.5,10500210952.002012,47.655,-122.3035,60.0,11.8
2026-01-20T23:11:49+00:00,SAT-52852,210.03875175857692,35.56267808644051,1449.5144653080854,-6.01504397414996,210672.28358551496,10.5,10500210672.283585,47.655,-122.3035,60.0,11.816666666666666
2026-01-20T23:11:50+00:00,SAT-52852,210.0257601692717,35.72677139576439,1443.5154614511996,-6.006950746300695,210388.82451191382,10.5,10500210388.824512,47.655,-122.3035,60.0,11.833333333333334
2026-01-20T23:11:51+00:00,SAT-52852,210.01285089290585,35.892016421393656,1437.5245292402224,-5.9987491169531,210101.5687593033,10.5,10500210101.56876,47.655,-122.3035,60.0,11.85
2026-01-20T23:11:52+00:00,SAT-52852,210.000025496728,36.05842603631879,1431.541776787581,-5.990437463806656,209810.4595078569,10.5,10500209810.459507,47.655,-122.3035,60.0,11.866666666666667
2026-01-20T23:11:53+00:00,SAT-52852,209.98728558772308,36.22601327535742,1425.567313823678,-5.982014063671599,209515.43640417996,10.5,10500209515.436403,47.655,-122.3035,60.0,11.883333333333333
2026-01-20T23:11:54+00:00,SAT-52852,209.9746328139697,36.39479133486478,1419.6012517975096,-5.973477273654847,209216.44190720734,10.5,10500209216.441908,47.655,-122.3035,60.0,11.9
2026-01-20T23:11:55+00:00,SAT-52852,209.96206886580885,36.56477357753508,1413.6437037965843,-5.964825328118598,208913.41417683457,10.5,10500208913.414177,47.655,-122.3035,60.0,11.916666666666666
2026-01-20T23:11:56+00:00,SAT-52852,209.94959547731827,36.73597353150722,1407.6947846693408,-5.956056468543677,208606.29162228157,10.5,10500208606.291622,47.655,-122.3035,60.0,11.933333333333334
2026-01-20T23:11:57+00:00,SAT-52852,209.93721442769524,36.90840489312314,1401.7546110180467,-5.947168941470492,208295.01282997645,10.5,10500208295.01283,47.655,-122.3035,60.0,11.95
2026-01-20T23:11:58+00:00,SAT-52852,209.92492754265947,37.08208152968661,1395.8233011937534,-5.938160870933842,207979.51209568235,10.5,10500207979.512096,47.655,-122.3035,60.0,11.966666666666667
2026-01-20T23:11:59+00:00,SAT-52852,209.91273669611877,37.2570174784985,1389.9009754184754,-5.929030451829098,207659.72619699966,10.5,10500207659.726196,47.655,-122.3035,60.0,11.983333333333333
2026-01-20T23:12:00+00:00,SAT-52852,209.90064381161068,37.43322695153552,1383.9877557145178,-5.9197758066852,207335.58937695023,10.5,10500207335.589376,47.655,-122.3035,60.0,12.0
2026-01-20T23:12:01+00:00,SAT-52852,209.88865086401336,37.610724335971376,1378.0837659766505,-5.910394953878307,207007.03223068482,10.5,10500207007.03223,47.655,-122.3035,60.0,12.016666666666667
2026-01-20T23:12:02+00:00,SAT-52852,209.87675988134694,37.78952419366051,1372.1891320759826,-5.900886027482592,206673.9894055881,10.5,10500206673.989405,47.655,-122.3035,60.0,12.033333333333333
2026-01-20T23:12:03+00:00,SAT-52852,209.86497294638426,37.96964126726288,1366.3039817445733,-5.891247000324763,206336.3899014765,10.5,10500206336.389902,47.655,-122.3035,60.0,12.05
2026-01-20T23:12:04+00:00,SAT-52852,209.85329219865247,38.15109047801775,1360.4284447362493,-5.881475878154007,205994.1638712508,10.5,10500205994.163872,47.655,-122.3035,60.0,12.066666666666666
2026-01-20T23:12:05+00:00,SAT-52852,209.84171983630782,38.333886929376625,1354.5626527937704,-5.8715705854798195,205647.23862245432,10.5,10500205647.238623,47.655,-122.3035,60.0,12.083333333333334
2026-01-20T23:12:06+00:00,SAT-52852,209.8302581181809,38.518045907131466,1348.706739729852,-5.861529049104527,205295.54154293478,10.5,10500205295.541542,47.655,-122.3035,60.0,12.1
2026-01-20T23:12:07+00:00,SAT-52852,209.81890936585722,38.70358288212055,1342.8608414248781,-5.851349178711073,204938.999420947,10.5,10500204938.99942,47.655,-122.3035,60.0,12.116666666666667
2026-01-20T23:12:08+00:00,SAT-52852,209.80767596581964,38.89051351235235,1337.0250958439772,-5.841028768361138,204577.53499519973,10.5,10500204577.534996,47.655,-122.3035,60.0,12.133333333333333
2026-01-20T23:12:09+00:00,SAT-52852,209.79656037183574,39.07885364195504,1331.1996431523314,-5.830565660648842,204211.0727042134,10.5,10500204211.072704,47.655,-122.3035,60.0,12.15
2026-01-20T23:12:10+00:00,SAT-52852,209.78556510722365,39.26861930534215,1325.3846256667778,-5.819957616233628,203839.53411680923,10.5,10500203839.534117,47.655,-122.3035,60.0,12.166666666666666
2026-01-20T23:12:11+00:00,SAT-52852,209.77469276738572,39.459826727194304,1319.5801879375208,-5.80920237222073,203462.83997684042,10.5,10500203462.839977,47.655,-122.3035,60.0,12.183333333333334
2026-01-20T23:12:12+00:00,SAT-52852,209.76394602237042,39.65249232428332,1313.786476771626,-5.798297608242582,203080.90901521983,10.5,10500203080.909016,47.655,-122.3035,60.0,12.2
2026-01-20T23:12:13+00:00,SAT-52852,209.75332761959535,39.84663270615233,1308.0036412903387,-5.787240999391702,202693.65980385293,10.5,10500202693.659803,47.655,-122.3035,60.0,12.216666666666667
2026-01-20T23:12:14+00:00,SAT-52852,209.74284038660872,40.042264677528784,1302.2318329336122,-5.776030141806115,202301.0081493251,10.5,10500202301.00815,47.655,-122.3035,60.0,12.233333333333333
2026-01-20T23:12:15+00:00,SAT-52852,209.73248723408395,40.23940523821036,1296.4712055388507,-5.7646626313928655,201902.86985013174,10.5,10500201902.86985,47.655,-122.3035,60.0,12.25
2026-01-20T23:12:16+00:00,SAT-52852,209.72227115882694,40.438071585568494,1290.7219153411415,-5.75313598365558,201499.15788870043,10.5,10500201499.157888,47.655,-122.3035,60.0,12.266666666666667
2026-01-20T23:12:17+00:00,SAT-52852,209.71219524703434,40.63828111427571,1284.9841210534423,-5.741447707360163,201089.7850114752,10.5,10500201089.785011,47.655,-122.3035,60.0,12.283333333333333
2026-01-20T23:12:18+00:00,SAT-52852,209.70226267759278,40.84005141851301,1279.2579838733018,-5.729595255061123,200674.6619961393,10.5,10500200674.661997,47.655,-122.3035,60.0,12.3
2026-01-20T23:12:19+00:00,SAT-52852,209.69247672559797,41.04340029242948,1273.5436675389208,-5.717576021696602,200253.69760240708,10.5,10500200253.697603,47.655,-122.3035,60.0,12.316666666666666
2026-01-20T23:12:20+00:00,SAT-52852,209.68284076601861,41.24834573046053,1267.8413383866155,-5.70538739487342,199826.80033321888,10.5,10500199826.800333,47.655,-122.3035,60.0,12.333333333333334
2026-01-20T23:12:21+00:00,SAT-52852,209.6733582775049,41.45490592939215,1262.1511653581285,-5.693026687510673,199393.87607563517,10.5,10500199393.876076,47.655,-122.3035,60.0,12.35
2026-01-20T23:12:22+00:00,SAT-52852,209.6640328463934,41.663099287944206,1256.4733200751177,-5.6804911656271555,198954.82907406942,10.5,10500198954.829075,47.655,-122.3035,60.0,12.366666666666667
2026-01-20T23:12:23+00:00,SAT-52852,209.65486817092423,41.872944407258665,1250.8079768859322,-5.667778092981866,198509.5634937874,10.5,10500198509.563494,47.655,-122.3035,60.0,12.383333333333333
2026-01-20T23:12:24+00:00,SAT-52852,209.64586806557026,42.08446009297042,1245.155312867865,-5.654884635486758,198057.9800730376,10.5,10500198057.980074,47.655,-122.3035,60.0,12.4
2026-01-20T23:12:25+00:00,SAT-52852,209.63703646569192,42.29766535366716,1239.5155079247395,-5.64180794698687,197599.979127434,10.5,10500197599.979128,47.655,-122.3035,60.0,12.416666666666666
2026-01-20T23:12:26+00:00,SAT-52852,209.6283774323055,42.51257940242385,1233.8887447989448,-5.628545145147327,197135.45970541707,10.5,10500197135.459705,47.655,-122.3035,60.0,12.433333333333334
2026-01-20T23:12:27+00:00,SAT-52852,209.61989515714464,42.72922165739158,1228.2752091075176,-5.615093242024425,196664.31715655926,10.5,10500196664.317156,47.655,-122.3035,60.0,12.45
2026-01-20T23:12:28+00:00,SAT-52852,209.61159396796705,42.94761173957234,1222.675089447472,-5.601449257011376,196186.4470874029,10.5,10500196186.447088,47.655,-122.3035,60.0,12.466666666666667
2026-01-20T23:12:29+00:00,SAT-52852,209.6034783340836,43.16776947483122,1217.0885773884793,-5.587610174356468,195701.74387356642,10.5,10500195701.743874,47.655,-122.3035,60.0,12.483333333333333
2026-01-20T23:12:30+00:00,SAT-52852,209.5955528721676,43.38971489420506,1211.5158675079213,-5.57357285892361,195210.0977093223,10.5,10500195210.09771,47.655,-122.3035,60.0,12.5
2026-01-20T23:12:31+00:00,SAT-52852,209.587822352413,43.61346823071979,1205.9571575099546,-5.559334193751918,194711.3994255157,10.5,10500194711.399426,47.655,-122.3035,60.0,12.516666666666667
2026-01-20T23:12:32+00:00,SAT-52852,209.5802917049058,43.83904992151392,1200.4126482073862,-5.544890979198999,194205.5369571355,10.5,10500194205.536957,47.655,-122.3035,60.0,12.533333333333333
2026-01-20T23:12:33+00:00,SAT-52852,209.5729660264048,44.06648060582009,1194.8825436041318,-5.53023997982854,193692.3969855161,10.5,10500193692.396986,47.655,-122.3035,60.0,12.55
2026-01-20T23:12:34+00:00,SAT-52852,209.56585058739986,44.29578112466627,1189.367050930916,-5.515377929374855,193171.865112217,10.5,10500193171.865112,47.655,-122.3035,60.0,12.566666666666666
2026-01-20T23:12:35+00:00,SAT-52852,209.5589508395855,44.526972520663456,1183.8663806760194,-5.500301425176237,192643.82216163183,10.5,10500192643.82216,47.655,-122.3035,60.0,12.583333333333334
2026-01-20T23:12:36+00:00,SAT-52852,209.5522724237034,44.760076033155116,1178.3807467213103,-5.485007141924567,192108.15166740437,10.5,10500192108.151667,47.655,-122.3035,60.0,12.6
2026-01-20T23:12:37+00:00,SAT-52852,209.54582117777213,44.99511310219483,1172.9103662650975,-5.4694916075930005,191564.73202446775,10.5,10500191564.732025,47.655,-122.3035,60.0,12.616666666666667
2026-01-20T23:12:38+00:00,SAT-52852,209.53960314579146,45.23210536288353,1167.4554599684582,-5.453751303938967,191013.44000908505,10.5,10500191013.440008,47.655,-122.3035,60.0,12.633333333333333
2026-01-20T23:12:39+00:00,SAT-52852,209.53362458689267,45.47107464368336,1162.0162520013298,-5.437782725934878,190454.1528603639,10.5,10500190454.15286,47.655,-122.3035,60.0,12.65
2026-01-20T23:12:40+00:00,SAT-52852,209.52789198496137,45.71204296718021,1156.592970029331,-5.421582241124154,189886.74335430952,10.5,10500189886.743355,47.655,-122.3035,60.0,12.666666666666666
2026-01-20T23:12:41+00:00,SAT-52852,209.52241205882473,45.955032544449026,1151.1858453408497,-5.405146234650121,189311.08488335044,10.5,10500189311.084883,47.655,-122.3035,60.0,12.683333333333334
2026-01-20T23:12:42+00:00,SAT-52852,209.51719177295502,46.200065775592776,1145.7951128294917,-5.388470959232584,188727.04620188317,10.5,10500188727.046202,47.655,-122.3035,60.0,12.7
2026-01-20T23:12:43+00:00,SAT-52852,209.51223834879636,46.44716524328628,1140.4210111261507,-5.371552674957737,188134.49632230654,10.5,10500188134.496323,47.655,-122.3035,60.0,12.716666666666667
2026-01-20T23:12:44+00:00,SAT-52852,209.50755927669076,46.696353712354345,1135.0637825916594,-5.354387574837056,187533.3019077788,10.5,10500187533.301908,47.655,-122.3035,60.0,12.733333333333333
2026-01-20T23:12:45+00:00,SAT-52852,209.50316232851762,46.94765412573113,1129.7236733836885,-5.33697180245117,186923.3278901809,10.5,10500186923.32789,47.655,-122.3035,60.0,12.75
2026-01-20T23:12:46+00:00,SAT-52852,209.49905557101255,47.20108960091522,1124.4009335060439,-5.319301397853411,186304.43557543002,10.5,10500186304.435575,47.655,-122.3035,60.0,12.766666666666667
2026-01-20T23:12:47+00:00,SAT-52852,209.4952473798543,47.456683423501296,1119.095816911918,-5.301372438630799,185676.48758403183,10.5,10500185676.487583,47.655,-122.3035,60.0,12.783333333333333
2026-01-20T23:12:48+00:00,SAT-52852,209.49174645460752,47.714459047137495,1113.8085814664569,-5.283180858173664,185039.34148611396,10.5,10500185039.341486,47.655,-122.3035,60.0,12.8
2026-01-20T23:12:49+00:00,SAT-52852,209.48856183448584,47.974440084415306,1108.5394890905718,-5.264722607753542,184392.8554780794,10.5,10500184392.855478,47.655,-122.3035,60.0,12.816666666666666
2026-01-20T23:12:50+00:00,SAT-52852,209.48570291507673,48.236650305219136,1103.2888057431055,-5.245993536850122,183736.88419115028,10.5,10500183736.884192,47.655,-122.3035,60.0,12.833333333333334
2026-01-20T23:12:51+00:00,SAT-52852,209.48317946606895,48.50111362886827,1098.0568015223537,-5.226989458098051,183071.2809660793,10.5,10500183071.280966,47.655,-122.3035,60.0,12.85
2026-01-20T23:12:52+00:00,SAT-52852,209.48100165000125,48.76785411900481,1092.8437507028107,-5.207706145988427,182395.89780767093,10.5,10500182395.897808,47.655,-122.3035,60.0,12.866666666666667
2026-01-20T23:12:53+00:00,SAT-52852,209.4791800422397,49.03689597807377,1087.6499317732116,-5.188139298602272,181710.58404452543,10.5,10500181710.584045,47.655,-122.3035,60.0,12.883333333333333
2026-01-20T23:12:54+00:00,SAT-52852,209.4777256520811,49.30826353936699,1082.4756275127388,-5.16828456697445,181015.1873574876,10.5,10500181015.187357,47.655,-122.3035,60.0,12.9
2026-01-20T23:12:55+00:00,SAT-52852,209.47664994523623,49.5819812601017,1077.321125037943,-5.14813755373532,180309.55373207174,10.5,10500180309.553732,47.655,-122.3035,60.0,12.916666666666666
2026-01-20T23:12:56+00:00,SAT-52852,209.47596486769118,49.85807371394155,1072.1867158510174,-5.127693819564621,179593.5276845041,10.5,10500179593.527685,47.655,-122.3035,60.0,12.933333333333334
2026-01-20T23:12:57+00:00,SAT-52852,209.47568287112207,50.136565583383394,1067.0726958816385,-5.106948860207493,178866.95145672635,10.5,10500178866.951456,47.655,-122.3035,60.0,12.95
2026-01-20T23:12:58+00:00,SAT-52852,209.4758169398717,50.4174816503629,1061.9793655517249,-5.085898126125798,178129.6657046685,10.5,10500178129.665705,47.655,-122.3035,60.0,12.966666666666667
2026-01-20T23:12:59+00:00,SAT-52852,209.4763806197431,50.700846787355,1056.9070298206022,-5.064537008887877,177381.50902156022,10.5,10500177381.509022,47.655,-122.3035,60.0,12.983333333333333
2026-01-20T23:13:00+00:00,SAT-52852,209.47738804860344,50.986685947120925,1051.855998243738,-5.042860891460457,176622.31969936614,10.5,10500176622.3197,47.655,-122.3035,60.0,13.0
2026-01-20T23:13:01+00:00,SAT-52852,209.47885398915636,51.27502415473,1046.8265849813213,-5.020865042637669,175851.93203124384,10.5,10500175851.932032,47.655,-122.3035,60.0,13.016666666666667
2026-01-20T23:13:02+00:00,SAT-52852,209.48079386366322,51.56588649290541,1041.8191089121308,-4.998544728699359,175070.1802222899,10.5,10500175070.180222,47.655,-122.3035,60.0,13.033333333333333
2026-01-20T23:13:03+00:00,SAT-52852,209.48322379125867,51.8592980930529,1036.8338936360412,-4.975895170224854,174276.89687697537,10.5,10500174276.896877,47.655,-122.3035,60.0,13.05
2026-01-20T23:13:04+00:00,SAT-52852,209.48616062771228,52.155284123190675,1031.8712675196036,-4.952911530509996,173471.91259346143,10.5,10500173471.912594,47.655,-122.3035,60.0,13.066666666666666
2026-01-20T23:13:05+00:00,SAT-52852,209.4896220079353,52.453869774441436,1026.931563753175,-4.929588929796917,172655.05646198618,10.5,10500172655.056461,47.655,-122.3035,60.0,13.083333333333334
2026-01-20T23:13:06+00:00,SAT-52852,209.4936263914751,52.75508024758034,1022.0151203938575,-4.905922468294105,171826.15687112484,10.5,10500171826.156872,47.655,-122.3035,60.0,13.1
2026-01-20T23:13:07+00:00,SAT-52852,209.49819311130267,53.058940740244694,1017.1222803854789,-4.88190716399407,170985.03932990113,10.5,10500170985.03933,47.655,-122.3035,60.0,13.116666666666667
2026-01-20T23:13:08+00:00,SAT-52852,209.50334242592012,53.36547642946213,1012.2533916405888,-4.857538039443349,170131.52950684025,10.5,10500170131.529507,47.655,-122.3035,60.0,13.133333333333333
2026-01-20T23:13:09+00:00,SAT-52852,209.50909557549943,53.67471245870768,1007.4088070359173,-4.832810063319726,169265.45118375565,10.5,10500169265.451183,47.655,-122.3035,60.0,13.15
2026-01-20T23:13:10+00:00,SAT-52852,209.51547484193674,53.986673920451594,1002.5888844660998,-4.807718159019617,168386.62655651593,10.5,10500168386.626556,47.655,-122.3035,60.0,13.166666666666666
2026-01-20T23:13:11+00:00,SAT-52852,209.5225036134606,54.301385838280794,997.7939868888375,-4.782257250086067,167494.87782612498,10.5,10500167494.877827,47.655,-122.3035,60.0,13.183333333333334
2026-01-20T23:13:12+00:00,SAT-52852,209.53020645415833,54.61887315101368,993.0244823247517,-4.756422177697474,166590.02430882864,10.5,10500166590.02431,47.655,-122.3035,60.0,13.2
2026-01-20T23:13:13+00:00,SAT-52852,209.5386091785942,54.93916069038154,988.2807439395281,-4.730207821649578,165671.8866734151,10.5,10500165671.886673,47.655,-122.3035,60.0,13.216666666666667
2026-01-20T23:13:14+00:00,SAT-52852,209.5477389325558,55.262273165727656,983.5631500054028,-4.703609000499028,164740.28344382095,10.5,10500164740.283443,47.655,-122.3035,60.0,13.233333333333333
2026-01-20T23:13:15+00:00,SAT-52852,209.5576242797951,55.58823514099114,978.8720839622385,-4.6766204987849145,163795.03195254365,10.5,10500163795.031952,47.655,-122.3035,60.0,13.25
2026-01-20T23:13:16+00:00,SAT-52852,209.56829529567037,55.91707101226879,974.2079344514503,-4.649237099984019,162835.9494948742,10.5,10500162835.949495,47.655,-122.3035,60.0,13.266666666666667
2026-01-20T23:13:17+00:00,SAT-52852,209.5797836685006,56.248804986536584,969.5710953170664,-4.621453591494421,161862.85350344412,10.5,10500161862.853504,47.655,-122.3035,60.0,13.283333333333333
2026-01-20T23:13:18+00:00,SAT-52852,209.59212280911484,56.58346105959677,964.9619656018158,-4.593264717784622,160875.5599073094,10.5,10500160875.559908,47.655,-122.3035,60.0,13.3
2026-01-20T23:13:19+00:00,SAT-52852,209.60534796930577,56.92106298941828,960.3809495899454,-4.564665222606915,159873.8846104414,10.5,10500159873.884611,47.655,-122.3035,60.0,13.316666666666666
2026-01-20T23:13:20+00:00,SAT-52852,209.61949637027087,57.2616342711298,955.828456807932,-4.535649853960909,158857.64366557062,10.5,10500158857.643665,47.655,-122.3035,60.0,13.333333333333334
2026-01-20T23:13:21+00:00,SAT-52852,209.6346073420471,57.605198111097636,951.3049020202484,-4.506213347671688,157826.65269902395,10.5,10500157826.652699,47.655,-122.3035,60.0,13.35
2026-01-20T23:13:22+00:00,SAT-52852,209.65072247478088,57.951777398357834,946.8107052415038,-4.476350474930456,156780.72857579953,10.5,10500156780.728577,47.655,-122.3035,60.0,13.366666666666667
2026-01-20T23:13:23+00:00,SAT-52852,209.66788578349875,58.30139467827493,942.3462917011732,-4.446055964979321,155719.68669166075,10.5,10500155719.686691,47.655,-122.3035,60.0,13.383333333333333
2026-01-20T23:13:24+00:00,SAT-52852,209.68614388695823,58.65407211866282,937.9120918854337,-4.4153245992228,154643.34426931918,10.5,10500154643.344269,47.655,-122.3035,60.0,13.4
2026-01-20T23:13:25+00:00,SAT-52852,209.705546203152,59.009831481669,933.5085414851422,-4.38415118080756,153551.5192929883,10.5,10500153551.519293,47.655,-122.3035,60.0,13.416666666666666
2026-01-20T23:13:26+00:00,SAT-52852,209.7261451624264,59.36869409177618,929.1360813741501,-4.352530483658139,152444.02872339924,10.5,10500152444.028723,47.655,-122.3035,60.0,13.433333333333334
2026-01-20T23:13:27+00:00,SAT-52852,209.74799643998912,59.730680797820824,924.7951576384484,-4.320457396765112,151320.69355138237,10.5,10500151320.693552,47.655,-122.3035,60.0,13.45
2026-01-20T23:13:28+00:00,SAT-52852,209.7711592112449,60.09581194522019,920.486221461408,-4.287926743383367,150181.3324654263,10.5,10500150181.332466,47.655,-122.3035,60.0,13.466666666666667
2026-01-20T23:13:29+00:00,SAT-52852,209.79569643023515,60.464107331279166,916.2097291893404,-4.254933472513309,149025.76855815947,10.5,10500149025.768559,47.655,-122.3035,60.0,13.483333333333333
2026-01-20T23:13:30+00:00,SAT-52852,209.82167513649216,60.83558617473968,911.9661422060872,-4.221472557424359,147853.82577221395,10.5,10500147853.825771,47.655,-122.3035,60.0,13.5
2026-01-20T23:13:31+00:00,SAT-52852,209.84916679143186,61.210267074919244,907.7559269088158,-4.187538962882536,146665.3277523967,10.5,10500146665.327753,47.655,-122.3035,60.0,13.516666666666667
2026-01-20T23:13:32+00:00,SAT-52852,209.87824764805933,61.58816796556718,903.579554716501,-4.153127826442601,145460.1041953074,10.5,10500145460.104195,47.655,-122.3035,60.0,13.533333333333333
2026-01-20T23:13:33+00:00,SAT-52852,209.90899916012586,61.96930608294911,899.4375018975956,-4.118234247048342,144237.98344522592,10.5,10500144237.983446,47.655,-122.3035,60.0,13.55
2026-01-20T23:13:34+00:00,SAT-52852,209.9415084315933,62.3536979126025,895.3302496085394,-4.082853463216192,142998.79873485683,10.5,10500142998.798735,47.655,-122.3035,60.0,13.566666666666666
2026-01-20T23:13:35+00:00,SAT-52852,209.97586871540398,62.74135915000283,891.2582837545584,-4.046980762885815,141742.3850279151,10.5,10500141742.385029,47.655,-122.3035,60.0,13.583333333333334
2026-01-20T23:13:36+00:00,SAT-52852,210.01217996480145,63.13230465048892,887.2220949403737,-4.010611534417415,140468.58080526782,10.5,10500140468.580805,47.655,-122.3035,60.0,13.6
2026-01-20T23:13:37+00:00,SAT-52852,210.05054944555602,63.52654838140187,883.222178370048,-3.973741273700717,139177.22831392087,10.5,10500139177.228313,47.655,-122.3035,60.0,13.616666666666667
2026-01-20T23:13:38+00:00,SAT-52852,210.09109241643029,63.92410337230317,879.2590337397439,-3.9363655655583156,137868.17291568525,10.5,10500137868.172916,47.655,-122.3035,60.0,13.633333333333333
2026-01-20T23:13:39+00:00,SAT-52852,210.13393288668294,64.32498166050884,875.333165149027,-3.8984801028882763,136541.2637576323,10.5,10500136541.263758,47.655,-122.3035,60.0,13.65
2026-01-20T23:13:40+00:00,SAT-52852,210.17920446136193,64.7291942353917,871.4450809930798,-3.860080741990346,135196.35570985122,10.5,10500135196.35571,47.655,-122.3035,60.0,13.666666666666666
2026-01-20T23:13:41+00:00,SAT-52852,210.22705128711343,65.13675098531368,867.5952937997348,-3.821163434763076,133833.30699070587,10.5,10500133833.306992,47.655,-122.3035,60.0,13.683333333333334
2026-01-20T23:13:42+00:00,SAT-52852,210.27762911078585,65.54766063413352,863.784320134131,-3.7817242687111383,132451.98056806004,10.5,10500132451.980568,47.655,-122.3035,60.0,13.7
2026-01-20T23:13:43+00:00,SAT-52852,210.33110646844185,65.96193067801751,860.0126804634698,-3.741759522126685,131052.24609196205,10.5,10500131052.246092,47.655,-122.3035,60.0,13.716666666666667
2026-01-20T23:13:44+00:00,SAT-52852,210.38766602439657,66.37956732446003,856.2808989667354,-3.7012655954650686,129633.97749113227,10.5,10500129633.977491,47.655,-122.3035,60.0,13.733333333333333
2026-01-20T23:13:45+00:00,SAT-52852,210.44750608027326,66.80057541948727,852.5895034128582,-3.6602390893753785,128197.05570592266,10.5,10500128197.055706,47.655,-122.3035,60.0,13.75
2026-01-20T23:13:46+00:00,SAT-52852,210.51084228279768,67.22495837886258,848.9390249610545,-3.6186767670270013,126741.36736883326,10.5,10500126741.367369,47.655,-122.3035,60.0,13.766666666666667
2026-01-20T23:13:47+00:00,SAT-52852,210.5779095589991,67.65271810995918,845.3299979987396,-3.5765755780947974,125266.80564457487,10.5,10500125266.805645,47.655,-122.3035,60.0,13.783333333333333
2026-01-20T23:13:48+00:00,SAT-52852,210.6489643162627,68.0838549306059,841.7629599555198,-3.5339327115890566,123773.27208039735,10.5,10500123773.27208,47.655,-122.3035,60.0,13.8
2026-01-20T23:13:49+00:00,SAT-52852,210.72428695115326,68.5183674881194,838.2384510644949,-3.490745536361888,122260.6745223718,10.5,10500122260.674522,47.655,-122.3035,60.0,13.816666666666666
2026-01-20T23:13:50+00:00,SAT-52852,210.80418471583275,68.95625266417937,834.7570141828967,-3.447011640333153,120728.92848924875,10.5,10500120728.92849,47.655,-122.3035,60.0,13.833333333333334
2026-01-20T23:13:51+00:00,SAT-52852,210.88899500534473,69.39750547629235,831.3191945736044,-3.4027288832720104,119177.95902109088,10.5,10500119177.95902,47.655,-122.3035,60.0,13.85
2026-01-20T23:13:52+00:00,SAT-52852,210.97908914027542,69.84211897716389,827.9255396340211,-3.35789534460579,117607.69885131932,10.5,10500117607.69885,47.655,-122.3035,60.0,13.866666666666667
2026-01-20T23:13:53+00:00,SAT-52852,211.0748767302583,70.29008413709819,824.576598677001,-3.312509349002002,116018.0893027036,10.5,10500116018.089302,47.655,-122.3035,60.0,13.883333333333333
2026-01-20T23:13:54+00:00,SAT-52852,211.1768107276967,70.7413897175774,821.272922686263,-3.266569544771143,114409.0830333597,10.5,10500114409.083033,47.655,-122.3035,60.0,13.9
2026-01-20T23:13:55+00:00,SAT-52852,211.28539330410075,71.19602214180824,818.0150639936113,-3.2200748022473955,112780.64047761219,10.5,10500112780.640478,47.655,-122.3035,60.0,13.916666666666666
2026-01-20T23:13:56+00:00,SAT-52852,211.4011827021058,71.65396533519227,814.8035760575032,-3.1730243239837557,111132.7337054938,10.5,10500111132.733706,47.655,-122.3035,60.0,13.933333333333334
2026-01-20T23:13:57+00:00,SAT-52852,211.52480126588432,72.11520056185616,811.6390131317166,-3.1254175977104515,109465.34477515021,10.5,10500109465.344774,47.655,-122.3035,60.0,13.95
2026-01-20T23:13:58+00:00,SAT-52852,211.65694488565288,72.57970623195602,808.5219299809335,-3.0772544248287934,107778.46673081526,10.5,10500107778.46673,47.655,-122.3035,60.0,13.966666666666667
2026-01-20T23:13:59+00:00,SAT-52852,211.79839415806725,73.04745768565066,805.4528815679041,-3.0285349580707632,106072.10492180899,10.5,10500106072.104921,47.655,-122.3035,60.0,13.983333333333333
2026-01-20T23:14:00+00:00,SAT-52852,211.95002763723514,73.51842695003963,802.432422703055,-2.9792596648274072,104346.27571814289,10.5,10500104346.275719,47.655,-122.3035,60.0,14.0
2026-01-20T23:14:01+00:00,SAT-52852,212.1128376414986,73.99258245043974,799.4611077306671,-2.929429365837947,102601.00786557628,10.5,10500102601.007866,47.655,-122.3035,60.0,14.016666666666667
2026-01-20T23:14:02+00:00,SAT-52852,212.2879492129771,74.46988867841551,796.5394901764714,-2.8790452552462984,100836.34318808024,10.5,10500100836.343187,47.655,-122.3035,60.0,14.033333333333333
2026-01-20T23:14:03+00:00,SAT-52852,212.47664298419184,74.95030580247197,793.668122375239,-2.8281088844798283,99052.33602320374,10.5,10500099052.336023,47.655,-122.3035,60.0,14.05
2026-01-20T23:14:04+00:00,SAT-52852,212.68038291764975,75.43378920057935,790.8475551144512,-2.7766222108951357,97249.05492585448,10.5,10500097249.054926,47.655,-122.3035,60.0,14.066666666666666
2026-01-20T23:14:05+00:00,SAT-52852,212.90085017361113,75.92028890595904,788.0783372294518,-2.7245875469619207,95426.5808885031,10.5,10500095426.580889,47.655,-122.3035,60.0,14.083333333333334
2026-01-20T23:14:06+00:00,SAT-52852,213.13998472849465,76.40974892390133,785.3610152492818,-2.6720076385551264,93585.01008330513,10.5,10500093585.010084,47.655,-122.3035,60.0,14.1
2026-01-20T23:14:07+00:00,SAT-52852,213.40003689578728,76.902106408591,782.6961329644295,-2.618885641108889,91724.45302691149,10.5,10500091724.453028,47.655,-122.3035,60.0,14.116666666666667
2026-01-20T23:14:08+00:00,SAT-52852,213.68363158344985,77.39729063810465,780.0842310183635,-2.5652251090432765,89845.03421014815,10.5,10500089845.03421,47.655,-122.3035,60.0,14.133333333333333
2026-01-20T23:14:09+00:00,SAT-52852,213.99384909342234,77.89522172925328,777.525846509611,-2.511030060308711,87946.8943586348,10.5,10500087946.894358,47.655,-122.3035,60.0,14.15
2026-01-20T23:14:10+00:00,SAT-52852,214.33432762686041,78.39580902573412,775.0215125294632,-2.456304918339391,86030.18839974822,10.5,10500086030.1884,47.655,-122.3035,60.0,14.166666666666666
2026-01-20T23:14:11+00:00,SAT-52852,214.70939453727837,78.8989490238661,772.5717577575726,-2.401054578458431,84095.08778841104,10.5,10500084095.087788,47.655,-122.3035,60.0,14.183333333333334
2026-01-20T23:14:12+00:00,SAT-52852,215.12423613003293,79.40452270443946,770.1771059913235,-2.345284367918574,82141.77910754857,10.5,10500082141.779108,47.655,-122.3035,60.0,14.2
2026-01-20T23:14:13+00:00,SAT-52852,215.58511972799505,79.91239202877769,767.8380757150527,-2.289000096065391,80170.4658250162,10.5,10500080170.465824,47.655,-122.3035,60.0,14.216666666666667
2026-01-20T23:14:14+00:00,SAT-52852,216.0996875763655,80.4223953018603,765.5551796192434,-2.2322080149762873,78181.36691501096,10.5,10500078181.366915,47.655,-122.3035,60.0,14.233333333333333
2026-01-20T23:14:15+00:00,SAT-52852,216.677350835183,80.93434092236811,763.3289241589738,-2.1749148664605475,76174.71850421184,10.5,10500076174.718504,47.655,-122.3035,60.0,14.25
2026-01-20T23:14:16+00:00,SAT-52852,217.3298251933685,81.44799885584956,761.1598090654904,-2.11712784584677,74150.77260346251,10.5,10500074150.772604,47.655,-122.3035,60.0,14.266666666666667
2026-01-20T23:14:17+00:00,SAT-52852,218.07187011216539,81.96308877956014,759.0483268938992,-2.0588546447219866,72109.79860467624,10.5,10500072109.798605,47.655,-122.3035,60.0,14.283333333333333
2026-01-20T23:14:18+00:00,SAT-52852,218.92232611674694,82.47926332460533,756.9949625282298,-2.0001034253844727,70052.0823860651,10.5,10500070052.082386,47.655,-122.3035,60.0,14.3
2026-01-20T23:14:19+00:00,SAT-52852,219.90559658763593,82.99608388526363,755.0001927119797,-1.9408828355072847,67977.92682571917,10.5,10500067977.926826,47.655,-122.3035,60.0,14.316666666666666
2026-01-20T23:14:20+00:00,SAT-52852,221.05380600601663,83.51298493887182,753.0644855640338,-1.8812019969038103,65887.65140812851,10.5,10500065887.651407,47.655,-122.3035,60.0,14.333333333333334
2026-01-20T23:14:21+00:00,SAT-52852,222.4100096026685,84.02922011413342,751.1883001057884,-1.8210705296015004,63781.59306734712,10.5,10500063781.593067,47.655,-122.3035,60.0,14.35
2026-01-20T23:14:22+00:00,SAT-52852,224.0330728663642,84.543778467997,749.3720857642659,-1.760498521113125,61660.105110742355,10.5,10500061660.10511,47.655,-122.3035,60.0,14.366666666666667
2026-01-20T23:14:23+00:00,SAT-52852,226.00525842225636,85.05525059991263,747.6162819058757,-1.6994965335645547,59523.557468639934,10.5,10500059523.557468,47.655,-122.3035,60.0,14.383333333333333
2026-01-20T23:14:24+00:00,SAT-52852,228.44427707829604,85.5616076093033,745.9213173630673,-1.6380756187253607,57372.3372207592,10.5,10500057372.337221,47.655,-122.3035,60.0,14.4
2026-01-20T23:14:25+00:00,SAT-52852,231.52274692869267,86.05982366513561,744.2876099459919,-1.576247292269771,55206.84769472284,10.5,10500055206.847694,47.655,-122.3035,60.0,14.416666666666666
2026-01-20T23:14:26+00:00,SAT-52852,235.49969295357965,86.54520998892839,742.7155659798349,-1.5140235317450605,53027.50839490144,10.5,10500053027.508394,47.655,-122.3035,60.0,14.433333333333334
2026-01-20T23:14:27+00:00,SAT-52852,240.7697664298931,87.01020906720024,741.2055798441744,-1.4514167670271851,50834.75466812926,10.5,10500050834.754667,47.655,-122.3035,60.0,14.45
2026-01-20T23:14:28+00:00,SAT-52852,247.92916961137888,87.4422077940575,739.7580335218594,-1.3884398965712355,48629.038272863996,10.5,10500048629.038273,47.655,-122.3035,60.0,14.466666666666667
2026-01-20T23:14:29+00:00,SAT-52852,257.8123374449133,87.81983686433874,738.373296131679,-1.3251062423275153,46410.82580015709,10.5,10500046410.8258,47.655,-122.3035,60.0,14.483333333333333
2026-01-20T23:14:30+00:00,SAT-52852,271.2859955025431,88.10840014134325,737.0517235059975,-1.261429564535437,44180.599191798516,10.5,10500044180.599192,47.655,-122.3035,60.0,14.5
2026-01-20T23:14:31+00:00,SAT-52852,288.33340720298116,88.2610469845269,735.7936577536343,-1.1974240426499083,41938.855072278166,10.5,10500041938.855072,47.655,-122.3035,60.0,14.516666666666667
2026-01-20T23:14:32+00:00,SAT-52852,306.7638466802693,88.24024663480301,734.5994268417647,-1.1331042592504579,39686.10418521539,10.5,10500039686.104185,47.655,-122.3035,60.0,14.533333333333333
2026-01-20T23:14:33+00:00,SAT-52852,323.18921206156756,88.0500474245891,733.4693441938723,-1.068485195453282,37422.87123266944,10.5,10500037422.871233,47.655,-122.3035,60.0,14.55
2026-01-20T23:14:34+00:00,SAT-52852,335.8933313735396,87.73148056837134,732.4037082922736,-1.0035822138129513,35149.69427628493,10.5,10500035149.694277,47.655,-122.3035,60.0,14.566666666666666
2026-01-20T23:14:35+00:00,SAT-52852,345.1535782228823,87.3291536070076,731.4028022976973,-0.9384110219497607,32867.12346336774,10.5,10500032867.123463,47.655,-122.3035,60.0,14.583333333333334
2026-01-20T23:14:36+00:00,SAT-52852,351.873713778838,86.87450245028585,730.4668937051396,-0.8729876994423006,30575.721968776666,10.5,10500030575.72197,47.655,-122.3035,60.0,14.6
2026-01-20T23:14:37+00:00,SAT-52852,356.84357777692134,86.38663316521058,729.5962339728958,-0.8073286393534735,28276.063946917147,10.5,10500028276.063948,47.655,-122.3035,60.0,14.616666666666667
2026-01-20T23:14:38+00:00,SAT-52852,0.6135347036139762,85.87685105799251,728.7910582099139,-0.7414505416870356,25968.734302561654,10.5,10500025968.734303,47.655,-122.3035,60.0,14.633333333333333
2026-01-20T23:14:39+00:00,SAT-52852,3.546060073419053,85.35198914403432,728.0515848696714,-0.6753704057391426,23654.328422968523,10.5,10500023654.328423,47.655,-122.3035,60.0,14.65
2026-01-20T23:14:40+00:00,SAT-52852,5.879512046915448,84.8163344682456,727.3780154516809,-0.6091054971462705,21333.451023760714,10.5,10500021333.451023,47.655,-122.3035,60.0,14.666666666666666
2026-01-20T23:14:41+00:00,SAT-52852,7.773417585515375,84.27268894435417,726.7705342358603,-0.542673323450009,19006.71529310152,10.5,10500019006.715294,47.655,-122.3035,60.0,14.683333333333334
2026-01-20T23:14:42+00:00,SAT-52852,9.337096773116254,83.72295834858362,726.2293080412728,-0.47609162868337696,16674.742702084448,10.5,10500016674.742702,47.655,-122.3035,60.0,14.7
2026-01-20T23:14:43+00:00,SAT-52852,10.647320977415333,83.16848845823367,725.754485990266,-0.40937834787194016,14338.161411169895,10.5,10500014338.161411,47.655,-122.3035,60.0,14.716666666666667
2026-01-20T23:14:44+00:00,SAT-52852,11.759276912676361,82.61026336306354,725.3461993179884,-0.3425516073625015,11997.606281697272,10.5,10500011997.606281,47.655,-122.3035,60.0,14.733333333333333
2026-01-20T23:14:45+00:00,SAT-52852,12.713497356229723,82.04902637391105,725.0045611815788,-0.2756296792601832,9653.717280078889,10.5,10500009653.71728,47.655,-122.3035,60.0,14.75
2026-01-20T23:14:46+00:00,SAT-52852,13.540338688284116,81.48535611754907,724.7296665147967,-0.2086309710363485,7307.139113825403,10.5,10500007307.139114,47.655,-122.3035,60.0,14.766666666666667
2026-01-20T23:14:47+00:00,SAT-52852,14.26293944010605,80.91971578772072,724.5215918930163,-0.1415739950530762,4958.520164164037,10.5,10500004958.520164,47.655,-122.3035,60.0,14.783333333333333
2026-01-20T23:14:48+00:00,SAT-52852,14.89921823386571,80.35248587114076,724.3803954286168,-0.07447734377499572,2608.511617852158,10.5,10500002608.511618,47.655,-122.3035,60.0,14.8
2026-01-20T23:14:49+00:00,SAT-52852,15.463251034826776,79.78398640285215,724.3061166910919,-0.007359664314210611,257.766575632838,10.5,10500000257.766575,47.655,-122.3035,60.0,14.816666666666666
2026-01-20T23:14:50+00:00,SAT-52852,15.966238847004028,79.21449241846798,724.2987766525491,0.05976036668935295,-2093.060827561599,10.5,10499997906.939173,47.655,-122.3035,60.0,14.833333333333334
2026-01-20T23:14:51+00:00,SAT-52852,16.417199735478018,78.64424488279943,724.3583776582607,0.12686407001121716,-4443.316366276899,10.5,10499995556.683634,47.655,-122.3035,60.0,14.85
2026-01-20T23:14:52+00:00,SAT-52852,16.823471799861547,78.07345854913117,724.4849034240852,0.19393278922297486,-6792.346613473632,10.5,10499993207.653387,47.655,-122.3035,60.0,14.866666666666667
2026-01-20T23:14:53+00:00,SAT-52852,17.19108423731063,77.50232769713546,724.6783190592037,0.26094791555529,-9139.499811334632,10.5,10499990860.500189,47.655,-122.3035,60.0,14.883333333333333
2026-01-20T23:14:54+00:00,SAT-52852,17.52503487394841,76.93103037717695,724.9385711136507,0.3278909160570844,-11484.126857518833,10.5,10499988515.873142,47.655,-122.3035,60.0,14.9
2026-01-20T23:14:55+00:00,SAT-52852,17.82950038513278,76.35973158063075,725.2655876539317,0.3947433553719928,-13825.582067864843,10.5,10499986174.417933,47.655,-122.3035,60.0,14.916666666666666
2026-01-20T23:14:56+00:00,SAT-52852,18.107997392853747,75.78858564240787,725.659278360356,0.4614869256243527,-16163.22422312473,10.5,10499983836.775778,47.655,-122.3035,60.0,14.933333333333334
2026-01-20T23:14:57+00:00,SAT-52852,18.363507264992833,75.21773806532723,726.1195346541787,0.5281034633665554,-18496.417162531932,10.5,10499981503.582838,47.655,-122.3035,60.0,14.95
2026-01-20T23:14:58+00:00,SAT-52852,18.598573758609632,74.64732693110558,726.6462298416429,0.5945749865130291,-20824.53107738556,10.5,10499979175.468922,47.655,-122.3035,60.0,14.966666666666667
2026-01-20T23:14:59+00:00,SAT-52852,18.815380138130514,74.0774839775746,727.2392192948587,0.6608837026440392,-23146.94280188467,10.5,10499976853.057198,47.655,-122.3035,60.0,14.983333333333333
