satellites_20260121_005943/SAT-51858.csv

timestamp,satellite,azimuth_deg,elevation_deg,distance_km,relative_velocity_kms,doppler_shift_hz,tx_freq_ghz,rx_freq_hz,ue_lat,ue_lon,ue_alt_m,time_minutes
2026-01-20T23:10:33+00:00,SAT-51858,210.69338519117363,30.073454917447776,1682.9628282078152,-6.383649266929404,223582.4001374936,10.5,10500223582.400137,47.655,-122.3035,60.0,10.55
2026-01-20T23:10:34+00:00,SAT-51858,210.66187268822637,30.192388344715425,1676.5962020055972,-6.379614688528615,223441.09213564824,10.5,10500223441.092136,47.655,-122.3035,60.0,10.566666666666666
2026-01-20T23:10:35+00:00,SAT-51858,210.63024043416652,30.312028403098438,1670.2335996229049,-6.375526612251174,223297.91041186676,10.5,10500223297.910412,47.655,-122.3035,60.0,10.583333333333334
2026-01-20T23:10:36+00:00,SAT-51858,210.59848664499768,30.432382726301327,1663.8750744149531,-6.371384288811653,223152.82872300394,10.5,10500223152.828724,47.655,-122.3035,60.0,10.6
2026-01-20T23:10:37+00:00,SAT-51858,210.56660950085782,30.553459050079795,1657.5206804842448,-6.367186962479124,223005.82060016601,10.5,10500223005.8206,47.655,-122.3035,60.0,10.616666666666667
2026-01-20T23:10:38+00:00,SAT-51858,210.53460714510504,30.67526521390302,1651.1704726869991,-6.36293380827848,222856.85714923503,10.5,10500222856.85715,47.655,-122.3035,60.0,10.633333333333333
2026-01-20T23:10:39+00:00,SAT-51858,210.50247768359907,30.7978091614297,1644.8245067022094,-6.358624075908613,222705.9120914924,10.5,10500222705.912092,47.655,-122.3035,60.0,10.65
2026-01-20T23:10:40+00:00,SAT-51858,210.47021918337975,30.921098943777093,1638.4828389571699,-6.354256885181164,222552.9545990187,10.5,10500222552.9546,47.655,-122.3035,60.0,10.666666666666666
2026-01-20T23:10:41+00:00,SAT-51858,210.4378296721539,31.04514271886936,1632.145526757016,-6.34983147925856,222397.9581641606,10.5,10500222397.958164,47.655,-122.3035,60.0,10.683333333333334
2026-01-20T23:10:42+00:00,SAT-51858,210.4053071366934,31.16994875573149,1625.812628161702,-6.345346981898767,222240.89209721566,10.5,10500222240.892097,47.655,-122.3035,60.0,10.7
2026-01-20T23:10:43+00:00,SAT-51858,210.37264952221992,31.295525434088486,1619.4842021050881,-6.3408025026547605,222081.72521096238,10.5,10500222081.72521,47.655,-122.3035,60.0,10.716666666666667
2026-01-20T23:10:44+00:00,SAT-51858,210.33985473132432,31.421881246018742,1613.160308409107,-6.336197244640735,221920.4295950891,10.5,10500221920.429596,47.655,-122.3035,60.0,10.733333333333333
2026-01-20T23:10:45+00:00,SAT-51858,210.30692062235838,31.549024799811765,1606.841007690452,-6.33153023204475,221756.97107253407,10.5,10500221756.971073,47.655,-122.3035,60.0,10.75
2026-01-20T23:10:46+00:00,SAT-51858,210.27384500900808,31.67696481840895,1600.5263615390263,-6.326800636585224,221591.32063337247,10.5,10500221591.320633,47.655,-122.3035,60.0,10.766666666666667
2026-01-20T23:10:47+00:00,SAT-51858,210.24062565835743,31.80571014441859,1594.2164323708053,-6.322007494171033,221423.4445110552,10.5,10500221423.444511,47.655,-122.3035,60.0,10.783333333333333
2026-01-20T23:10:48+00:00,SAT-51858,210.20726029020787,31.935269739461233,1587.9112835632855,-6.317149878620691,221253.31026678882,10.5,10500221253.310266,47.655,-122.3035,60.0,10.8
2026-01-20T23:10:49+00:00,SAT-51858,210.17374657554203,32.06565268704813,1581.6109794176743,-6.3122268361594305,221080.88449534652,10.5,10500221080.884495,47.655,-122.3035,60.0,10.816666666666666
2026-01-20T23:10:50+00:00,SAT-51858,210.14008213527748,32.196868194169824,1575.3155851864112,-6.3072373957325025,220906.1331862834,10.5,10500220906.133186,47.655,-122.3035,60.0,10.833333333333334
2026-01-20T23:10:51+00:00,SAT-51858,210.10626453889526,32.328925593123756,1569.0251670904006,-6.302180569028047,220729.02172473763,10.5,10500220729.021725,47.655,-122.3035,60.0,10.85
2026-01-20T23:10:52+00:00,SAT-51858,210.07229130304592,32.46183434337368,1562.7397923362234,-6.297055338911537,220549.51448635556,10.5,10500220549.514486,47.655,-122.3035,60.0,10.866666666666667
2026-01-20T23:10:53+00:00,SAT-51858,210.0381598901486,32.595604033196054,1556.4595291448823,-6.291860719244007,220367.57693237925,10.5,10500220367.576933,47.655,-122.3035,60.0,10.883333333333333
2026-01-20T23:10:54+00:00,SAT-51858,210.0038677066761,32.73024438263598,1550.1844467208896,-6.286595612836153,220183.17063459815,10.5,10500220183.170635,47.655,-122.3035,60.0,10.9
2026-01-20T23:10:55+00:00,SAT-51858,209.96941210202507,32.86576524345908,1543.9146153630209,-6.281259001409187,219996.25992858186,10.5,10500219996.259928,47.655,-122.3035,60.0,10.916666666666666
2026-01-20T23:10:56+00:00,SAT-51858,209.93479036648378,33.002176603203836,1537.6501063856156,-6.275849776713928,219806.8059987561,10.5,10500219806.805998,47.655,-122.3035,60.0,10.933333333333334
2026-01-20T23:10:57+00:00,SAT-51858,209.89999972989148,33.139488585639135,1531.3909922083062,-6.270366860048836,219614.7710644301,10.5,10500219614.771065,47.655,-122.3035,60.0,10.95
2026-01-20T23:10:58+00:00,SAT-51858,209.86503735972283,33.27771145384152,1525.1373463265509,-6.264809114246766,219420.1152972002,10.5,10500219420.115297,47.655,-122.3035,60.0,10.966666666666667
2026-01-20T23:10:59+00:00,SAT-51858,209.82990035948416,33.416855611384,1518.889243369942,-6.259175398465896,219222.79873995995,10.5,10500219222.79874,47.655,-122.3035,60.0,10.983333333333333
2026-01-20T23:11:00+00:00,SAT-51858,209.79458576683135,33.55693160475867,1512.6467591058722,-6.2534645614324225,219022.78107023105,10.5,10500219022.78107,47.655,-122.3035,60.0,11.0
2026-01-20T23:11:01+00:00,SAT-51858,209.7590905516173,33.69795012569276,1506.4099704499367,-6.247675420409936,218820.02086358133,10.5,10500218820.020864,47.655,-122.3035,60.0,11.016666666666667
2026-01-20T23:11:02+00:00,SAT-51858,209.72341161399711,33.839922013034034,1500.1789554973147,-6.241806758828305,218614.47551057872,10.5,10500218614.47551,47.655,-122.3035,60.0,11.033333333333333
2026-01-20T23:11:03+00:00,SAT-51858,209.6875457824617,33.982858254597794,1493.9537935565097,-6.235857355933482,218406.10225525274,10.5,10500218406.102255,47.655,-122.3035,60.0,11.05
2026-01-20T23:11:04+00:00,SAT-51858,209.65148981167138,34.126769989735266,1487.7345651535254,-6.2298259563786775,218194.85713004868,10.5,10500218194.85713,47.655,-122.3035,60.0,11.066666666666666
2026-01-20T23:11:05+00:00,SAT-51858,209.615240380335,34.27166851123315,1481.521352066364,-6.223711304031142,217980.69613988418,10.5,10500217980.69614,47.655,-122.3035,60.0,11.083333333333334
2026-01-20T23:11:06+00:00,SAT-51858,209.57879408887857,34.41756526804211,1475.3142373258102,-6.217512080930904,217763.57312422612,10.5,10500217763.573124,47.655,-122.3035,60.0,11.1
2026-01-20T23:11:07+00:00,SAT-51858,209.54214745729587,34.564471866603334,1469.113305277095,-6.211226978725629,217543.44225904145,10.5,10500217543.442259,47.655,-122.3035,60.0,11.116666666666667
2026-01-20T23:11:08+00:00,SAT-51858,209.50529692260153,34.712400073890464,1462.9186415703127,-6.204854668094346,217320.2569858867,10.5,10500217320.256987,47.655,-122.3035,60.0,11.133333333333333
2026-01-20T23:11:09+00:00,SAT-51858,209.46823883630003,34.86136181977536,1456.7303331813332,-6.198393753679788,217093.968433448,10.5,10500217093.968433,47.655,-122.3035,60.0,11.15
2026-01-20T23:11:10+00:00,SAT-51858,209.4309694620318,35.01136919834108,1450.5484684776634,-6.191842845818778,216864.52792984262,10.5,10500216864.52793,47.655,-122.3035,60.0,11.166666666666666
2026-01-20T23:11:11+00:00,SAT-51858,209.3934849727338,35.16243447094151,1444.3731372127668,-6.185200529439441,216631.88591326782,10.5,10500216631.885914,47.655,-122.3035,60.0,11.183333333333334
2026-01-20T23:11:12+00:00,SAT-51858,209.35578144787402,35.31457006856165,1438.2044305514057,-6.178465378984817,216395.9924546887,10.5,10500216395.992455,47.655,-122.3035,60.0,11.2
2026-01-20T23:11:13+00:00,SAT-51858,209.31785487047802,35.467788594589614,1432.0424410800983,-6.171635867112964,216156.79406012982,10.5,10500216156.79406,47.655,-122.3035,60.0,11.216666666666667
2026-01-20T23:11:14+00:00,SAT-51858,209.27970112456367,35.62210282533153,1425.887262908631,-6.164710545488767,215914.24000276905,10.5,10500215914.240004,47.655,-122.3035,60.0,11.233333333333333
2026-01-20T23:11:15+00:00,SAT-51858,209.2413159914652,35.777525715075015,1419.7389915912634,-6.157687858339453,215668.27579286287,10.5,10500215668.275793,47.655,-122.3035,60.0,11.25
2026-01-20T23:11:16+00:00,SAT-51858,209.2026951470693,35.93407039653316,1413.5977242338795,-6.150566263248772,215418.84740846985,10.5,10500215418.847408,47.655,-122.3035,60.0,11.266666666666667
2026-01-20T23:11:17+00:00,SAT-51858,209.16383415823944,36.091750184343105,1407.4635594806662,-6.1433441362068075,215165.89796989318,10.5,10500215165.89797,47.655,-122.3035,60.0,11.283333333333333
2026-01-20T23:11:18+00:00,SAT-51858,209.12472847966816,36.25057857617994,1401.3365975954891,-6.136019902375683,214909.3723196488,10.5,10500214909.37232,47.655,-122.3035,60.0,11.3
2026-01-20T23:11:19+00:00,SAT-51858,209.0853734498429,36.41056925726893,1395.216940412853,-6.128591914917775,214649.21277851707,10.5,10500214649.212778,47.655,-122.3035,60.0,11.316666666666666
2026-01-20T23:11:20+00:00,SAT-51858,209.04576428755377,36.57173610182444,1389.1046914097085,-6.121058452896,214385.35907200177,10.5,10500214385.359072,47.655,-122.3035,60.0,11.333333333333334
2026-01-20T23:11:21+00:00,SAT-51858,209.0058960882615,36.73409317439891,1382.9999557793535,-6.1134178387612685,214117.7524452377,10.5,10500214117.752445,47.655,-122.3035,60.0,11.35
2026-01-20T23:11:22+00:00,SAT-51858,208.9657638196698,36.897654734384716,1376.9028403881623,-6.10566834085255,213846.33224813076,10.5,10500213846.332249,47.655,-122.3035,60.0,11.366666666666667
2026-01-20T23:11:23+00:00,SAT-51858,208.92536231764777,37.06243523798573,1370.8134538295521,-6.09780815343045,213571.03523604895,10.5,10500213571.035236,47.655,-122.3035,60.0,11.383333333333333
2026-01-20T23:11:24+00:00,SAT-51858,208.8846862821462,37.22844933964262,1364.731906497864,-6.089835488619497,213291.79879003065,10.5,10500213291.79879,47.655,-122.3035,60.0,11.4
2026-01-20T23:11:25+00:00,SAT-51858,208.84373027236074,37.39571189596941,1358.6583105705477,-6.081748500280381,213008.55825046805,10.5,10500213008.55825,47.655,-122.3035,60.0,11.416666666666666
2026-01-20T23:11:26+00:00,SAT-51858,208.80248870220274,37.564237967671936,1352.592780066268,-6.073545305512223,212721.2476702077,10.5,10500212721.247671,47.655,-122.3035,60.0,11.433333333333334
2026-01-20T23:11:27+00:00,SAT-51858,208.76095583540138,37.734042822048465,1346.5354308815704,-6.0652240131624335,212429.80081308636,10.5,10500212429.800814,47.655,-122.3035,60.0,11.45
2026-01-20T23:11:28+00:00,SAT-51858,208.71912578026277,37.905141936332434,1340.4863807991098,-6.056782638488232,212134.14816501635,10.5,10500212134.148165,47.655,-122.3035,60.0,11.466666666666667
2026-01-20T23:11:29+00:00,SAT-51858,208.67699248473198,38.077550998643346,1334.4457495809907,-6.048219237875277,211834.22165240196,10.5,10500211834.221653,47.655,-122.3035,60.0,11.483333333333333
2026-01-20T23:11:30+00:00,SAT-51858,208.63454973039472,38.2512859127756,1328.4136589277498,-6.0395317420163215,211529.94879935033,10.5,10500211529.9488,47.655,-122.3035,60.0,11.5
2026-01-20T23:11:31+00:00,SAT-51858,208.5917911272928,38.42636279824583,1322.3902326037123,-6.0307181521757665,211221.259601686,10.5,10500211221.259602,47.655,-122.3035,60.0,11.516666666666667
2026-01-20T23:11:32+00:00,SAT-51858,208.54871010725998,38.602797996016,1316.375596366609,-6.021776296219525,210908.07798208523,10.5,10500210908.077982,47.655,-122.3035,60.0,11.533333333333333
2026-01-20T23:11:33+00:00,SAT-51858,208.5052999185414,38.780608067128036,1310.3698781405126,-6.012704086094155,210590.33080808402,10.5,10500210590.330809,47.655,-122.3035,60.0,11.55
2026-01-20T23:11:34+00:00,SAT-51858,208.46155361851766,38.95980979888683,1304.3732079319814,-6.0034993370932295,210267.94156202194,10.5,10500210267.941563,47.655,-122.3035,60.0,11.566666666666666
2026-01-20T23:11:35+00:00,SAT-51858,208.4174640672938,39.14042020576292,1298.3857179264537,-5.99415979617306,209940.83133277865,10.5,10500209940.831333,47.655,-122.3035,60.0,11.583333333333334
2026-01-20T23:11:36+00:00,SAT-51858,208.37302392080255,39.322456531073534,1292.407542556404,-5.984683237366888,209608.92215758254,10.5,10500209608.922157,47.655,-122.3035,60.0,11.6
2026-01-20T23:11:37+00:00,SAT-51858,208.32822562302027,39.505936251591876,1286.4388184743366,-5.975067327873054,209272.1323318516,10.5,10500209272.132332,47.655,-122.3035,60.0,11.616666666666667
2026-01-20T23:11:38+00:00,SAT-51858,208.2830613986628,39.69087707806729,1280.4796846593379,-5.965309739762696,208930.38032167012,10.5,10500208930.380322,47.655,-122.3035,60.0,11.633333333333333
2026-01-20T23:11:39+00:00,SAT-51858,208.23752324488368,39.87729695918478,1274.5302824122148,-5.955408057746525,208583.58153339036,10.5,10500208583.581533,47.655,-122.3035,60.0,11.65
2026-01-20T23:11:40+00:00,SAT-51858,208.1916029231475,40.065214082640395,1268.5907554426221,-5.945359863639919,208231.6512719581,10.5,10500208231.651272,47.655,-122.3035,60.0,11.666666666666666
2026-01-20T23:11:41+00:00,SAT-51858,208.14529195022865,40.25464687887217,1262.6612498719517,-5.935162651534701,207874.50176986895,10.5,10500207874.50177,47.655,-122.3035,60.0,11.683333333333334
2026-01-20T23:11:42+00:00,SAT-51858,208.09858158933216,40.445614022079965,1256.7419143208213,-5.924813910111162,207512.04507008378,10.5,10500207512.04507,47.655,-122.3035,60.0,11.7
2026-01-20T23:11:43+00:00,SAT-51858,208.05146284027066,40.63813443387109,1250.8328999144703,-5.914311038768347,207144.1900885567,10.5,10500207144.190088,47.655,-122.3035,60.0,11.716666666666667
2026-01-20T23:11:44+00:00,SAT-51858,208.0039264297543,40.832227284165576,1244.9343603718055,-5.903651425298575,206770.845334725,10.5,10500206770.845335,47.655,-122.3035,60.0,11.733333333333333
2026-01-20T23:11:45+00:00,SAT-51858,207.95596280070845,41.02791199461623,1239.0464520169744,-5.892832391077717,206391.91699184116,10.5,10500206391.916992,47.655,-122.3035,60.0,11.75
2026-01-20T23:11:46+00:00,SAT-51858,207.90756210143562,41.22520824019501,1233.1693338456062,-5.881851198267944,206007.30916924335,10.5,10500206007.30917,47.655,-122.3035,60.0,11.766666666666667
2026-01-20T23:11:47+00:00,SAT-51858,207.85871417427524,41.42413595097618,1227.303167583867,-5.87070507259334,205616.92470005393,10.5,10500205616.9247,47.655,-122.3035,60.0,11.783333333333333
2026-01-20T23:11:48+00:00,SAT-51858,207.80940854350482,41.624715314633356,1221.4481177248006,-5.85939117284367,205220.66407307194,10.5,10500205220.664074,47.655,-122.3035,60.0,11.8
2026-01-20T23:11:49+00:00,SAT-51858,207.75963440293617,41.82696677786047,1215.6043515950844,-5.8479066497417165,204818.42749455696,10.5,10500204818.427494,47.655,-122.3035,60.0,11.816666666666666
2026-01-20T23:11:50+00:00,SAT-51858,207.70938060242347,42.030911049783185,1209.7720393630752,-5.836248514899089,204410.1102985067,10.5,10500204410.110298,47.655,-122.3035,60.0,11.833333333333334
2026-01-20T23:11:51+00:00,SAT-51858,207.6586356347597,42.23656910073306,1203.9513541775493,-5.824413810557032,203995.60889169812,10.5,10500203995.608892,47.655,-122.3035,60.0,11.85
2026-01-20T23:11:52+00:00,SAT-51858,207.60738762059415,42.44396216688576,1198.1424721371536,-5.812399478054586,203574.81614688638,10.5,10500203574.816147,47.655,-122.3035,60.0,11.866666666666667
2026-01-20T23:11:53+00:00,SAT-51858,207.55562429364687,42.65311175022046,1192.3455723910406,-5.800202416918282,203147.62347237553,10.5,10500203147.623472,47.655,-122.3035,60.0,11.883333333333333
2026-01-20T23:11:54+00:00,SAT-51858,207.50333298471486,42.864039620468674,1186.5608371805674,-5.7878194496082,202713.91957727668,10.5,10500202713.919577,47.655,-122.3035,60.0,11.9
2026-01-20T23:11:55+00:00,SAT-51858,207.45050060517525,43.07676781569705,1180.7884519161582,-5.775247369643596,202273.59215707076,10.5,10500202273.592157,47.655,-122.3035,60.0,11.916666666666666
2026-01-20T23:11:56+00:00,SAT-51858,207.39711362924103,43.29131864454282,1175.0286052061672,-5.762482896587585,201826.52631698173,10.5,10500201826.526318,47.655,-122.3035,60.0,11.933333333333334
2026-01-20T23:11:57+00:00,SAT-51858,207.34315807571966,43.50771468670934,1169.2814889306371,-5.749522679351839,201372.60468772135,10.5,10500201372.604689,47.655,-122.3035,60.0,11.95
2026-01-20T23:11:58+00:00,SAT-51858,207.28861948876738,43.725978793416,1163.5472983117634,-5.736363311154765,200911.70794938755,10.5,10500200911.707949,47.655,-122.3035,60.0,11.966666666666667
2026-01-20T23:11:59+00:00,SAT-51858,207.2334829175733,43.946134088285866,1157.8262319694386,-5.7230013472352566,200443.71545187503,10.5,10500200443.715452,47.655,-122.3035,60.0,11.983333333333333
2026-01-20T23:12:00+00:00,SAT-51858,207.17773289478822,44.16820396878536,1152.118491959129,-5.709433260447748,199968.50365962627,10.5,10500199968.50366,47.655,-122.3035,60.0,12.0
2026-01-20T23:12:01+00:00,SAT-51858,207.12135341423553,44.39221210581352,1146.4242838540426,-5.6956554395139385,199485.9460903995,10.5,10500199485.94609,47.655,-122.3035,60.0,12.016666666666667
2026-01-20T23:12:02+00:00,SAT-51858,207.0643279074416,44.61818244299289,1140.743816829034,-5.681664233456196,198995.91487151443,10.5,10500198995.914871,47.655,-122.3035,60.0,12.033333333333333
2026-01-20T23:12:03+00:00,SAT-51858,207.00663921854186,44.846139197535514,1135.0773037002002,-5.6674559251160055,198498.27981235622,10.5,10500198498.279812,47.655,-122.3035,60.0,12.05
2026-01-20T23:12:04+00:00,SAT-51858,206.9482695780399,45.076106859883254,1129.4249609908845,-5.6530267407979355,197992.90874214828,10.5,10500197992.908743,47.655,-122.3035,60.0,12.066666666666666
2026-01-20T23:12:05+00:00,SAT-51858,206.8892005750983,45.30811019354015,1123.787008988062,-5.638372789602443,197479.66538513004,10.5,10500197479.665384,47.655,-122.3035,60.0,12.083333333333334
2026-01-20T23:12:06+00:00,SAT-51858,206.82941312881826,45.54217423213543,1118.163671859232,-5.6234901866958396,196958.41367799294,10.5,10500196958.413677,47.655,-122.3035,60.0,12.1
2026-01-20T23:12:07+00:00,SAT-51858,206.76888745685028,45.77832428137018,1112.5551776463674,-5.608374894014654,196429.01219067315,10.5,10500196429.01219,47.655,-122.3035,60.0,12.116666666666667
2026-01-20T23:12:08+00:00,SAT-51858,206.7076030436921,46.016585914020446,1106.9617584187367,-5.593022910784765,195891.3207991378,10.5,10500195891.320799,47.655,-122.3035,60.0,12.133333333333333
2026-01-20T23:12:09+00:00,SAT-51858,206.64553860543427,46.25698497273788,1101.3836502357142,-5.577430024980474,195345.19198042995,10.5,10500195345.19198,47.655,-122.3035,60.0,12.15
2026-01-20T23:12:10+00:00,SAT-51858,206.58267205490168,46.49954756188352,1095.821093357467,-5.561592069225853,194790.47977541666,10.5,10500194790.479774,47.655,-122.3035,60.0,12.166666666666666
2026-01-20T23:12:11+00:00,SAT-51858,206.5189804622825,46.74430005004464,1090.2743322004258,-5.545504802344856,194227.03564017272,10.5,10500194227.03564,47.655,-122.3035,60.0,12.183333333333334
2026-01-20T23:12:12+00:00,SAT-51858,206.45444001463815,46.991269067190835,1084.7436154108868,-5.52916379623554,193654.70448383718,10.5,10500193654.704483,47.655,-122.3035,60.0,12.2
2026-01-20T23:12:13+00:00,SAT-51858,206.38902597427946,47.24048149629612,1079.2291960514415,-5.512564682032025,193073.33329024664,10.5,10500193073.33329,47.655,-122.3035,60.0,12.216666666666667
2026-01-20T23:12:14+00:00,SAT-51858,206.32271263206272,47.49196447557439,1073.7313315418946,-5.495702940383162,192482.763772607,10.5,10500192482.763773,47.655,-122.3035,60.0,12.233333333333333
2026-01-20T23:12:15+00:00,SAT-51858,206.25547326019003,47.74574539090384,1068.2502838093526,-5.4785739816718415,191882.83518311303,10.5,10500191882.835182,47.655,-122.3035,60.0,12.25
2026-01-20T23:12:16+00:00,SAT-51858,206.1872800612821,48.001851871342886,1062.7863193582984,-5.46117318297401,191273.38560740947,10.5,10500191273.385607,47.655,-122.3035,60.0,12.266666666666667
2026-01-20T23:12:17+00:00,SAT-51858,206.1181041139867,48.26031178595128,1057.3397093038127,-5.4434957929298395,190654.24863277687,10.5,10500190654.248632,47.655,-122.3035,60.0,12.283333333333333
2026-01-20T23:12:18+00:00,SAT-51858,206.04791531630286,48.52115323560614,1051.9107294996638,-5.425537021438293,190025.2564896148,10.5,10500190025.256489,47.655,-122.3035,60.0,12.3
2026-01-20T23:12:19+00:00,SAT-51858,205.9766823244148,48.784404548510764,1046.4996605769493,-5.407291991179937,189386.23835356574,10.5,10500189386.238354,47.655,-122.3035,60.0,12.316666666666666
2026-01-20T23:12:20+00:00,SAT-51858,205.9043724882498,49.050094272821006,1041.1067880310793,-5.388755720360481,188737.01974112052,10.5,10500188737.019741,47.655,-122.3035,60.0,12.333333333333334
2026-01-20T23:12:21+00:00,SAT-51858,205.83095178323472,49.31825116775035,1035.732402325973,-5.369923189660837,188077.42485449315,10.5,10500188077.424854,47.655,-122.3035,60.0,12.35
2026-01-20T23:12:22+00:00,SAT-51858,205.7563847368277,49.58890419731031,1030.3767989314847,-5.350789275418568,187407.27424135187,10.5,10500187407.27424,47.655,-122.3035,60.0,12.366666666666667
2026-01-20T23:12:23+00:00,SAT-51858,205.68063435125214,49.86208252006488,1025.0402784274672,-5.331348801683413,186726.3866180244,10.5,10500186726.386618,47.655,-122.3035,60.0,12.383333333333333
2026-01-20T23:12:24+00:00,SAT-51858,205.6036620204548,50.137815480724655,1019.7231465559216,-5.3115964600225185,186034.57606073748,10.5,10500186034.576061,47.655,-122.3035,60.0,12.4
2026-01-20T23:12:25+00:00,SAT-51858,205.52542744275988,50.41613259680924,1014.4257143531258,-5.291526940835645,185331.65660483117,10.5,10500185331.656605,47.655,-122.3035,60.0,12.416666666666666
2026-01-20T23:12:26+00:00,SAT-51858,205.44588852591528,50.69706355129646,1009.1482981507991,-5.271134797003877,184617.43746915978,10.5,10500184617.43747,47.655,-122.3035,60.0,12.433333333333334
2026-01-20T23:12:27+00:00,SAT-51858,205.365001287676,50.98063817725251,1003.8912197132539,-5.250414516405845,183891.72559591668,10.5,10500183891.725595,47.655,-122.3035,60.0,12.45
2026-01-20T23:12:28+00:00,SAT-51858,205.2827197486215,51.26688644524865,998.6548063022251,-5.229360514502041,183154.3253909057,10.5,10500183154.325392,47.655,-122.3035,60.0,12.466666666666667
2026-01-20T23:12:29+00:00,SAT-51858,205.19899581778725,51.55583844942589,993.4393907490951,-5.207967141225003,182405.03896486462,10.5,10500182405.038965,47.655,-122.3035,60.0,12.483333333333333
2026-01-20T23:12:30+00:00,SAT-51858,205.11377917021213,51.84752439284994,988.2453115202467,-5.186228639064024,181643.66466541414,10.5,10500181643.664665,47.655,-122.3035,60.0,12.5
2026-01-20T23:12:31+00:00,SAT-51858,205.02701711660936,52.14197456939086,983.0729128242201,-5.164139209254414,180869.99939528617,10.5,10500180869.999395,47.655,-122.3035,60.0,12.516666666666667
2026-01-20T23:12:32+00:00,SAT-51858,204.9386544627526,52.43921934808926,977.9225446528571,-5.141692946310038,180083.83631937602,10.5,10500180083.836319,47.655,-122.3035,60.0,12.533333333333333
2026-01-20T23:12:33+00:00,SAT-51858,204.8486333598591,52.739289152512185,972.7945628877371,-5.118883878608342,179284.96628620184,10.5,10500179284.966286,47.655,-122.3035,60.0,12.55
2026-01-20T23:12:34+00:00,SAT-51858,204.75689314344822,53.04221444101457,967.6893293661385,-5.095705991651061,178473.1786425933,10.5,10500178473.178642,47.655,-122.3035,60.0,12.566666666666666
2026-01-20T23:12:35+00:00,SAT-51858,204.6633701600498,53.34802568700818,962.6072119237986,-5.0721531452519795,177648.25833325594,10.5,10500177648.258333,47.655,-122.3035,60.0,12.583333333333334
2026-01-20T23:12:36+00:00,SAT-51858,204.56799758240328,53.65675335269193,957.5485845202672,-5.048219154649175,176809.98874166587,10.5,10500176809.98874,47.655,-122.3035,60.0,12.6
2026-01-20T23:12:37+00:00,SAT-51858,204.4707052094534,53.96842786594846,952.5138272833638,-5.023897786426054,175958.1515472066,10.5,10500175958.151546,47.655,-122.3035,60.0,12.616666666666667
2026-01-20T23:12:38+00:00,SAT-51858,204.37141925116853,54.28307959536228,947.5033265577015,-4.99918270471908,175092.52484113642,10.5,10500175092.524841,47.655,-122.3035,60.0,12.633333333333333
2026-01-20T23:12:39+00:00,SAT-51858,204.27006209781192,54.6007388200026,942.5174750068617,-4.974067515801864,174212.8846881117,10.5,10500174212.884687,47.655,-122.3035,60.0,12.65
2026-01-20T23:12:40+00:00,SAT-51858,204.16655207039943,54.921435699944396,937.556671671102,-4.948545762147504,173319.0049182251,10.5,10500173319.00492,47.655,-122.3035,60.0,12.666666666666666
2026-01-20T23:12:41+00:00,SAT-51858,204.06080315163385,55.2452002443198,932.6213220309869,-4.922610953972012,172410.65823178957,10.5,10500172410.658232,47.655,-122.3035,60.0,12.683333333333334
2026-01-20T23:12:42+00:00,SAT-51858,203.9527246946627,55.572062279250574,927.7118380395588,-4.896256486982239,171487.61331852287,10.5,10500171487.61332,47.655,-122.3035,60.0,12.7
2026-01-20T23:12:43+00:00,SAT-51858,203.8422211099753,55.902051407892124,922.8286382365418,-4.869475742555655,170549.6383662673,10.5,10500170549.638367,47.655,-122.3035,60.0,12.716666666666667
2026-01-20T23:12:44+00:00,SAT-51858,203.72919152453434,56.23519697455458,917.972147762633,-4.842262048523566,169596.49968745193,10.5,10500169596.499687,47.655,-122.3035,60.0,12.733333333333333
2026-01-20T23:12:45+00:00,SAT-51858,203.6135294134327,56.57152802358171,913.1427984129054,-4.814608648609835,168627.9606487074,10.5,10500168627.96065,47.655,-122.3035,60.0,12.75
2026-01-20T23:12:46+00:00,SAT-51858,203.49512220117373,56.9110732530815,908.341028720692,-4.786508765343646,167643.7838743371,10.5,10500167643.783875,47.655,-122.3035,60.0,12.766666666666667
2026-01-20T23:12:47+00:00,SAT-51858,203.37385082755944,57.253860969919266,903.5672839787226,-4.757955581638331,166643.73060112965,10.5,10500166643.7306,47.655,-122.3035,60.0,12.783333333333333
2026-01-20T23:12:48+00:00,SAT-51858,203.2495892763584,57.59991904013229,898.8220162786353,-4.728942229951288,165627.56029869345,10.5,10500165627.560299,47.655,-122.3035,60.0,12.8
2026-01-20T23:12:49+00:00,SAT-51858,203.12220406292633,57.94927483499158,894.1056845612972,-4.69946181509022,164595.03146822762,10.5,10500164595.031467,47.655,-122.3035,60.0,12.816666666666666
2026-01-20T23:12:50+00:00,SAT-51858,202.99155367555932,58.30195517481553,889.4187546443806,-4.669507389286985,163545.90076950283,10.5,10500163545.90077,47.655,-122.3035,60.0,12.833333333333334
2026-01-20T23:12:51+00:00,SAT-51858,202.85748796718116,58.65798626681676,884.7616992747983,-4.639072030832285,162479.9257749806,10.5,10500162479.925776,47.655,-122.3035,60.0,12.85
2026-01-20T23:12:52+00:00,SAT-51858,202.71984748902273,59.01739364445643,880.1349981027149,-4.608148755315207,161396.86186104675,10.5,10500161396.86186,47.655,-122.3035,60.0,12.866666666666667
2026-01-20T23:12:53+00:00,SAT-51858,202.57846276488164,59.380202095310146,875.5391377440806,-4.5767305602008275,160296.46376930765,10.5,10500160296.46377,47.655,-122.3035,60.0,12.883333333333333
2026-01-20T23:12:54+00:00,SAT-51858,202.43315349555812,59.74643558699213,870.974611798707,-4.544810471432323,159178.48723879305,10.5,10500159178.487238,47.655,-122.3035,60.0,12.9
2026-01-20T23:12:55+00:00,SAT-51858,202.28372768571393,60.11611719133135,866.4419208218651,-4.512381473792789,158042.68656693253,10.5,10500158042.686567,47.655,-122.3035,60.0,12.916666666666666
2026-01-20T23:12:56+00:00,SAT-51858,202.1299806877779,60.48926899682925,861.9415723653357,-4.479436601014246,156888.81776555427,10.5,10500156888.817766,47.655,-122.3035,60.0,12.933333333333334
2026-01-20T23:12:57+00:00,SAT-51858,201.9716941485485,60.86591202193851,857.4740809285909,-4.445968860338143,155716.63591867444,10.5,10500155716.63592,47.655,-122.3035,60.0,12.95
2026-01-20T23:12:58+00:00,SAT-51858,201.80863485236515,61.24606611488779,853.0399679852136,-4.411971299292131,154525.89752130248,10.5,10500154525.897522,47.655,-122.3035,60.0,12.966666666666667
2026-01-20T23:12:59+00:00,SAT-51858,201.64055344404574,61.62974985125976,848.6397619427196,-4.377436985716006,153316.35977986502,10.5,10500153316.35978,47.655,-122.3035,60.0,12.983333333333333
2026-01-20T23:13:00+00:00,SAT-51858,201.46718301991763,62.01698042130577,844.2739981222988,-4.342359040174952,152087.78174745478,10.5,10500152087.781748,47.655,-122.3035,60.0,13.0
2026-01-20T23:13:01+00:00,SAT-51858,201.2882375691224,62.407773510772564,839.9432187062309,-4.306730605671928,150839.92326303033,10.5,10500150839.923264,47.655,-122.3035,60.0,13.016666666666667
2026-01-20T23:13:02+00:00,SAT-51858,201.10341024878312,62.80214316860759,835.6479727155075,-4.2705448886181845,149572.54638637687,10.5,10500149572.546387,47.655,-122.3035,60.0,13.033333333333333
2026-01-20T23:13:03+00:00,SAT-51858,200.9123714695031,63.20010166693371,831.3888159465923,-4.233795193100496,148285.4165982895,10.5,10500148285.416597,47.655,-122.3035,60.0,13.05
2026-01-20T23:13:04+00:00,SAT-51858,200.7147667667513,63.60165935175347,827.1663108740067,-4.196474825629714,146978.29946446486,10.5,10500146978.299465,47.655,-122.3035,60.0,13.066666666666666
2026-01-20T23:13:05+00:00,SAT-51858,200.51021443608263,64.00682447051477,822.9810266479121,-4.158577243842068,145650.9658436494,10.5,10500145650.965843,47.655,-122.3035,60.0,13.083333333333334
2026-01-20T23:13:06+00:00,SAT-51858,200.29830288972127,64.41560299820954,818.8335389433869,-4.120095996305222,144303.18977939343,10.5,10500144303.18978,47.655,-122.3035,60.0,13.1
2026-01-20T23:13:07+00:00,SAT-51858,200.07858770634127,64.82799844053636,814.7244298697385,-4.081024699150098,142934.7476815979,10.5,10500142934.74768,47.655,-122.3035,60.0,13.116666666666667
2026-01-20T23:13:08+00:00,SAT-51858,199.85058833041626,65.24401161494124,810.6542879031194,-4.04135713709592,141545.42186483945,10.5,10500141545.421865,47.655,-122.3035,60.0,13.133333333333333
2026-01-20T23:13:09+00:00,SAT-51858,199.61378436546028,65.66364041990532,806.6237077183891,-4.0010871753565596,140134.99746295778,10.5,10500140134.997463,47.655,-122.3035,60.0,13.15
2026-01-20T23:13:10+00:00,SAT-51858,199.36761141327844,66.08687957030985,802.6332901088335,-3.960208902447869,138703.26743077248,10.5,10500138703.267431,47.655,-122.3035,60.0,13.166666666666666
2026-01-20T23:13:11+00:00,SAT-51858,199.11145638022154,66.51372031980384,798.6836417634588,-3.918716483929404,137250.02742149952,10.5,10500137250.027422,47.655,-122.3035,60.0,13.183333333333334
2026-01-20T23:13:12+00:00,SAT-51858,198.84465218858625,66.94415013548625,794.7753751901532,-3.8766043214352814,135775.08135668462,10.5,10500135775.081356,47.655,-122.3035,60.0,13.2
2026-01-20T23:13:13+00:00,SAT-51858,198.56647178460597,67.37815235325522,790.9091084802418,-3.8338669582992977,134278.23812079564,10.5,10500134278.238121,47.655,-122.3035,60.0,13.216666666666667
2026-01-20T23:13:14+00:00,SAT-51858,198.27612135119026,67.81570578089278,787.0854651671647,-3.790499188013339,132759.31535989494,10.5,10500132759.31536,47.655,-122.3035,60.0,13.233333333333333
2026-01-20T23:13:15+00:00,SAT-51858,197.97273258673118,68.25678426520282,783.305073976986,-3.7464959767400106,131218.13676770384,10.5,10500131218.136768,47.655,-122.3035,60.0,13.25
2026-01-20T23:13:16+00:00,SAT-51858,197.65535391437103,68.70135619451821,779.568568656184,-3.701852583926777,129654.53631002003,10.5,10500129654.53631,47.655,-122.3035,60.0,13.266666666666667
2026-01-20T23:13:17+00:00,SAT-51858,197.32294043198453,69.14938395089948,775.8765876791476,-3.6565644428332797,128068.35404027888,10.5,10500128068.35404,47.655,-122.3035,60.0,13.283333333333333
2026-01-20T23:13:18+00:00,SAT-51858,196.9743424136277,69.60082327259553,772.2297740748286,-3.6106273247532834,126459.4418513006,10.5,10500126459.44185,47.655,-122.3035,60.0,13.3
2026-01-20T23:13:19+00:00,SAT-51858,196.6082920921914,70.05562254851937,768.628775089608,-3.5640372467791352,124827.6602448115,10.5,10500124827.660244,47.655,-122.3035,60.0,13.316666666666666
2026-01-20T23:13:20+00:00,SAT-51858,196.2233884495054,70.51372199801244,765.0742419421535,-3.516790525658453,123172.88021773302,10.5,10500123172.880219,47.655,-122.3035,60.0,13.333333333333334
2026-01-20T23:13:21+00:00,SAT-51858,195.81807964952688,70.975052735208,761.5668295245637,-3.468883836289329,121494.98531093118,10.5,10500121494.985312,47.655,-122.3035,60.0,13.35
2026-01-20T23:13:22+00:00,SAT-51858,195.39064268937264,71.4395356966986,758.107196045171,-3.420314136759566,119793.86898377359,10.5,10500119793.868984,47.655,-122.3035,60.0,13.366666666666667
2026-01-20T23:13:23+00:00,SAT-51858,194.939159774884,71.90708038722792,754.6960027461095,-3.3710787905426605,118069.43889394955,10.5,10500118069.438894,47.655,-122.3035,60.0,13.383333333333333
2026-01-20T23:13:24+00:00,SAT-51858,194.4614907852365,72.37758343624937,751.3339134990083,-3.321175487910757,116321.61414501946,10.5,10500116321.614145,47.655,-122.3035,60.0,13.4
2026-01-20T23:13:25+00:00,SAT-51858,193.95524110954545,72.85092689689094,748.0215944790652,-3.2706023569426854,114550.32917438568,10.5,10500114550.329174,47.655,-122.3035,60.0,13.416666666666666
2026-01-20T23:13:26+00:00,SAT-51858,193.41772393356808,73.32697626288164,744.7597137284077,-3.219357890688692,112755.53120229352,10.5,10500112755.531202,47.655,-122.3035,60.0,13.433333333333334
2026-01-20T23:13:27+00:00,SAT-51858,192.84591591272255,73.80557811431528,741.5489407920942,-3.1674410581915633,110937.18412026034,10.5,10500110937.18412,47.655,-122.3035,60.0,13.45
2026-01-20T23:13:28+00:00,SAT-51858,192.23640488007015,74.28655734069383,738.3899462433911,-3.114851221449734,109095.26558277263,10.5,10500109095.265583,47.655,-122.3035,60.0,13.466666666666667
2026-01-20T23:13:29+00:00,SAT-51858,191.58532801083243,74.76971381453059,735.2834012918653,-3.061588262296265,107229.7714511243,10.5,10500107229.771452,47.655,-122.3035,60.0,13.483333333333333
2026-01-20T23:13:30+00:00,SAT-51858,190.88829844770015,75.2548184246441,732.2299772649352,-3.0076525195401826,105340.71359184066,10.5,10500105340.713593,47.655,-122.3035,60.0,13.5
2026-01-20T23:13:31+00:00,SAT-51858,190.14031804160066,75.74160828556154,729.2303451521138,-2.9530448244223115,103428.12111849149,10.5,10500103428.121119,47.655,-122.3035,60.0,13.516666666666667
2026-01-20T23:13:32+00:00,SAT-51858,189.33567330852154,76.22978094233945,726.28517511389,-2.8977665568336484,101492.04236069645,10.5,10500101492.04236,47.655,-122.3035,60.0,13.533333333333333
2026-01-20T23:13:33+00:00,SAT-51858,188.46781111976114,76.71898732709656,723.3951359345411,-2.8418195991311515,99532.54324655856,10.5,10500099532.543247,47.655,-122.3035,60.0,13.55
2026-01-20T23:13:34+00:00,SAT-51858,187.52919000164712,77.2088231344497,720.5608945210076,-2.7852064330967905,97549.71069858035,10.5,10500097549.7107,47.655,-122.3035,60.0,13.566666666666666
2026-01-20T23:13:35+00:00,SAT-51858,186.51110211571168,77.69881823861145,717.7831153050658,-2.727930063768369,95543.64996589698,10.5,10500095543.649965,47.655,-122.3035,60.0,13.583333333333334
2026-01-20T23:13:36+00:00,SAT-51858,185.40346034350756,78.18842360902968,715.0624597214675,-2.66999413126731,93514.48854095841,10.5,10500093514.48854,47.655,-122.3035,60.0,13.6
2026-01-20T23:13:37+00:00,SAT-51858,184.1945441763879,78.67699510428932,712.3995855745502,-2.611402839074362,91462.37364744113,10.5,10500091462.373648,47.655,-122.3035,60.0,13.616666666666667
2026-01-20T23:13:38+00:00,SAT-51858,182.87069801836964,79.16377328076473,709.7951464763801,-2.552161031779347,89387.47496337332,10.5,10500089387.474964,47.655,-122.3035,60.0,13.633333333333333
2026-01-20T23:13:39+00:00,SAT-51858,181.4159760398756,79.64785819575688,707.2497912073521,-2.492274170315612,87289.98375374048,10.5,10500087289.983753,47.655,-122.3035,60.0,13.65
2026-01-20T23:13:40+00:00,SAT-51858,179.8117302158205,80.1281778815519,704.7641631014907,-2.4317483836565232,85170.11468111548,10.5,10500085170.114681,47.655,-122.3035,60.0,13.666666666666666
2026-01-20T23:13:41+00:00,SAT-51858,178.03614376393725,80.60344891622901,702.3388993801907,-2.370590425973811,83028.10430516239,10.5,10500083028.104305,47.655,-122.3035,60.0,13.683333333333334
2026-01-20T23:13:42+00:00,SAT-51858,176.06372382540056,81.07212721080957,699.9746305286861,-2.3088077478890923,80864.21357816637,10.5,10500080864.213577,47.655,-122.3035,60.0,13.7
2026-01-20T23:13:43+00:00,SAT-51858,173.8647887463743,81.53234700220624,697.6719796014579,-2.2464084644172737,78678.72672227588,10.5,10500078678.726723,47.655,-122.3035,60.0,13.716666666666667
2026-01-20T23:13:44+00:00,SAT-51858,171.40502389694748,81.98184611733761,695.4315615596125,-2.183401365187357,76471.95158747873,10.5,10500076471.951588,47.655,-122.3035,60.0,13.733333333333333
2026-01-20T23:13:45+00:00,SAT-51858,168.64524470416922,82.41787637398681,693.2539825980656,-2.119795956879428,74244.22113792467,10.5,10500074244.221138,47.655,-122.3035,60.0,13.75
2026-01-20T23:13:46+00:00,SAT-51858,165.54160867584466,82.83710005424943,691.1398394304045,-2.055602423712602,71995.89206804635,10.5,10500071995.892069,47.655,-122.3035,60.0,13.766666666666667
2026-01-20T23:13:47+00:00,SAT-51858,162.04666945423426,83.23547779292412,689.0897186131552,-1.9908316615234443,69727.34599612965,10.5,10500069727.345997,47.655,-122.3035,60.0,13.783333333333333
2026-01-20T23:13:48+00:00,SAT-51858,158.1118585519367,83.60816155166644,687.1041958360624,-1.9254952657102358,67438.98904207083,10.5,10500067438.989042,47.655,-122.3035,60.0,13.8
2026-01-20T23:13:49+00:00,SAT-51858,153.69216123969628,83.94942009175625,685.1838352243941,-1.859605551679418,65131.252543497576,10.5,10500065131.252544,47.655,-122.3035,60.0,13.816666666666666
2026-01-20T23:13:50+00:00,SAT-51858,148.7537663320688,84.25264394720448,683.3291886208525,-1.7931755122039201,62804.59156227726,10.5,10500062804.591562,47.655,-122.3035,60.0,13.833333333333334
2026-01-20T23:13:51+00:00,SAT-51858,143.28500787957714,84.51049811434042,681.5407949100145,-1.726218868984976,60459.486690429854,10.5,10500060459.48669,47.655,-122.3035,60.0,13.85
2026-01-20T23:13:52+00:00,SAT-51858,137.3095754110913,84.71530006460726,679.8191792913468,-1.6587500279395884,58096.44248410571,10.5,10500058096.442484,47.655,-122.3035,60.0,13.866666666666667
2026-01-20T23:13:53+00:00,SAT-51858,130.8986237487665,84.85967299810994,678.1648525968151,-1.59078408611282,55715.98770568341,10.5,10500055715.987705,47.655,-122.3035,60.0,13.883333333333333
2026-01-20T23:13:54+00:00,SAT-51858,124.17597004044661,84.9374345596882,676.5783106015986,-1.5223368193410167,53318.674891683484,10.5,10500053318.674892,47.655,-122.3035,60.0,13.9
2026-01-20T23:13:55+00:00,SAT-51858,117.31038826578643,84.94453917053923,675.0600333471091,-1.4534246906796158,50905.08064794601,10.5,10500050905.080648,47.655,-122.3035,60.0,13.916666666666666
2026-01-20T23:13:56+00:00,SAT-51858,110.49339392459186,84.8797763997982,673.6104844556046,-1.3840648067889947,48475.8041220785,10.5,10500048475.804123,47.655,-122.3035,60.0,13.933333333333334
2026-01-20T23:13:57+00:00,SAT-51858,103.90861774225708,84.74495321399297,672.2301104883004,-1.3142749236594398,46031.46720396855,10.5,10500046031.467203,47.655,-122.3035,60.0,13.95
2026-01-20T23:13:58+00:00,SAT-51858,97.7041725131827,84.54448689499846,670.9193402977706,-1.244073428092381,43572.71387717833,10.5,10500043572.713877,47.655,-122.3035,60.0,13.966666666666667
2026-01-20T23:13:59+00:00,SAT-51858,91.97747061559134,84.28458471148076,669.6785843988199,-1.1734793147141198,41100.209413868106,10.5,10500041100.209414,47.655,-122.3035,60.0,13.983333333333333
2026-01-20T23:14:00+00:00,SAT-51858,86.77459143656765,83.97231315162514,668.5082343622784,-1.1025121706526217,38614.6398381127,10.5,10500038614.639837,47.655,-122.3035,60.0,14.0
2026-01-20T23:14:01+00:00,SAT-51858,82.09977539791478,83.61481069023264,667.4086622240808,-1.0311921462405529,36116.7108997979,10.5,10500036116.7109,47.655,-122.3035,60.0,14.016666666666667
2026-01-20T23:14:02+00:00,SAT-51858,77.92867905544084,83.2187593060771,666.3802199235636,-0.9595399396968998,33607.147538106,10.5,10500033607.147537,47.655,-122.3035,60.0,14.033333333333333
2026-01-20T23:14:03+00:00,SAT-51858,74.22070027511438,82.79010859476465,665.4232387570391,-0.887576758206739,31086.69251836469,10.5,10500031086.692518,47.655,-122.3035,60.0,14.05
2026-01-20T23:14:04+00:00,SAT-51858,70.92828577373703,82.33398716123902,664.5380288701876,-0.8153243034134675,28556.105923923573,10.5,10500028556.105925,47.655,-122.3035,60.0,14.066666666666666
2026-01-20T23:14:05+00:00,SAT-51858,68.00300294786942,81.85472794264501,663.7248787649166,-0.7428047331287626,26016.16381507505,10.5,10500026016.163815,47.655,-122.3035,60.0,14.083333333333334
2026-01-20T23:14:06+00:00,SAT-51858,65.39901054620039,81.35595016419165,662.9840548444096,-0.6700406347219416,23467.657297037094,10.5,10500023467.657297,47.655,-122.3035,60.0,14.1
2026-01-20T23:14:07+00:00,SAT-51858,63.074737488063484,80.84066111662776,662.3158009847136,-0.5970549851822733,20911.391121166464,10.5,10500020911.39112,47.655,-122.3035,60.0,14.116666666666667
2026-01-20T23:14:08+00:00,SAT-51858,60.99345361699683,80.31135743388843,661.7203381461584,-0.5238711268217532,18348.18283396712,10.5,10500018348.182835,47.655,-122.3035,60.0,14.133333333333333
2026-01-20T23:14:09+00:00,SAT-51858,59.12321775519179,79.77011634857604,661.1978640090082,-0.45051272103155116,15778.861157445419,10.5,10500015778.861158,47.655,-122.3035,60.0,14.15
2026-01-20T23:14:10+00:00,SAT-51858,57.43651395207067,79.21867366442996,660.7485526552327,-0.37700371667264865,13204.264882016514,10.5,10500013204.264881,47.655,-122.3035,60.0,14.166666666666666
2026-01-20T23:14:11+00:00,SAT-51858,55.90976036247212,78.6584883537068,660.3725542818046,-0.3033683149269772,10625.241635442544,10.5,10500010625.241636,47.655,-122.3035,60.0,14.183333333333334
2026-01-20T23:14:12+00:00,SAT-51858,54.522792883549215,78.09079511484845,660.0699949490507,-0.2296309212426988,8042.646199753089,10.5,10500008042.6462,47.655,-122.3035,60.0,14.2
2026-01-20T23:14:13+00:00,SAT-51858,53.258375554096254,77.51664672088309,659.8409763769313,-0.15581611377579127,5457.339405935983,10.5,10500005457.339405,47.655,-122.3035,60.0,14.216666666666667
2026-01-20T23:14:14+00:00,SAT-51858,52.10176057509375,76.93694793921159,659.6855757727922,-0.08194859943475556,2870.186594437054,10.5,10500002870.186594,47.655,-122.3035,60.0,14.233333333333333
2026-01-20T23:14:15+00:00,SAT-51858,51.040305055354445,76.35248266149162,659.6038457029559,-0.00805317242309628,282.05616314240615,10.5,10500000282.056164,47.655,-122.3035,60.0,14.25
2026-01-20T23:14:16+00:00,SAT-51858,50.063143338221366,75.76393560535924,659.5958140056593,0.06584532689128508,-2306.1818731893964,10.5,10499997693.818127,47.655,-122.3035,60.0,14.266666666666667
2026-01-20T23:14:17+00:00,SAT-51858,49.16090999094839,75.17190969549307,659.6614837450123,0.13972205125004344,-4893.65725846731,10.5,10499995106.342741,47.655,-122.3035,60.0,14.283333333333333
2026-01-20T23:14:18+00:00,SAT-51858,48.32550720485243,74.5769400374636,659.8008332041256,0.2135521924065455,-7479.501102955457,10.5,10499992520.498898,47.655,-122.3035,60.0,14.3
2026-01-20T23:14:19+00:00,SAT-51858,47.5499101297589,73.9795051571583,660.0138159240191,0.2873110198213416,-10062.847238552235,10.5,10499989937.152761,47.655,-122.3035,60.0,14.316666666666666
2026-01-20T23:14:20+00:00,SAT-51858,46.82800424964733,73.38003610656531,660.300360781121,0.3609739196944607,-12642.833585866383,10.5,10499987357.166414,47.655,-122.3035,60.0,14.333333333333334
2026-01-20T23:14:21+00:00,SAT-51858,46.15444949556942,72.77892385096106,660.6603721036962,0.43451644194905686,-15218.603799783037,10.5,10499984781.3962,47.655,-122.3035,60.0,14.35
2026-01-20T23:14:22+00:00,SAT-51858,45.52456658238798,72.17652527942478,661.0937298351334,0.5079143354650159,-17789.30850349366,10.5,10499982210.691496,47.655,-122.3035,60.0,14.366666666666667
2026-01-20T23:14:23+00:00,SAT-51858,44.93424178981029,71.57316812836882,661.6002897323705,0.5811435853061798,-20354.106592350927,10.5,10499979645.893408,47.655,-122.3035,60.0,14.383333333333333
2026-01-20T23:14:24+00:00,SAT-51858,44.37984700781545,70.96915502312247,662.1798836014492,0.6541804586648121,-22912.166843038216,10.5,10499977087.833157,47.655,-122.3035,60.0,14.4
2026-01-20T23:14:25+00:00,SAT-51858,43.85817242129291,70.36476680045149,662.832319578891,0.7270015356207093,-25462.66899088385,10.5,10499974537.331009,47.655,-122.3035,60.0,14.416666666666666
2026-01-20T23:14:26+00:00,SAT-51858,43.36636969031029,69.76026526157719,663.5573824437499,0.7995837469701585,-28004.805054791155,10.5,10499971995.194944,47.655,-122.3035,60.0,14.433333333333334
2026-01-20T23:14:27+00:00,SAT-51858,42.901903840458736,69.15589545356099,664.3548339673949,0.8719044127428975,-30537.780686265374,10.5,10499969462.219315,47.655,-122.3035,60.0,14.45
2026-01-20T23:14:28+00:00,SAT-51858,42.46251240498739,68.55188756549742,665.2244133017037,0.9439412669600398,-33060.81603654091,10.5,10499966939.183964,47.655,-122.3035,60.0,14.466666666666667
2026-01-20T23:14:29+00:00,SAT-51858,42.046170624873334,67.94845851675484,666.165837391952,1.0156725012830388,-35573.14728535268,10.5,10499964426.852715,47.655,-122.3035,60.0,14.483333333333333
2026-01-20T23:14:30+00:00,SAT-51858,41.651061708104514,67.34581327959165,667.1788014332316,1.0870767819220324,-38074.027233137866,10.5,10499961925.972767,47.655,-122.3035,60.0,14.5
2026-01-20T23:14:31+00:00,SAT-51858,41.27555134524413,66.74414599755063,668.2629793437352,1.1581332937081512,-40562.72684463459,10.5,10499959437.273155,47.655,-122.3035,60.0,14.516666666666667
2026-01-20T23:14:32+00:00,SAT-51858,40.91816579549524,66.14364091943798,669.4180242819934,1.2288217467351914,-43038.53548150137,10.5,10499956961.464518,47.655,-122.3035,60.0,14.533333333333333
2026-01-20T23:14:33+00:00,SAT-51858,40.57757299831533,65.54447319829026,670.6435691707372,1.2991224207078862,-45500.7624555812,10.5,10499954499.237545,47.655,-122.3035,60.0,14.55
2026-01-20T23:14:34+00:00,SAT-51858,40.252566233673214,64.94680955969935,671.93922726499,1.369016183693183,-47948.73768565059,10.5,10499952051.262314,47.655,-122.3035,60.0,14.566666666666666
2026-01-20T23:14:35+00:00,SAT-51858,39.942049953736756,64.35080887257533,673.3045927388599,1.438484496583302,-50381.811853734725,10.5,10499949618.188147,47.655,-122.3035,60.0,14.583333333333334
2026-01-20T23:14:36+00:00,SAT-51858,39.64502746516153,63.756622643409465,674.7392412767857,1.507509452923523,-52799.357800045094,10.5,10499947200.6422,47.655,-122.3035,60.0,14.6
2026-01-20T23:14:37+00:00,SAT-51858,39.36059018327002,63.16439543153152,676.2427307045014,1.57607378468988,-55200.77072533873,10.5,10499944799.229275,47.655,-122.3035,60.0,14.616666666666667
2026-01-20T23:14:38+00:00,SAT-51858,39.08790823945739,62.5742652117552,677.8146016257655,1.644160884842178,-57585.4689808203,10.5,10499942414.53102,47.655,-122.3035,60.0,14.633333333333333
2026-01-20T23:14:39+00:00,SAT-51858,38.826222246844544,61.98636368553564,679.4543780815815,1.7117548074417706,-59952.89407226712,10.5,10499940047.105928,47.655,-122.3035,60.0,14.65
2026-01-20T23:14:40+00:00,SAT-51858,38.57483606652496,61.4008165567946,681.1615682095367,1.7788402885526071,-62302.51139207236,10.5,10499937697.488607,47.655,-122.3035,60.0,14.666666666666666
2026-01-20T23:14:41+00:00,SAT-51858,38.33311043395604,60.8177437704186,682.9356649239865,1.8454027615110777,-64633.81075405945,10.5,10499935366.189245,47.655,-122.3035,60.0,14.683333333333334
2026-01-20T23:14:42+00:00,SAT-51858,38.10045733081038,60.23725972146361,684.7761466114669,1.911428352639052,-66946.30624333466,10.5,10499933053.693756,47.655,-122.3035,60.0,14.7
2026-01-20T23:14:43+00:00,SAT-51858,37.87633500605809,59.659473445081446,686.6824778218322,1.9769038668916241,-69239.53571361043,10.5,10499930760.464287,47.655,-122.3035,60.0,14.716666666666667
2026-01-20T23:14:44+00:00,SAT-51858,37.66024356209137,59.084488792727456,688.6541099450787,2.041816848505775,-71513.06291137797,10.5,10499928486.937088,47.655,-122.3035,60.0,14.733333333333333
2026-01-20T23:14:45+00:00,SAT-51858,37.45172102521169,58.512404576059886,690.6904819486552,2.1061555274754284,-73766.47560123743,10.5,10499926233.524399,47.655,-122.3035,60.0,14.75
2026-01-20T23:14:46+00:00,SAT-51858,37.250339852069686,57.943314714372555,692.7910210613907,2.1699088357913574,-75999.38613468806,10.5,10499924000.613865,47.655,-122.3035,60.0,14.766666666666667
2026-01-20T23:14:47+00:00,SAT-51858,37.05570380982734,57.377308366234104,694.95514347362,2.2330664203588646,-78211.43190256,10.5,10499921788.568098,47.655,-122.3035,60.0,14.783333333333333
2026-01-20T23:14:48+00:00,SAT-51858,36.86744518508213,56.81447004917385,697.1822550501912,2.295618618899266,-80402.27449098234,10.5,10499919597.72551,47.655,-122.3035,60.0,14.8
2026-01-20T23:14:49+00:00,SAT-51858,36.685222285350974,56.25487975773349,699.47175201944,2.357556469952169,-82571.60003170518,10.5,10499917428.39997,47.655,-122.3035,60.0,14.816666666666666
2026-01-20T23:14:50+00:00,SAT-51858,36.508717195164515,55.698613072541676,701.8230216721389,2.418871679768381,-84719.1180425493,10.5,10499915280.881958,47.655,-122.3035,60.0,14.833333333333334
2026-01-20T23:14:51+00:00,SAT-51858,36.337633760546964,55.14574127107133,704.235443027428,2.4795566701243716,-86844.56310207078,10.5,10499913155.436897,47.655,-122.3035,60.0,14.85
2026-01-20T23:14:52+00:00,SAT-51858,36.17169576954732,54.59633142262106,706.708387546432,2.5396044917744796,-88947.69181829129,10.5,10499911052.308182,47.655,-122.3035,60.0,14.866666666666667
2026-01-20T23:14:53+00:00,SAT-51858,36.0106453161801,54.05044649801027,709.2412197595618,2.599008889785226,-91028.28511698208,10.5,10499908971.714884,47.655,-122.3035,60.0,14.883333333333333
2026-01-20T23:14:54+00:00,SAT-51858,35.85424131676803,53.50814546075149,711.8332979589743,2.657764232175678,-93086.14574234758,10.5,10499906913.854258,47.655,-122.3035,60.0,14.9
2026-01-20T23:14:55+00:00,SAT-51858,35.702258170955936,52.96948336966155,714.4839748198641,2.715865533343069,-95121.09907748988,10.5,10499904878.900923,47.655,-122.3035,60.0,14.916666666666666
2026-01-20T23:14:56+00:00,SAT-51858,35.55448454560817,52.43451147287177,717.1925980451183,2.773308430746821,-97132.99232778438,10.5,10499902867.007671,47.655,-122.3035,60.0,14.933333333333334
2026-01-20T23:14:57+00:00,SAT-51858,35.410722271426444,51.90327730322941,719.9585109867165,2.8300891474822274,-99121.69321005196,10.5,10499900878.30679,47.655,-122.3035,60.0,14.95
2026-01-20T23:14:58+00:00,SAT-51858,35.270785340837016,51.375824777561824,722.7810532298055,2.8862045387671857,-101087.09158072098,10.5,10499898912.908419,47.655,-122.3035,60.0,14.966666666666667
2026-01-20T23:14:59+00:00,SAT-51858,35.13449899255754,50.852194284096434,725.6595612231359,2.9416519865328414,-103029.09574394576,10.5,10499896970.904257,47.655,-122.3035,60.0,14.983333333333333
