satellites_20260121_005943/SAT-64414.csv

timestamp,satellite,azimuth_deg,elevation_deg,distance_km,relative_velocity_kms,doppler_shift_hz,tx_freq_ghz,rx_freq_hz,ue_lat,ue_lon,ue_alt_m,time_minutes
2026-01-20T23:08:13+00:00,SAT-64414,251.28959020219799,30.03855352630867,3620.7327666810033,-6.71608018051086,235225.53691248642,10.5,10500235225.536913,47.655,-122.3035,60.0,8.216666666666667
2026-01-20T23:08:14+00:00,SAT-64414,251.27910422003424,30.08823537377624,3614.0345960476407,-6.716694579445319,235247.05576207605,10.5,10500235247.055761,47.655,-122.3035,60.0,8.233333333333333
2026-01-20T23:08:15+00:00,SAT-64414,251.268620980619,30.137990528872493,3607.3358126537405,-6.71730460715614,235268.42151292367,10.5,10500235268.421513,47.655,-122.3035,60.0,8.25
2026-01-20T23:08:16+00:00,SAT-64414,251.25814051637423,30.187819408990453,3600.63642085887,-6.717910274211243,235289.63453516248,10.5,10500235289.634535,47.655,-122.3035,60.0,8.266666666666667
2026-01-20T23:08:17+00:00,SAT-64414,251.24766286006138,30.237722434879043,3593.9364250120566,-6.718511566942059,235310.6943500614,10.5,10500235310.69435,47.655,-122.3035,60.0,8.283333333333333
2026-01-20T23:08:18+00:00,SAT-64414,251.23718804478608,30.287700030491546,3587.2358294759597,-6.719108466533275,235331.60029862856,10.5,10500235331.600298,47.655,-122.3035,60.0,8.3
2026-01-20T23:08:19+00:00,SAT-64414,251.22671610402904,30.337752622979547,3580.5346386320043,-6.719700942132396,235352.35130027906,10.5,10500235352.351301,47.655,-122.3035,60.0,8.316666666666666
2026-01-20T23:08:20+00:00,SAT-64414,251.21624707163738,30.38788064263299,3573.832856892384,-6.720288979976826,235372.94687298863,10.5,10500235372.946873,47.655,-122.3035,60.0,8.333333333333334
2026-01-20T23:08:21+00:00,SAT-64414,251.2057809818351,30.43808452303897,3567.1304886830208,-6.7208725661565945,235393.38652957117,10.5,10500235393.38653,47.655,-122.3035,60.0,8.35
2026-01-20T23:08:22+00:00,SAT-64414,251.19531786921232,30.488364701113603,3560.427538443707,-6.721451669759738,235413.6691873591,10.5,10500235413.669188,47.655,-122.3035,60.0,8.366666666666667
2026-01-20T23:08:23+00:00,SAT-64414,251.18485776875224,30.538721617006587,3553.7240106450663,-6.722026270333972,235433.7941300268,10.5,10500235433.79413,47.655,-122.3035,60.0,8.383333333333333
2026-01-20T23:08:24+00:00,SAT-64414,251.17440071582038,30.58915571421046,3547.01990977812,-6.722596365186239,235453.761263252,10.5,10500235453.761263,47.655,-122.3035,60.0,8.4
2026-01-20T23:08:25+00:00,SAT-64414,251.16394674616402,30.63966743972893,3540.315240336575,-6.723161922283446,235473.5694651004,10.5,10500235473.569466,47.655,-122.3035,60.0,8.416666666666666
2026-01-20T23:08:26+00:00,SAT-64414,251.1534958959245,30.690257243888507,3533.6100068460837,-6.723722909829841,235493.21762195008,10.5,10500235493.217623,47.655,-122.3035,60.0,8.433333333333334
2026-01-20T23:08:27+00:00,SAT-64414,251.14304820166257,30.74092558037348,3526.9042138640134,-6.724279323890275,235512.70559597563,10.5,10500235512.705597,47.655,-122.3035,60.0,8.45
2026-01-20T23:08:28+00:00,SAT-64414,251.13260370031628,30.79167290646998,3520.1978659516535,-6.724831138207072,235532.03246752208,10.5,10500235532.032467,47.655,-122.3035,60.0,8.466666666666667
2026-01-20T23:08:29+00:00,SAT-64414,251.12216242924922,30.842499682932967,3513.4909676964817,-6.725378342916188,235551.19789110895,10.5,10500235551.197891,47.655,-122.3035,60.0,8.483333333333333
2026-01-20T23:08:30+00:00,SAT-64414,251.1117244262175,30.893406374144575,3506.7835236958135,-6.725920887962045,235570.20011357815,10.5,10500235570.200113,47.655,-122.3035,60.0,8.5
2026-01-20T23:08:31+00:00,SAT-64414,251.1012897294273,30.944393447842913,3500.075538596886,-6.726458774593845,235589.039178682,10.5,10500235589.039179,47.655,-122.3035,60.0,8.516666666666667
2026-01-20T23:08:32+00:00,SAT-64414,251.09085837748296,30.995461375548214,3493.367017045691,-6.726991969989741,235607.71393686056,10.5,10500235607.713938,47.655,-122.3035,60.0,8.533333333333333
2026-01-20T23:08:33+00:00,SAT-64414,251.0804304094292,31.046610632340645,3486.6579637209543,-6.727520480349506,235626.2246052561,10.5,10500235626.224606,47.655,-122.3035,60.0,8.55
2026-01-20T23:08:34+00:00,SAT-64414,251.07000586471725,31.097841697192763,3479.948383295219,-6.72804423229586,235644.568613886,10.5,10500235644.568613,47.655,-122.3035,60.0,8.566666666666666
2026-01-20T23:08:35+00:00,SAT-64414,251.0595847832846,31.14915505239897,3473.2382805142097,-6.728563243381191,235662.74657750895,10.5,10500235662.746578,47.655,-122.3035,60.0,8.583333333333334
2026-01-20T23:08:36+00:00,SAT-64414,251.0491672054697,31.200551184307706,3466.527660106144,-6.729077485343394,235680.7575062667,10.5,10500235680.757505,47.655,-122.3035,60.0,8.6
2026-01-20T23:08:37+00:00,SAT-64414,251.0387531720751,31.252030583009326,3459.816526827428,-6.729586935250073,235698.60059696954,10.5,10500235698.600597,47.655,-122.3035,60.0,8.616666666666667
2026-01-20T23:08:38+00:00,SAT-64414,251.02834272434637,31.303593742414005,3453.1048854573387,-6.730091535765905,235716.27384149205,10.5,10500235716.273842,47.655,-122.3035,60.0,8.633333333333333
2026-01-20T23:08:39+00:00,SAT-64414,251.017935904025,31.35524116002505,3446.3927408323348,-6.730591320854707,235733.77842939072,10.5,10500235733.778429,47.655,-122.3035,60.0,8.65
2026-01-20T23:08:40+00:00,SAT-64414,251.0075327532665,31.406973337682164,3439.6800977550024,-6.731086232870128,235751.1123416465,10.5,10500235751.11234,47.655,-122.3035,60.0,8.666666666666666
2026-01-20T23:08:41+00:00,SAT-64414,250.99713331472623,31.458790780894457,3432.9669610854203,-6.731576241769267,235768.27452602997,10.5,10500235768.274527,47.655,-122.3035,60.0,8.683333333333334
2026-01-20T23:08:42+00:00,SAT-64414,250.98673763153573,31.510693999090623,3426.2533357136285,-6.732061341595278,235785.26477390708,10.5,10500235785.264774,47.655,-122.3035,60.0,8.7
2026-01-20T23:08:43+00:00,SAT-64414,250.9763457473045,31.56268350584957,3419.539226535611,-6.73254149609024,235802.08181537213,10.5,10500235802.081816,47.655,-122.3035,60.0,8.716666666666667
2026-01-20T23:08:44+00:00,SAT-64414,250.96595770612595,31.61475981870292,3412.82463848351,-6.733016709862686,235818.72581183547,10.5,10500235818.725811,47.655,-122.3035,60.0,8.733333333333333
2026-01-20T23:08:45+00:00,SAT-64414,250.9555735525774,31.666923459496424,3406.1095764848737,-6.733486906345752,235835.19408160163,10.5,10500235835.194082,47.655,-122.3035,60.0,8.75
2026-01-20T23:08:46+00:00,SAT-64414,250.9451933317636,31.719174953797232,3399.394045543612,-6.733952106787601,235851.48736887108,10.5,10500235851.48737,47.655,-122.3035,60.0,8.766666666666667
2026-01-20T23:08:47+00:00,SAT-64414,250.93481708927126,31.771514831700657,3392.6780506424425,-6.734412262844334,235867.60398043602,10.5,10500235867.603981,47.655,-122.3035,60.0,8.783333333333333
2026-01-20T23:08:48+00:00,SAT-64414,250.92444487120497,31.823943627327967,3385.961596812299,-6.734867355160397,235883.54323838316,10.5,10500235883.543238,47.655,-122.3035,60.0,8.8
2026-01-20T23:08:49+00:00,SAT-64414,250.9140767241936,31.87646187909755,3379.2446891034188,-6.735317363535079,235899.30443519805,10.5,10500235899.304436,47.655,-122.3035,60.0,8.816666666666666
2026-01-20T23:08:50+00:00,SAT-64414,250.9037126953791,31.929070129760724,3372.5273325861863,-6.735762250815476,235914.8862696289,10.5,10500235914.88627,47.655,-122.3035,60.0,8.833333333333334
2026-01-20T23:08:51+00:00,SAT-64414,250.8933528324461,31.981768926313823,3365.80953236804,-6.7362019849380035,235930.2876186733,10.5,10500235930.287619,47.655,-122.3035,60.0,8.85
2026-01-20T23:08:52+00:00,SAT-64414,250.8829971836182,32.034558820081266,3359.0912935883953,-6.736636585574834,235945.50917133395,10.5,10500235945.50917,47.655,-122.3035,60.0,8.866666666666667
2026-01-20T23:08:53+00:00,SAT-64414,250.87264579763468,32.087440367171176,3352.3726213670484,-6.737065956801518,235960.54756793095,10.5,10500235960.547567,47.655,-122.3035,60.0,8.883333333333333
2026-01-20T23:08:54+00:00,SAT-64414,250.86229872382643,32.14041412760563,3345.653520919465,-6.73749011820281,235975.40349440518,10.5,10500235975.403494,47.655,-122.3035,60.0,8.9
2026-01-20T23:08:55+00:00,SAT-64414,250.85195601206124,32.19348066628253,3338.9339974415775,-6.737909042067526,235990.07598019365,10.5,10500235990.075981,47.655,-122.3035,60.0,8.916666666666666
2026-01-20T23:08:56+00:00,SAT-64414,250.84161771275848,32.24664055264687,3332.214056156956,-6.738322666696763,236004.56286434003,10.5,10500236004.562864,47.655,-122.3035,60.0,8.933333333333334
2026-01-20T23:08:57+00:00,SAT-64414,250.83128387694478,32.299894360467945,3325.4937023507036,-6.738731004376227,236018.86457714153,10.5,10500236018.864576,47.655,-122.3035,60.0,8.95
2026-01-20T23:08:58+00:00,SAT-64414,250.82095455618992,32.3532426684759,3318.7729412956724,-6.739133992784455,236032.97893583693,10.5,10500236032.978935,47.655,-122.3035,60.0,8.966666666666667
2026-01-20T23:08:59+00:00,SAT-64414,250.8106298026775,32.406686059816295,3312.0517783268688,-6.739531655025116,236046.90674961449,10.5,10500236046.90675,47.655,-122.3035,60.0,8.983333333333333
2026-01-20T23:09:00+00:00,SAT-64414,250.80030966914336,32.46022512278066,3305.3302187562567,-6.739923894039924,236060.64461908245,10.5,10500236060.644619,47.655,-122.3035,60.0,9.0
2026-01-20T23:09:01+00:00,SAT-64414,250.78999420898322,32.513860449896704,3298.6082679926008,-6.740310732115332,236074.19332480666,10.5,10500236074.193325,47.655,-122.3035,60.0,9.016666666666667
2026-01-20T23:09:02+00:00,SAT-64414,250.77968347615098,32.56759263893107,3291.885931422438,-6.740692111585165,236087.55084707378,10.5,10500236087.550848,47.655,-122.3035,60.0,9.033333333333333
2026-01-20T23:09:03+00:00,SAT-64414,250.7693775252491,32.62142229230192,3285.1632144898167,-6.74106802587662,236100.71695567644,10.5,10500236100.716955,47.655,-122.3035,60.0,9.05
2026-01-20T23:09:04+00:00,SAT-64414,250.75907641147677,32.675350017539614,3278.440122645343,-6.741438428090668,236113.6900080122,10.5,10500236113.690008,47.655,-122.3035,60.0,9.066666666666666
2026-01-20T23:09:05+00:00,SAT-64414,250.74878019068902,32.72937642701493,3271.7166613863933,-6.741803299307811,236126.46934144024,10.5,10500236126.469341,47.655,-122.3035,60.0,9.083333333333334
2026-01-20T23:09:06+00:00,SAT-64414,250.7384889193594,32.78350213821635,3264.992836229217,-6.742162592501966,236139.05330890827,10.5,10500236139.053308,47.655,-122.3035,60.0,9.1
2026-01-20T23:09:07+00:00,SAT-64414,250.72820265463588,32.83772777357815,3258.268652736962,-6.742516299348494,236151.44161885217,10.5,10500236151.441618,47.655,-122.3035,60.0,9.116666666666667
2026-01-20T23:09:08+00:00,SAT-64414,250.71792145429475,32.892053960844834,3251.544116481078,-6.742864366141776,236163.632390274,10.5,10500236163.632391,47.655,-122.3035,60.0,9.133333333333333
2026-01-20T23:09:09+00:00,SAT-64414,250.707645376803,32.94648133276029,3244.8192330865795,-6.743206790121165,236175.62552648416,10.5,10500236175.625526,47.655,-122.3035,60.0,9.15
2026-01-20T23:09:10+00:00,SAT-64414,250.69737448126983,33.00101052753587,3238.094008181232,-6.7435435052999155,236187.4187163478,10.5,10500236187.418716,47.655,-122.3035,60.0,9.166666666666666
2026-01-20T23:09:11+00:00,SAT-64414,250.68710882752288,33.055642188392184,3231.368447458613,-6.743874508250084,236199.01183980377,10.5,10500236199.011839,47.655,-122.3035,60.0,9.183333333333334
2026-01-20T23:09:12+00:00,SAT-64414,250.6768484760481,33.110376964125216,3224.642556615718,-6.744199743779509,236210.40296378918,10.5,10500236210.402964,47.655,-122.3035,60.0,9.2
2026-01-20T23:09:13+00:00,SAT-64414,250.66659348805922,33.16521550874119,3217.916341404589,-6.744519196506922,236221.5915495869,10.5,10500236221.591549,47.655,-122.3035,60.0,9.216666666666667
2026-01-20T23:09:14+00:00,SAT-64414,250.6563439254564,33.220158481840706,3211.1898075926056,-6.744832839105854,236232.57664010837,10.5,10500236232.57664,47.655,-122.3035,60.0,9.233333333333333
2026-01-20T23:09:15+00:00,SAT-64414,250.64609985086287,33.275206548579774,3204.4629609744043,-6.7451406094235695,236243.35605850193,10.5,10500236243.356058,47.655,-122.3035,60.0,9.25
2026-01-20T23:09:16+00:00,SAT-64414,250.6358613276439,33.33036037944174,3197.7358074066055,-6.745442496835225,236253.92943264055,10.5,10500236253.929432,47.655,-122.3035,60.0,9.266666666666667
2026-01-20T23:09:17+00:00,SAT-64414,250.62562841988353,33.38562065072286,3191.008352756429,-6.745738467423249,236264.2955745875,10.5,10500236264.295574,47.655,-122.3035,60.0,9.283333333333333
2026-01-20T23:09:18+00:00,SAT-64414,250.61540119242218,33.44098804440158,3184.2806029249186,-6.74602846922776,236274.45266448794,10.5,10500236274.452665,47.655,-122.3035,60.0,9.3
2026-01-20T23:09:19+00:00,SAT-64414,250.60517971085528,33.496463248049125,3177.5525638649424,-6.746312496738643,236284.40050935422,10.5,10500236284.400509,47.655,-122.3035,60.0,9.316666666666666
2026-01-20T23:09:20+00:00,SAT-64414,250.59496404154046,33.55204695527981,3170.824241534862,-6.746590468331734,236294.1362503629,10.5,10500236294.13625,47.655,-122.3035,60.0,9.333333333333334
2026-01-20T23:09:21+00:00,SAT-64414,250.584754251628,33.60773986517848,3164.0956419744452,-6.746862412080585,236303.6608707686,10.5,10500236303.660872,47.655,-122.3035,60.0,9.35
2026-01-20T23:09:22+00:00,SAT-64414,250.57455040902443,33.66354268328057,3157.366771195464,-6.747128245918376,236312.97149624408,10.5,10500236312.971497,47.655,-122.3035,60.0,9.366666666666667
2026-01-20T23:09:23+00:00,SAT-64414,250.56435258245762,33.71945612071759,3150.6376352915345,-6.747387922236606,236322.0664593382,10.5,10500236322.06646,47.655,-122.3035,60.0,9.383333333333333
2026-01-20T23:09:24+00:00,SAT-64414,250.55416084147353,33.77548089456966,3143.908240403757,-6.747641456125333,236330.94628856875,10.5,10500236330.94629,47.655,-122.3035,60.0,9.4
2026-01-20T23:09:25+00:00,SAT-64414,250.54397525640118,33.831617728457125,3137.1785926581815,-6.747888770144571,236339.60827165973,10.5,10500236339.608273,47.655,-122.3035,60.0,9.416666666666666
2026-01-20T23:09:26+00:00,SAT-64414,250.5337958984293,33.88786735183255,3130.4486982580906,-6.748129844308073,236348.05170860825,10.5,10500236348.051708,47.655,-122.3035,60.0,9.433333333333334
2026-01-20T23:09:27+00:00,SAT-64414,250.52362283956893,33.94423050053145,3123.7185634267007,-6.748364617916097,236356.27447345268,10.5,10500236356.274473,47.655,-122.3035,60.0,9.45
2026-01-20T23:09:28+00:00,SAT-64414,250.51345615270998,34.000707916498435,3116.9881944477656,-6.748593092587327,236364.276622886,10.5,10500236364.276623,47.655,-122.3035,60.0,9.466666666666667
2026-01-20T23:09:29+00:00,SAT-64414,250.50329591156532,34.0573003483807,3110.2575976034254,-6.748815195708845,236372.05561369684,10.5,10500236372.055614,47.655,-122.3035,60.0,9.483333333333333
2026-01-20T23:09:30+00:00,SAT-64414,250.49314219075995,34.11400855097575,3103.5267792482387,-6.749030893426103,236379.61026015563,10.5,10500236379.61026,47.655,-122.3035,60.0,9.5
2026-01-20T23:09:31+00:00,SAT-64414,250.48299506579124,34.17083328562567,3096.795745770528,-6.749240164011683,236386.93980127637,10.5,10500236386.939802,47.655,-122.3035,60.0,9.516666666666667
2026-01-20T23:09:32+00:00,SAT-64414,250.4728546130512,34.22777532039744,3090.0645035802872,-6.749442950064199,236394.04222661964,10.5,10500236394.042227,47.655,-122.3035,60.0,9.533333333333333
2026-01-20T23:09:33+00:00,SAT-64414,250.46272090985073,34.28483542985018,3083.333059144756,-6.749639228620759,236400.91673192783,10.5,10500236400.916733,47.655,-122.3035,60.0,9.55
2026-01-20T23:09:34+00:00,SAT-64414,250.45259403442017,34.34201439540434,3076.601418954079,-6.749828924298647,236407.5606769794,10.5,10500236407.560677,47.655,-122.3035,60.0,9.566666666666666
2026-01-20T23:09:35+00:00,SAT-64414,250.44247406593757,34.39931300496771,3069.869589573578,-6.750012024755237,236413.9736294833,10.5,10500236413.973629,47.655,-122.3035,60.0,9.583333333333334
2026-01-20T23:09:36+00:00,SAT-64414,250.4323610845243,34.45673205355179,3063.137577580889,-6.75018850543945,236420.154729557,10.5,10500236420.15473,47.655,-122.3035,60.0,9.6
2026-01-20T23:09:37+00:00,SAT-64414,250.42225517124135,34.51427234324499,3056.405389578131,-6.750358272617772,236426.1006942563,10.5,10500236426.100695,47.655,-122.3035,60.0,9.616666666666667
2026-01-20T23:09:38+00:00,SAT-64414,250.41215640817,34.571934682696266,3049.6730322609064,-6.7505213413141965,236431.812049785,10.5,10500236431.81205,47.655,-122.3035,60.0,9.633333333333333
2026-01-20T23:09:39+00:00,SAT-64414,250.40206487833552,34.62971988813097,3042.940512309836,-6.75067760509988,236437.28506855477,10.5,10500236437.285069,47.655,-122.3035,60.0,9.65
2026-01-20T23:09:40+00:00,SAT-64414,250.39198066581332,34.68762878238134,3036.2078365116827,-6.75082708369426,236442.52044122378,10.5,10500236442.520441,47.655,-122.3035,60.0,9.666666666666666
2026-01-20T23:09:41+00:00,SAT-64414,250.3819038556511,34.74566219605945,3029.4750116335454,-6.750969698762877,236447.51542418796,10.5,10500236447.515425,47.655,-122.3035,60.0,9.683333333333334
2026-01-20T23:09:42+00:00,SAT-64414,250.3718345339525,34.80382096679178,3022.7420445206453,-6.75110539413424,236452.2680500839,10.5,10500236452.26805,47.655,-122.3035,60.0,9.7
2026-01-20T23:09:43+00:00,SAT-64414,250.36177278786988,34.86210593949105,3016.008942074229,-6.751234165324829,236456.77816187992,10.5,10500236456.778162,47.655,-122.3035,60.0,9.716666666666667
2026-01-20T23:09:44+00:00,SAT-64414,250.35171870559984,34.92051796689417,3009.2757112000118,-6.751355926364699,236461.04274854486,10.5,10500236461.04275,47.655,-122.3035,60.0,9.733333333333333
2026-01-20T23:09:45+00:00,SAT-64414,250.34167237642617,34.97905790893447,3002.542358889451,-6.751470654622823,236465.06101744442,10.5,10500236465.061018,47.655,-122.3035,60.0,9.75
2026-01-20T23:09:46+00:00,SAT-64414,250.33163389072416,35.03772663338359,2995.8088921565736,-6.7515783033531465,236468.831331334,10.5,10500236468.831331,47.655,-122.3035,60.0,9.766666666666667
2026-01-20T23:09:47+00:00,SAT-64414,250.32160333996103,35.09652501572718,2989.0753180620295,-6.751678808433071,236472.35144436907,10.5,10500236472.351444,47.655,-122.3035,60.0,9.783333333333333
2026-01-20T23:09:48+00:00,SAT-64414,250.31158081674675,35.155453939101186,2982.3416437304186,-6.751772150922265,236475.62069317896,10.5,10500236475.620693,47.655,-122.3035,60.0,9.8
2026-01-20T23:09:49+00:00,SAT-64414,250.30156641480417,35.2145142947789,2975.6078763052324,-6.751858242896168,236478.63599827373,10.5,10500236478.635998,47.655,-122.3035,60.0,9.816666666666666
2026-01-20T23:09:50+00:00,SAT-64414,250.2915602290402,35.273706981656325,2968.8740230176504,-6.751937081263785,236481.39725139368,10.5,10500236481.397251,47.655,-122.3035,60.0,9.833333333333334
2026-01-20T23:09:51+00:00,SAT-64414,250.28156235549702,35.33303290708943,2962.1400911019364,-6.752008582944908,236483.90154271838,10.5,10500236483.901543,47.655,-122.3035,60.0,9.85
2026-01-20T23:09:52+00:00,SAT-64414,250.27157289143685,35.39249298628613,2955.406087875213,-6.752072709328553,236486.14751992797,10.5,10500236486.14752,47.655,-122.3035,60.0,9.866666666666667
2026-01-20T23:09:53+00:00,SAT-64414,250.26159193530452,35.45208814278862,2948.6720206931095,-6.752129410378456,236488.13343054074,10.5,10500236488.13343,47.655,-122.3035,60.0,9.883333333333333
2026-01-20T23:09:54+00:00,SAT-64414,250.25161958677967,35.511819308472646,2941.9378969611585,-6.752178623161759,236489.8570703819,10.5,10500236489.85707,47.655,-122.3035,60.0,9.9
2026-01-20T23:09:55+00:00,SAT-64414,250.24165594677544,35.57168742352645,2935.2037241476582,-6.752220338292152,236491.31811070308,10.5,10500236491.318111,47.655,-122.3035,60.0,9.916666666666666
2026-01-20T23:09:56+00:00,SAT-64414,250.23170111745225,35.63169343703226,2928.4695097302683,-6.752254455855664,236492.5130520944,10.5,10500236492.513052,47.655,-122.3035,60.0,9.933333333333334
2026-01-20T23:09:57+00:00,SAT-64414,250.2217552022591,35.69183830625161,2921.735261286295,-6.752280935594678,236493.4404845639,10.5,10500236493.440485,47.655,-122.3035,60.0,9.95
2026-01-20T23:09:58+00:00,SAT-64414,250.2118183059443,35.752122997263626,2915.0009864331955,-6.752299741445922,236494.09914502315,10.5,10500236494.099146,47.655,-122.3035,60.0,9.966666666666667
2026-01-20T23:09:59+00:00,SAT-64414,250.20189053455044,35.81254848510412,2908.2666928243934,-6.752310802531545,236494.48655103,10.5,10500236494.486551,47.655,-122.3035,60.0,9.983333333333333
2026-01-20T23:10:00+00:00,SAT-64414,250.19197199547136,35.87311575355753,2901.532388184002,-6.75231407004618,236494.6009932141,10.5,10500236494.600994,47.655,-122.3035,60.0,10.0
2026-01-20T23:10:01+00:00,SAT-64414,250.18206279743782,35.93382579545986,2894.798080284809,-6.752309489132082,236494.44055022512,10.5,10500236494.44055,47.655,-122.3035,60.0,10.016666666666667
2026-01-20T23:10:02+00:00,SAT-64414,250.17216305056522,35.994679612751845,2888.0637769543146,-6.752297009697075,236494.0034676232,10.5,10500236494.003468,47.655,-122.3035,60.0,10.033333333333333
2026-01-20T23:10:03+00:00,SAT-64414,250.16227286634495,36.055678216629374,2881.3294860699766,-6.7522765642256894,236493.28738073102,10.5,10500236493.28738,47.655,-122.3035,60.0,10.05
2026-01-20T23:10:04+00:00,SAT-64414,250.15239235770196,36.1168226274963,2874.595215576589,-6.752248101239835,236492.2904865681,10.5,10500236492.290487,47.655,-122.3035,60.0,10.066666666666666
2026-01-20T23:10:05+00:00,SAT-64414,250.1425216389773,36.17811387521877,2867.860973470286,-6.752211563326942,236491.01077430337,10.5,10500236491.010775,47.655,-122.3035,60.0,10.083333333333334
2026-01-20T23:10:06+00:00,SAT-64414,250.1326608259792,36.23955299918628,2861.126767804461,-6.7521668805574935,236489.44579470938,10.5,10500236489.445795,47.655,-122.3035,60.0,10.1
2026-01-20T23:10:07+00:00,SAT-64414,250.12281003599105,36.3011410483082,2854.3926067022517,-6.752114040222949,236487.59510267922,10.5,10500236487.595102,47.655,-122.3035,60.0,10.116666666666667
2026-01-20T23:10:08+00:00,SAT-64414,250.11296938777775,36.36287908166049,2847.658498299469,-6.7520529190332566,236485.4543800738,10.5,10500236485.45438,47.655,-122.3035,60.0,10.133333333333333
2026-01-20T23:10:09+00:00,SAT-64414,250.10313900165005,36.42476816757747,2840.924450854887,-6.751983491521522,236483.02273493478,10.5,10500236483.022736,47.655,-122.3035,60.0,10.15
2026-01-20T23:10:10+00:00,SAT-64414,250.09331899945704,36.48680938467868,2834.190472652676,-6.75190569082229,236480.29782535107,10.5,10500236480.297825,47.655,-122.3035,60.0,10.166666666666666
2026-01-20T23:10:11+00:00,SAT-64414,250.08350950460863,36.54900382160416,2827.456572043696,-6.751819455141118,236477.2774870198,10.5,10500236477.277487,47.655,-122.3035,60.0,10.183333333333334
2026-01-20T23:10:12+00:00,SAT-64414,250.07371064211696,36.61135257718372,2820.722757440435,-6.751724721769783,236473.9595236339,10.5,10500236473.959524,47.655,-122.3035,60.0,10.2
2026-01-20T23:10:13+00:00,SAT-64414,250.06392253859602,36.6738567605506,2813.9890373179237,-6.75162142218349,236470.34153516512,10.5,10500236470.341536,47.655,-122.3035,60.0,10.216666666666667
2026-01-20T23:10:14+00:00,SAT-64414,250.05414532232095,36.73651749121651,2807.255420219533,-6.751509526398291,236466.42247144872,10.5,10500236466.422472,47.655,-122.3035,60.0,10.233333333333333
2026-01-20T23:10:15+00:00,SAT-64414,250.04437912319867,36.799335899555984,2800.521914718538,-6.751388901108138,236462.19766354313,10.5,10500236462.197664,47.655,-122.3035,60.0,10.25
2026-01-20T23:10:16+00:00,SAT-64414,250.03462407287566,36.862313125967106,2793.7885295211663,-6.751259543845628,236457.66702502934,10.5,10500236457.667025,47.655,-122.3035,60.0,10.266666666666667
2026-01-20T23:10:17+00:00,SAT-64414,250.02488030467703,36.92545032223156,2787.055273336104,-6.751121359677843,236452.8272309551,10.5,10500236452.82723,47.655,-122.3035,60.0,10.283333333333333
2026-01-20T23:10:18+00:00,SAT-64414,250.01514795369297,36.9887486507766,2780.3221549667187,-6.750974298702182,236447.67653352013,10.5,10500236447.676533,47.655,-122.3035,60.0,10.3
2026-01-20T23:10:19+00:00,SAT-64414,250.0054271567671,37.052209285234824,2773.5891832661464,-6.75081825286299,236442.21114815833,10.5,10500236442.211147,47.655,-122.3035,60.0,10.316666666666666
2026-01-20T23:10:20+00:00,SAT-64414,249.99571805257153,37.11583341002669,2766.856367195291,-6.750653210770041,236436.43067593593,10.5,10500236436.430676,47.655,-122.3035,60.0,10.333333333333334
2026-01-20T23:10:21+00:00,SAT-64414,249.98602078156557,37.17962222141901,2760.123715726417,-6.750479063014296,236430.33128488547,10.5,10500236430.331285,47.655,-122.3035,60.0,10.35
2026-01-20T23:10:22+00:00,SAT-64414,249.97633548609883,37.243576926732906,2753.3912379409035,-6.750295762026892,236423.91130894414,10.5,10500236423.911308,47.655,-122.3035,60.0,10.366666666666667
2026-01-20T23:10:23+00:00,SAT-64414,249.96666231038083,37.307698745073196,2746.6589429675755,-6.750103190676891,236417.16664569112,10.5,10500236417.166645,47.655,-122.3035,60.0,10.383333333333333
2026-01-20T23:10:24+00:00,SAT-64414,249.95700140056576,37.37198890680492,2739.9268400520737,-6.749901357312823,236410.09758752718,10.5,10500236410.097588,47.655,-122.3035,60.0,10.4
2026-01-20T23:10:25+00:00,SAT-64414,249.94735290471135,37.43644865490811,2733.1949384317136,-6.749690108653572,236402.69876589923,10.5,10500236402.698767,47.655,-122.3035,60.0,10.416666666666666
2026-01-20T23:10:26+00:00,SAT-64414,249.93771697288815,37.50107924356632,2726.463247496683,-6.7494694224701135,236394.9694022529,10.5,10500236394.969402,47.655,-122.3035,60.0,10.433333333333334
2026-01-20T23:10:27+00:00,SAT-64414,249.92809375714822,37.56588193958212,2719.7317766593396,-6.749239201213219,236386.9060800015,10.5,10500236386.90608,47.655,-122.3035,60.0,10.45
2026-01-20T23:10:28+00:00,SAT-64414,249.91848341159994,37.630858021801615,2713.00053542933,-6.748999369076321,236378.50614407842,10.5,10500236378.506144,47.655,-122.3035,60.0,10.466666666666667
2026-01-20T23:10:29+00:00,SAT-64414,249.9088860924104,37.696008781476124,2706.269533391904,-6.748749878457016,236369.76792724605,10.5,10500236369.767927,47.655,-122.3035,60.0,10.483333333333333
2026-01-20T23:10:30+00:00,SAT-64414,249.89930195785433,37.76133552269861,2699.5387801797897,-6.748490599906136,236360.68689564706,10.5,10500236360.686895,47.655,-122.3035,60.0,10.5
2026-01-20T23:10:31+00:00,SAT-64414,249.8897311683511,37.82683956175643,2692.8082855548164,-6.748221501188318,236351.26192026265,10.5,10500236351.26192,47.655,-122.3035,60.0,10.516666666666667
2026-01-20T23:10:32+00:00,SAT-64414,249.88017388648757,37.892522228248694,2686.078059310965,-6.7479424681929805,236341.48900445754,10.5,10500236341.489004,47.655,-122.3035,60.0,10.533333333333333
2026-01-20T23:10:33+00:00,SAT-64414,249.8706302770635,37.958384864441804,2679.3481113560206,-6.7476534725030115,236331.36715294427,10.5,10500236331.367153,47.655,-122.3035,60.0,10.55
2026-01-20T23:10:34+00:00,SAT-64414,249.86110050710874,38.02442882628435,2672.618451626111,-6.747354363360611,236320.89108554693,10.5,10500236320.891085,47.655,-122.3035,60.0,10.566666666666666
2026-01-20T23:10:35+00:00,SAT-64414,249.85158474595067,38.09065548235803,2665.889090207719,-6.747045099181201,236310.05934579784,10.5,10500236310.059345,47.655,-122.3035,60.0,10.583333333333334
2026-01-20T23:10:36+00:00,SAT-64414,249.8420831652358,38.15706621513674,2659.160037228802,-6.746725607556678,236298.86939765885,10.5,10500236298.869398,47.655,-122.3035,60.0,10.6
2026-01-20T23:10:37+00:00,SAT-64414,249.83259593894397,38.223662420847866,2652.4313028895326,-6.746395775561121,236287.31728598644,10.5,10500236287.317286,47.655,-122.3035,60.0,10.616666666666667
2026-01-20T23:10:38+00:00,SAT-64414,249.82312324347566,38.29044550924735,2645.7028975027065,-6.746055529002064,236275.40041224676,10.5,10500236275.400412,47.655,-122.3035,60.0,10.633333333333333
2026-01-20T23:10:39+00:00,SAT-64414,249.81366525764753,38.35741690418017,2638.974831455115,-6.745704781463851,236263.11574979793,10.5,10500236263.11575,47.655,-122.3035,60.0,10.65
2026-01-20T23:10:40+00:00,SAT-64414,249.80422216276472,38.42457804364063,2632.2471152197345,-6.74534345087814,236250.46042425948,10.5,10500236250.460424,47.655,-122.3035,60.0,10.666666666666666
2026-01-20T23:10:41+00:00,SAT-64414,249.7947941426322,38.49193037999746,2625.519759351392,-6.744971437127668,236237.43092910133,10.5,10500236237.43093,47.655,-122.3035,60.0,10.683333333333334
2026-01-20T23:10:42+00:00,SAT-64414,249.78538138362873,38.559475379998005,2618.7927745047637,-6.744588644429778,236224.02390960974,10.5,10500236224.02391,47.655,-122.3035,60.0,10.7
2026-01-20T23:10:43+00:00,SAT-64414,249.77598407472638,38.627214524996646,2612.0661714300522,-6.74419501640003,236210.237390963,10.5,10500236210.23739,47.655,-122.3035,60.0,10.716666666666667
2026-01-20T23:10:44+00:00,SAT-64414,249.7666024075357,38.695149311550246,2605.339960933696,-6.743790431961163,236196.0671325234,10.5,10500236196.067133,47.655,-122.3035,60.0,10.733333333333333
2026-01-20T23:10:45+00:00,SAT-64414,249.75723657635905,38.76328125095011,2598.614153942887,-6.743374797950393,236181.50987133614,10.5,10500236181.50987,47.655,-122.3035,60.0,10.75
2026-01-20T23:10:46+00:00,SAT-64414,249.74788677824225,38.83161186970362,2591.8887614777314,-6.742948013918593,236166.5620892478,10.5,10500236166.56209,47.655,-122.3035,60.0,10.766666666666667
2026-01-20T23:10:47+00:00,SAT-64414,249.7385532129995,38.90014270965588,2585.163794658516,-6.742510018713709,236151.2216444549,10.5,10500236151.221645,47.655,-122.3035,60.0,10.783333333333333
2026-01-20T23:10:48+00:00,SAT-64414,249.7292360832759,38.968875328600106,2578.439264666519,-6.742060686637746,236135.48413448193,10.5,10500236135.484135,47.655,-122.3035,60.0,10.8
2026-01-20T23:10:49+00:00,SAT-64414,249.71993559458934,39.03781129981571,2571.7151828083793,-6.741599908003159,236119.34571760698,10.5,10500236119.345718,47.655,-122.3035,60.0,10.816666666666666
2026-01-20T23:10:50+00:00,SAT-64414,249.71065195539535,39.1069522124393,2564.9915605001306,-6.741127612023062,236102.80391457397,10.5,10500236102.803915,47.655,-122.3035,60.0,10.833333333333334
2026-01-20T23:10:51+00:00,SAT-64414,249.70138537711,39.17629967207978,2558.268409228406,-6.740643697975924,236085.8551976888,10.5,10500236085.855198,47.655,-122.3035,60.0,10.85
2026-01-20T23:10:52+00:00,SAT-64414,249.69213607417805,39.24585530072392,2551.5457405802913,-6.740148040811217,236068.49518715305,10.5,10500236068.495188,47.655,-122.3035,60.0,10.866666666666667
2026-01-20T23:10:53+00:00,SAT-64414,249.68290426412642,39.31562073669691,2544.8235662675893,-6.7396405487347995,236050.72066794752,10.5,10500236050.720669,47.655,-122.3035,60.0,10.883333333333333
2026-01-20T23:10:54+00:00,SAT-64414,249.67369016761876,39.38559763523106,2538.101898093651,-6.739121117025952,236032.52797230976,10.5,10500236032.527973,47.655,-122.3035,60.0,10.9
2026-01-20T23:10:55+00:00,SAT-64414,249.6644940084951,39.45578766855362,2531.3807479662705,-6.738589639631915,236013.91338582343,10.5,10500236013.913385,47.655,-122.3035,60.0,10.916666666666666
2026-01-20T23:10:56+00:00,SAT-64414,249.65531601384873,39.526192526100324,2524.6601278990106,-6.738046009020503,235994.87314225658,10.5,10500235994.873142,47.655,-122.3035,60.0,10.933333333333334
2026-01-20T23:10:57+00:00,SAT-64414,249.64615641405982,39.59681391472837,2517.9400500126812,-6.737490116494684,235975.40343457935,10.5,10500235975.403435,47.655,-122.3035,60.0,10.95
2026-01-20T23:10:58+00:00,SAT-64414,249.63701544287892,39.667653558940415,2511.220526536497,-6.736921851638636,235955.50039556256,10.5,10500235955.500395,47.655,-122.3035,60.0,10.966666666666667
2026-01-20T23:10:59+00:00,SAT-64414,249.62789333745917,39.73871320110036,2504.5015698097964,-6.736341114321879,235935.16051821335,10.5,10500235935.160519,47.655,-122.3035,60.0,10.983333333333333
2026-01-20T23:11:00+00:00,SAT-64414,249.6187903384403,39.809994601788,2497.783192271779,-6.735747762604734,235914.37883120362,10.5,10500235914.378832,47.655,-122.3035,60.0,11.0
2026-01-20T23:11:01+00:00,SAT-64414,249.60970668999954,39.881499539591154,2491.065406503208,-6.735141705024921,235893.15213113758,10.5,10500235893.152132,47.655,-122.3035,60.0,11.016666666666667
2026-01-20T23:11:02+00:00,SAT-64414,249.60064263991876,39.95322981189886,2484.348225176063,-6.734522819146707,235871.47612979784,10.5,10500235871.47613,47.655,-122.3035,60.0,11.033333333333333
2026-01-20T23:11:03+00:00,SAT-64414,249.5915984396333,40.02518723481475,2477.631661084434,-6.733890993440247,235849.34692093753,10.5,10500235849.34692,47.655,-122.3035,60.0,11.05
2026-01-20T23:11:04+00:00,SAT-64414,249.58257434432622,40.0973736435379,2470.915727133643,-6.733246091174095,235826.759715643,10.5,10500235826.759716,47.655,-122.3035,60.0,11.066666666666666
2026-01-20T23:11:05+00:00,SAT-64414,249.573570612968,40.1697908923414,2464.2004363653787,-6.732588014580998,235803.71108969153,10.5,10500235803.71109,47.655,-122.3035,60.0,11.083333333333334
2026-01-20T23:11:06+00:00,SAT-64414,249.564587508408,40.2424408552648,2457.485801918837,-6.731916617986876,235780.1959409606,10.5,10500235780.19594,47.655,-122.3035,60.0,11.1
2026-01-20T23:11:07+00:00,SAT-64414,249.5556252974203,40.31532542585332,2450.771837078498,-6.731231806406976,235756.21094268237,10.5,10500235756.210943,47.655,-122.3035,60.0,11.116666666666667
2026-01-20T23:11:08+00:00,SAT-64414,249.54668425080666,40.38844651799218,2444.0585552235743,-6.730533419110699,235731.75046539144,10.5,10500235731.750465,47.655,-122.3035,60.0,11.133333333333333
2026-01-20T23:11:09+00:00,SAT-64414,249.53776464343684,40.461806065448556,2437.3459698935812,-6.729821363396726,235706.8112622954,10.5,10500235706.811262,47.655,-122.3035,60.0,11.15
2026-01-20T23:11:10+00:00,SAT-64414,249.52886675434615,40.535406022911395,2430.634094720487,-6.729095469762584,235681.38739670077,10.5,10500235681.387396,47.655,-122.3035,60.0,11.166666666666666
2026-01-20T23:11:11+00:00,SAT-64414,249.51999086680328,40.60924836541704,2423.9229435053103,-6.728355647470208,235655.47569057654,10.5,10500235655.47569,47.655,-122.3035,60.0,11.183333333333334
2026-01-20T23:11:12+00:00,SAT-64414,249.51113726839168,40.68333508951682,2417.2125301395668,-6.727601735252824,235629.07049567823,10.5,10500235629.070496,47.655,-122.3035,60.0,11.2
2026-01-20T23:11:13+00:00,SAT-64414,249.5023062510857,40.75766821278333,2410.502868675608,-6.726833627169481,235602.16810150555,10.5,10500235602.168102,47.655,-122.3035,60.0,11.216666666666667
2026-01-20T23:11:14+00:00,SAT-64414,249.4934981113392,40.83224977472542,2403.7939732714444,-6.72605115246596,235574.76252752356,10.5,10500235574.762527,47.655,-122.3035,60.0,11.233333333333333
2026-01-20T23:11:15+00:00,SAT-64414,249.48471315015556,40.90708183636085,2397.085858255385,-6.725254201714921,235546.84994112383,10.5,10500235546.849941,47.655,-122.3035,60.0,11.25
2026-01-20T23:11:16+00:00,SAT-64414,249.47595167319497,40.98216648121589,2390.3785380648746,-6.724442617552214,235518.42483074823,10.5,10500235518.424831,47.655,-122.3035,60.0,11.266666666666667
2026-01-20T23:11:17+00:00,SAT-64414,249.46721399083538,41.05750581509124,2383.672027294303,-6.723616258130651,235489.4822283082,10.5,10500235489.48223,47.655,-122.3035,60.0,11.283333333333333
2026-01-20T23:11:18+00:00,SAT-64414,249.45850041828947,41.13310196655606,2376.9663406795266,-6.722775007929842,235460.01808779108,10.5,10500235460.018087,47.655,-122.3035,60.0,11.3
2026-01-20T23:11:19+00:00,SAT-64414,249.44981127566953,41.208957087567754,2370.2614930716186,-6.72191865837894,235430.02510416348,10.5,10500235430.025105,47.655,-122.3035,60.0,11.316666666666666
2026-01-20T23:11:20+00:00,SAT-64414,249.4411468881076,41.2850733527336,2363.5574995296615,-6.721047147095491,235399.501092528,10.5,10500235399.501093,47.655,-122.3035,60.0,11.333333333333334
2026-01-20T23:11:21+00:00,SAT-64414,249.43250758582232,41.3614529613177,2356.8543751749585,-6.720160244205596,235368.4380017284,10.5,10500235368.438002,47.655,-122.3035,60.0,11.35
2026-01-20T23:11:22+00:00,SAT-64414,249.42389370424786,41.43809813565109,2350.1521353580706,-6.719257854711292,235336.83250453408,10.5,10500235336.832504,47.655,-122.3035,60.0,11.366666666666667
2026-01-20T23:11:23+00:00,SAT-64414,249.41530558410133,41.51501112302702,2343.4507955243052,-6.7183397846672746,235304.6778081601,10.5,10500235304.677809,47.655,-122.3035,60.0,11.383333333333333
2026-01-20T23:11:24+00:00,SAT-64414,249.40674357152153,41.59219419490426,2336.750371312397,-6.717405900128664,235271.96922129032,10.5,10500235271.969221,47.655,-122.3035,60.0,11.4
2026-01-20T23:11:25+00:00,SAT-64414,249.3982080181271,41.669649647949036,2330.0508784946687,-6.716456043296783,235238.70121714743,10.5,10500235238.701218,47.655,-122.3035,60.0,11.416666666666666
2026-01-20T23:11:26+00:00,SAT-64414,249.38969928118135,41.74737980412656,2323.352333000821,-6.715490035841888,235204.8675498695,10.5,10500235204.86755,47.655,-122.3035,60.0,11.433333333333334
2026-01-20T23:11:27+00:00,SAT-64414,249.38121772365358,41.82538701081053,2316.654750938408,-6.714507737761121,235170.4633159643,10.5,10500235170.463316,47.655,-122.3035,60.0,11.45
2026-01-20T23:11:28+00:00,SAT-64414,249.37276371434768,41.903673641608876,2309.958148554614,-6.713508961067547,235135.48193133416,10.5,10500235135.481932,47.655,-122.3035,60.0,11.466666666666667
2026-01-20T23:11:29+00:00,SAT-64414,249.36433762803222,41.98224209617069,2303.2625422841097,-6.712493566598399,235099.9185219102,10.5,10500235099.918522,47.655,-122.3035,60.0,11.483333333333333
2026-01-20T23:11:30+00:00,SAT-64414,249.35593984552992,42.061094801144286,2296.5679487003554,-6.711461355992957,235063.76614026108,10.5,10500235063.76614,47.655,-122.3035,60.0,11.5
2026-01-20T23:11:31+00:00,SAT-64414,249.34757075386753,42.14023420986071,2289.8743845746453,-6.710412162427576,235027.01894351706,10.5,10500235027.018944,47.655,-122.3035,60.0,11.516666666666667
2026-01-20T23:11:32+00:00,SAT-64414,249.33923074636868,42.21966280309777,2283.1818668446504,-6.709345828501763,234989.67141884708,10.5,10500234989.67142,47.655,-122.3035,60.0,11.533333333333333
2026-01-20T23:11:33+00:00,SAT-64414,249.33092022281505,42.299383089598486,2276.490412605025,-6.708262153830566,234951.71654792243,10.5,10500234951.716547,47.655,-122.3035,60.0,11.55
2026-01-20T23:11:34+00:00,SAT-64414,249.32263958954172,42.379397605951716,2269.800039150271,-6.707160987417823,234913.14904221887,10.5,10500234913.149042,47.655,-122.3035,60.0,11.566666666666666
2026-01-20T23:11:35+00:00,SAT-64414,249.31438925959827,42.459708917607564,2263.110763925486,-6.706042100757,234873.96089847098,10.5,10500234873.9609,47.655,-122.3035,60.0,11.583333333333334
2026-01-20T23:11:36+00:00,SAT-64414,249.3061696528506,42.54031961834433,2256.422604603665,-6.704905377927996,234834.14805666642,10.5,10500234834.148056,47.655,-122.3035,60.0,11.6
2026-01-20T23:11:37+00:00,SAT-64414,249.29798119617257,42.62123233207867,2249.735578973411,-6.703750562208931,234793.70152531916,10.5,10500234793.701525,47.655,-122.3035,60.0,11.616666666666667
2026-01-20T23:11:38+00:00,SAT-64414,249.2898243235212,42.70244971156199,2243.0497050793683,-6.702577498044407,234752.61585622103,10.5,10500234752.615856,47.655,-122.3035,60.0,11.633333333333333
2026-01-20T23:11:39+00:00,SAT-64414,249.2816994761516,42.78397444006948,2236.3650011213185,-6.701385980479304,234710.8838709768,10.5,10500234710.883871,47.655,-122.3035,60.0,11.65
2026-01-20T23:11:40+00:00,SAT-64414,249.27360710270625,42.865809231228,2229.6814855034536,-6.700175830940692,234668.49931520715,10.5,10500234668.499315,47.655,-122.3035,60.0,11.666666666666666
2026-01-20T23:11:41+00:00,SAT-64414,249.26554765941495,42.9479568298037,2222.9991768080627,-6.698946839130029,234625.45482336753,10.5,10500234625.454823,47.655,-122.3035,60.0,11.683333333333334
2026-01-20T23:11:42+00:00,SAT-64414,249.25752161022012,43.0304200117625,2216.31809382717,-6.697698786459195,234581.74273957734,10.5,10500234581.742739,47.655,-122.3035,60.0,11.7
2026-01-20T23:11:43+00:00,SAT-64414,249.24952942695435,43.11320158463511,2209.638255570808,-6.696431507997919,234537.35728728087,10.5,10500234537.357286,47.655,-122.3035,60.0,11.716666666666667
2026-01-20T23:11:44+00:00,SAT-64414,249.24157158949657,43.196304388661964,2202.9596812134982,-6.6951447624373515,234492.29001482148,10.5,10500234492.290014,47.655,-122.3035,60.0,11.733333333333333
2026-01-20T23:11:45+00:00,SAT-64414,249.2336485859627,43.27973129632251,2196.282390170427,-6.693838350057292,234446.5339271529,10.5,10500234446.533928,47.655,-122.3035,60.0,11.75
2026-01-20T23:11:46+00:00,SAT-64414,249.22576091283656,43.36348521333853,2189.6064020559697,-6.692512063085808,234400.08174722322,10.5,10500234400.081747,47.655,-122.3035,60.0,11.766666666666667
2026-01-20T23:11:47+00:00,SAT-64414,249.21790907519397,43.44756907907935,2182.9317366917194,-6.691165667502181,234352.92527863695,10.5,10500234352.925278,47.655,-122.3035,60.0,11.783333333333333
2026-01-20T23:11:48+00:00,SAT-64414,249.21009358684765,43.53198586672972,2176.2584141326633,-6.689798971847575,234305.05781569573,10.5,10500234305.057816,47.655,-122.3035,60.0,11.8
2026-01-20T23:11:49+00:00,SAT-64414,249.20231497057267,43.61673858435198,2169.586454624741,-6.688411707079844,234256.46993540565,10.5,10500234256.469934,47.655,-122.3035,60.0,11.816666666666666
2026-01-20T23:11:50+00:00,SAT-64414,249.19457375825002,43.70183027440684,2162.9158786822136,-6.687003703629937,234207.15569874123,10.5,10500234207.155699,47.655,-122.3035,60.0,11.833333333333334
2026-01-20T23:11:51+00:00,SAT-64414,249.1868704911177,43.787264015573484,2156.24670698846,-6.685574685888752,234157.10545270587,10.5,10500234157.105453,47.655,-122.3035,60.0,11.85
2026-01-20T23:11:52+00:00,SAT-64414,249.17920571992744,43.87304292191491,2149.578960501733,-6.684124460308666,234106.31241844312,10.5,10500234106.312418,47.655,-122.3035,60.0,11.866666666666667
2026-01-20T23:11:53+00:00,SAT-64414,249.17158000518373,43.959170144495765,2142.912660373319,-6.682652732978818,234054.76630195143,10.5,10500234054.766302,47.655,-122.3035,60.0,11.883333333333333
2026-01-20T23:11:54+00:00,SAT-64414,249.1639939173212,44.045648870623715,2136.247828047628,-6.681159326089627,234002.4608755871,10.5,10500234002.460876,47.655,-122.3035,60.0,11.9
2026-01-20T23:11:55+00:00,SAT-64414,249.15644803697313,44.1324823259459,2129.584485146408,-6.6796439613076775,233949.38639093653,10.5,10500233949.38639,47.655,-122.3035,60.0,11.916666666666666
2026-01-20T23:11:56+00:00,SAT-64414,249.14894295514236,44.219673773699625,2122.9226535689972,-6.678106379662217,233895.53377774858,10.5,10500233895.533777,47.655,-122.3035,60.0,11.933333333333334
2026-01-20T23:11:57+00:00,SAT-64414,249.1414792734684,44.30722651555254,2116.262355473014,-6.67654636925279,233840.89561437297,10.5,10500233840.895615,47.655,-122.3035,60.0,11.95
2026-01-20T23:11:58+00:00,SAT-64414,249.1340576044469,44.39514389282563,2109.6036132274126,-6.674963629460292,233785.461371857,10.5,10500233785.461372,47.655,-122.3035,60.0,11.966666666666667
2026-01-20T23:11:59+00:00,SAT-64414,249.12667857167702,44.48342928591587,2102.946449500964,-6.673357952061236,233729.22375733344,10.5,10500233729.223757,47.655,-122.3035,60.0,11.983333333333333
2026-01-20T23:12:00+00:00,SAT-64414,249.1193428101144,44.572086116149414,2096.2908871701084,-6.671729017286796,233672.17157114527,10.5,10500233672.171572,47.655,-122.3035,60.0,12.0
2026-01-20T23:12:01+00:00,SAT-64414,249.11205096631056,44.66111784490732,2089.636949430201,-6.670076603244661,233614.2970416852,10.5,10500233614.29704,47.655,-122.3035,60.0,12.016666666666667
2026-01-20T23:12:02+00:00,SAT-64414,249.1048036986951,44.750527975581534,2082.984659697898,-6.668400416116722,233555.58987820023,10.5,10500233555.589878,47.655,-122.3035,60.0,12.033333333333333
2026-01-20T23:12:03+00:00,SAT-64414,249.0976016778382,44.840320053250906,2076.3340416828914,-6.6667001917621045,233496.0408293597,10.5,10500233496.040829,47.655,-122.3035,60.0,12.05
2026-01-20T23:12:04+00:00,SAT-64414,249.09044558671968,44.93049766573996,2069.685119358307,-6.664975633736221,233435.63951242,10.5,10500233435.639513,47.655,-122.3035,60.0,12.066666666666666
2026-01-20T23:12:05+00:00,SAT-64414,249.08333612103226,45.02106444384866,2063.037916992928,-6.663226474742914,233374.37656553922,10.5,10500233374.376566,47.655,-122.3035,60.0,12.083333333333334
2026-01-20T23:12:06+00:00,SAT-64414,249.0762739894413,45.11202406242436,2056.3924591221175,-6.661452421245374,233312.24170781652,10.5,10500233312.241709,47.655,-122.3035,60.0,12.1
2026-01-20T23:12:07+00:00,SAT-64414,249.06925991393746,45.20338024070552,2049.7487705739954,-6.65965319137399,233249.22506698585,10.5,10500233249.225067,47.655,-122.3035,60.0,12.116666666666667
2026-01-20T23:12:08+00:00,SAT-64414,249.06229463009092,45.295136743176194,2043.1068764577983,-6.6578284596871855,233185.31524470655,10.5,10500233185.315245,47.655,-122.3035,60.0,12.133333333333333
2026-01-20T23:12:09+00:00,SAT-64414,249.0553788873989,45.387297379675964,2036.466802207337,-6.655977946771828,233120.50245474887,10.5,10500233120.502455,47.655,-122.3035,60.0,12.15
2026-01-20T23:12:10+00:00,SAT-64414,249.04851344960667,45.47986600676994,2029.8285735350898,-6.654101351811876,233054.77616126253,10.5,10500233054.776161,47.655,-122.3035,60.0,12.166666666666666
2026-01-20T23:12:11+00:00,SAT-64414,249.04169909505902,45.57284652819516,2023.1922164535495,-6.652198334796869,232988.124455643,10.5,10500232988.124456,47.655,-122.3035,60.0,12.183333333333334
2026-01-20T23:12:12+00:00,SAT-64414,249.03493661700182,45.66624289504555,2016.557757314312,-6.650268590876515,232920.5366607435,10.5,10500232920.536661,47.655,-122.3035,60.0,12.2
2026-01-20T23:12:13+00:00,SAT-64414,249.02822682398556,45.760059107042096,2009.9252227730112,-6.6483118325041355,232852.00270546306,10.5,10500232852.002705,47.655,-122.3035,60.0,12.216666666666667
2026-01-20T23:12:14+00:00,SAT-64414,249.02157054021416,45.85429921356056,2003.2946397720605,-6.646327682464025,232782.50937811207,10.5,10500232782.509378,47.655,-122.3035,60.0,12.233333333333333
2026-01-20T23:12:15+00:00,SAT-64414,249.01496860590254,45.948967313132314,1996.666035630083,-6.6443158431668286,232712.04625585245,10.5,10500232712.046255,47.655,-122.3035,60.0,12.25
2026-01-20T23:12:16+00:00,SAT-64414,249.00842187769143,46.044067555397525,1990.0394379624981,-6.642275955243996,232640.60075207747,10.5,10500232640.600752,47.655,-122.3035,60.0,12.266666666666667
2026-01-20T23:12:17+00:00,SAT-64414,249.00193122903,46.13960414102649,1983.4148747431348,-6.640207698998609,232568.16166964878,10.5,10500232568.161669,47.655,-122.3035,60.0,12.283333333333333
2026-01-20T23:12:18+00:00,SAT-64414,248.9954975505898,46.23558132312863,1976.7923742646665,-6.638110709987035,232494.71624420874,10.5,10500232494.716244,47.655,-122.3035,60.0,12.3
2026-01-20T23:12:19+00:00,SAT-64414,248.989121750682,46.33200340744666,1970.1719651832398,-6.635984634880408,232420.2521006859,10.5,10500232420.2521,47.655,-122.3035,60.0,12.316666666666666
2026-01-20T23:12:20+00:00,SAT-64414,248.98280475568424,46.428874753374025,1963.5536765073855,-6.633829137847612,232344.75747685396,10.5,10500232344.757477,47.655,-122.3035,60.0,12.333333333333334
2026-01-20T23:12:21+00:00,SAT-64414,248.9765475105394,46.52619977510184,1956.9375375805723,-6.631643819978566,232268.21840119455,10.5,10500232268.218401,47.655,-122.3035,60.0,12.35
2026-01-20T23:12:22+00:00,SAT-64414,248.9703509791169,46.62398294155468,1950.3235781441135,-6.629428339587463,232190.62290642536,10.5,10500232190.622906,47.655,-122.3035,60.0,12.366666666666667
2026-01-20T23:12:23+00:00,SAT-64414,248.9642161448043,46.72222877816744,1943.7118282800982,-6.627182302971441,232111.9572034068,10.5,10500232111.957203,47.655,-122.3035,60.0,12.383333333333333
2026-01-20T23:12:24+00:00,SAT-64414,248.95814401089245,46.82094186701137,1937.1023184632681,-6.624905327886217,232032.20790432717,10.5,10500232032.207905,47.655,-122.3035,60.0,12.4
2026-01-20T23:12:25+00:00,SAT-64414,248.95213560114604,46.920126847910964,1930.4950795495897,-6.622597048037978,231951.3621800278,10.5,10500231951.36218,47.655,-122.3035,60.0,12.416666666666666
2026-01-20T23:12:26+00:00,SAT-64414,248.9461919602989,47.019788419638054,1923.8901427603464,-6.62025703481603,231869.40501874904,10.5,10500231869.405018,47.655,-122.3035,60.0,12.433333333333334
2026-01-20T23:12:27+00:00,SAT-64414,248.9403141545802,47.119931339932265,1917.28753974429,-6.617884909104687,231786.323142256,10.5,10500231786.323143,47.655,-122.3035,60.0,12.45
2026-01-20T23:12:28+00:00,SAT-64414,248.93450327227458,47.220560427238155,1910.6873025282762,-6.615480263349303,231702.102276261,10.5,10500231702.102276,47.655,-122.3035,60.0,12.466666666666667
2026-01-20T23:12:29+00:00,SAT-64414,248.92876042431635,47.3216805612857,1904.089463545629,-6.613042676813281,231616.7276847887,10.5,10500231616.727684,47.655,-122.3035,60.0,12.483333333333333
2026-01-20T23:12:30+00:00,SAT-64414,248.92308674481566,47.423296683889795,1897.4940556492872,-6.610571711429987,231530.18402489251,10.5,10500231530.184025,47.655,-122.3035,60.0,12.5
2026-01-20T23:12:31+00:00,SAT-64414,248.91748339170016,47.525413799725605,1890.9011121290878,-6.608066972487487,231442.45747209093,10.5,10500231442.457472,47.655,-122.3035,60.0,12.516666666666667
2026-01-20T23:12:32+00:00,SAT-64414,248.91195154734882,47.62803697806243,1884.3106666685271,-6.605528002154733,231353.53199120404,10.5,10500231353.531992,47.655,-122.3035,60.0,12.533333333333333
2026-01-20T23:12:33+00:00,SAT-64414,248.90649241921608,47.7311713528493,1877.7227534077115,-6.602954374490703,231263.3926639755,10.5,10500231263.392664,47.655,-122.3035,60.0,12.55
2026-01-20T23:12:34+00:00,SAT-64414,248.90110724049396,47.83482212430764,1871.1374069115527,-6.600345600343528,231172.0223582377,10.5,10500231172.022358,47.655,-122.3035,60.0,12.566666666666666
2026-01-20T23:12:35+00:00,SAT-64414,248.89579727077722,47.93899455903558,1864.55466223281,-6.597701278349693,231079.40701654268,10.5,10500231079.407017,47.655,-122.3035,60.0,12.583333333333334
2026-01-20T23:12:36+00:00,SAT-64414,248.8905637968378,48.043693992547325,1857.974554824536,-6.595020904205263,230985.52897603338,10.5,10500230985.528976,47.655,-122.3035,60.0,12.6
2026-01-20T23:12:37+00:00,SAT-64414,248.8854081332733,48.14892582877039,1851.3971206427418,-6.5923040217695315,230890.37226073272,10.5,10500230890.372261,47.655,-122.3035,60.0,12.616666666666667
2026-01-20T23:12:38+00:00,SAT-64414,248.88033162329947,48.254695541990095,1844.8223960983637,-6.589550139248391,230793.91964593084,10.5,10500230793.919645,47.655,-122.3035,60.0,12.633333333333333
2026-01-20T23:12:39+00:00,SAT-64414,248.87533563952434,48.36100867746512,1838.25041809282,-6.586758767714602,230696.15400732768,10.5,10500230696.154007,47.655,-122.3035,60.0,12.65
2026-01-20T23:12:40+00:00,SAT-64414,248.87042158472883,48.46787085268021,1831.6812240151526,-6.583929432527748,230597.0587210081,10.5,10500230597.058722,47.655,-122.3035,60.0,12.666666666666666
2026-01-20T23:12:41+00:00,SAT-64414,248.86559089274664,48.57528775882187,1825.1148517277784,-6.581061589155251,230496.6147151378,10.5,10500230496.614716,47.655,-122.3035,60.0,12.683333333333334
2026-01-20T23:12:42+00:00,SAT-64414,248.8608450292367,48.68326516087228,1818.5513396361941,-6.578154762808293,230394.80536060408,10.5,10500230394.80536,47.655,-122.3035,60.0,12.7
2026-01-20T23:12:43+00:00,SAT-64414,248.8561854926707,48.79180890004704,1811.9907266194198,-6.575208408322322,230291.61156343826,10.5,10500230291.611563,47.655,-122.3035,60.0,12.716666666666667
2026-01-20T23:12:44+00:00,SAT-64414,248.8516138151494,48.900924893917214,1805.4330521001864,-6.572222011040713,230187.01529818837,10.5,10500230187.015299,47.655,-122.3035,60.0,12.733333333333333
2026-01-20T23:12:45+00:00,SAT-64414,248.8471315634293,49.01061913824767,1798.8783560145084,-6.569194996718074,230080.99645235162,10.5,10500230080.996452,47.655,-122.3035,60.0,12.75
2026-01-20T23:12:46+00:00,SAT-64414,248.84274033980432,49.120897707322904,1792.326678871115,-6.566126854733042,229973.53714180808,10.5,10500229973.537142,47.655,-122.3035,60.0,12.766666666666667
2026-01-20T23:12:47+00:00,SAT-64414,248.83844178323022,49.23176675640643,1785.7780616879948,-6.563017003306374,229864.6169901877,10.5,10500229864.616991,47.655,-122.3035,60.0,12.783333333333333
2026-01-20T23:12:48+00:00,SAT-64414,248.83423757026685,49.34323252190954,1779.2325460633638,-6.5598648851514625,229754.2164789561,10.5,10500229754.216478,47.655,-122.3035,60.0,12.8
2026-01-20T23:12:49+00:00,SAT-64414,248.83012941624872,49.455301323240285,1772.6901741512395,-6.55666990996266,229642.3149331126,10.5,10500229642.314934,47.655,-122.3035,60.0,12.816666666666666
2026-01-20T23:12:50+00:00,SAT-64414,248.826119076296,49.56797956365289,1766.15098869437,-6.553431484113613,229528.89156135122,10.5,10500229528.891562,47.655,-122.3035,60.0,12.833333333333334
2026-01-20T23:12:51+00:00,SAT-64414,248.82220834657028,49.68127373167219,1759.6150330275475,-6.550149047272713,229413.9267384888,10.5,10500229413.926739,47.655,-122.3035,60.0,12.85
2026-01-20T23:12:52+00:00,SAT-64414,248.8183990654374,49.79519040315825,1753.0823510444006,-6.546821935049595,229297.39719476446,10.5,10500229297.397194,47.655,-122.3035,60.0,12.866666666666667
2026-01-20T23:12:53+00:00,SAT-64414,248.81469311466367,49.90973624100075,1746.5529873011778,-6.543449577518986,229179.28296898433,10.5,10500229179.282969,47.655,-122.3035,60.0,12.883333333333333
2026-01-20T23:12:54+00:00,SAT-64414,248.8110924207818,50.02491799832634,1740.0269869225324,-6.540031305495974,229059.56062346214,10.5,10500229059.560623,47.655,-122.3035,60.0,12.9
2026-01-20T23:12:55+00:00,SAT-64414,248.80759895634037,50.14074251830923,1733.5043957005175,-6.536566510568822,228938.20884904527,10.5,10500228938.208849,47.655,-122.3035,60.0,12.916666666666666
2026-01-20T23:12:56+00:00,SAT-64414,248.80421474134272,50.25721673685146,1726.985260033977,-6.533054501291575,228815.20342837158,10.5,10500228815.203428,47.655,-122.3035,60.0,12.933333333333334
2026-01-20T23:12:57+00:00,SAT-64414,248.80094184460583,50.37434768271386,1720.4696270113554,-6.529494646645101,228690.5222604818,10.5,10500228690.52226,47.655,-122.3035,60.0,12.95
2026-01-20T23:12:58+00:00,SAT-64414,248.79778238530633,50.492142480262274,1713.9575443504348,-6.525886265375283,228564.14148497515,10.5,10500228564.141485,47.655,-122.3035,60.0,12.966666666666667
2026-01-20T23:12:59+00:00,SAT-64414,248.79473853449772,50.61060835024573,1707.4490604484338,-6.522228663918671,228436.03681032578,10.5,10500228436.03681,47.655,-122.3035,60.0,12.983333333333333
2026-01-20T23:13:00+00:00,SAT-64414,248.79181251664778,50.72975261127164,1700.9442243942856,-6.518521131685179,228306.1833486631,10.5,10500228306.18335,47.655,-122.3035,60.0,13.0
2026-01-20T23:13:01+00:00,SAT-64414,248.78900661134293,50.84958268123958,1694.4430859856182,-6.514762972664023,228174.55672274533,10.5,10500228174.556723,47.655,-122.3035,60.0,13.016666666666667
2026-01-20T23:13:02+00:00,SAT-64414,248.78632315496685,50.97010607937495,1687.9456957142145,-6.510953461941199,228041.13154301763,10.5,10500228041.131542,47.655,-122.3035,60.0,13.033333333333333
2026-01-20T23:13:03+00:00,SAT-64414,248.78376454249113,51.09133042749976,1681.4521047948388,-6.507091850678762,227905.88158200766,10.5,10500227905.881582,47.655,-122.3035,60.0,13.05
2026-01-20T23:13:04+00:00,SAT-64414,248.7813332292841,51.213263451415116,1674.962365189095,-6.503177398993352,227768.78092587038,10.5,10500227768.780926,47.655,-122.3035,60.0,13.066666666666666
2026-01-20T23:13:05+00:00,SAT-64414,248.779031733064,51.33591298293695,1668.476529596499,-6.499209320294679,227629.8020248866,10.5,10500227629.802025,47.655,-122.3035,60.0,13.083333333333334
2026-01-20T23:13:06+00:00,SAT-64414,248.77686263580208,51.4592869608936,1661.9946515010583,-6.495186875202264,227488.91898282437,10.5,10500227488.918983,47.655,-122.3035,60.0,13.1
2026-01-20T23:13:07+00:00,SAT-64414,248.7748285859136,51.58339343397732,1655.5167851241902,-6.491109238460718,227346.10289574906,10.5,10500227346.102896,47.655,-122.3035,60.0,13.116666666666667
2026-01-20T23:13:08+00:00,SAT-64414,248.77293230023784,51.708240561042004,1649.042985510365,-6.486975614995785,227201.3259167972,10.5,10500227201.325916,47.655,-122.3035,60.0,13.133333333333333
2026-01-20T23:13:09+00:00,SAT-64414,248.77117656637733,51.8338366136895,1642.5733084970093,-6.48278518907891,227054.5594757042,10.5,10500227054.559475,47.655,-122.3035,60.0,13.15
2026-01-20T23:13:10+00:00,SAT-64414,248.7695642449266,51.96018997788971,1636.1078107351013,-6.478537108944432,226905.77374003365,10.5,10500226905.77374,47.655,-122.3035,60.0,13.166666666666666
2026-01-20T23:13:11+00:00,SAT-64414,248.76809827191556,52.087309155351036,1629.646549725114,-6.4742305399122815,226754.93947575876,10.5,10500226754.939476,47.655,-122.3035,60.0,13.183333333333334
2026-01-20T23:13:12+00:00,SAT-64414,248.76678166128272,52.21520276594448,1623.189583799975,-6.469864610338285,226602.02615421367,10.5,10500226602.026154,47.655,-122.3035,60.0,13.2
2026-01-20T23:13:13+00:00,SAT-64414,248.76561750747214,52.34387954911809,1616.736972161931,-6.465438443686413,226447.0030753987,10.5,10500226447.003075,47.655,-122.3035,60.0,13.216666666666667
2026-01-20T23:13:14+00:00,SAT-64414,248.76460898813917,52.4733483659694,1610.2887748874277,-6.460951130950972,226289.83840208952,10.5,10500226289.838402,47.655,-122.3035,60.0,13.233333333333333
2026-01-20T23:13:15+00:00,SAT-64414,248.76375936693773,52.6036182008007,1603.8450529594927,-6.456401768277335,226130.50047747372,10.5,10500226130.500477,47.655,-122.3035,60.0,13.25
2026-01-20T23:13:16+00:00,SAT-64414,248.76307199642892,52.734698163462525,1597.4058682625973,-6.451789402717862,225968.955925294,10.5,10500225968.955925,47.655,-122.3035,60.0,13.266666666666667
2026-01-20T23:13:17+00:00,SAT-64414,248.76255032112238,52.86659749064087,1590.97128363162,-6.447113123981829,225805.17286331867,10.5,10500225805.172863,47.655,-122.3035,60.0,13.283333333333333
2026-01-20T23:13:18+00:00,SAT-64414,248.762197880703,52.99932554906071,1584.541362809302,-6.442371933677853,225639.11632365835,10.5,10500225639.116323,47.655,-122.3035,60.0,13.3
2026-01-20T23:13:19+00:00,SAT-64414,248.76201831324283,53.13289183602822,1578.1161705341142,-6.437564858871537,225470.75223003485,10.5,10500225470.75223,47.655,-122.3035,60.0,13.316666666666666
2026-01-20T23:13:20+00:00,SAT-64414,248.76201535865556,53.2673059823476,1571.6957725148661,-6.432690897840114,225300.04549787974,10.5,10500225300.045498,47.655,-122.3035,60.0,13.333333333333334
2026-01-20T23:13:21+00:00,SAT-64414,248.76219286230287,53.402577754169315,1565.2802354594203,-6.427749030127844,225126.96038651632,10.5,10500225126.960386,47.655,-122.3035,60.0,13.35
2026-01-20T23:13:22+00:00,SAT-64414,248.7625547786879,53.538717055070094,1558.8696270933729,-6.422738221997675,224951.46069010047,10.5,10500224951.46069,47.655,-122.3035,60.0,13.366666666666667
2026-01-20T23:13:23+00:00,SAT-64414,248.7631051753953,53.67573392830152,1552.4640161733005,-6.417657392940583,224773.5085646355,10.5,10500224773.508564,47.655,-122.3035,60.0,13.383333333333333
2026-01-20T23:13:24+00:00,SAT-64414,248.76384823703643,53.81363855833407,1546.0634725334078,-6.412505502733871,224593.06757712248,10.5,10500224593.067577,47.655,-122.3035,60.0,13.4
2026-01-20T23:13:25+00:00,SAT-64414,248.76478826966536,53.95244127435235,1539.6680670453477,-6.4072814257231,224410.0983023814,10.5,10500224410.098303,47.655,-122.3035,60.0,13.416666666666666
2026-01-20T23:13:26+00:00,SAT-64414,248.7659297050131,54.09215255103754,1533.2778717034266,-6.4019840374672015,224224.56135772972,10.5,10500224224.561357,47.655,-122.3035,60.0,13.433333333333334
