satellites_20260121_005943/SAT-51855.csv

timestamp,satellite,azimuth_deg,elevation_deg,distance_km,relative_velocity_kms,doppler_shift_hz,tx_freq_ghz,rx_freq_hz,ue_lat,ue_lon,ue_alt_m,time_minutes
2026-01-20T23:00:59+00:00,SAT-51855,213.23565833559013,30.001841487799922,1690.151702761124,-6.327516482613664,221616.39258931417,10.5,10500221616.39259,47.655,-122.3035,60.0,0.9833333333333333
2026-01-20T23:01:00+00:00,SAT-51855,213.21257314203956,30.124869677553647,1683.8410596557972,-6.3231051086213315,221461.88761200916,10.5,10500221461.887611,47.655,-122.3035,60.0,1.0
2026-01-20T23:01:01+00:00,SAT-51855,213.18945245151417,30.248627401779128,1677.5348161607988,-6.3186366622056305,221305.38371702173,10.5,10500221305.383717,47.655,-122.3035,60.0,1.0166666666666666
2026-01-20T23:01:02+00:00,SAT-51855,213.16629574340115,30.37312240213869,1671.233029196359,-6.314110367097207,221146.8537161154,10.5,10500221146.853716,47.655,-122.3035,60.0,1.0333333333333334
2026-01-20T23:01:03+00:00,SAT-51855,213.14310248667897,30.49836252133923,1664.9357564569075,-6.3095253748254425,220986.26789226013,10.5,10500220986.267893,47.655,-122.3035,60.0,1.05
2026-01-20T23:01:04+00:00,SAT-51855,213.11987213983758,30.62435570341527,1658.6430564830816,-6.304880887820724,220823.59831119436,10.5,10500220823.59831,47.655,-122.3035,60.0,1.0666666666666667
2026-01-20T23:01:05+00:00,SAT-51855,213.09660415041176,30.751109996472817,1652.3549886109618,-6.300176078411078,220658.8159843445,10.5,10500220658.815985,47.655,-122.3035,60.0,1.0833333333333333
2026-01-20T23:01:06+00:00,SAT-51855,213.07329795475664,30.87863355386598,1646.071613002093,-6.2954100658569825,220491.8900644869,10.5,10500220491.890064,47.655,-122.3035,60.0,1.1
2026-01-20T23:01:07+00:00,SAT-51855,213.04995297786274,31.006934634915595,1639.7929906964116,-6.290581999716943,220322.79076556323,10.5,10500220322.790766,47.655,-122.3035,60.0,1.1166666666666667
2026-01-20T23:01:08+00:00,SAT-51855,213.02656863294465,31.136021607339597,1633.5191835820272,-6.285690974876456,220151.4863866348,10.5,10500220151.486387,47.655,-122.3035,60.0,1.1333333333333333
2026-01-20T23:01:09+00:00,SAT-51855,213.00314432123525,31.265902947982386,1627.2502544497506,-6.280736126547492,219977.94663916682,10.5,10500219977.94664,47.655,-122.3035,60.0,1.15
2026-01-20T23:01:10+00:00,SAT-51855,212.97967943152264,31.3965872455245,1620.9862669528736,-6.27571651949946,219802.13876742803,10.5,10500219802.138767,47.655,-122.3035,60.0,1.1666666666666667
2026-01-20T23:01:11+00:00,SAT-51855,212.95617333997225,31.528083200932215,1614.7272856774262,-6.270631219562932,219624.0300528534,10.5,10500219624.030052,47.655,-122.3035,60.0,1.1833333333333333
2026-01-20T23:01:12+00:00,SAT-51855,212.93262540975985,31.66039962940441,1608.4733761411155,-6.265479313767088,219443.588519343,10.5,10500219443.58852,47.655,-122.3035,60.0,1.2
2026-01-20T23:01:13+00:00,SAT-51855,212.90903499059746,31.79354546278891,1602.224604772185,-6.260259808700336,219260.7793734208,10.5,10500219260.779373,47.655,-122.3035,60.0,1.2166666666666666
2026-01-20T23:01:14+00:00,SAT-51855,212.88540141857922,31.927529749876577,1595.9810389896415,-6.254971736441864,219075.56871440564,10.5,10500219075.568714,47.655,-122.3035,60.0,1.2333333333333334
2026-01-20T23:01:15+00:00,SAT-51855,212.86172401568172,32.062361658955666,1589.7427471778299,-6.2496141023390095,218887.9217053539,10.5,10500218887.921705,47.655,-122.3035,60.0,1.25
2026-01-20T23:01:16+00:00,SAT-51855,212.8380020894191,32.19805047929605,1583.5097987130973,-6.24418589329937,218697.80286348425,10.5,10500218697.802864,47.655,-122.3035,60.0,1.2666666666666666
2026-01-20T23:01:17+00:00,SAT-51855,212.81423493244006,32.334605622832875,1577.28226398218,-6.238686079722805,218505.1761278446,10.5,10500218505.176128,47.655,-122.3035,60.0,1.2833333333333334
2026-01-20T23:01:18+00:00,SAT-51855,212.79042182213885,32.47203662592104,1571.0602143986698,-6.233113602325073,218310.00439781998,10.5,10500218310.004398,47.655,-122.3035,60.0,1.3
2026-01-20T23:01:19+00:00,SAT-51855,212.7665620202511,32.610353150824174,1564.8437224326176,-6.22746742705733,218112.25145664593,10.5,10500218112.251457,47.655,-122.3035,60.0,1.3166666666666667
2026-01-20T23:01:20+00:00,SAT-51855,212.74265477230554,32.74956498845504,1558.6328615853658,-6.221746431075081,217911.87797755856,10.5,10500217911.877977,47.655,-122.3035,60.0,1.3333333333333333
2026-01-20T23:01:21+00:00,SAT-51855,212.71869930738077,32.88968205860631,1552.4277064781068,-6.215949537029415,217708.84622724185,10.5,10500217708.846228,47.655,-122.3035,60.0,1.35
2026-01-20T23:01:22+00:00,SAT-51855,212.6946948374485,33.03071441320272,1546.2283328065093,-6.210075604979834,217503.11628015758,10.5,10500217503.11628,47.655,-122.3035,60.0,1.3666666666666667
2026-01-20T23:01:23+00:00,SAT-51855,212.67064055702775,33.1726722371627,1540.034817403143,-6.204123497168387,217294.64828720962,10.5,10500217294.648287,47.655,-122.3035,60.0,1.3833333333333333
2026-01-20T23:01:24+00:00,SAT-51855,212.64653564262957,33.31556585074614,1533.8472382353004,-6.1980920550758425,217083.40167215397,10.5,10500217083.401672,47.655,-122.3035,60.0,1.4
2026-01-20T23:01:25+00:00,SAT-51855,212.62237925223374,33.45940571141641,1527.6656744257045,-6.191980073449872,216869.33422195583,10.5,10500216869.334223,47.655,-122.3035,60.0,1.4166666666666667
2026-01-20T23:01:26+00:00,SAT-51855,212.59817052486224,33.60420241512207,1521.4902062991173,-6.185786373994377,216652.40466770166,10.5,10500216652.404667,47.655,-122.3035,60.0,1.4333333333333333
2026-01-20T23:01:27+00:00,SAT-51855,212.57390857986252,33.74996669932459,1515.3209153554537,-6.1795097248308855,216432.56986379655,10.5,10500216432.569864,47.655,-122.3035,60.0,1.45
2026-01-20T23:01:28+00:00,SAT-51855,212.54959251646233,33.89670944418396,1509.1578843232223,-6.173148867213385,216209.78572363063,10.5,10500216209.785723,47.655,-122.3035,60.0,1.4666666666666666
2026-01-20T23:01:29+00:00,SAT-51855,212.52522141318258,34.04444167438089,1503.0011971863214,-6.166702536485764,215984.00795359747,10.5,10500215984.007954,47.655,-122.3035,60.0,1.4833333333333334
2026-01-20T23:01:30+00:00,SAT-51855,212.50079432719994,34.19317456147155,1496.8509391899331,-6.160169434240288,215755.19107796575,10.5,10500215755.191078,47.655,-122.3035,60.0,1.5
2026-01-20T23:01:31+00:00,SAT-51855,212.47631029373855,34.34291942560699,1490.707196874184,-6.153548266213997,215523.2897661721,10.5,10500215523.289766,47.655,-122.3035,60.0,1.5166666666666666
2026-01-20T23:01:32+00:00,SAT-51855,212.45176832534838,34.49368773820525,1484.5700580700134,-6.146837661240378,215288.25599416503,10.5,10500215288.255995,47.655,-122.3035,60.0,1.5333333333333334
2026-01-20T23:01:33+00:00,SAT-51855,212.42716741138912,34.645491122666876,1478.4396119758696,-6.1400362723164745,215050.04258420333,10.5,10500215050.042583,47.655,-122.3035,60.0,1.55
2026-01-20T23:01:34+00:00,SAT-51855,212.40250651719893,34.79834135759131,1472.3159491336128,-6.133142722378136,214808.6013056754,10.5,10500214808.601305,47.655,-122.3035,60.0,1.5666666666666667
2026-01-20T23:01:35+00:00,SAT-51855,212.37778458336982,34.952250378705074,1466.1991614584942,-6.126155583738199,214563.88215493766,10.5,10500214563.882154,47.655,-122.3035,60.0,1.5833333333333333
2026-01-20T23:01:36+00:00,SAT-51855,212.3530005251057,35.10723028029239,1460.0893422896459,-6.119073424048112,214315.834965085,10.5,10500214315.834965,47.655,-122.3035,60.0,1.6
2026-01-20T23:01:37+00:00,SAT-51855,212.3281532313593,35.26329331779857,1453.9865863947286,-6.111894775036314,214064.40831103662,10.5,10500214064.408312,47.655,-122.3035,60.0,1.6166666666666667
2026-01-20T23:01:38+00:00,SAT-51855,212.30324156408238,35.420451909678405,1447.890990005759,-6.104618163046658,213809.55057912067,10.5,10500213809.55058,47.655,-122.3035,60.0,1.6333333333333333
2026-01-20T23:01:39+00:00,SAT-51855,212.27826435730793,35.57871864005657,1441.8026508244805,-6.097242067263505,213551.2085039404,10.5,10500213551.208504,47.655,-122.3035,60.0,1.65
2026-01-20T23:01:40+00:00,SAT-51855,212.2532204163635,35.73810626034125,1435.7216680693964,-6.089764912429951,213289.32691333577,10.5,10500213289.326914,47.655,-122.3035,60.0,1.6666666666666667
2026-01-20T23:01:41+00:00,SAT-51855,212.22810851705816,35.89862769064375,1429.6481425300663,-6.082185170175672,213023.85227731295,10.5,10500213023.852278,47.655,-122.3035,60.0,1.6833333333333333
2026-01-20T23:01:42+00:00,SAT-51855,212.20292740451603,36.060296023901444,1423.5821765203443,-6.074501225283205,212754.7280241241,10.5,10500212754.728024,47.655,-122.3035,60.0,1.7
2026-01-20T23:01:43+00:00,SAT-51855,212.17767579238728,36.22312452651379,1417.5238739649953,-6.066711460658744,212481.8975163038,10.5,10500212481.897516,47.655,-122.3035,60.0,1.7166666666666666
2026-01-20T23:01:44+00:00,SAT-51855,212.15235236177776,36.38712664123915,1411.4733404015649,-6.058814192833452,212205.3017916523,10.5,10500212205.301792,47.655,-122.3035,60.0,1.7333333333333334
2026-01-20T23:01:45+00:00,SAT-51855,212.12695576031078,36.55231598837822,1405.4306830465791,-6.050807745976023,211924.8821554685,10.5,10500211924.882156,47.655,-122.3035,60.0,1.75
2026-01-20T23:01:46+00:00,SAT-51855,212.10148460094416,36.71870636898275,1399.3960107879257,-6.0426904334023686,211640.579532941,10.5,10500211640.579533,47.655,-122.3035,60.0,1.7666666666666666
2026-01-20T23:01:47+00:00,SAT-51855,212.07593746075466,36.88631176761868,1393.3694341956789,-6.034460460517845,211352.3310697742,10.5,10500211352.33107,47.655,-122.3035,60.0,1.7833333333333334
2026-01-20T23:01:48+00:00,SAT-51855,212.05031288005566,37.055146352444694,1387.3510656297226,-6.026116078716616,211060.0755223951,10.5,10500211060.075521,47.655,-122.3035,60.0,1.8
2026-01-20T23:01:49+00:00,SAT-51855,212.02460936090372,37.22522447957634,1381.3410191938826,-6.017655450493004,210763.74853358234,10.5,10500210763.748533,47.655,-122.3035,60.0,1.8166666666666667
2026-01-20T23:01:50+00:00,SAT-51855,211.9988253660442,37.39656069371211,1375.339410824591,-6.009076751888448,210463.28622059166,10.5,10500210463.28622,47.655,-122.3035,60.0,1.8333333333333333
2026-01-20T23:01:51+00:00,SAT-51855,211.97295931742545,37.56916973165686,1369.3463582773738,-6.000378126865547,210158.6235771423,10.5,10500210158.623577,47.655,-122.3035,60.0,1.85
2026-01-20T23:01:52+00:00,SAT-51855,211.94700959485246,37.74306652460587,1363.3619811588467,-5.9915576012016665,209849.69145760665,10.5,10500209849.691458,47.655,-122.3035,60.0,1.8666666666666667
2026-01-20T23:01:53+00:00,SAT-51855,211.92097453483274,37.918266197896436,1357.3864010445818,-5.982613286386199,209536.4237183548,10.5,10500209536.423717,47.655,-122.3035,60.0,1.8833333333333333
2026-01-20T23:01:54+00:00,SAT-51855,211.89485242870876,38.09478407671933,1351.419741393626,-5.973543175469696,209218.75006752773,10.5,10500209218.750067,47.655,-122.3035,60.0,1.9
2026-01-20T23:01:55+00:00,SAT-51855,211.8686415213849,38.27263568589355,1345.462127666624,-5.964345257363008,208896.60006827652,10.5,10500208896.600069,47.655,-122.3035,60.0,1.9166666666666667
2026-01-20T23:01:56+00:00,SAT-51855,211.84234000963832,38.45183675298824,1339.5136873299475,-5.955017478885209,208569.90180952012,10.5,10500208569.90181,47.655,-122.3035,60.0,1.9333333333333333
2026-01-20T23:01:57+00:00,SAT-51855,211.81594604045392,38.632403210339625,1333.5745498976726,-5.945557745645094,208238.5819368194,10.5,10500208238.581936,47.655,-122.3035,60.0,1.95
2026-01-20T23:01:58+00:00,SAT-51855,211.78945770931108,38.814351197094794,1327.6448469726824,-5.93596395036022,207902.5666442293,10.5,10500207902.566645,47.655,-122.3035,60.0,1.9666666666666666
2026-01-20T23:01:59+00:00,SAT-51855,211.76287305827867,38.99769706213296,1321.7247122595234,-5.92623389679291,207561.7790102163,10.5,10500207561.77901,47.655,-122.3035,60.0,1.9833333333333334
2026-01-20T23:02:00+00:00,SAT-51855,211.7361900743149,39.18245736464087,1315.8142816531217,-5.916365395811409,207216.14236212638,10.5,10500207216.142363,47.655,-122.3035,60.0,2.0
2026-01-20T23:02:01+00:00,SAT-51855,211.7094066871202,39.36864887764952,1309.9136932316992,-5.906356213670916,206865.57846476784,10.5,10500206865.578465,47.655,-122.3035,60.0,2.0166666666666666
2026-01-20T23:02:02+00:00,SAT-51855,211.68252076712085,39.55628858999174,1304.0230873012647,-5.896204045409535,206510.0065886251,10.5,10500206510.006588,47.655,-122.3035,60.0,2.033333333333333
2026-01-20T23:02:03+00:00,SAT-51855,211.65553012341357,39.74539370738305,1298.142606466643,-5.885906596422888,206149.34636694673,10.5,10500206149.346367,47.655,-122.3035,60.0,2.05
2026-01-20T23:02:04+00:00,SAT-51855,211.62843250136703,39.93598165610631,1292.2723956211437,-5.875461449048552,205783.51312296788,10.5,10500205783.513123,47.655,-122.3035,60.0,2.066666666666667
2026-01-20T23:02:05+00:00,SAT-51855,211.60122558056082,40.128070082375345,1286.4126020692927,-5.864866249913648,205412.42443161563,10.5,10500205412.42443,47.655,-122.3035,60.0,2.0833333333333335
2026-01-20T23:02:06+00:00,SAT-51855,211.5739069719756,40.321676857774406,1280.5633754627122,-5.854118506092979,205035.9929801045,10.5,10500205035.992981,47.655,-122.3035,60.0,2.1
2026-01-20T23:02:07+00:00,SAT-51855,211.54647421578372,40.51682007802227,1274.7248679393022,-5.843215737147034,204654.13189295062,10.5,10500204654.131893,47.655,-122.3035,60.0,2.1166666666666667
2026-01-20T23:02:08+00:00,SAT-51855,211.51892477849452,40.71351806669763,1268.8972341107876,-5.8321554124834005,204266.75253810323,10.5,10500204266.752539,47.655,-122.3035,60.0,2.1333333333333333
2026-01-20T23:02:09+00:00,SAT-51855,211.49125605017153,40.9117893768958,1263.0806311127374,-5.820934931792837,203873.76384173342,10.5,10500203873.763842,47.655,-122.3035,60.0,2.15
2026-01-20T23:02:10+00:00,SAT-51855,211.4634653416373,41.11165279216913,1257.275218674096,-5.809551668456838,203475.0738085506,10.5,10500203475.073809,47.655,-122.3035,60.0,2.1666666666666665
2026-01-20T23:02:11+00:00,SAT-51855,211.4355498813302,41.3131273289004,1251.4811591434218,-5.798002944869494,203070.58865746946,10.5,10500203070.588657,47.655,-122.3035,60.0,2.183333333333333
2026-01-20T23:02:12+00:00,SAT-51855,211.40750681215954,41.51623223780805,1245.6986175397385,-5.78628603052303,202660.21275455772,10.5,10500202660.212755,47.655,-122.3035,60.0,2.2
2026-01-20T23:02:13+00:00,SAT-51855,211.37933318816712,41.720987005325625,1239.927761605297,-5.774398172379015,202243.84967676425,10.5,10500202243.849676,47.655,-122.3035,60.0,2.216666666666667
2026-01-20T23:02:14+00:00,SAT-51855,211.35102597095758,41.92741135602325,1234.1687618280441,-5.762336513323239,201821.39935586374,10.5,10500201821.399355,47.655,-122.3035,60.0,2.2333333333333334
2026-01-20T23:02:15+00:00,SAT-51855,211.32258202623848,42.135525252046456,1228.4217915454233,-5.750098216890454,201392.76244684507,10.5,10500201392.762447,47.655,-122.3035,60.0,2.25
2026-01-20T23:02:16+00:00,SAT-51855,211.2939981197205,42.345348896981065,1222.6870269237777,-5.737680346347727,200957.8360928984,10.5,10500200957.836092,47.655,-122.3035,60.0,2.2666666666666666
2026-01-20T23:02:17+00:00,SAT-51855,211.26527091329012,42.55690273529478,1216.9646470583536,-5.7250799195783415,200516.51584768214,10.5,10500200516.515848,47.655,-122.3035,60.0,2.283333333333333
2026-01-20T23:02:18+00:00,SAT-51855,211.23639696078328,42.77020745366681,1211.2548340185608,-5.7122939216328135,200068.69611491208,10.5,10500200068.696115,47.655,-122.3035,60.0,2.3
2026-01-20T23:02:19+00:00,SAT-51855,211.20737270346729,42.98528398271813,1205.557772880719,-5.699319286243404,199614.26950092168,10.5,10500199614.2695,47.655,-122.3035,60.0,2.316666666666667
2026-01-20T23:02:20+00:00,SAT-51855,211.17819446542347,43.202153498001564,1199.873651779239,-5.686152873560029,199153.12603487942,10.5,10500199153.126036,47.655,-122.3035,60.0,2.3333333333333335
2026-01-20T23:02:21+00:00,SAT-51855,211.14885844872953,43.420837420023986,1194.2026619800085,-5.672791490428735,198685.15387902694,10.5,10500198685.15388,47.655,-122.3035,60.0,2.35
2026-01-20T23:02:22+00:00,SAT-51855,211.11936072836428,43.64135741491839,1188.5449979335542,-5.659231908512023,198210.23996332908,10.5,10500198210.239964,47.655,-122.3035,60.0,2.3666666666666667
2026-01-20T23:02:23+00:00,SAT-51855,211.08969724673526,43.86373539572486,1182.9008573101314,-5.645470844767114,197728.2693017404,10.5,10500197728.269302,47.655,-122.3035,60.0,2.3833333333333333
2026-01-20T23:02:24+00:00,SAT-51855,211.05986380803458,44.08799352282241,1177.2704410542838,-5.631504944709496,197239.12440602394,10.5,10500197239.124407,47.655,-122.3035,60.0,2.4
2026-01-20T23:02:25+00:00,SAT-51855,211.0298560723476,44.31415420354333,1171.6539534560936,-5.617330774006479,196742.68499132167,10.5,10500196742.684992,47.655,-122.3035,60.0,2.4166666666666665
2026-01-20T23:02:26+00:00,SAT-51855,210.9996695495151,44.54224009127635,1166.0516022308177,-5.602944908352292,196238.83112396067,10.5,10500196238.831123,47.655,-122.3035,60.0,2.433333333333333
2026-01-20T23:02:27+00:00,SAT-51855,210.9692995922452,44.77227408808103,1160.4635985088878,-5.588343817538583,195727.43916111163,10.5,10500195727.439161,47.655,-122.3035,60.0,2.45
2026-01-20T23:02:28+00:00,SAT-51855,210.93874138941067,45.00427934246605,1154.890156941529,-5.573523921881041,195208.38372708802,10.5,10500195208.383728,47.655,-122.3035,60.0,2.466666666666667
2026-01-20T23:02:29+00:00,SAT-51855,210.90798995868155,45.23827924925351,1149.3314957501066,-5.558481555037027,194681.53641106203,10.5,10500194681.536411,47.655,-122.3035,60.0,2.4833333333333334
2026-01-20T23:02:30+00:00,SAT-51855,210.8770401389844,45.474297447702284,1143.7878368125496,-5.543213061267272,194146.76917358057,10.5,10500194146.769173,47.655,-122.3035,60.0,2.5
2026-01-20T23:02:31+00:00,SAT-51855,210.8458865820447,45.712357823565725,1138.2594056527792,-5.527714658645218,193603.94955557818,10.5,10500193603.949556,47.655,-122.3035,60.0,2.5166666666666666
2026-01-20T23:02:32+00:00,SAT-51855,210.8145237441465,45.952484505154395,1132.746431566557,-5.511982537306331,193052.94411948306,10.5,10500193052.94412,47.655,-122.3035,60.0,2.533333333333333
2026-01-20T23:02:33+00:00,SAT-51855,210.782945876935,46.19470186333989,1127.24914764935,-5.49601279786176,192493.61629220334,10.5,10500192493.616293,47.655,-122.3035,60.0,2.55
2026-01-20T23:02:34+00:00,SAT-51855,210.75114701801516,46.43903450866004,1121.7677908856158,-5.479801521140078,191925.8288077775,10.5,10500191925.828808,47.655,-122.3035,60.0,2.566666666666667
2026-01-20T23:02:35+00:00,SAT-51855,210.7191209806725,46.68550729125521,1116.302602168532,-5.463344712198478,191349.44174640987,10.5,10500191349.441746,47.655,-122.3035,60.0,2.5833333333333335
2026-01-20T23:02:36+00:00,SAT-51855,210.68686134329855,46.93414529810876,1110.853826375566,-5.446638246095098,190764.31063518793,10.5,10500190764.310635,47.655,-122.3035,60.0,2.6
2026-01-20T23:02:37+00:00,SAT-51855,210.6543614384094,47.18497384740965,1105.4217124981276,-5.42967805385298,190170.2929613269,10.5,10500190170.292961,47.655,-122.3035,60.0,2.6166666666666667
2026-01-20T23:02:38+00:00,SAT-51855,210.62161434020732,47.438018491207,1100.0065135857515,-5.412459912065732,189567.24080326993,10.5,10500189567.240803,47.655,-122.3035,60.0,2.6333333333333333
2026-01-20T23:02:39+00:00,SAT-51855,210.5886128523479,47.69330500806162,1094.6084869001177,-5.394979567843223,188955.0052068149,10.5,10500188955.005207,47.655,-122.3035,60.0,2.65
2026-01-20T23:02:40+00:00,SAT-51855,210.5553494944506,47.95085940113102,1089.2278939444554,-5.377232697810452,188333.43474908147,10.5,10500188333.43475,47.655,-122.3035,60.0,2.6666666666666665
2026-01-20T23:02:41+00:00,SAT-51855,210.52181648792646,48.21070789398244,1083.8650005338393,-5.359214915951918,187702.3758132539,10.5,10500187702.375813,47.655,-122.3035,60.0,2.683333333333333
2026-01-20T23:02:42+00:00,SAT-51855,210.48800574097612,48.47287692643104,1078.5200768576633,-5.340921770255081,187061.67247102107,10.5,10500187061.67247,47.655,-122.3035,60.0,2.7
2026-01-20T23:02:43+00:00,SAT-51855,210.45390883263892,48.73739314979188,1073.193397545462,-5.322348744269451,186411.16653718235,10.5,10500186411.166536,47.655,-122.3035,60.0,2.716666666666667
2026-01-20T23:02:44+00:00,SAT-51855,210.41951699586392,49.004283421808935,1067.8852417311773,-5.303491257618503,185750.69758757664,10.5,10500185750.697588,47.655,-122.3035,60.0,2.7333333333333334
2026-01-20T23:02:45+00:00,SAT-51855,210.38482109955365,49.27357480117688,1062.5958931169125,-5.284344668710761,185080.1030540368,10.5,10500185080.103054,47.655,-122.3035,60.0,2.75
2026-01-20T23:02:46+00:00,SAT-51855,210.34981162940198,49.54529454172853,1057.325640033985,-5.264904249212313,184399.21733030817,10.5,10500184399.21733,47.655,-122.3035,60.0,2.7666666666666666
2026-01-20T23:02:47+00:00,SAT-51855,210.31447866771163,49.81947008481924,1052.0747755294371,-5.245165260184219,183707.87443870353,10.5,10500183707.87444,47.655,-122.3035,60.0,2.783333333333333
2026-01-20T23:02:48+00:00,SAT-51855,210.27881187145405,50.09612905517161,1046.8435973766136,-5.225122808590737,183005.9030044136,10.5,10500183005.903004,47.655,-122.3035,60.0,2.8
2026-01-20T23:02:49+00:00,SAT-51855,210.24280044972502,50.375299248637184,1041.6324082288456,-5.204772049137269,182293.133324726,10.5,10500182293.133326,47.655,-122.3035,60.0,2.816666666666667
2026-01-20T23:02:50+00:00,SAT-51855,210.2064331385676,50.65700863008592,1036.4415155718393,-5.184107979180569,181569.3901859131,10.5,10500181569.390186,47.655,-122.3035,60.0,2.8333333333333335
2026-01-20T23:02:51+00:00,SAT-51855,210.16969817531344,50.94128531978068,1031.2712318806034,-5.163125581767186,180834.4978730434,10.5,10500180834.497873,47.655,-122.3035,60.0,2.85
2026-01-20T23:02:52+00:00,SAT-51855,210.132583270345,51.228157586776526,1026.1218746337208,-5.141819759926257,180088.27786863703,10.5,10500180088.277868,47.655,-122.3035,60.0,2.8666666666666667
2026-01-20T23:02:53+00:00,SAT-51855,210.09507557737234,51.517653838131494,1020.9937663931544,-5.120185341161639,179330.54900999946,10.5,10500179330.54901,47.655,-122.3035,60.0,2.8833333333333333
2026-01-20T23:02:54+00:00,SAT-51855,210.05716166158697,51.809802607603935,1015.8872348795693,-5.098217145215279,178561.12986258123,10.5,10500178561.129862,47.655,-122.3035,60.0,2.9
2026-01-20T23:02:55+00:00,SAT-51855,210.0188274652616,52.104632547554246,1010.8026129800745,-5.075909873739943,177779.83485585017,10.5,10500177779.834856,47.655,-122.3035,60.0,2.9166666666666665
2026-01-20T23:02:56+00:00,SAT-51855,209.98005827154688,52.4021724137628,1005.7402388659979,-5.053258191809531,176986.4771381276,10.5,10500176986.477139,47.655,-122.3035,60.0,2.933333333333333
2026-01-20T23:02:57+00:00,SAT-51855,209.94083866523974,52.70245105411321,1000.7004560293665,-5.030256727534358,176180.86856311362,10.5,10500176180.868563,47.655,-122.3035,60.0,2.95
2026-01-20T23:02:58+00:00,SAT-51855,209.90115249070473,53.0054973965221,995.6836133197723,-5.006899992083624,175362.81688873592,10.5,10500175362.816889,47.655,-122.3035,60.0,2.966666666666667
2026-01-20T23:02:59+00:00,SAT-51855,209.86098280727367,53.311340431156104,990.6900650610008,-4.983182510016723,174532.13034190336,10.5,10500174532.130342,47.655,-122.3035,60.0,2.9833333333333334
2026-01-20T23:03:00+00:00,SAT-51855,209.8203118404791,53.620009199624924,985.7201710376775,-4.959098713854192,173688.61392593474,10.5,10500173688.613926,47.655,-122.3035,60.0,3.0
2026-01-20T23:03:01+00:00,SAT-51855,209.77912093040487,53.931532776872366,980.7742965870602,-4.934642987637869,172832.0709462198,10.5,10500172832.070946,47.655,-122.3035,60.0,3.0166666666666666
2026-01-20T23:03:02+00:00,SAT-51855,209.7373904757764,54.24594025467365,975.8528126473893,-4.9098096912735985,171962.3038628036,10.5,10500171962.303864,47.655,-122.3035,60.0,3.033333333333333
2026-01-20T23:03:03+00:00,SAT-51855,209.6950998736884,54.56326072574391,970.9560957819592,-4.8845930728070375,171079.11121791427,10.5,10500171079.111217,47.655,-122.3035,60.0,3.05
2026-01-20T23:03:04+00:00,SAT-51855,209.65222745521345,54.88352326104509,966.0845282906797,-4.858987418958477,170182.29290832928,10.5,10500170182.292908,47.655,-122.3035,60.0,3.066666666666667
2026-01-20T23:03:05+00:00,SAT-51855,209.60875041495183,55.20675689580022,961.2384981715051,-4.832986909475192,169271.6450841786,10.5,10500169271.645084,47.655,-122.3035,60.0,3.0833333333333335
2026-01-20T23:03:06+00:00,SAT-51855,209.56464473598456,55.53299060481808,956.4183992271219,-4.806585713261077,168346.96351581105,10.5,10500168346.963516,47.655,-122.3035,60.0,3.1
2026-01-20T23:03:07+00:00,SAT-51855,209.51988510813297,55.86225328293541,951.6246310757627,-4.779777943889635,167408.0420356711,10.5,10500167408.042036,47.655,-122.3035,60.0,3.1166666666666667
2026-01-20T23:03:08+00:00,SAT-51855,209.4744448398323,56.194573721198275,946.8575992063902,-4.752557684622361,166454.67341454863,10.5,10500166454.673414,47.655,-122.3035,60.0,3.1333333333333333
2026-01-20T23:03:09+00:00,SAT-51855,209.4282957625706,56.52998058342289,942.1177150089268,-4.724919015086851,165486.65029595885,10.5,10500165486.650295,47.655,-122.3035,60.0,3.15
2026-01-20T23:03:10+00:00,SAT-51855,209.38140812705177,56.86850238333845,937.4053957778802,-4.69685593400415,164503.7624897274,10.5,10500164503.76249,47.655,-122.3035,60.0,3.1666666666666665
2026-01-20T23:03:11+00:00,SAT-51855,209.33375049121094,57.210167454773234,932.7210647930334,-4.668362459877247,163505.80049852718,10.5,10500163505.800499,47.655,-122.3035,60.0,3.183333333333333
2026-01-20T23:03:12+00:00,SAT-51855,209.28528959767294,57.555003927548626,928.0651512997158,-4.639432570586235,162492.55340224563,10.5,10500162492.553402,47.655,-122.3035,60.0,3.2
2026-01-20T23:03:13+00:00,SAT-51855,209.23599024105266,57.90303969752388,923.4380905493177,-4.610060235284442,161463.8099751217,10.5,10500161463.809975,47.655,-122.3035,60.0,3.216666666666667
2026-01-20T23:03:14+00:00,SAT-51855,209.1858151231381,58.25430239735082,918.8403238079941,-4.580239399640991,160419.3581688783,10.5,10500160419.35817,47.655,-122.3035,60.0,3.2333333333333334
2026-01-20T23:03:15+00:00,SAT-51855,209.1347246951883,58.608819364455265,914.2722983800855,-4.5499640055668475,159358.98580361187,10.5,10500159358.985804,47.655,-122.3035,60.0,3.25
2026-01-20T23:03:16+00:00,SAT-51855,209.08267698556855,58.96661760874647,909.7344676118669,-4.519228016713353,158282.48146085854,10.5,10500158282.48146,47.655,-122.3035,60.0,3.2666666666666666
2026-01-20T23:03:17+00:00,SAT-51855,209.02962741116684,59.327723780643474,905.2272908698648,-4.488025371831108,157189.63285002531,10.5,10500157189.63285,47.655,-122.3035,60.0,3.283333333333333
2026-01-20T23:03:18+00:00,SAT-51855,208.97552857138828,59.69216413352871,900.7512335656919,-4.456349999879097,156080.2273375754,10.5,10500156080.227337,47.655,-122.3035,60.0,3.3
2026-01-20T23:03:19+00:00,SAT-51855,208.92033002229815,60.05996448531197,896.3067671658124,-4.424195920493008,154954.0554658536,10.5,10500154954.055466,47.655,-122.3035,60.0,3.316666666666667
2026-01-20T23:03:20+00:00,SAT-51855,208.86397802763642,60.43115018637914,891.8943691011074,-4.391557082720609,153810.90530491728,10.5,10500153810.905306,47.655,-122.3035,60.0,3.3333333333333335
2026-01-20T23:03:21+00:00,SAT-51855,208.80641528690217,60.80574607207721,887.5145228372741,-4.358427527110445,152650.56812956807,10.5,10500152650.56813,47.655,-122.3035,60.0,3.35
2026-01-20T23:03:22+00:00,SAT-51855,208.74758063420214,61.183776426528965,883.1677177835693,-4.324801291014745,151472.83510265898,10.5,10500151472.835102,47.655,-122.3035,60.0,3.3666666666666667
2026-01-20T23:03:23+00:00,SAT-51855,208.68740870733924,61.565264936240546,878.8544492959971,-4.29067248254123,150277.4998651998,10.5,10500150277.499865,47.655,-122.3035,60.0,3.3833333333333333
2026-01-20T23:03:24+00:00,SAT-51855,208.62582958144776,61.95023464774919,874.5752186067427,-4.256035229286459,149064.35674078172,10.5,10500149064.35674,47.655,-122.3035,60.0,3.4
2026-01-20T23:03:25+00:00,SAT-51855,208.5627683643806,62.33870791832143,870.3305328047343,-4.220883740896018,147833.2029267,10.5,10500147833.202927,47.655,-122.3035,60.0,3.4166666666666665
2026-01-20T23:03:26+00:00,SAT-51855,208.49814474754146,62.73070636971484,866.1209047538141,-4.1852122774488105,146583.83738663804,10.5,10500146583.837387,47.655,-122.3035,60.0,3.433333333333333
2026-01-20T23:03:27+00:00,SAT-51855,208.43187250768472,63.126250836477034,861.9468530424384,-4.149015175730241,145316.06177086526,10.5,10500145316.061771,47.655,-122.3035,60.0,3.45
2026-01-20T23:03:28+00:00,SAT-51855,208.36385895243794,63.52536131386484,857.8089019071768,-4.1122868585861205,144029.68074385068,10.5,10500144029.680744,47.655,-122.3035,60.0,3.466666666666667
2026-01-20T23:03:29+00:00,SAT-51855,208.294004302364,63.92805690382545,853.7075811468803,-4.0750218259813105,142724.5016710986,10.5,10500142724.50167,47.655,-122.3035,60.0,3.4833333333333334
2026-01-20T23:03:30+00:00,SAT-51855,208.22220100105665,64.33435575702451,849.6434260457683,-4.037214703883978,141400.33633128213,10.5,10500141400.33633,47.655,-122.3035,60.0,3.5
2026-01-20T23:03:31+00:00,SAT-51855,208.14833294258392,64.74427501658425,845.6169772477614,-3.99886020097379,140056.99939998088,10.5,10500140056.9994,47.655,-122.3035,60.0,3.5166666666666666
2026-01-20T23:03:32+00:00,SAT-51855,208.072274605821,65.15783075410964,841.62878067399,-3.9599531756617377,138694.3107969989,10.5,10500138694.310797,47.655,-122.3035,60.0,3.533333333333333
2026-01-20T23:03:33+00:00,SAT-51855,207.9938900806613,65.57503790906678,837.6793873734634,-3.9204885866420067,137312.0939544819,10.5,10500137312.093954,47.655,-122.3035,60.0,3.55
2026-01-20T23:03:34+00:00,SAT-51855,207.91303197185215,65.99591021920338,833.7693534230525,-3.880461577219744,135910.17877043228,10.5,10500135910.17877,47.655,-122.3035,60.0,3.566666666666667
2026-01-20T23:03:35+00:00,SAT-51855,207.82954015998789,66.42046015605602,829.8992397433719,-3.8398673972167336,134488.3988735157,10.5,10500134488.398874,47.655,-122.3035,60.0,3.5833333333333335
2026-01-20T23:03:36+00:00,SAT-51855,207.74324040028264,66.8486988476687,826.0696119925478,-3.798701503426112,133046.59514141004,10.5,10500133046.59514,47.655,-122.3035,60.0,3.6
2026-01-20T23:03:37+00:00,SAT-51855,207.6539427305801,67.28063600780834,822.2810403597975,-3.7569594969539635,131584.6135062431,10.5,10500131584.613506,47.655,-122.3035,60.0,3.6166666666666667
2026-01-20T23:03:38+00:00,SAT-51855,207.56143966070678,67.71627985317419,818.5340994215021,-3.7146372091810016,130102.30796533418,10.5,10500130102.307966,47.655,-122.3035,60.0,3.6333333333333333
2026-01-20T23:03:39+00:00,SAT-51855,207.4655041044772,68.15563702518337,814.8293679115455,-3.6717306350457646,128599.53824448957,10.5,10500128599.538244,47.655,-122.3035,60.0,3.65
2026-01-20T23:03:40+00:00,SAT-51855,207.36588701384014,68.59871249799498,811.1674285581933,-3.6282359899921715,127076.17179254658,10.5,10500127076.171793,47.655,-122.3035,60.0,3.6666666666666665
2026-01-20T23:03:41+00:00,SAT-51855,207.2623146613051,69.04550948659501,807.5488678641744,-3.5841497679099996,125532.0858106944,10.5,10500125532.085812,47.655,-122.3035,60.0,3.683333333333333
2026-01-20T23:03:42+00:00,SAT-51855,207.1544855078179,69.49602935499621,803.9742758289789,-3.5394686372477766,123967.16361390805,10.5,10500123967.163614,47.655,-122.3035,60.0,3.7
2026-01-20T23:03:43+00:00,SAT-51855,207.0420665852194,69.95027150333708,800.4442457747638,-3.4941895630737063,122381.29890603824,10.5,10500122381.298906,47.655,-122.3035,60.0,3.716666666666667
2026-01-20T23:03:44+00:00,SAT-51855,206.92468929655806,70.40823326090215,796.959374050525,-3.448309765844047,120774.39433570571,10.5,10500120774.394335,47.655,-122.3035,60.0,3.7333333333333334
2026-01-20T23:03:45+00:00,SAT-51855,206.80194452731078,70.86990976350265,793.5202597773897,-3.4018267738468198,119146.36333310163,10.5,10500119146.363333,47.655,-122.3035,60.0,3.75
2026-01-20T23:03:46+00:00,SAT-51855,206.67337692891454,71.33529382564573,790.1275045416065,-3.354738375902433,117497.12845336339,10.5,10500117497.128454,47.655,-122.3035,60.0,3.7666666666666666
2026-01-20T23:03:47+00:00,SAT-51855,206.5384782102863,71.80437579202344,786.7817121347066,-3.3070427117890606,115826.62454365393,10.5,10500115826.624544,47.655,-122.3035,60.0,3.783333333333333
2026-01-20T23:03:48+00:00,SAT-51855,206.3966792256285,72.27714338476163,783.4834882034822,-3.2587382117985424,114134.7966261536,10.5,10500114134.796627,47.655,-122.3035,60.0,3.8
2026-01-20T23:03:49+00:00,SAT-51855,206.24734060543935,72.75358152237911,780.2334399602485,-3.2098236852667448,112421.60299876796,10.5,10500112421.602999,47.655,-122.3035,60.0,3.816666666666667
2026-01-20T23:03:50+00:00,SAT-51855,206.08974160202914,73.23367212774968,777.0321758048091,-3.160298275873851,110687.0136695548,10.5,10500110687.01367,47.655,-122.3035,60.0,3.8333333333333335
2026-01-20T23:03:51+00:00,SAT-51855,205.9230667467247,73.71739390097945,773.8803049910043,-3.1101615039615345,108931.01183885058,10.5,10500108931.011839,47.655,-122.3035,60.0,3.85
2026-01-20T23:03:52+00:00,SAT-51855,205.746389797705,74.20472206339933,770.7784372510533,-3.0594132761454316,107153.59423593982,10.5,10500107153.594236,47.655,-122.3035,60.0,3.8666666666666667
2026-01-20T23:03:53+00:00,SAT-51855,205.5586543178125,74.69562806001042,767.7271824103109,-3.0080539042108723,105354.77178086367,10.5,10500105354.77178,47.655,-122.3035,60.0,3.8833333333333333
2026-01-20T23:03:54+00:00,SAT-51855,205.35865002849994,75.19007921126638,764.7271499831779,-2.956084096982386,103534.56929965547,10.5,10500103534.5693,47.655,-122.3035,60.0,3.9
2026-01-20T23:03:55+00:00,SAT-51855,205.1449838332655,75.68803829603341,761.7789487771208,-2.9035050099685127,101693.02726311208,10.5,10500101693.027264,47.655,-122.3035,60.0,3.9166666666666665
2026-01-20T23:03:56+00:00,SAT-51855,204.91604405415293,76.18946305728872,758.8831864471789,-2.850318248256751,99830.2018881872,10.5,10500099830.201889,47.655,-122.3035,60.0,3.933333333333333
2026-01-20T23:03:57+00:00,SAT-51855,204.66995596195113,76.69430559927093,756.0404690475841,-2.796525841190234,97946.16425106149,10.5,10500097946.164251,47.655,-122.3035,60.0,3.95
2026-01-20T23:03:58+00:00,SAT-51855,204.4045260350138,77.20251163835452,753.2514006086371,-2.742130328388503,96041.00329995387,10.5,10500096041.0033,47.655,-122.3035,60.0,3.966666666666667
2026-01-20T23:03:59+00:00,SAT-51855,204.11717147053807,77.7140195843309,750.516582627791,-2.6871346865840615,94114.82329262815,10.5,10500094114.823292,47.655,-122.3035,60.0,3.9833333333333334
2026-01-20T23:04:00+00:00,SAT-51855,203.80483022508577,78.22875936350337,747.8366136337045,-2.631542426826646,92167.74720089785,10.5,10500092167.7472,47.655,-122.3035,60.0,4.0
2026-01-20T23:04:01+00:00,SAT-51855,203.46384502003187,78.74665093239629,745.2120886533493,-2.5753575450033344,90199.914977631,10.5,10500090199.914978,47.655,-122.3035,60.0,4.016666666666667
2026-01-20T23:04:02+00:00,SAT-51855,203.08981214750165,79.26760233806046,742.643598728466,-2.518584563257309,88211.48500741052,10.5,10500088211.485008,47.655,-122.3035,60.0,4.033333333333333
2026-01-20T23:04:03+00:00,SAT-51855,202.677382021072,79.7915071759938,740.1317303907108,-2.461228516410134,86202.63363098483,10.5,10500086202.63363,47.655,-122.3035,60.0,4.05
2026-01-20T23:04:04+00:00,SAT-51855,202.21999263868136,80.31824119329667,737.6770651503444,-2.403294992251765,84173.55655639453,10.5,10500084173.556557,47.655,-122.3035,60.0,4.066666666666666
2026-01-20T23:04:05+00:00,SAT-51855,201.70950828355961,80.8476576922446,735.2801789447386,-2.3447901321133138,82124.46887903295,10.5,10500082124.46888,47.655,-122.3035,60.0,4.083333333333333
2026-01-20T23:04:06+00:00,SAT-51855,201.1357220793482,81.37958118994945,732.9416415863109,-2.2857206000329717,80055.60400170642,10.5,10500080055.604002,47.655,-122.3035,60.0,4.1
2026-01-20T23:04:07+00:00,SAT-51855,200.4856592353561,81.91379850200609,730.6620162412113,-2.226093652070964,77967.2160623371,10.5,10500077967.216063,47.655,-122.3035,60.0,4.116666666666666
2026-01-20T23:04:08+00:00,SAT-51855,199.7425823808433,82.45004597570716,728.4418588388793,-2.1659171128301726,75859.57911161598,10.5,10500075859.579111,47.655,-122.3035,60.0,4.133333333333334
2026-01-20T23:04:09+00:00,SAT-51855,198.8845414217548,82.98799075668762,726.2817175050166,-2.1051993487108236,73732.9861762688,10.5,10500073732.986176,47.655,-122.3035,60.0,4.15
2026-01-20T23:04:10+00:00,SAT-51855,197.8822092778005,83.52720260239784,724.1821320212358,-2.0439493368147885,71587.75167237624,10.5,10500071587.751673,47.655,-122.3035,60.0,4.166666666666667
2026-01-20T23:04:11+00:00,SAT-51855,196.6955665097778,84.06711028447722,722.1436332159857,-1.9821766111013597,69424.20951952126,10.5,10500069424.20952,47.655,-122.3035,60.0,4.183333333333334
2026-01-20T23:04:12+00:00,SAT-51855,195.26867336820527,84.60693189888772,720.1667424091806,-1.919891309788645,67242.71480098667,10.5,10500067242.714802,47.655,-122.3035,60.0,4.2
2026-01-20T23:04:13+00:00,SAT-51855,193.52115758838877,85.14555937373439,718.2519708095514,-1.8571041421603451,65043.64260118787,10.5,10500065043.642601,47.655,-122.3035,60.0,4.216666666666667
2026-01-20T23:04:14+00:00,SAT-51855,191.33386388508387,85.68135890893433,716.3998189451036,-1.793826381070144,62827.387743145,10.5,10500062827.387743,47.655,-122.3035,60.0,4.233333333333333
2026-01-20T23:04:15+00:00,SAT-51855,188.523767061467,86.2118095687366,714.6107761010496,-1.7300699099722376,60594.36643569097,10.5,10500060594.366436,47.655,-122.3035,60.0,4.25
2026-01-20T23:04:16+00:00,SAT-51855,184.79861706390793,86.7328137415508,712.8853197108373,-1.6658471746537997,58345.01458293824,10.5,10500058345.014584,47.655,-122.3035,60.0,4.266666666666667
2026-01-20T23:04:17+00:00,SAT-51855,179.67339071189195,87.2373080619025,711.223914795316,-1.6011711819040793,56079.78773766494,10.5,10500056079.787737,47.655,-122.3035,60.0,4.283333333333333
2026-01-20T23:04:18+00:00,SAT-51855,172.32176646215942,87.7123350711948,709.6270134032302,-1.5360555206897593,53799.161842965616,10.5,10500053799.161842,47.655,-122.3035,60.0,4.3
2026-01-20T23:04:19+00:00,SAT-51855,161.3733562699315,88.13287516549535,708.0950540305956,-1.4705143137094148,51503.631535483306,10.5,10500051503.631535,47.655,-122.3035,60.0,4.316666666666666
2026-01-20T23:04:20+00:00,SAT-51855,145.02751254992538,88.45107373800093,706.6284610883894,-1.4045622548251708,49193.71145642461,10.5,10500049193.711456,47.655,-122.3035,60.0,4.333333333333333
2026-01-20T23:04:21+00:00,SAT-51855,123.02261414812622,88.59267156745213,705.2276443329105,-1.3382145579943638,46869.93446293042,10.5,10500046869.934464,47.655,-122.3035,60.0,4.35
2026-01-20T23:04:22+00:00,SAT-51855,100.10803401261283,88.5039763276354,703.8929983470707,-1.2714869662816775,44532.851943719055,10.5,10500044532.851944,47.655,-122.3035,60.0,4.366666666666666
2026-01-20T23:04:23+00:00,SAT-51855,82.13879751217301,88.21701263697972,702.6249020126992,-1.2043957236145746,42183.03282984201,10.5,10500042183.03283,47.655,-122.3035,60.0,4.383333333333334
2026-01-20T23:04:24+00:00,SAT-51855,69.94143739583595,87.8067467930619,701.4237180110143,-1.1369575791868942,39821.06374891655,10.5,10500039821.06375,47.655,-122.3035,60.0,4.4
2026-01-20T23:04:25+00:00,SAT-51855,61.80176542048648,87.32819978675276,700.2897923187052,-1.0691897539599264,37447.54785185166,10.5,10500037447.547852,47.655,-122.3035,60.0,4.416666666666667
2026-01-20T23:04:26+00:00,SAT-51855,56.189044869826056,86.81102710486722,699.2234537374225,-1.0011099246142305,35063.10425077278,10.5,10500035063.10425,47.655,-122.3035,60.0,4.433333333333334
2026-01-20T23:04:27+00:00,SAT-51855,52.1529305234423,86.27051947702397,698.2250134392739,-0.9327362069981866,32668.36743932017,10.5,10500032668.36744,47.655,-122.3035,60.0,4.45
2026-01-20T23:04:28+00:00,SAT-51855,49.1361847810916,85.71490505778397,697.2947645288277,-0.864087136496483,30263.986605070208,10.5,10500030263.986605,47.655,-122.3035,60.0,4.466666666666667
2026-01-20T23:04:29+00:00,SAT-51855,46.806047438880235,85.14889817182937,696.4329816246952,-0.795181637910091,27850.624574604728,10.5,10500027850.624575,47.655,-122.3035,60.0,4.483333333333333
2026-01-20T23:04:30+00:00,SAT-51855,44.956289361736424,84.5753736738059,695.6399204711529,-0.7260390151286026,25428.957451792623,10.5,10500025428.95745,47.655,-122.3035,60.0,4.5
2026-01-20T23:04:31+00:00,SAT-51855,43.45397907550613,83.99618766018575,694.9158175600646,-0.656678908698836,22999.6731316629,10.5,10500022999.673132,47.655,-122.3035,60.0,4.516666666666667
2026-01-20T23:04:32+00:00,SAT-51855,42.21025011075904,83.4126017594684,694.2608897951224,-0.5871212829612857,20563.470849868743,10.5,10500020563.47085,47.655,-122.3035,60.0,4.533333333333333
2026-01-20T23:04:33+00:00,SAT-51855,41.16373530821396,82.82551438335767,693.6753341689155,-0.5173863898722415,18121.05991558512,10.5,10500018121.059916,47.655,-122.3035,60.0,4.55
2026-01-20T23:04:34+00:00,SAT-51855,40.27083363360847,82.23559299885196,693.1593274760829,-0.44749475044868786,15673.159061630638,10.5,10500015673.159061,47.655,-122.3035,60.0,4.566666666666666
2026-01-20T23:04:35+00:00,SAT-51855,39.4997853905659,81.64335306553355,692.7130260449688,-0.37746711522181636,13220.495059382287,10.5,10500013220.49506,47.655,-122.3035,60.0,4.583333333333333
2026-01-20T23:04:36+00:00,SAT-51855,38.82694542480775,81.04920694883516,692.3365655087209,-0.3073244394524179,10763.801850713628,10.5,10500010763.801851,47.655,-122.3035,60.0,4.6
2026-01-20T23:04:37+00:00,SAT-51855,38.234368041223085,80.45349522331925,692.030060601107,-0.2370878545841792,8303.81954816849,10.5,10500008303.819548,47.655,-122.3035,60.0,4.616666666666666
2026-01-20T23:04:38+00:00,SAT-51855,37.70819943774983,79.85650727807045,691.7936049808018,-0.16677862985339598,5841.293090370731,10.5,10500005841.29309,47.655,-122.3035,60.0,4.633333333333334
2026-01-20T23:04:39+00:00,SAT-51855,37.23758159279106,79.25849523856319,691.6272710939613,-0.09641814727350727,3376.9713658768105,10.5,10500003376.971365,47.655,-122.3035,60.0,4.65
2026-01-20T23:04:40+00:00,SAT-51855,36.813888506499694,78.65968355709427,691.5311100617472,-0.02602786516283024,911.6059357627919,10.5,10500000911.605936,47.655,-122.3035,60.0,4.666666666666667
2026-01-20T23:04:41+00:00,SAT-51855,36.43018355418548,78.06027576220045,691.5051516042248,0.04437071220594294,-1554.0500293786606,10.5,10499998445.94997,47.655,-122.3035,60.0,4.683333333333334
2026-01-20T23:04:42+00:00,SAT-51855,36.08082706895842,77.4604592763226,691.5494039945315,0.11475606891413705,-4019.242951063295,10.5,10499995980.75705,47.655,-122.3035,60.0,4.7
2026-01-20T23:04:43+00:00,SAT-51855,35.76118798951018,76.8604089050305,691.6638540472619,0.18510670802610163,-6483.219915672686,10.5,10499993516.780085,47.655,-122.3035,60.0,4.716666666666667
2026-01-20T23:04:44+00:00,SAT-51855,35.46742887263573,76.26028940163354,691.8484671373999,0.2554011864716373,-8945.229896184352,10.5,10499991054.770103,47.655,-122.3035,60.0,4.733333333333333
2026-01-20T23:04:45+00:00,SAT-51855,35.196343450760224,75.66025735755959,692.103187254041,0.32561814790125976,-11404.524902902085,10.5,10499988595.475098,47.655,-122.3035,60.0,4.75
2026-01-20T23:04:46+00:00,SAT-51855,34.94523239340256,75.06046261429366,692.4279370868811,0.3957363505136469,-13860.360958090856,10.5,10499986139.639042,47.655,-122.3035,60.0,4.766666666666667
2026-01-20T23:04:47+00:00,SAT-51855,34.71180721884287,74.46104932970579,692.8226181404601,0.4657347055717087,-16311.9994449725,10.5,10499983688.000555,47.655,-122.3035,60.0,4.783333333333333
2026-01-20T23:04:48+00:00,SAT-51855,34.49411519937602,73.86215676978827,693.287110886817,0.535592300360399,-18758.707911805406,10.5,10499981241.292088,47.655,-122.3035,60.0,4.8
2026-01-20T23:04:49+00:00,SAT-51855,34.29048011928068,73.2639199169404,693.8212749410432,0.6052884391788323,-21199.761507601837,10.5,10499978800.238493,47.655,-122.3035,60.0,4.816666666666666
2026-01-20T23:04:50+00:00,SAT-51855,34.09945511507507,72.66646991598624,694.4249492777174,0.6748026627067614,-23634.443660423887,10.5,10499976365.55634,47.655,-122.3035,60.0,4.833333333333333
2026-01-20T23:04:51+00:00,SAT-51855,33.91978483180958,72.06993441937496,695.0979524666569,0.7441147840386277,-26062.04733944838,10.5,10499973937.95266,47.655,-122.3035,60.0,4.85
2026-01-20T23:04:52+00:00,SAT-51855,33.75037481555802,71.47443783730492,695.8400829446048,0.8132049140195893,-28481.87594234171,10.5,10499971518.124058,47.655,-122.3035,60.0,4.866666666666666
2026-01-20T23:04:53+00:00,SAT-51855,33.59026658381342,70.88010152380733,696.6511193121871,0.8820534884356581,-30893.244247573468,10.5,10499969106.755753,47.655,-122.3035,60.0,4.883333333333334
2026-01-20T23:04:54+00:00,SAT-51855,33.43861718313814,70.28704391085476,697.530820657987,0.9506412974262848,-33295.47944456958,10.5,10499966704.520555,47.655,-122.3035,60.0,4.9
2026-01-20T23:04:55+00:00,SAT-51855,33.29468232047404,69.69538059995614,698.4789269119534,1.0189495017570462,-35687.92170365068,10.5,10499964312.078297,47.655,-122.3035,60.0,4.916666666666667
2026-01-20T23:04:56+00:00,SAT-51855,33.15780236276934,69.10522442818643,699.4951592150389,1.086959668898296,-38069.925439659026,10.5,10499961930.07456,47.655,-122.3035,60.0,4.933333333333334
2026-01-20T23:04:57+00:00,SAT-51855,33.02739064955529,68.51668550276172,700.5792203248203,1.154653781252732,-40440.85960012271,10.5,10499959559.1404,47.655,-122.3035,60.0,4.95
2026-01-20T23:04:58+00:00,SAT-51855,32.90292368866113,67.9298712254238,701.730795029323,1.2220142731255903,-42800.10896010832,10.5,10499957199.89104,47.655,-122.3035,60.0,4.966666666666667
2026-01-20T23:04:59+00:00,SAT-51855,32.78393288736219,67.34488629455328,702.9495505977202,1.2890240288668486,-45147.07405715293,10.5,10499954852.925943,47.655,-122.3035,60.0,4.983333333333333
2026-01-20T23:05:00+00:00,SAT-51855,32.66999754974701,66.7618327075979,704.2351372291769,1.3556664276979873,-47481.172761286965,10.5,10499952518.827238,47.655,-122.3035,60.0,5.0
2026-01-20T23:05:01+00:00,SAT-51855,32.5607389155111,66.18080974369975,705.5871885464009,1.421925337635333,-49801.840062203955,10.5,10499950198.159937,47.655,-122.3035,60.0,5.016666666666667
2026-01-20T23:05:02+00:00,SAT-51855,32.45581506840027,65.60191395188606,707.0053220831359,1.487785143965613,-52108.529066594914,10.5,10499947891.470934,47.655,-122.3035,60.0,5.033333333333333
2026-01-20T23:05:03+00:00,SAT-51855,32.3549165669853,65.02523913021281,708.4891398000509,1.5532307477802483,-54400.7109468131,10.5,10499945599.289053,47.655,-122.3035,60.0,5.05
2026-01-20T23:05:04+00:00,SAT-51855,32.25776268318081,64.45087630922009,710.0382285991705,1.6182476070156255,-56677.8763782779,10.5,10499943322.123621,47.655,-122.3035,60.0,5.066666666666666
2026-01-20T23:05:05+00:00,SAT-51855,32.16409814938135,63.87891372434176,711.652160879234,1.6828217068938918,-58939.534504186435,10.5,10499941060.465496,47.655,-122.3035,60.0,5.083333333333333
2026-01-20T23:05:06+00:00,SAT-51855,32.073690339999764,63.30943680366117,713.3304950615761,1.746939611854119,-61185.21475436266,10.5,10499938814.785246,47.655,-122.3035,60.0,5.1
2026-01-20T23:05:07+00:00,SAT-51855,31.986326816544253,62.74252814206568,715.0727761677987,1.8105884364328402,-63414.4658253705,10.5,10499936585.534174,47.655,-122.3035,60.0,5.116666666666666
2026-01-20T23:05:08+00:00,SAT-51855,31.901813186983702,62.178267490189576,716.878536368401,1.8737558721679275,-65626.8566228015,10.5,10499934373.143377,47.655,-122.3035,60.0,5.133333333333334
2026-01-20T23:05:09+00:00,SAT-51855,31.819971230590422,61.6167317388045,718.7472955582432,1.936430194679116,-67821.97650926468,10.5,10499932178.02349,47.655,-122.3035,60.0,5.15
2026-01-20T23:05:10+00:00,SAT-51855,31.740637251519782,61.05799490618985,720.6785619390699,1.9986002402566028,-69999.43448442032,10.5,10499930000.565516,47.655,-122.3035,60.0,5.166666666666667
2026-01-20T23:05:11+00:00,SAT-51855,31.66366063055583,60.502128136208306,722.6718325786857,2.0602554514155784,-72158.86078049226,10.5,10499927841.13922,47.655,-122.3035,60.0,5.183333333333334
2026-01-20T23:05:12+00:00,SAT-51855,31.58890254479542,59.949199687859895,724.7265940155642,2.121385831413104,-74299.90526925663,10.5,10499925700.09473,47.655,-122.3035,60.0,5.2
2026-01-20T23:05:13+00:00,SAT-51855,31.516234836593593,59.39927494118282,726.8423228180936,2.181981982156092,-76422.23878973955,10.5,10499923577.76121,47.655,-122.3035,60.0,5.216666666666667
2026-01-20T23:05:14+00:00,SAT-51855,31.445539008620024,58.85241639679532,729.0184861816305,2.2420350729257157,-78525.55205281387,10.5,10499921474.447947,47.655,-122.3035,60.0,5.233333333333333
2026-01-20T23:05:15+00:00,SAT-51855,31.376705331488235,58.30868368673144,731.2545424943619,2.3015368475705014,-80609.55589313146,10.5,10499919390.444107,47.655,-122.3035,60.0,5.25
2026-01-20T23:05:16+00:00,SAT-51855,31.3096320479891,57.76813358648104,733.5499419103388,2.3604796397771866,-82673.9818039734,10.5,10499917326.018196,47.655,-122.3035,60.0,5.266666666666667
2026-01-20T23:05:17+00:00,SAT-51855,31.24422466185399,57.23082002646235,735.9041269377433,2.4188563320324814,-84718.58049991723,10.5,10499915281.4195,47.655,-122.3035,60.0,5.283333333333333
2026-01-20T23:05:18+00:00,SAT-51855,31.180395302312466,56.696794115573866,738.3165329862236,2.47666036563754,-86743.1222675861,10.5,10499913256.877733,47.655,-122.3035,60.0,5.3
2026-01-20T23:05:19+00:00,SAT-51855,31.118062153750195,56.166104164301764,740.7865889242195,2.5338857550715224,-88747.39746872146,10.5,10499911252.602531,47.655,-122.3035,60.0,5.316666666666666
2026-01-20T23:05:20+00:00,SAT-51855,31.057148942609963,55.63879570718374,743.3137176506108,2.5905270315273596,-90731.21456256673,10.5,10499909268.785437,47.655,-122.3035,60.0,5.333333333333333
2026-01-20T23:05:21+00:00,SAT-51855,30.997584476914124,55.11491153855141,745.8973366100541,2.6465792943253015,-92694.4019065872,10.5,10499907305.598093,47.655,-122.3035,60.0,5.35
2026-01-20T23:05:22+00:00,SAT-51855,30.939302229305934,54.59449173946744,748.5368583595945,2.702038127755834,-94636.80484395727,10.5,10499905363.195156,47.655,-122.3035,60.0,5.366666666666666
2026-01-20T23:05:23+00:00,SAT-51855,30.882239962308873,54.07757372206065,751.231691052343,2.756899663830596,-96558.28790136296,10.5,10499903441.7121,47.655,-122.3035,60.0,5.383333333333334
2026-01-20T23:05:24+00:00,SAT-51855,30.82633938735839,53.56419226263961,753.9812389837367,2.8111605259357946,-98458.73281550613,10.5,10499901541.267185,47.655,-122.3035,60.0,5.4
2026-01-20T23:05:25+00:00,SAT-51855,30.771545856882735,53.05437954629635,756.7849030816034,2.8648178187982967,-100338.03818167471,10.5,10499899661.961819,47.655,-122.3035,60.0,5.416666666666667
2026-01-20T23:05:26+00:00,SAT-51855,30.71780808467662,52.54816521349237,759.6420813862183,2.9178691512693757,-102196.12025172576,10.5,10499897803.879747,47.655,-122.3035,60.0,5.433333333333334
2026-01-20T23:05:27+00:00,SAT-51855,30.665077890917463,52.045576402941016,762.5521695530841,2.970312570592458,-104032.9106318639,10.5,10499895967.089369,47.655,-122.3035,60.0,5.45
2026-01-20T23:05:28+00:00,SAT-51855,30.613309971092633,51.54663780585704,765.514561290155,3.022146596934745,-105848.35749208482,10.5,10499894151.642508,47.655,-122.3035,60.0,5.466666666666667
2026-01-20T23:05:29+00:00,SAT-51855,30.56246168433719,51.051371713975534,768.528648829498,3.073370182680087,-107642.42414043956,10.5,10499892357.57586,47.655,-122.3035,60.0,5.483333333333333
2026-01-20T23:05:30+00:00,SAT-51855,30.512492860663997,50.55979807406709,771.5938233583576,3.1239827022197306,-109415.08866546326,10.5,10499890584.911335,47.655,-122.3035,60.0,5.5
2026-01-20T23:05:31+00:00,SAT-51855,30.463365624645963,50.07193454327932,774.709475440038,3.1739839385442172,-111166.34346656673,10.5,10499888833.656534,47.655,-122.3035,60.0,5.516666666666667
2026-01-20T23:05:32+00:00,SAT-51855,30.415044233957136,49.58779654578232,777.8749954214129,3.223374085278036,-112896.19532529861,10.5,10499887103.804674,47.655,-122.3035,60.0,5.533333333333333
2026-01-20T23:05:33+00:00,SAT-51855,30.3674949310642,49.10739732821738,781.0897738424635,3.272153704513903,-114604.66392852344,10.5,10499885395.336071,47.655,-122.3035,60.0,5.55
2026-01-20T23:05:34+00:00,SAT-51855,30.320685807603674,48.630748020360706,784.3532018037654,3.320323740122653,-116291.78233459048,10.5,10499883708.217665,47.655,-122.3035,60.0,5.566666666666666
2026-01-20T23:05:35+00:00,SAT-51855,30.274586679275252,48.15785769254175,787.6646713472477,3.3678854760315775,-117957.59551206442,10.5,10499882042.404488,47.655,-122.3035,60.0,5.583333333333333
2026-01-20T23:05:36+00:00,SAT-51855,30.229168971110493,47.6887334177553,791.0235757953432,3.414840530092747,-119602.16012496833,10.5,10499880397.839874,47.655,-122.3035,60.0,5.6
2026-01-20T23:05:37+00:00,SAT-51855,30.18440561175617,47.22338033281369,794.4293100840224,3.461190869095829,-121225.54505859585,10.5,10499878774.45494,47.655,-122.3035,60.0,5.616666666666666
2026-01-20T23:05:38+00:00,SAT-51855,30.14027093547657,46.76180169612318,797.8812711108005,3.5069387577259215,-122827.82963179871,10.5,10499877172.170368,47.655,-122.3035,60.0,5.633333333333334
2026-01-20T23:05:39+00:00,SAT-51855,30.096740592248825,46.30399895064584,801.3788580318393,3.5520867282417625,-124409.10253498942,10.5,10499875590.897465,47.655,-122.3035,60.0,5.65
2026-01-20T23:05:40+00:00,SAT-51855,30.053791464892434,45.84997178873508,804.9214725288056,3.5966376358568266,-125969.46376982132,10.5,10499874030.53623,47.655,-122.3035,60.0,5.666666666666667
2026-01-20T23:05:41+00:00,SAT-51855,30.01140159148904,45.39971820801706,808.5085191309669,3.640594589323992,-127509.02221797025,10.5,10499872490.977781,47.655,-122.3035,60.0,5.683333333333334
2026-01-20T23:05:42+00:00,SAT-51855,29.96955009422625,44.95323457440849,812.1394054680526,3.6839609328477487,-129027.89500762343,10.5,10499870972.104992,47.655,-122.3035,60.0,5.7
2026-01-20T23:05:43+00:00,SAT-51855,29.928217113576395,44.510515684962755,815.8135425050796,3.726740280463743,-130526.20871759654,10.5,10499869473.791283,47.655,-122.3035,60.0,5.716666666666667
2026-01-20T23:05:44+00:00,SAT-51855,29.88738374653815,44.07155482473426,819.530344811462,3.768936431670354,-132004.0964223947,10.5,10499867995.903578,47.655,-122.3035,60.0,5.733333333333333
2026-01-20T23:05:45+00:00,SAT-51855,29.84703199025297,43.636343831314576,823.2892307459812,3.810553443039656,-133461.70020033122,10.5,10499866538.299799,47.655,-122.3035,60.0,5.75
2026-01-20T23:05:46+00:00,SAT-51855,29.807144688475788,43.204873149080775,827.0896227131728,3.851595553754711,-134899.16852552866,10.5,10499865100.831474,47.655,-122.3035,60.0,5.766666666666667
2026-01-20T23:05:47+00:00,SAT-51855,29.767705482611657,42.7771318897822,830.9309473454507,3.8920671569125553,-136316.65526282796,10.5,10499863683.344738,47.655,-122.3035,60.0,5.783333333333333
2026-01-20T23:05:48+00:00,SAT-51855,29.728698766248705,42.353107893895626,834.8126356566116,3.9319728852321587,-137714.32266964388,10.5,10499862285.67733,47.655,-122.3035,60.0,5.8
2026-01-20T23:05:49+00:00,SAT-51855,29.690109641679562,41.932787780565185,838.7341232808164,3.9713174839078835,-139092.33694275515,10.5,10499860907.663057,47.655,-122.3035,60.0,5.816666666666666
2026-01-20T23:05:50+00:00,SAT-51855,29.65192388066513,41.516157009057174,842.6948505847673,4.01010586606197,-140450.87016048512,10.5,10499859549.129839,47.655,-122.3035,60.0,5.833333333333333
2026-01-20T23:05:51+00:00,SAT-51855,29.614127887068154,41.10319993192027,846.6942628351865,4.048343100568106,-141790.09985623157,10.5,10499858209.900145,47.655,-122.3035,60.0,5.85
2026-01-20T23:05:52+00:00,SAT-51855,29.576708661938422,40.69389984743701,850.731810354153,4.086034348978043,-143110.20680937025,10.5,10499856889.79319,47.655,-122.3035,60.0,5.866666666666666
2026-01-20T23:05:53+00:00,SAT-51855,29.539653771471396,40.288239056048816,854.8069486115337,4.123184924640266,-144411.3771158406,10.5,10499855588.622885,47.655,-122.3035,60.0,5.883333333333334
2026-01-20T23:05:54+00:00,SAT-51855,29.502951316255693,39.886198908773125,858.9191383763749,4.1598002491746575,-145693.80066370417,10.5,10499854306.199337,47.655,-122.3035,60.0,5.9
2026-01-20T23:05:55+00:00,SAT-51855,29.466589902874983,39.48775985779408,863.0678458248851,4.195885814509486,-146957.6698035199,10.5,10499853042.330196,47.655,-122.3035,60.0,5.916666666666667
2026-01-20T23:05:56+00:00,SAT-51855,29.430558617539774,39.09290150844312,867.252542610556,4.23144721915497,-148203.18061879725,10.5,10499851796.819382,47.655,-122.3035,60.0,5.933333333333334
2026-01-20T23:05:57+00:00,SAT-51855,29.394847000937553,38.70160266552693,871.4727059704599,4.266490157679564,-149430.5325574115,10.5,10499850569.467443,47.655,-122.3035,60.0,5.95
2026-01-20T23:05:58+00:00,SAT-51855,29.359445024645627,38.31384137873573,875.7278188210523,4.301020379566263,-150639.92699057746,10.5,10499849360.07301,47.655,-122.3035,60.0,5.966666666666667
2026-01-20T23:05:59+00:00,SAT-51855,29.32434306933742,37.92959498962024,880.0173698129397,4.335043676266346,-151831.56675941672,10.5,10499848168.43324,47.655,-122.3035,60.0,5.983333333333333
2026-01-20T23:06:00+00:00,SAT-51855,29.289531904256442,37.54884017765033,884.340853372736,4.368565941708905,-153005.65829425736,10.5,10499846994.341705,47.655,-122.3035,60.0,6.0
2026-01-20T23:06:01+00:00,SAT-51855,29.25500266738582,37.17155299893479,888.697769805267,4.401593079765718,-154162.4083736624,10.5,10499845837.591627,47.655,-122.3035,60.0,6.016666666666667
2026-01-20T23:06:02+00:00,SAT-51855,29.22074684751152,36.79770893110409,893.0876253034867,4.434131040505229,-155302.02539419755,10.5,10499844697.974606,47.655,-122.3035,60.0,6.033333333333333
2026-01-20T23:06:03+00:00,SAT-51855,29.186756266973234,36.42728291298797,897.5099319945506,4.466185807588324,-156424.71892897785,10.5,10499843575.28107,47.655,-122.3035,60.0,6.05
2026-01-20T23:06:04+00:00,SAT-51855,29.153023065429664,36.060249383561924,901.9642079733186,4.497763411959,-157530.70020717298,10.5,10499842469.299793,47.655,-122.3035,60.0,6.066666666666666
2026-01-20T23:06:05+00:00,SAT-51855,29.11953968446835,35.696582317902326,906.4499773495124,4.528869874773451,-158620.18011514234,10.5,10499841379.819885,47.655,-122.3035,60.0,6.083333333333333
2026-01-20T23:06:06+00:00,SAT-51855,29.086298853418743,35.336255266057336,910.9667702379531,4.559511232014424,-159693.3700585338,10.5,10499840306.629942,47.655,-122.3035,60.0,6.1
2026-01-20T23:06:07+00:00,SAT-51855,29.05329357579805,34.97924138795824,915.514122773349,4.589693544562855,-160750.48231503533,10.5,10499839249.517685,47.655,-122.3035,60.0,6.116666666666666
2026-01-20T23:06:08+00:00,SAT-51855,29.0205171163224,34.62551348602231,920.0915771351263,4.6194228736966,-161791.72917623664,10.5,10499838208.270824,47.655,-122.3035,60.0,6.133333333333334
2026-01-20T23:06:09+00:00,SAT-51855,28.987962988853088,34.27504403792042,924.6986815478263,4.648705262313878,-162817.32228999477,10.5,10499837182.67771,47.655,-122.3035,60.0,6.15
2026-01-20T23:06:10+00:00,SAT-51855,28.955624945068642,33.9278052291733,929.334990262774,4.677546744310048,-163827.47298884852,10.5,10499836172.527012,47.655,-122.3035,60.0,6.166666666666667
2026-01-20T23:06:11+00:00,SAT-51855,28.923496963647654,33.58376898337193,934.0000635490993,4.705953360966678,-164822.39286403303,10.5,10499835177.607136,47.655,-122.3035,60.0,6.183333333333334
2026-01-20T23:06:12+00:00,SAT-51855,28.891573239897955,33.24290698974025,938.6934677011033,4.733931115398544,-165802.2921700209,10.5,10499834197.70783,47.655,-122.3035,60.0,6.2
2026-01-20T23:06:13+00:00,SAT-51855,28.859848176239193,32.905190732496635,943.4147750001943,4.761486010356914,-166767.3811485531,10.5,10499833232.61885,47.655,-122.3035,60.0,6.216666666666667
2026-01-20T23:06:14+00:00,SAT-51855,28.8283163728739,32.57059151611427,948.1635637145234,4.788624001827945,-167717.8684034587,10.5,10499832282.131596,47.655,-122.3035,60.0,6.233333333333333
