satellites_20260121_005943/SAT-47400.csv

timestamp,satellite,azimuth_deg,elevation_deg,distance_km,relative_velocity_kms,doppler_shift_hz,tx_freq_ghz,rx_freq_hz,ue_lat,ue_lon,ue_alt_m,time_minutes
2026-01-20T23:00:00+00:00,SAT-47400,211.8293976269377,39.19055184228331,1320.8689859806584,-5.798868505183805,203100.9042409931,10.5,10500203100.904242,47.655,-122.3035,60.0,0.0
2026-01-20T23:00:01+00:00,SAT-47400,211.8142543446996,39.38309027605868,1315.0855811248216,-5.787972238055225,202719.270874986,10.5,10500202719.270876,47.655,-122.3035,60.0,0.016666666666666666
2026-01-20T23:00:02+00:00,SAT-47400,211.79917586569906,39.57709949770996,1309.3130434794014,-5.776924693329577,202332.33912762595,10.5,10500202332.339128,47.655,-122.3035,60.0,0.03333333333333333
2026-01-20T23:00:03+00:00,SAT-47400,211.784163621395,39.77259622379366,1303.5515239185872,-5.765723467611946,201940.0248218567,10.5,10500201940.024822,47.655,-122.3035,60.0,0.05
2026-01-20T23:00:04+00:00,SAT-47400,211.7692190852696,39.969597363922134,1297.8011757135557,-5.754366189718383,201542.24490878626,10.5,10500201542.24491,47.655,-122.3035,60.0,0.06666666666666667
2026-01-20T23:00:05+00:00,SAT-47400,211.75434377425628,40.168120024352326,1292.0621545003432,-5.7428503916694025,201138.91294933352,10.5,10500201138.912949,47.655,-122.3035,60.0,0.08333333333333333
2026-01-20T23:00:06+00:00,SAT-47400,211.73953925043878,40.368181507143284,1286.334618376385,-5.731173590942558,200729.94199506132,10.5,10500200729.941996,47.655,-122.3035,60.0,0.1
2026-01-20T23:00:07+00:00,SAT-47400,211.7248071226964,40.56979931207271,1280.618727915018,-5.719333267865806,200315.24379639653,10.5,10500200315.243797,47.655,-122.3035,60.0,0.11666666666666667
2026-01-20T23:00:08+00:00,SAT-47400,211.71014904843761,40.77299113774519,1274.9146462025333,-5.707326822075274,199894.7272775967,10.5,10500199894.727278,47.655,-122.3035,60.0,0.13333333333333333
2026-01-20T23:00:09+00:00,SAT-47400,211.695566735523,40.97777488108084,1269.2225389186503,-5.695151664533783,199468.30175962835,10.5,10500199468.30176,47.655,-122.3035,60.0,0.15
2026-01-20T23:00:10+00:00,SAT-47400,211.6810619440706,41.18416864002112,1263.5425743252217,-5.682805148915585,199035.87455696982,10.5,10500199035.874557,47.655,-122.3035,60.0,0.16666666666666666
2026-01-20T23:00:11+00:00,SAT-47400,211.6666364885124,41.392190713755234,1257.87492332337,-5.670284545546642,198597.3500648897,10.5,10500198597.350065,47.655,-122.3035,60.0,0.18333333333333332
2026-01-20T23:00:12+00:00,SAT-47400,211.65229223974492,41.60185960187298,1252.2197595366117,-5.657587130406349,198152.63287666388,10.5,10500198152.632877,47.655,-122.3035,60.0,0.2
2026-01-20T23:00:13+00:00,SAT-47400,211.63803112725464,41.81319400670591,1246.5772593052197,-5.644710114641523,197701.62531485694,10.5,10500197701.625315,47.655,-122.3035,60.0,0.21666666666666667
2026-01-20T23:00:14+00:00,SAT-47400,211.62385514145222,42.02621283301544,1240.9476017508837,-5.631650650207639,197244.22762890256,10.5,10500197244.227629,47.655,-122.3035,60.0,0.23333333333333334
2026-01-20T23:00:15+00:00,SAT-47400,211.60976633611563,42.24093518776625,1235.3309688357433,-5.618405876902288,196780.33964241363,10.5,10500196780.339642,47.655,-122.3035,60.0,0.25
2026-01-20T23:00:16+00:00,SAT-47400,211.59576683084893,42.45738038159622,1229.7275453745128,-5.6049728502505625,196309.8582274238,10.5,10500196309.858227,47.655,-122.3035,60.0,0.26666666666666666
2026-01-20T23:00:17+00:00,SAT-47400,211.5818588138172,42.67556792743916,1224.1375191185298,-5.591348612058421,195832.6797754646,10.5,10500195832.679775,47.655,-122.3035,60.0,0.2833333333333333
2026-01-20T23:00:18+00:00,SAT-47400,211.56804454444884,42.895517541740176,1218.5610807694366,-5.577530152840248,195348.69888161967,10.5,10500195348.698881,47.655,-122.3035,60.0,0.3
2026-01-20T23:00:19+00:00,SAT-47400,211.55432635638508,43.11724914413717,1212.9984240303372,-5.5635143570279375,194857.80642551504,10.5,10500194857.806425,47.655,-122.3035,60.0,0.31666666666666665
2026-01-20T23:00:20+00:00,SAT-47400,211.54070666060335,43.34078285478305,1207.449745711595,-5.549298167474008,194359.89533291422,10.5,10500194359.895332,47.655,-122.3035,60.0,0.3333333333333333
2026-01-20T23:00:21+00:00,SAT-47400,211.5271879484949,43.566138998130896,1201.9152456725676,-5.534878395335735,193854.85391705623,10.5,10500193854.853916,47.655,-122.3035,60.0,0.35
2026-01-20T23:00:22+00:00,SAT-47400,211.51377279534358,43.79333809897843,1196.3951269529525,-5.520251814099112,193342.5691717724,10.5,10500193342.569172,47.655,-122.3035,60.0,0.36666666666666664
2026-01-20T23:00:23+00:00,SAT-47400,211.50046386387004,44.0224008820886,1190.8895958103576,-5.505415198829425,192822.92814620762,10.5,10500192822.928146,47.655,-122.3035,60.0,0.38333333333333336
2026-01-20T23:00:24+00:00,SAT-47400,211.48726390787616,44.253348273338446,1185.3988617187251,-5.490365184839148,192295.81299477204,10.5,10500192295.812994,47.655,-122.3035,60.0,0.4
2026-01-20T23:00:25+00:00,SAT-47400,211.47417577630435,44.48620139479259,1179.9231375077122,-5.475098465905596,191761.107919562,10.5,10500191761.10792,47.655,-122.3035,60.0,0.4166666666666667
2026-01-20T23:00:26+00:00,SAT-47400,211.46120241719197,44.72098156793098,1174.4626393043825,-5.459611576608525,191218.6915469018,10.5,10500191218.691547,47.655,-122.3035,60.0,0.43333333333333335
2026-01-20T23:00:27+00:00,SAT-47400,211.44834688218504,44.957710307469476,1169.017586691978,-5.443901094508093,190668.4440084713,10.5,10500190668.444008,47.655,-122.3035,60.0,0.45
2026-01-20T23:00:28+00:00,SAT-47400,211.43561233095903,45.19640932361505,1163.5882026670554,-5.427963466004881,190110.24084218708,10.5,10500190110.240843,47.655,-122.3035,60.0,0.4666666666666667
2026-01-20T23:00:29+00:00,SAT-47400,211.42300203616014,45.43710051659741,1158.1747137702932,-5.411795156094973,189543.95823725898,10.5,10500189543.958237,47.655,-122.3035,60.0,0.48333333333333334
2026-01-20T23:00:30+00:00,SAT-47400,211.41051938837592,45.67980597751489,1152.7773500679477,-5.395392526546635,188969.468767422,10.5,10500188969.468767,47.655,-122.3035,60.0,0.5
2026-01-20T23:00:31+00:00,SAT-47400,211.3981679015603,45.92454798358614,1147.3963452548055,-5.378751909580743,188386.64397153645,10.5,10500188386.643972,47.655,-122.3035,60.0,0.5166666666666667
2026-01-20T23:00:32+00:00,SAT-47400,211.3859512186446,46.17134899640244,1142.0319366836502,-5.361869576540307,187795.35325626243,10.5,10500187795.353256,47.655,-122.3035,60.0,0.5333333333333333
2026-01-20T23:00:33+00:00,SAT-47400,211.3738731175066,46.42023165853097,1136.6843654259806,-5.344741759736929,187195.4646612149,10.5,10500187195.46466,47.655,-122.3035,60.0,0.55
2026-01-20T23:00:34+00:00,SAT-47400,211.3619375172576,46.67121879084718,1131.3538763109364,-5.327364633717194,186586.8442028336,10.5,10500186586.844202,47.655,-122.3035,60.0,0.5666666666666667
2026-01-20T23:00:35+00:00,SAT-47400,211.35014848487447,46.924333388721564,1126.040717982909,-5.309734293801685,185969.35512272856,10.5,10500185969.355124,47.655,-122.3035,60.0,0.5833333333333334
2026-01-20T23:00:36+00:00,SAT-47400,211.33851024228198,47.179598616855955,1120.7451429805574,-5.29184683161051,185342.86053290358,10.5,10500185342.860533,47.655,-122.3035,60.0,0.6
2026-01-20T23:00:37+00:00,SAT-47400,211.32702717370498,47.43703780740165,1115.467407740498,-5.273698222903649,184707.21948745058,10.5,10500184707.219488,47.655,-122.3035,60.0,0.6166666666666667
2026-01-20T23:00:38+00:00,SAT-47400,211.31570383361083,47.69667445235354,1110.2077727128553,-5.255284467676299,184062.29188928142,10.5,10500184062.29189,47.655,-122.3035,60.0,0.6333333333333333
2026-01-20T23:00:39+00:00,SAT-47400,211.30454495494726,47.95853220240767,1104.966502337093,-5.236601445372917,183407.93341911098,10.5,10500183407.933418,47.655,-122.3035,60.0,0.65
2026-01-20T23:00:40+00:00,SAT-47400,211.29355545803816,48.222634858354965,1099.743865162241,-5.217645032168068,182743.99964312883,10.5,10500182743.999643,47.655,-122.3035,60.0,0.6666666666666666
2026-01-20T23:00:41+00:00,SAT-47400,211.28274045985998,48.489006367884464,1094.5401338501586,-5.198411003590134,182070.34260246935,10.5,10500182070.342602,47.655,-122.3035,60.0,0.6833333333333333
2026-01-20T23:00:42+00:00,SAT-47400,211.27210528402696,48.75767081708672,1089.3555852759114,-5.178895122252479,181386.81388592848,10.5,10500181386.813887,47.655,-122.3035,60.0,0.7
2026-01-20T23:00:43+00:00,SAT-47400,211.2616554712341,49.02865242596915,1084.1905005406516,-5.159093095518887,180693.26314722808,10.5,10500180693.263147,47.655,-122.3035,60.0,0.7166666666666667
2026-01-20T23:00:44+00:00,SAT-47400,211.25139679045512,49.30197554142835,1079.045165026721,-5.139000561114582,179989.53760105302,10.5,10500179989.537601,47.655,-122.3035,60.0,0.7333333333333333
2026-01-20T23:00:45+00:00,SAT-47400,211.2413352507969,49.57766462894479,1073.9198684671026,-5.118613111293852,179275.48286950382,10.5,10500179275.48287,47.655,-122.3035,60.0,0.75
2026-01-20T23:00:46+00:00,SAT-47400,211.2314771141129,49.855744265059,1068.814904990772,-5.0979262919848525,178550.94295214376,10.5,10500178550.942951,47.655,-122.3035,60.0,0.7666666666666667
2026-01-20T23:00:47+00:00,SAT-47400,211.22182890839875,50.13623912929466,1063.7305731688991,-5.076935613190698,177815.7605902892,10.5,10500177815.76059,47.655,-122.3035,60.0,0.7833333333333333
2026-01-20T23:00:48+00:00,SAT-47400,211.21239744206747,50.419173996159444,1058.667176050677,-5.055636501156961,177069.77559171317,10.5,10500177069.77559,47.655,-122.3035,60.0,0.8
2026-01-20T23:00:49+00:00,SAT-47400,211.20318981915509,50.704573723915345,1053.6250212468565,-5.034024386466621,176312.82791610292,10.5,10500176312.827915,47.655,-122.3035,60.0,0.8166666666666667
2026-01-20T23:00:50+00:00,SAT-47400,211.19421345550862,50.99246324770727,1048.6044209254205,-5.012094591719673,175544.75374112502,10.5,10500175544.75374,47.655,-122.3035,60.0,0.8333333333333334
2026-01-20T23:00:51+00:00,SAT-47400,211.18547609607032,51.28286756573443,1043.6056919192788,-4.989842446189801,174765.38947818664,10.5,10500174765.389479,47.655,-122.3035,60.0,0.85
2026-01-20T23:00:52+00:00,SAT-47400,211.17698583331645,51.57581173133075,1038.629155719612,-4.967263195012116,173974.56859180634,10.5,10500173974.568592,47.655,-122.3035,60.0,0.8666666666666667
2026-01-20T23:00:53+00:00,SAT-47400,211.1687511269366,51.871320839148716,1033.6751385597868,-4.944352070414592,173172.12409444008,10.5,10500173172.124094,47.655,-122.3035,60.0,0.8833333333333333
2026-01-20T23:00:54+00:00,SAT-47400,211.1607808248921,52.169420014833975,1028.7439714282266,-4.9211042448793965,172357.88690599301,10.5,10500172357.886906,47.655,-122.3035,60.0,0.9
2026-01-20T23:00:55+00:00,SAT-47400,211.1530841859106,52.470134401220776,1023.8359901280002,-4.897514859226104,171531.68683741236,10.5,10500171531.686838,47.655,-122.3035,60.0,0.9166666666666666
2026-01-20T23:00:56+00:00,SAT-47400,211.1456709035895,52.773489145472674,1018.9515353083987,-4.873579006098349,170693.35201232,10.5,10500170693.352013,47.655,-122.3035,60.0,0.9333333333333333
2026-01-20T23:00:57+00:00,SAT-47400,211.13855113219142,53.07950938443339,1014.0909525129832,-4.849291729527788,169842.70885174096,10.5,10500169842.70885,47.655,-122.3035,60.0,0.95
2026-01-20T23:00:58+00:00,SAT-47400,211.13173551433135,53.388220229117444,1009.2545922280675,-4.824648091205825,168979.58439521905,10.5,10500168979.584394,47.655,-122.3035,60.0,0.9666666666666667
2026-01-20T23:00:59+00:00,SAT-47400,211.12523521063218,53.69964675261547,1004.4428098651049,-4.799643053850985,168103.80221584943,10.5,10500168103.802216,47.655,-122.3035,60.0,0.9833333333333333
2026-01-20T23:01:00+00:00,SAT-47400,211.11906193163753,54.013813969715315,999.6559658593975,-4.774271585302235,167215.1860660666,10.5,10500167215.186066,47.655,-122.3035,60.0,1.0
2026-01-20T23:01:01+00:00,SAT-47400,211.11322797203076,54.3307468222366,994.8944256649894,-4.748528617684159,166313.55844743658,10.5,10500166313.558447,47.655,-122.3035,60.0,1.0166666666666666
2026-01-20T23:01:02+00:00,SAT-47400,211.1077462475337,54.6504701608856,990.1585597902857,-4.722409055386646,165398.7408901387,10.5,10500165398.74089,47.655,-122.3035,60.0,1.0333333333333334
2026-01-20T23:01:03+00:00,SAT-47400,211.1026303345445,54.97300872662465,985.4487438257134,-4.69590777600662,164470.55398594955,10.5,10500164470.553986,47.655,-122.3035,60.0,1.05
2026-01-20T23:01:04+00:00,SAT-47400,211.09789451292048,55.298387131127946,980.7653584704428,-4.6690196479386685,163528.81800434092,10.5,10500163528.818005,47.655,-122.3035,60.0,1.0666666666666667
2026-01-20T23:01:05+00:00,SAT-47400,211.0935538120949,55.62662983742586,976.1087895415653,-4.641739517764588,162573.3524508084,10.5,10500162573.352451,47.655,-122.3035,60.0,1.0833333333333333
2026-01-20T23:01:06+00:00,SAT-47400,211.08962406089023,55.957761138645715,971.4794279958481,-4.61406219312701,161603.97546703328,10.5,10500161603.975468,47.655,-122.3035,60.0,1.1
2026-01-20T23:01:07+00:00,SAT-47400,211.08612194129728,56.29180513435751,966.8776699685694,-4.585982507328456,160620.50609341476,10.5,10500160620.506094,47.655,-122.3035,60.0,1.1166666666666667
2026-01-20T23:01:08+00:00,SAT-47400,211.08306504677424,56.628785710458956,962.3039167479272,-4.5574952608344805,159622.76222026252,10.5,10500159622.76222,47.655,-122.3035,60.0,1.1333333333333333
2026-01-20T23:01:09+00:00,SAT-47400,211.08047194524434,56.96872651366206,957.7585748077882,-4.528595270774652,158610.5623215306,10.5,10500158610.56232,47.655,-122.3035,60.0,1.15
2026-01-20T23:01:10+00:00,SAT-47400,211.07836224753325,57.31165092843096,953.2420557910691,-4.499277330273035,157583.72403039862,10.5,10500157583.72403,47.655,-122.3035,60.0,1.1666666666666667
2026-01-20T23:01:11+00:00,SAT-47400,211.07675668151913,57.65758204961438,948.7547765336768,-4.469536249015815,156542.0655601218,10.5,10500156542.06556,47.655,-122.3035,60.0,1.1833333333333333
2026-01-20T23:01:12+00:00,SAT-47400,211.07567717281322,58.00654265684353,944.2971590479916,-4.439366860203868,155485.40594753926,10.5,10500155485.405947,47.655,-122.3035,60.0,1.2
2026-01-20T23:01:13+00:00,SAT-47400,211.0751469324899,58.35855518823202,939.8696304994149,-4.408763968840261,154413.56324188362,10.5,10500154413.563242,47.655,-122.3035,60.0,1.2166666666666666
2026-01-20T23:01:14+00:00,SAT-47400,211.07519055258288,58.71364170860363,935.4726232344917,-4.377722462176949,153326.3583730914,10.5,10500153326.358374,47.655,-122.3035,60.0,1.2333333333333334
2026-01-20T23:01:15+00:00,SAT-47400,211.07583411038573,59.07182388515359,931.1065746988804,-4.346237160721385,152223.6099334245,10.5,10500152223.609934,47.655,-122.3035,60.0,1.25
2026-01-20T23:01:16+00:00,SAT-47400,211.07710528206673,59.43312294958939,926.771927503921,-4.31430301104481,151105.1409304316,10.5,10500151105.14093,47.655,-122.3035,60.0,1.2666666666666666
2026-01-20T23:01:17+00:00,SAT-47400,211.07903346723842,59.79755967459916,922.4691293009056,-4.281914945319707,149970.77386735636,10.5,10500149970.773867,47.655,-122.3035,60.0,1.2833333333333334
2026-01-20T23:01:18+00:00,SAT-47400,211.0816499250931,60.16515433734382,918.1986327954402,-4.249067909942873,148820.33174563776,10.5,10500148820.331745,47.655,-122.3035,60.0,1.3
2026-01-20T23:01:19+00:00,SAT-47400,211.08498792359316,60.53592668349416,913.9608957332571,-4.215756949552774,147653.64100755373,10.5,10500147653.641008,47.655,-122.3035,60.0,1.3166666666666667
2026-01-20T23:01:20+00:00,SAT-47400,211.08908290356786,60.90989589702482,909.7563808022365,-4.181977142447659,146470.5292742902,10.5,10500146470.529274,47.655,-122.3035,60.0,1.3333333333333333
2026-01-20T23:01:21+00:00,SAT-47400,211.09397265889285,61.28708056286986,905.5855555988353,-4.147723611780106,145270.82573802143,10.5,10500145270.825739,47.655,-122.3035,60.0,1.35
2026-01-20T23:01:22+00:00,SAT-47400,211.09969753493485,61.667498628773856,901.4488925833533,-4.112991561104079,144054.36240691828,10.5,10500144054.362408,47.655,-122.3035,60.0,1.3666666666666667
2026-01-20T23:01:23+00:00,SAT-47400,211.10630064749813,62.0511673686303,897.3468689997454,-4.077776263827205,142820.97373572236,10.5,10500142820.973736,47.655,-122.3035,60.0,1.3833333333333333
2026-01-20T23:01:24+00:00,SAT-47400,211.1138281246726,62.43810334316922,893.2799668059552,-4.042073080437265,141570.49722909066,10.5,10500141570.497229,47.655,-122.3035,60.0,1.4
2026-01-20T23:01:25+00:00,SAT-47400,211.1223293744538,62.828322360462685,889.2486725870657,-4.00587743565619,140302.77264143183,10.5,10500140302.772642,47.655,-122.3035,60.0,1.4166666666666667
2026-01-20T23:01:26+00:00,SAT-47400,211.13185738131452,63.2218394323593,885.2534774912381,-3.9691848747086333,139017.64394766945,10.5,10500139017.643948,47.655,-122.3035,60.0,1.4333333333333333
2026-01-20T23:01:27+00:00,SAT-47400,211.14246903572104,63.61866873446337,881.2948771095286,-3.931991053450172,137714.9589974902,10.5,10500137714.958998,47.655,-122.3035,60.0,1.45
2026-01-20T23:01:28+00:00,SAT-47400,211.15422550071526,64.01882356338575,877.3733713655542,-3.89429171658032,136394.56875227115,10.5,10500136394.568752,47.655,-122.3035,60.0,1.4666666666666666
2026-01-20T23:01:29+00:00,SAT-47400,211.16719262034354,64.42231628975617,873.4894644268848,-3.8560827374225326,135056.32867834385,10.5,10500135056.328678,47.655,-122.3035,60.0,1.4833333333333334
2026-01-20T23:01:30+00:00,SAT-47400,211.18144137606274,64.82915831317445,869.6436645767621,-3.817360122730062,133700.09891531576,10.5,10500133700.098915,47.655,-122.3035,60.0,1.5
2026-01-20T23:01:31+00:00,SAT-47400,211.19704839749963,65.23936001563007,865.8364840810259,-3.7781200255789846,132325.74472763867,10.5,10500132325.744728,47.655,-122.3035,60.0,1.5166666666666666
2026-01-20T23:01:32+00:00,SAT-47400,211.21409653547184,65.65293071421404,862.0684390421818,-3.7383587410628145,130933.13635381566,10.5,10500130933.136354,47.655,-122.3035,60.0,1.5333333333333334
2026-01-20T23:01:33+00:00,SAT-47400,211.23267550601184,66.06987861116184,858.340049257762,-3.698072719769103,129522.14947840876,10.5,10500129522.149479,47.655,-122.3035,60.0,1.55
2026-01-20T23:01:34+00:00,SAT-47400,211.2528826161416,66.49021074304216,854.6518380652456,-3.6572585714799,128092.6653616448,10.5,10500128092.665361,47.655,-122.3035,60.0,1.5666666666666667
2026-01-20T23:01:35+00:00,SAT-47400,211.2748235835418,66.91393292790296,851.0043321832895,-3.615913125527566,126644.57295333108,10.5,10500126644.572954,47.655,-122.3035,60.0,1.5833333333333333
2026-01-20T23:01:36+00:00,SAT-47400,211.29861346531158,67.34104971706788,847.3980614927633,-3.5740333494929413,125177.76604532154,10.5,10500125177.766045,47.655,-122.3035,60.0,1.6
2026-01-20T23:01:37+00:00,SAT-47400,211.32437771149324,67.77156433484085,843.8335588988691,-3.53161643577093,123692.14630340957,10.5,10500123692.146303,47.655,-122.3035,60.0,1.6166666666666667
2026-01-20T23:01:38+00:00,SAT-47400,211.3522533653229,68.20547862560524,840.3113601069268,-3.4886597923367826,122187.62294392416,10.5,10500122187.622944,47.655,-122.3035,60.0,1.6333333333333333
2026-01-20T23:01:39+00:00,SAT-47400,211.38239043340346,68.6427929971612,836.8320034073697,-3.44516102717132,120664.11218823543,10.5,10500120664.112188,47.655,-122.3035,60.0,1.65
2026-01-20T23:01:40+00:00,SAT-47400,211.41495345451125,69.08350635902379,833.3960294762708,-3.4011180062663406,119121.53929434935,10.5,10500119121.539295,47.655,-122.3035,60.0,1.6666666666666667
2026-01-20T23:01:41+00:00,SAT-47400,211.45012330234167,69.52761606474921,830.0039811180212,-3.356528806482921,117559.83690580592,10.5,10500117559.836906,47.655,-122.3035,60.0,1.6833333333333333
2026-01-20T23:01:42+00:00,SAT-47400,211.48809926249447,69.97511784467997,826.6564030550222,-3.311391784802072,115978.9474771302,10.5,10500115978.947477,47.655,-122.3035,60.0,1.7
2026-01-20T23:01:43+00:00,SAT-47400,211.52910143529147,70.42600574380391,823.3538416483129,-3.2657055602490184,114378.822640744,10.5,10500114378.822641,47.655,-122.3035,60.0,1.7166666666666666
2026-01-20T23:01:44+00:00,SAT-47400,211.57337352434052,70.88027205313894,820.0968446362245,-3.2194690195655604,112759.42340563612,10.5,10500112759.423405,47.655,-122.3035,60.0,1.7333333333333334
2026-01-20T23:01:45+00:00,SAT-47400,211.62118608522962,71.33790723698179,816.8859608673778,-3.1726813242935203,111120.72040545451,10.5,10500111120.720406,47.655,-122.3035,60.0,1.75
2026-01-20T23:01:46+00:00,SAT-47400,211.67284032558314,71.79889985555684,813.7217400266157,-3.1253419756101133,109462.69616931521,10.5,10500109462.696169,47.655,-122.3035,60.0,1.7666666666666666
2026-01-20T23:01:47+00:00,SAT-47400,211.7286725698557,72.26323649089109,810.6047322962739,-3.077450747220577,107785.34277141842,10.5,10500107785.342772,47.655,-122.3035,60.0,1.7833333333333334
2026-01-20T23:01:48+00:00,SAT-47400,211.78905952561237,72.73090165579669,807.5354880843794,-3.0290077505792863,106088.66411536779,10.5,10500106088.664116,47.655,-122.3035,60.0,1.8
2026-01-20T23:01:49+00:00,SAT-47400,211.85442452725198,73.20187770384831,804.5145576878016,-2.9800134248347487,104372.67558200167,10.5,10500104372.675583,47.655,-122.3035,60.0,1.8166666666666667
2026-01-20T23:01:50+00:00,SAT-47400,211.9252449735738,73.67614472790156,801.5424909654331,-2.930468565355096,102637.40502847642,10.5,10500102637.40503,47.655,-122.3035,60.0,1.8333333333333333
2026-01-20T23:01:51+00:00,SAT-47400,212.00206123502744,74.15368045102258,798.6198369829189,-2.8803742973072577,100882.89186289738,10.5,10500100882.891863,47.655,-122.3035,60.0,1.85
2026-01-20T23:01:52+00:00,SAT-47400,212.08548737896155,74.63446009840823,795.7471436837378,-2.8297321382385117,99109.18923618943,10.5,10500099109.189236,47.655,-122.3035,60.0,1.8666666666666667
2026-01-20T23:01:53+00:00,SAT-47400,212.17622416351597,75.11845626137848,792.9249574978679,-2.7785439595518993,97316.3626928031,10.5,10500097316.362692,47.655,-122.3035,60.0,1.8833333333333333
2026-01-20T23:01:54+00:00,SAT-47400,212.27507487614656,75.60563873257492,790.1538229888748,-2.726812032929053,95504.4917966384,10.5,10500095504.491796,47.655,-122.3035,60.0,1.9
2026-01-20T23:01:55+00:00,SAT-47400,212.38296477326352,76.09597432070473,787.4342824547002,-2.674539029959577,93673.67011806401,10.5,10500093673.670118,47.655,-122.3035,60.0,1.9166666666666667
2026-01-20T23:01:56+00:00,SAT-47400,212.50096511060684,76.5894266296229,784.7668755288206,-2.621727995172236,91824.00428935567,10.5,10500091824.00429,47.655,-122.3035,60.0,1.9333333333333333
2026-01-20T23:01:57+00:00,SAT-47400,212.63032307701658,77.08595578604438,782.1521388083021,-2.5683824331130802,89955.61705454026,10.5,10500089955.617054,47.655,-122.3035,60.0,1.95
2026-01-20T23:01:58+00:00,SAT-47400,212.77249940068597,77.58551812383998,779.5906053950107,-2.514506236647957,88068.64475824655,10.5,10500088068.644758,47.655,-122.3035,60.0,1.9666666666666666
2026-01-20T23:01:59+00:00,SAT-47400,212.92921600890867,78.08806577637576,777.0828045083272,-2.4601037453131283,86163.23938939067,10.5,10500086163.23939,47.655,-122.3035,60.0,1.9833333333333334
2026-01-20T23:02:00+00:00,SAT-47400,213.1025170272423,78.59354617586456,774.6292610396681,-2.4051797242874273,84239.56784469202,10.5,10500084239.567844,47.655,-122.3035,60.0,2.0
2026-01-20T23:02:01+00:00,SAT-47400,213.29484767015026,79.10190140855407,772.2304951279789,-2.349739406921481,82297.81341822665,10.5,10500082297.813417,47.655,-122.3035,60.0,2.0166666666666666
2026-01-20T23:02:02+00:00,SAT-47400,213.50915745158633,79.61306738826647,769.8870216928092,-2.2937884513696702,80338.17428249492,10.5,10500080338.174282,47.655,-122.3035,60.0,2.033333333333333
2026-01-20T23:02:03+00:00,SAT-47400,213.74903690144575,80.12697275733073,767.5993500106431,-2.2373329898173107,78360.8652125657,10.5,10500078360.865213,47.655,-122.3035,60.0,2.05
2026-01-20T23:02:04+00:00,SAT-47400,214.0189011766386,80.64353742871695,765.367983242132,-2.1803796107384454,76366.1169646692,10.5,10500076366.116964,47.655,-122.3035,60.0,2.066666666666667
2026-01-20T23:02:05+00:00,SAT-47400,214.32424039361712,81.16267059729611,763.1934179770222,-2.122935374844167,74354.17683477464,10.5,10500074354.176834,47.655,-122.3035,60.0,2.0833333333333335
2026-01-20T23:02:06+00:00,SAT-47400,214.6719666835859,81.68426798854229,761.0761437631776,-2.065007810485382,72325.30849757572,10.5,10500072325.308498,47.655,-122.3035,60.0,2.1
2026-01-20T23:02:07+00:00,SAT-47400,215.07090436172442,82.20820796884853,759.0166426401868,-2.006604905102782,70279.79170703223,10.5,10500070279.791706,47.655,-122.3035,60.0,2.1166666666666667
2026-01-20T23:02:08+00:00,SAT-47400,215.53249676350603,82.73434592542577,757.0153886814977,-1.9477351495868,68217.92385004363,10.5,10500068217.92385,47.655,-122.3035,60.0,2.1333333333333333
2026-01-20T23:02:09+00:00,SAT-47400,216.0718496578173,83.26250596308856,755.0728474923097,-1.8884074791769956,66140.01787649526,10.5,10500066140.017876,47.655,-122.3035,60.0,2.15
2026-01-20T23:02:10+00:00,SAT-47400,216.7093128351808,83.79246825633739,753.1894757664106,-1.8286313271794772,64046.404180669924,10.5,10500064046.40418,47.655,-122.3035,60.0,2.1666666666666665
2026-01-20T23:02:11+00:00,SAT-47400,217.47295111930904,84.32394922105397,751.365720789437,-1.7684165786259083,61937.42897819009,10.5,10500061937.428978,47.655,-122.3035,60.0,2.183333333333333
2026-01-20T23:02:12+00:00,SAT-47400,218.4025416324784,84.85656923913726,749.6020199883541,-1.7077736203543643,59813.45606006147,10.5,10500059813.45606,47.655,-122.3035,60.0,2.2
2026-01-20T23:02:13+00:00,SAT-47400,219.55630642976217,85.38979790889424,747.8988004309873,-1.646713269103231,57674.86427421708,10.5,10500057674.864275,47.655,-122.3035,60.0,2.216666666666667
2026-01-20T23:02:14+00:00,SAT-47400,221.0228003267589,85.92285636268959,746.2564783972683,-1.5852468419551597,55522.04999276258,10.5,10500055522.049994,47.655,-122.3035,60.0,2.2333333333333334
2026-01-20T23:02:15+00:00,SAT-47400,222.9431005826794,86.4545323564945,744.675458880225,-1.523386090570002,53355.42480853545,10.5,10500053355.424809,47.655,-122.3035,60.0,2.25
2026-01-20T23:02:16+00:00,SAT-47400,225.5550276272501,86.9828038754633,743.1561351525633,-1.4611432324165654,51175.41662897315,10.5,10500051175.41663,47.655,-122.3035,60.0,2.2666666666666666
2026-01-20T23:02:17+00:00,SAT-47400,229.2882194265478,87.50400218444761,741.6988883020998,-1.3985309206180272,48982.468619972045,10.5,10500048982.46862,47.655,-122.3035,60.0,2.283333333333333
2026-01-20T23:02:18+00:00,SAT-47400,234.9858906006757,88.01073968299204,740.30408679727,-1.3355622494687898,46777.03939911088,10.5,10500046777.039398,47.655,-122.3035,60.0,2.3
2026-01-20T23:02:19+00:00,SAT-47400,244.45199891098298,88.48611807435444,738.9720860471332,-1.2722507372538547,44559.60243391272,10.5,10500044559.602434,47.655,-122.3035,60.0,2.316666666666667
2026-01-20T23:02:20+00:00,SAT-47400,261.6071809076545,88.88615897306143,737.7032279785119,-1.2086103217391373,42330.64588389659,10.5,10500042330.645884,47.655,-122.3035,60.0,2.3333333333333335
2026-01-20T23:02:21+00:00,SAT-47400,291.4764785840965,89.10009792261773,736.4978406176309,-1.1446553386355236,40090.671846297744,10.5,10500040090.671846,47.655,-122.3035,60.0,2.35
2026-01-20T23:02:22+00:00,SAT-47400,325.18592643148685,88.99735644435314,735.3562376932317,-1.0804005144322117,37840.19610506087,10.5,10500037840.196106,47.655,-122.3035,60.0,2.3666666666666667
2026-01-20T23:02:23+00:00,SAT-47400,346.8938597788021,88.64626340441312,734.2787182468379,-1.0158609562744991,35579.74777631744,10.5,10500035579.747776,47.655,-122.3035,60.0,2.3833333333333333
2026-01-20T23:02:24+00:00,SAT-47400,358.7032566476249,88.1842556829248,733.2655662531135,-0.9510521283064033,33309.86847980423,10.5,10500033309.86848,47.655,-122.3035,60.0,2.4
2026-01-20T23:02:25+00:00,SAT-47400,5.558760668412082,87.67555128488503,732.3170502638159,-0.8859898394291762,31031.11191011466,10.5,10500031031.11191,47.655,-122.3035,60.0,2.4166666666666665
2026-01-20T23:02:26+00:00,SAT-47400,9.915420978379164,87.14423306740372,731.4334230639586,-0.8206902293444431,28744.04334787052,10.5,10500028744.043348,47.655,-122.3035,60.0,2.433333333333333
2026-01-20T23:02:27+00:00,SAT-47400,12.893730771896756,86.60030153348066,730.6149213418923,-0.7551697392175989,26449.238632229997,10.5,10500026449.238632,47.655,-122.3035,60.0,2.45
2026-01-20T23:02:28+00:00,SAT-47400,15.045299059799056,86.04850980514902,729.8617653886461,-0.6894451095038979,24147.28408474815,10.5,10500024147.284084,47.655,-122.3035,60.0,2.466666666666667
2026-01-20T23:02:29+00:00,SAT-47400,16.666293079908286,85.49139331686773,729.174158799434,-0.6235333441896023,21838.775256950674,10.5,10500021838.775257,47.655,-122.3035,60.0,2.4833333333333334
2026-01-20T23:02:30+00:00,SAT-47400,17.928047207534178,84.93043888867909,728.552288210829,-0.5574516958072495,19524.31640550517,10.5,10500019524.316406,47.655,-122.3035,60.0,2.5
2026-01-20T23:02:31+00:00,SAT-47400,18.935928664214384,84.36659040286557,727.9963230528772,-0.49121764950626606,17204.519934306667,10.5,10500017204.519934,47.655,-122.3035,60.0,2.5166666666666666
2026-01-20T23:02:32+00:00,SAT-47400,19.75805658369771,83.80048942256246,727.506415317103,-0.4248488915223781,14880.005290142988,10.5,10500014880.005291,47.655,-122.3035,60.0,2.533333333333333
2026-01-20T23:02:33+00:00,SAT-47400,20.440322574980666,83.23259897612354,727.0826993559581,-0.3583632912809055,12551.398335876442,10.5,10500012551.398336,47.655,-122.3035,60.0,2.55
2026-01-20T23:02:34+00:00,SAT-47400,21.014725978102277,82.66327143122231,726.7252917001206,-0.2917788771398145,10219.330500862874,10.5,10500010219.330502,47.655,-122.3035,60.0,2.566666666666667
2026-01-20T23:02:35+00:00,SAT-47400,21.504237588963832,82.09278773513046,726.4342908999864,-0.22511381112852624,7884.437896197927,10.5,10500007884.437897,47.655,-122.3035,60.0,2.5833333333333335
2026-01-20T23:02:36+00:00,SAT-47400,21.925761921389647,81.52138112844762,726.2097773923542,-0.15838636702382472,5547.360546842575,10.5,10500005547.360546,47.655,-122.3035,60.0,2.6
2026-01-20T23:02:37+00:00,SAT-47400,22.292009038314117,80.94925201491374,726.0518133889758,-0.09161490280637807,3208.7414269339947,10.5,10500003208.741426,47.655,-122.3035,60.0,2.6166666666666667
2026-01-20T23:02:38+00:00,SAT-47400,22.612715679801575,80.37657759081773,725.9604427925769,-0.02481783727780094,869.2256408161871,10.5,10500000869.225641,47.655,-122.3035,60.0,2.6333333333333333
2026-01-20T23:02:39+00:00,SAT-47400,22.895464404591596,79.8035182468883,725.9356911361986,0.0419863758767223,-1470.540485396681,10.5,10499998529.459515,47.655,-122.3035,60.0,2.65
2026-01-20T23:02:40+00:00,SAT-47400,23.146246716456645,79.23022192553769,725.9775655484062,0.10877927331608579,-3809.910287399228,10.5,10499996190.089712,47.655,-122.3035,60.0,2.6666666666666665
2026-01-20T23:02:41+00:00,SAT-47400,23.369858700827734,78.65682713783764,726.0860547436602,0.17554240662165962,-6148.237623534299,10.5,10499993851.762377,47.655,-122.3035,60.0,2.683333333333333
2026-01-20T23:02:42+00:00,SAT-47400,23.57018442458638,78.08346509788134,726.2611290371974,0.24225736941869183,-8484.877824699193,10.5,10499991515.122175,47.655,-122.3035,60.0,2.7
2026-01-20T23:02:43+00:00,SAT-47400,23.750402508124324,77.5102612364786,726.5027403869644,0.30890582208760503,-10819.188559839798,10.5,10499989180.81144,47.655,-122.3035,60.0,2.716666666666667
2026-01-20T23:02:44+00:00,SAT-47400,23.91313907283508,76.93733629813696,726.8108224601931,0.3754695139277152,-13150.53061221777,10.5,10499986849.469387,47.655,-122.3035,60.0,2.7333333333333334
2026-01-20T23:02:45+00:00,SAT-47400,24.060582608054546,76.36480714029325,727.1852907220837,0.44193031370390734,-15478.268949284333,10.5,10499984521.73105,47.655,-122.3035,60.0,2.75
2026-01-20T23:02:46+00:00,SAT-47400,24.194571365471653,75.7927873071339,727.626042554951,0.5082702257616492,-17801.773287096225,10.5,10499982198.226713,47.655,-122.3035,60.0,2.7666666666666666
2026-01-20T23:02:47+00:00,SAT-47400,24.316660638769974,75.22138745850422,728.132957393444,0.5744714245546801,-20120.41929962141,10.5,10499979879.5807,47.655,-122.3035,60.0,2.783333333333333
2026-01-20T23:02:48+00:00,SAT-47400,24.42817512829734,74.65071566981848,728.7058968941999,0.6405162668904395,-22433.589047625792,10.5,10499977566.410952,47.655,-122.3035,60.0,2.8
2026-01-20T23:02:49+00:00,SAT-47400,24.530250102473666,74.08087765862723,729.3447051177119,0.7063873236840185,-24740.6720908309,10.5,10499975259.32791,47.655,-122.3035,60.0,2.816666666666667
2026-01-20T23:02:50+00:00,SAT-47400,24.6238640566092,73.51197693690709,730.0492087418662,0.7720673989042123,-27041.0661514848,10.5,10499972958.93385,47.655,-122.3035,60.0,2.8333333333333335
2026-01-20T23:02:51+00:00,SAT-47400,24.70986484593057,72.94411491889812,730.8192172943732,0.8375395420677216,-29334.17755196189,10.5,10499970665.822449,47.655,-122.3035,60.0,2.85
2026-01-20T23:02:52+00:00,SAT-47400,24.788990763989922,72.37739099711703,731.654523397662,0.9027870912703754,-31619.4227218983,10.5,10499968380.577278,47.655,-122.3035,60.0,2.8666666666666667
2026-01-20T23:02:53+00:00,SAT-47400,24.86188767236852,71.81190257558458,732.5549030566891,0.9677936679955376,-33896.22801636039,10.5,10499966103.771984,47.655,-122.3035,60.0,2.8833333333333333
2026-01-20T23:02:54+00:00,SAT-47400,24.92912301488736,71.2477450986589,733.52011594157,1.0325432118058246,-36164.0309308954,10.5,10499963835.969069,47.655,-122.3035,60.0,2.9
2026-01-20T23:02:55+00:00,SAT-47400,24.991197359893793,70.68501205352354,734.549905704811,1.0970199926579063,-38422.28053284788,10.5,10499961577.719467,47.655,-122.3035,60.0,2.9166666666666665
2026-01-20T23:02:56+00:00,SAT-47400,25.048553963306407,70.12379496434343,735.6440003108218,1.1612086281369978,-40670.43806498453,10.5,10499959329.561935,47.655,-122.3035,60.0,2.933333333333333
2026-01-20T23:02:57+00:00,SAT-47400,25.10158673731462,69.56418337760657,736.8021123826171,1.2250941054947972,-42907.977717355956,10.5,10499957092.022284,47.655,-122.3035,60.0,2.95
2026-01-20T23:02:58+00:00,SAT-47400,25.150646926562015,69.00626483848187,738.0239395704973,1.2886617796803854,-45134.38655833045,10.5,10499954865.613441,47.655,-122.3035,60.0,2.966666666666667
2026-01-20T23:02:59+00:00,SAT-47400,25.196048729043515,68.45012487061422,739.3091649187652,1.3518974155406367,-47349.16601263093,10.5,10499952650.833988,47.655,-122.3035,60.0,2.9833333333333334
2026-01-20T23:03:00+00:00,SAT-47400,25.23807405250542,67.89584694089064,740.657457274531,1.4147871672768317,-49551.83114181856,10.5,10499950448.168858,47.655,-122.3035,60.0,3.0
2026-01-20T23:03:01+00:00,SAT-47400,25.276976555935605,67.34351243718412,742.0684716760285,1.4773176195617972,-51741.91208438896,10.5,10499948258.087915,47.655,-122.3035,60.0,3.0166666666666666
2026-01-20T23:03:02+00:00,SAT-47400,25.31298509987366,66.79320063350137,743.5418497819381,1.5394757816408715,-53918.953849163045,10.5,10499946081.04615,47.655,-122.3035,60.0,3.033333333333333
2026-01-20T23:03:03+00:00,SAT-47400,25.346306702908375,66.2449886626759,745.077220294828,1.6012490947569964,-56082.51657534514,10.5,10499943917.483425,47.655,-122.3035,60.0,3.05
2026-01-20T23:03:04+00:00,SAT-47400,25.377129085300798,65.69895149037484,746.674199391999,1.662625462478858,-58232.17659474277,10.5,10499941767.823404,47.655,-122.3035,60.0,3.066666666666667
2026-01-20T23:03:05+00:00,SAT-47400,25.40562286563575,65.15516188367643,748.3323911865779,1.7235932203342463,-60367.525368198505,10.5,10499939632.474632,47.655,-122.3035,60.0,3.0833333333333335
2026-01-20T23:03:06+00:00,SAT-47400,25.43194346382556,64.61369039414227,750.0513881583245,1.7841411882118363,-62488.171320921894,10.5,10499937511.828678,47.655,-122.3035,60.0,3.1
2026-01-20T23:03:07+00:00,SAT-47400,25.45623275604391,64.07460532869419,751.8307716367011,1.8442586292777157,-64593.73840357256,10.5,10499935406.261597,47.655,-122.3035,60.0,3.1166666666666667
2026-01-20T23:03:08+00:00,SAT-47400,25.4786205177869,63.537972737485866,753.6701122429674,1.9039352849490372,-66683.86731718545,10.5,10499933316.132683,47.655,-122.3035,60.0,3.1333333333333333
2026-01-20T23:03:09+00:00,SAT-47400,25.499225686543024,63.0038563952179,755.5689703671566,1.9631613791424811,-68758.2156619699,10.5,10499931241.784338,47.655,-122.3035,60.0,3.15
2026-01-20T23:03:10+00:00,SAT-47400,25.518157469637167,62.472317785730866,757.526896649288,2.021927587939889,-70816.45687487187,10.5,10499929183.543125,47.655,-122.3035,60.0,3.1666666666666665
2026-01-20T23:03:11+00:00,SAT-47400,25.53551631877898,61.94341609844487,759.5434324303267,2.08022508273752,-72858.28174084339,10.5,10499927141.71826,47.655,-122.3035,60.0,3.183333333333333
2026-01-20T23:03:12+00:00,SAT-47400,25.55139479004422,61.41720821666994,761.6181102461769,2.1380454940717284,-74883.39712586481,10.5,10499925116.602875,47.655,-122.3035,60.0,3.2
2026-01-20T23:03:13+00:00,SAT-47400,25.56587830430345,60.89374871872636,763.7504542855978,2.1953809409498506,-76891.52700423649,10.5,10499923108.472996,47.655,-122.3035,60.0,3.216666666666667
2026-01-20T23:03:14+00:00,SAT-47400,25.579045821578045,60.37308987469552,765.9399808773719,2.2522240015087767,-78882.41143091784,10.5,10499921117.58857,47.655,-122.3035,60.0,3.2333333333333334
2026-01-20T23:03:15+00:00,SAT-47400,25.590970440242454,59.855281653152716,768.1861989482098,2.308567725927283,-80855.80699377193,10.5,10499919144.193007,47.655,-122.3035,60.0,3.25
2026-01-20T23:03:16+00:00,SAT-47400,25.601719930891534,59.34037172713261,770.4886104935347,2.3644056430217155,-82811.48704457407,10.5,10499917188.512955,47.655,-122.3035,60.0,3.2666666666666666
2026-01-20T23:03:17+00:00,SAT-47400,25.61135721283686,58.828405481373146,772.8467110548418,2.419731728589482,-84749.24059026717,10.5,10499915250.759409,47.655,-122.3035,60.0,3.283333333333333
2026-01-20T23:03:18+00:00,SAT-47400,25.61994078038368,58.319426028481175,775.2599901654884,2.4745404120075296,-86668.87252406817,10.5,10499913331.127476,47.655,-122.3035,60.0,3.3
2026-01-20T23:03:19+00:00,SAT-47400,25.627525084971456,57.813474225308575,777.7279318030638,2.528826578531399,-88570.20370599079,10.5,10499911429.796293,47.655,-122.3035,60.0,3.316666666666667
2026-01-20T23:03:20+00:00,SAT-47400,25.6341608784002,57.31058869048862,780.2500148440525,2.582585564733065,-90453.07080305931,10.5,10499909546.929197,47.655,-122.3035,60.0,3.3333333333333335
2026-01-20T23:03:21+00:00,SAT-47400,25.63989552164578,56.81080582463238,782.8257135139462,2.6358131436789614,-92317.3257701803,10.5,10499907682.67423,47.655,-122.3035,60.0,3.35
2026-01-20T23:03:22+00:00,SAT-47400,25.644773263292453,56.314159834637366,785.4544978225754,2.688505492322473,-94162.83470808984,10.5,10499905837.165293,47.655,-122.3035,60.0,3.3666666666666667
2026-01-20T23:03:23+00:00,SAT-47400,25.648835490966754,55.82068276494518,788.1358339669183,2.7406592328050494,-95989.47930989317,10.5,10499904010.52069,47.655,-122.3035,60.0,3.3833333333333333
2026-01-20T23:03:24+00:00,SAT-47400,25.652120958791627,55.33040452184536,790.8691847751026,2.7922714078704387,-97797.15599996719,10.5,10499902202.844,47.655,-122.3035,60.0,3.4
2026-01-20T23:03:25+00:00,SAT-47400,25.654665993447605,54.84335290337472,793.6540101258854,2.843339423476008,-99585.77392396604,10.5,10499900414.226076,47.655,-122.3035,60.0,3.4166666666666665
2026-01-20T23:03:26+00:00,SAT-47400,25.656504681286048,54.359553639317845,796.4897673108987,2.8938611234288714,-101355.25756289423,10.5,10499898644.742437,47.655,-122.3035,60.0,3.433333333333333
2026-01-20T23:03:27+00:00,SAT-47400,25.65766903826987,53.8790304187161,799.3759114713318,2.943834704876831,-103105.5437732417,10.5,10499896894.456226,47.655,-122.3035,60.0,3.45
2026-01-20T23:03:28+00:00,SAT-47400,25.658189164791164,53.40180493181581,802.3118959503289,2.993258751025272,-104836.58293286803,10.5,10499895163.417067,47.655,-122.3035,60.0,3.466666666666667
2026-01-20T23:03:29+00:00,SAT-47400,25.658093386738962,52.92789690642211,805.2971726780182,3.042132202223526,-106548.33792832447,10.5,10499893451.662071,47.655,-122.3035,60.0,3.4833333333333334
2026-01-20T23:03:30+00:00,SAT-47400,25.657408384315318,52.45732414871302,808.3311925277025,3.0904543648200913,-108240.78446500131,10.5,10499891759.215534,47.655,-122.3035,60.0,3.5
2026-01-20T23:03:31+00:00,SAT-47400,25.656159309747295,51.990102582445786,811.413405680883,3.1382248587029205,-109913.90922976677,10.5,10499890086.09077,47.655,-122.3035,60.0,3.5166666666666666
2026-01-20T23:03:32+00:00,SAT-47400,25.654369895144118,51.52624629550188,814.5432619399627,3.1854436647900117,-111567.7115542884,10.5,10499888432.288446,47.655,-122.3035,60.0,3.533333333333333
2026-01-20T23:03:33+00:00,SAT-47400,25.65206255117253,51.06576757884231,817.7202110883132,3.2321110537935183,-113202.20092005096,10.5,10499886797.79908,47.655,-122.3035,60.0,3.55
2026-01-20T23:03:34+00:00,SAT-47400,25.649258457848642,50.60867697503624,820.9437031792967,3.2782276338050007,-114817.3986249931,10.5,10499885182.601376,47.655,-122.3035,60.0,3.566666666666667
2026-01-20T23:03:35+00:00,SAT-47400,25.64597764768948,50.15498331931622,824.2131888727449,3.3237942941614076,-116413.33581745668,10.5,10499883586.664183,47.655,-122.3035,60.0,3.5833333333333335
2026-01-20T23:03:36+00:00,SAT-47400,25.64223908242454,49.70469378752278,827.5281197154552,3.368812195791824,-117990.05315808895,10.5,10499882009.946842,47.655,-122.3035,60.0,3.6
2026-01-20T23:03:37+00:00,SAT-47400,25.63806072354572,49.25781394423219,830.8879484120582,3.413282801023162,-119547.60186376404,10.5,10499880452.398136,47.655,-122.3035,60.0,3.6166666666666667
2026-01-20T23:03:38+00:00,SAT-47400,25.633459597346747,48.814347785756475,834.292129125612,3.4572078067891594,-121086.04136827943,10.5,10499878913.958632,47.655,-122.3035,60.0,3.6333333333333333
2026-01-20T23:03:39+00:00,SAT-47400,25.62845185498498,48.37429779087999,837.740117711583,3.500589192995363,-122605.44101630239,10.5,10499877394.558983,47.655,-122.3035,60.0,3.65
2026-01-20T23:03:40+00:00,SAT-47400,25.623052827912108,47.9376649639959,841.2313720000637,3.5434291535009828,-124105.87764606246,10.5,10499875894.122355,47.655,-122.3035,60.0,3.6666666666666665
2026-01-20T23:03:41+00:00,SAT-47400,25.61727707923878,47.50444888576158,844.7653520091554,3.5857301164359923,-125587.43630094231,10.5,10499874412.5637,47.655,-122.3035,60.0,3.683333333333333
2026-01-20T23:03:42+00:00,SAT-47400,25.611138451237153,47.07464775964194,848.3415201786141,3.6274947284592742,-127050.20967813132,10.5,10499872949.790321,47.655,-122.3035,60.0,3.7
2026-01-20T23:03:43+00:00,SAT-47400,25.60465010934659,46.648258459022664,851.9593415877977,3.6687258624063115,-128494.29839648026,10.5,10499871505.701603,47.655,-122.3035,60.0,3.716666666666667
2026-01-20T23:03:44+00:00,SAT-47400,25.59782458297474,46.225276572032556,855.6182841812375,3.709426562995691,-129919.80909491311,10.5,10499870080.190905,47.655,-122.3035,60.0,3.7333333333333334
2026-01-20T23:03:45+00:00,SAT-47400,25.59067380347573,45.80569645115608,859.3178189400652,3.74960006077173,-131326.8549207571,10.5,10499868673.145079,47.655,-122.3035,60.0,3.75
2026-01-20T23:03:46+00:00,SAT-47400,25.58320913937609,45.38951125953169,863.0574200673416,3.7892497917761347,-132715.5562187272,10.5,10499867284.44378,47.655,-122.3035,60.0,3.7666666666666666
2026-01-20T23:03:47+00:00,SAT-47400,25.575441429085686,44.976713013657324,866.8365651930063,3.828379338999821,-134086.03848032132,10.5,10499865913.96152,47.655,-122.3035,60.0,3.783333333333333
2026-01-20T23:03:48+00:00,SAT-47400,25.567381011441377,44.5672926309984,870.6547355204355,3.8669924006899405,-135438.43123379833,10.5,10499864561.568766,47.655,-122.3035,60.0,3.8
2026-01-20T23:03:49+00:00,SAT-47400,25.559037754289484,44.161239979033226,874.5114159413902,3.905092912846351,-136772.87233452246,10.5,10499863227.127665,47.655,-122.3035,60.0,3.816666666666667
2026-01-20T23:03:50+00:00,SAT-47400,25.55042108068406,43.75854391003568,878.4060952731356,3.9426848753739865,-138089.50187608408,10.5,10499861910.498123,47.655,-122.3035,60.0,3.8333333333333335
2026-01-20T23:03:51+00:00,SAT-47400,25.54153999384918,43.35919231237751,882.3382663221753,3.9797724457017707,-139388.46546923002,10.5,10499860611.53453,47.655,-122.3035,60.0,3.85
2026-01-20T23:03:52+00:00,SAT-47400,25.53240310022093,42.96317215035152,886.3074260413553,4.016359884042772,-140669.91232464262,10.5,10499859330.087675,47.655,-122.3035,60.0,3.8666666666666667
2026-01-20T23:03:53+00:00,SAT-47400,25.52301863108003,42.57046950797935,890.3130756323739,4.052451585314595,-141933.99637092685,10.5,10499858066.00363,47.655,-122.3035,60.0,3.8833333333333333
2026-01-20T23:03:54+00:00,SAT-47400,25.51339446267325,42.181069628041804,894.3547206801276,4.088052019111388,-143180.87415217623,10.5,10499856819.125849,47.655,-122.3035,60.0,3.9
2026-01-20T23:03:55+00:00,SAT-47400,25.503538135218328,41.794956955299625,898.431871227188,4.123165777098515,-144410.70648793443,10.5,10499855589.293512,47.655,-122.3035,60.0,3.9166666666666665
2026-01-20T23:03:56+00:00,SAT-47400,25.493456870522095,41.41211517356321,902.5440418955476,4.157797516486817,-145623.65649342514,10.5,10499854376.343506,47.655,-122.3035,60.0,3.933333333333333
2026-01-20T23:03:57+00:00,SAT-47400,25.483157588659502,41.03252724650044,906.6907519519904,4.191951969038792,-146819.88989498632,10.5,10499853180.110106,47.655,-122.3035,60.0,3.95
2026-01-20T23:03:58+00:00,SAT-47400,25.472646923551647,40.65617545589093,910.8715253824452,4.225633970860544,-147999.57607351054,10.5,10499852000.423927,47.655,-122.3035,60.0,3.966666666666667
2026-01-20T23:03:59+00:00,SAT-47400,25.461931237500544,40.28304143575835,915.0858909960501,4.258848382270918,-149162.88525792284,10.5,10499850837.114742,47.655,-122.3035,60.0,3.9833333333333334
2026-01-20T23:04:00+00:00,SAT-47400,25.451016635039213,39.913106212027586,919.3333824493017,4.291600158417741,-150309.99099846027,10.5,10499849690.009,47.655,-122.3035,60.0,4.0
2026-01-20T23:04:01+00:00,SAT-47400,25.43990897571617,39.54635023448832,923.6135383406303,4.323894260053988,-151441.06704167614,10.5,10499848558.932959,47.655,-122.3035,60.0,4.016666666666667
2026-01-20T23:04:02+00:00,SAT-47400,25.42861388640284,39.18275341483972,927.9259022159907,4.35573574211415,-152556.29043275854,10.5,10499847443.709568,47.655,-122.3035,60.0,4.033333333333333
2026-01-20T23:04:03+00:00,SAT-47400,25.41713677254032,38.82229515583903,932.2700226627926,4.387129667535014,-153655.8384971701,10.5,10499846344.161503,47.655,-122.3035,60.0,4.05
2026-01-20T23:04:04+00:00,SAT-47400,25.405482829010985,38.46495438617796,936.6454533178809,4.418081152288138,-154739.89041787517,10.5,10499845260.109583,47.655,-122.3035,60.0,4.066666666666666
2026-01-20T23:04:05+00:00,SAT-47400,25.393657050198673,38.11070959025809,941.0517529204295,4.448595292146134,-155808.62467038582,10.5,10499844191.37533,47.655,-122.3035,60.0,4.083333333333333
2026-01-20T23:04:06+00:00,SAT-47400,25.381664239720966,37.75953884229043,945.4884852917966,4.478677287364616,-156862.22338965067,10.5,10499843137.77661,47.655,-122.3035,60.0,4.1
2026-01-20T23:04:07+00:00,SAT-47400,25.369509019157718,37.411419829348176,949.9552194397284,4.5083322610894205,-157900.8660099078,10.5,10499842099.13399,47.655,-122.3035,60.0,4.116666666666666
2026-01-20T23:04:08+00:00,SAT-47400,25.357195836886522,37.066329887134394,954.4515294814547,4.537565431501326,-158924.73529392097,10.5,10499841075.264706,47.655,-122.3035,60.0,4.133333333333334
2026-01-20T23:04:09+00:00,SAT-47400,25.34472897582697,36.724246021234094,958.9769947384721,4.566381984830856,-159934.01288542085,10.5,10499840065.987114,47.655,-122.3035,60.0,4.15
2026-01-20T23:04:10+00:00,SAT-47400,25.332112561185546,36.385144936793345,963.5311997046767,4.594787094929953,-160928.87999458783,10.5,10499839071.120005,47.655,-122.3035,60.0,4.166666666666667
2026-01-20T23:04:11+00:00,SAT-47400,25.31935056767448,36.049003065342546,968.1137340340202,4.622785966016184,-161909.51889513488,10.5,10499838090.481106,47.655,-122.3035,60.0,4.183333333333334
2026-01-20T23:04:12+00:00,SAT-47400,25.3064468262012,35.71579658729283,972.7241925707937,4.650383794444443,-162876.11158539105,10.5,10499837123.888414,47.655,-122.3035,60.0,4.2
2026-01-20T23:04:13+00:00,SAT-47400,25.293405030306033,35.38550145613846,977.3621753417863,4.6775857470702675,-163828.83903049293,10.5,10499836171.160969,47.655,-122.3035,60.0,4.216666666666667
2026-01-20T23:04:14+00:00,SAT-47400,25.28022874231504,35.058093422932295,982.0272875268644,4.704396995442981,-164767.88235997353,10.5,10499835232.11764,47.655,-122.3035,60.0,4.233333333333333
2026-01-20T23:04:15+00:00,SAT-47400,25.266921399051395,34.73354805727443,986.7191394636528,4.730822699238246,-165693.42228749994,10.5,10499834306.577713,47.655,-122.3035,60.0,4.25
2026-01-20T23:04:16+00:00,SAT-47400,25.25348631728419,34.41184076838338,991.4373466356931,4.7568679719106575,-166605.63790788196,10.5,10499833394.362093,47.655,-122.3035,60.0,4.266666666666667
2026-01-20T23:04:17+00:00,SAT-47400,25.239926698990217,34.092946827438965,996.1815296263454,4.78253793636567,-167504.70864693847,10.5,10499832495.291353,47.655,-122.3035,60.0,4.283333333333333
2026-01-20T23:04:18+00:00,SAT-47400,25.22624563619661,33.776841385092055,1000.951314128214,4.80783768106833,-168390.8127242396,10.5,10499831609.187275,47.655,-122.3035,60.0,4.3
2026-01-20T23:04:19+00:00,SAT-47400,25.212446115632993,33.46349949106204,1005.7463309087996,4.832772274199875,-169264.12764893068,10.5,10499830735.87235,47.655,-122.3035,60.0,4.316666666666666
2026-01-20T23:04:20+00:00,SAT-47400,25.198531023179218,33.15289611173545,1010.5662157902682,4.8573467346366,-170124.82920328938,10.5,10499829875.170797,47.655,-122.3035,60.0,4.333333333333333
2026-01-20T23:04:21+00:00,SAT-47400,25.18450314811796,32.84500614875011,1015.4106096002791,4.881566074412132,-170973.09292993415,10.5,10499829026.90707,47.655,-122.3035,60.0,4.35
2026-01-20T23:04:22+00:00,SAT-47400,25.170365187046563,32.53980445396369,1020.2791581651594,4.905435233601637,-171809.0918511939,10.5,10499828190.90815,47.655,-122.3035,60.0,4.366666666666666
2026-01-20T23:04:23+00:00,SAT-47400,25.156119747820533,32.237265847614644,1025.1715122381381,4.928959167490159,-172632.99952211164,10.5,10499827367.000479,47.655,-122.3035,60.0,4.383333333333334
2026-01-20T23:04:24+00:00,SAT-47400,25.141769352981278,31.937365130298293,1030.087327514515,4.952142760013007,-173444.9869987609,10.5,10499826555.013,47.655,-122.3035,60.0,4.4
2026-01-20T23:04:25+00:00,SAT-47400,25.12731644331742,31.64007709946474,1035.0262645605014,4.9749908675763646,-174245.22437302885,10.5,10499825754.775627,47.655,-122.3035,60.0,4.416666666666667
2026-01-20T23:04:26+00:00,SAT-47400,25.112763381113343,31.34537656241617,1039.9879887857642,4.9975082938664945,-175033.87989032798,10.5,10499824966.12011,47.655,-122.3035,60.0,4.433333333333334
2026-01-20T23:04:27+00:00,SAT-47400,25.09811245327944,31.05323835011225,1044.972170390847,5.019699812183328,-175811.12073181287,10.5,10499824188.879269,47.655,-122.3035,60.0,4.45
2026-01-20T23:04:28+00:00,SAT-47400,25.083365874307056,30.76363732889654,1049.9784843368645,5.041570143734774,-176577.11225415528,10.5,10499823422.887745,47.655,-122.3035,60.0,4.466666666666667
2026-01-20T23:04:29+00:00,SAT-47400,25.06852578911989,30.476548412826084,1055.0066102935493,5.063123982560716,-177332.0188624876,10.5,10499822667.981138,47.655,-122.3035,60.0,4.483333333333333
2026-01-20T23:04:30+00:00,SAT-47400,25.053594275700398,30.191946573930007,1060.0562326121565,5.084365940882732,-178076.0020963192,10.5,10499821923.997904,47.655,-122.3035,60.0,4.5
