satellites_20260121_005943/SAT-65906.csv

timestamp,satellite,azimuth_deg,elevation_deg,distance_km,relative_velocity_kms,doppler_shift_hz,tx_freq_ghz,rx_freq_hz,ue_lat,ue_lon,ue_alt_m,time_minutes
2026-01-20T23:03:38+00:00,SAT-65906,213.7657719053243,30.044067311728124,1555.4554864321958,-6.466915149010598,226498.72354230896,10.5,10500226498.723543,47.655,-122.3035,60.0,3.6333333333333333
2026-01-20T23:03:39+00:00,SAT-65906,213.7445498357261,30.172230966540532,1549.0058163902495,-6.46241921611572,226341.25695455304,10.5,10500226341.256954,47.655,-122.3035,60.0,3.65
2026-01-20T23:03:40+00:00,SAT-65906,213.72331364849273,30.301245364439204,1542.5606302920432,-6.457859149379578,226181.5441283902,10.5,10500226181.544128,47.655,-122.3035,60.0,3.6666666666666665
2026-01-20T23:03:41+00:00,SAT-65906,213.7020631339791,30.431120615966915,1536.1199921003954,-6.45323392825114,226019.54931980633,10.5,10500226019.54932,47.655,-122.3035,60.0,3.683333333333333
2026-01-20T23:03:42+00:00,SAT-65906,213.68079807814206,30.56186698022068,1529.683966795953,-6.448542540989613,225855.2370933592,10.5,10500225855.237093,47.655,-122.3035,60.0,3.7
2026-01-20T23:03:43+00:00,SAT-65906,213.6595182623538,30.693494867891275,1523.252620368406,-6.443783944560827,225688.5709175802,10.5,10500225688.570917,47.655,-122.3035,60.0,3.716666666666667
2026-01-20T23:03:44+00:00,SAT-65906,213.63822346329962,30.826014843544773,1516.8260198476974,-6.438957081779997,225519.51376538625,10.5,10500225519.513765,47.655,-122.3035,60.0,3.7333333333333334
2026-01-20T23:03:45+00:00,SAT-65906,213.61691345284,30.95943762830472,1510.4042333181353,-6.434060864016748,225348.0275083366,10.5,10500225348.027508,47.655,-122.3035,60.0,3.75
2026-01-20T23:03:46+00:00,SAT-65906,213.59558799788743,31.093774102226067,1503.987329949756,-6.429094181355442,225174.07327249087,10.5,10500225174.073273,47.655,-122.3035,60.0,3.7666666666666666
2026-01-20T23:03:47+00:00,SAT-65906,213.57424686028583,31.229035306927404,1497.575380019551,-6.42405591896113,224997.61201161327,10.5,10500224997.612011,47.655,-122.3035,60.0,3.783333333333333
2026-01-20T23:03:48+00:00,SAT-65906,213.55288979660276,31.365232448624315,1491.1684549163735,-6.418944918179393,224818.60314472497,10.5,10500224818.603146,47.655,-122.3035,60.0,3.8
2026-01-20T23:03:49+00:00,SAT-65906,213.53151655805377,31.50237690039735,1484.7666271846426,-6.413760019893074,224637.00607464008,10.5,10500224637.006075,47.655,-122.3035,60.0,3.816666666666667
2026-01-20T23:03:50+00:00,SAT-65906,213.51012689027723,31.640480205432123,1478.3699705248025,-6.408500020930243,224452.77866118817,10.5,10500224452.778662,47.655,-122.3035,60.0,3.8333333333333335
2026-01-20T23:03:51+00:00,SAT-65906,213.48872053323575,31.77955407938611,1471.9785598372616,-6.403163709994568,224265.87847964797,10.5,10500224265.878479,47.655,-122.3035,60.0,3.85
2026-01-20T23:03:52+00:00,SAT-65906,213.46729722100474,31.919610413578088,1465.5924712304936,-6.397749858093252,224076.262485493,10.5,10500224076.262486,47.655,-122.3035,60.0,3.8666666666666667
2026-01-20T23:03:53+00:00,SAT-65906,213.44585668159232,32.060661278042005,1459.2117820386886,-6.39225717884303,223883.88562414006,10.5,10500223883.885624,47.655,-122.3035,60.0,3.8833333333333333
2026-01-20T23:03:54+00:00,SAT-65906,213.42439863683117,32.20271892375287,1452.8365708789893,-6.38668439406585,223688.703128387,10.5,10500223688.703129,47.655,-122.3035,60.0,3.9
2026-01-20T23:03:55+00:00,SAT-65906,213.40292280212822,32.345795786360725,1446.4669176433074,-6.381030199429652,223490.66931500775,10.5,10500223490.669315,47.655,-122.3035,60.0,3.9166666666666665
2026-01-20T23:03:56+00:00,SAT-65906,213.38142888625293,32.489904489233254,1440.1029035244098,-6.375293221866417,223289.73609335223,10.5,10500223289.736094,47.655,-122.3035,60.0,3.933333333333333
2026-01-20T23:03:57+00:00,SAT-65906,213.35991659127035,32.635057845585195,1433.7446110844683,-6.3694721426436764,223085.85727583113,10.5,10500223085.857275,47.655,-122.3035,60.0,3.95
2026-01-20T23:03:58+00:00,SAT-65906,213.33838561210666,32.78126886346517,1427.3921242008716,-6.363565518333686,222878.98230749922,10.5,10500222878.982307,47.655,-122.3035,60.0,3.966666666666667
2026-01-20T23:03:59+00:00,SAT-65906,213.3168356366052,32.92855074671981,1421.0455281905868,-6.3575719590064566,222669.0625071288,10.5,10500222669.062508,47.655,-122.3035,60.0,3.9833333333333334
2026-01-20T23:04:00+00:00,SAT-65906,213.29526634508233,33.07691690010084,1414.7049097568045,-6.35148999793008,222456.04650356426,10.5,10500222456.046503,47.655,-122.3035,60.0,4.0
2026-01-20T23:04:01+00:00,SAT-65906,213.27367741023076,33.226380931438946,1408.3703570655355,-6.345318160499307,222239.88264989216,10.5,10500222239.88265,47.655,-122.3035,60.0,4.016666666666667
2026-01-20T23:04:02+00:00,SAT-65906,213.2520684968222,33.37695665546998,1402.0419597534642,-6.339054948367659,222020.51846768078,10.5,10500222020.518467,47.655,-122.3035,60.0,4.033333333333333
2026-01-20T23:04:03+00:00,SAT-65906,213.23043926145405,33.528658097373174,1395.7198089516253,-6.3326987999668765,221797.89926420432,10.5,10500221797.899263,47.655,-122.3035,60.0,4.05
2026-01-20T23:04:04+00:00,SAT-65906,213.20878935236226,33.68149949541394,1389.4039973484585,-6.326248156017725,221571.97042690817,10.5,10500221571.970427,47.655,-122.3035,60.0,4.066666666666666
2026-01-20T23:04:05+00:00,SAT-65906,213.18711840909197,33.83549530522635,1383.0946191875234,-6.319701419087131,221342.676006929,10.5,10500221342.676006,47.655,-122.3035,60.0,4.083333333333333
2026-01-20T23:04:06+00:00,SAT-65906,213.16542606221412,33.99066020319498,1376.7917703055539,-6.313056938886659,221109.9582041851,10.5,10500221109.958204,47.655,-122.3035,60.0,4.1
2026-01-20T23:04:07+00:00,SAT-65906,213.1437119331148,34.147009089532496,1370.495548185171,-6.306313084996978,220873.7599144948,10.5,10500220873.759914,47.655,-122.3035,60.0,4.116666666666666
2026-01-20T23:04:08+00:00,SAT-65906,213.12197563354297,34.30455709322817,1364.2060519350673,-6.2994680974794575,220634.01949736275,10.5,10500220634.019497,47.655,-122.3035,60.0,4.133333333333334
2026-01-20T23:04:09+00:00,SAT-65906,213.1002167655607,34.4633195733345,1357.923382419181,-6.29252028295574,220390.67764351587,10.5,10500220390.677643,47.655,-122.3035,60.0,4.15
2026-01-20T23:04:10+00:00,SAT-65906,213.07843492095193,34.62331212522503,1351.6476421903133,-6.285467865243219,220143.67214352606,10.5,10500220143.672144,47.655,-122.3035,60.0,4.166666666666667
2026-01-20T23:04:11+00:00,SAT-65906,213.05662968102277,34.78455058318924,1345.3789355727108,-6.27830903677723,219892.9396888327,10.5,10500219892.93969,47.655,-122.3035,60.0,4.183333333333334
2026-01-20T23:04:12+00:00,SAT-65906,213.03480061622415,34.947051024373664,1339.1173686933648,-6.271041932591207,219638.41496041795,10.5,10500219638.41496,47.655,-122.3035,60.0,4.2
2026-01-20T23:04:13+00:00,SAT-65906,213.01294728586785,35.11082977211306,1332.8630495392606,-6.263664697368152,219380.0329772325,10.5,10500219380.032978,47.655,-122.3035,60.0,4.216666666666667
2026-01-20T23:04:14+00:00,SAT-65906,212.99106923760294,35.27590340108242,1326.616087947752,-6.256175400611135,219117.72612510793,10.5,10500219117.726126,47.655,-122.3035,60.0,4.233333333333333
2026-01-20T23:04:15+00:00,SAT-65906,212.96916600714513,35.442288740309635,1320.3765956815425,-6.248572071849201,218851.42538981617,10.5,10500218851.42539,47.655,-122.3035,60.0,4.25
2026-01-20T23:04:16+00:00,SAT-65906,212.94723711784647,35.61000287715563,1314.1446864685515,-6.2408527335611135,218581.06151019878,10.5,10500218581.06151,47.655,-122.3035,60.0,4.266666666666667
2026-01-20T23:04:17+00:00,SAT-65906,212.92528208021224,35.77906316226527,1307.9204760089467,-6.233015333413398,218306.56260485607,10.5,10500218306.562605,47.655,-122.3035,60.0,4.283333333333333
2026-01-20T23:04:18+00:00,SAT-65906,212.90330039152425,35.949487212757,1301.704082049756,-6.225057789811835,218027.85576755326,10.5,10500218027.855768,47.655,-122.3035,60.0,4.3
2026-01-20T23:04:19+00:00,SAT-65906,212.8812915353644,36.12129291671228,1295.49562441405,-6.216977971327943,217744.86634664907,10.5,10500217744.866346,47.655,-122.3035,60.0,4.316666666666666
2026-01-20T23:04:20+00:00,SAT-65906,212.85925498114437,36.29449843715643,1289.2952250506457,-6.208773714374624,217457.51856417133,10.5,10500217457.518564,47.655,-122.3035,60.0,4.333333333333333
2026-01-20T23:04:21+00:00,SAT-65906,212.83719018358764,36.46912221661187,1283.103008066176,-6.200442799601891,217165.73468909567,10.5,10500217165.73469,47.655,-122.3035,60.0,4.35
2026-01-20T23:04:22+00:00,SAT-65906,212.81509658222203,36.64518298104898,1276.9190997807063,-6.191983004214024,216869.43686971354,10.5,10500216869.43687,47.655,-122.3035,60.0,4.366666666666666
2026-01-20T23:04:23+00:00,SAT-65906,212.79297360074594,36.82269974540625,1270.7436287311702,-6.18339194293719,216568.54156364565,10.5,10500216568.541563,47.655,-122.3035,60.0,4.383333333333334
2026-01-20T23:04:24+00:00,SAT-65906,212.7708206467483,37.0016918145875,1264.5767258334145,-6.174667346011082,216262.96927428496,10.5,10500216262.969275,47.655,-122.3035,60.0,4.4
2026-01-20T23:04:25+00:00,SAT-65906,212.7486371107077,37.18217879254589,1258.4185242669926,-6.165806757446136,215952.63398248804,10.5,10500215952.633982,47.655,-122.3035,60.0,4.416666666666667
2026-01-20T23:04:26+00:00,SAT-65906,212.72642236572014,37.36418058269775,1252.2691596608995,-6.156807740965616,215637.45035953826,10.5,10500215637.45036,47.655,-122.3035,60.0,4.433333333333334
2026-01-20T23:04:27+00:00,SAT-65906,212.70417576668598,37.54771739437386,1246.1287700739101,-6.147667797900677,215317.3308914833,10.5,10500215317.33089,47.655,-122.3035,60.0,4.45
2026-01-20T23:04:28+00:00,SAT-65906,212.6818966496605,37.73280974694662,1239.9974960568038,-6.138384367707483,214992.18589724688,10.5,10500214992.185898,47.655,-122.3035,60.0,4.466666666666667
2026-01-20T23:04:29+00:00,SAT-65906,212.6595843311881,37.91947847401164,1233.8754807140767,-6.128954842038535,214661.9240214663,10.5,10500214661.92402,47.655,-122.3035,60.0,4.483333333333333
2026-01-20T23:04:30+00:00,SAT-65906,212.63723810754155,38.10774472804535,1227.7628697516168,-6.119376547784653,214326.45164055077,10.5,10500214326.451641,47.655,-122.3035,60.0,4.5
2026-01-20T23:04:31+00:00,SAT-65906,212.61485725400087,38.29762998459049,1221.659811541293,-6.109646776762883,213985.6739024778,10.5,10500213985.673903,47.655,-122.3035,60.0,4.516666666666667
2026-01-20T23:04:32+00:00,SAT-65906,212.59244102397363,38.48915604741049,1215.5664571559348,-6.099762780969224,213639.4945605231,10.5,10500213639.49456,47.655,-122.3035,60.0,4.533333333333333
2026-01-20T23:04:33+00:00,SAT-65906,212.56998864814076,38.68234505359055,1209.4829604090482,-6.089721670838358,213287.81240988645,10.5,10500213287.81241,47.655,-122.3035,60.0,4.55
2026-01-20T23:04:34+00:00,SAT-65906,212.54749933377573,38.87721947540761,1203.4094779959987,-6.079520596762735,212930.52764525753,10.5,10500212930.527645,47.655,-122.3035,60.0,4.566666666666666
2026-01-20T23:04:35+00:00,SAT-65906,212.52497226358398,39.073802128024525,1197.3461694541606,-6.069156612626911,212567.5370812116,10.5,10500212567.53708,47.655,-122.3035,60.0,4.583333333333333
2026-01-20T23:04:36+00:00,SAT-65906,212.50240659482316,39.27211617290631,1191.2931972591675,-6.058626664591413,212198.7337593724,10.5,10500212198.733759,47.655,-122.3035,60.0,4.6
2026-01-20T23:04:37+00:00,SAT-65906,212.4798014584272,39.47218512081962,1185.2507269323482,-6.047927728285627,211824.0117534881,10.5,10500211824.011753,47.655,-122.3035,60.0,4.616666666666666
2026-01-20T23:04:38+00:00,SAT-65906,212.45715595769403,39.67403283939898,1179.218927011338,-6.037056624173097,211443.25970274248,10.5,10500211443.259703,47.655,-122.3035,60.0,4.633333333333334
2026-01-20T23:04:39+00:00,SAT-65906,212.4344691674429,39.87768355463942,1173.1979692048296,-6.0260101572204725,211056.3657035527,10.5,10500211056.365704,47.655,-122.3035,60.0,4.65
2026-01-20T23:04:40+00:00,SAT-65906,212.4117401326902,40.08316185701592,1167.1880284080282,-6.014785077519376,210663.21593038022,10.5,10500210663.21593,47.655,-122.3035,60.0,4.666666666666667
2026-01-20T23:04:41+00:00,SAT-65906,212.3889678674326,40.29049270637243,1161.1892827573824,-6.003378020257767,210263.6925332743,10.5,10500210263.692533,47.655,-122.3035,60.0,4.683333333333334
2026-01-20T23:04:42+00:00,SAT-65906,212.3661513534668,40.499701434713366,1155.2019137451787,-5.9917855875146095,209857.67650266705,10.5,10500209857.676502,47.655,-122.3035,60.0,4.7
2026-01-20T23:04:43+00:00,SAT-65906,212.34328953897085,40.71081375181748,1149.2261062525638,-5.980004305138705,209445.04615908783,10.5,10500209445.04616,47.655,-122.3035,60.0,4.716666666666667
2026-01-20T23:04:44+00:00,SAT-65906,212.32038133709233,40.92385574937137,1143.2620486255723,-5.96803061791792,209025.6769839692,10.5,10500209025.676985,47.655,-122.3035,60.0,4.733333333333333
2026-01-20T23:04:45+00:00,SAT-65906,212.29742562450818,41.138853904912565,1137.3099327559687,-5.955860890580773,208599.44165472675,10.5,10500208599.441654,47.655,-122.3035,60.0,4.75
2026-01-20T23:04:46+00:00,SAT-65906,212.27442123986793,41.35583508575175,1131.3699541610963,-5.943491444990625,208166.21134745676,10.5,10500208166.211348,47.655,-122.3035,60.0,4.766666666666667
2026-01-20T23:04:47+00:00,SAT-65906,212.25136698208982,41.57482655426228,1125.4423120266256,-5.930918499694578,207725.8536196834,10.5,10500207725.85362,47.655,-122.3035,60.0,4.783333333333333
2026-01-20T23:04:48+00:00,SAT-65906,212.22826160868175,41.795855970906544,1119.5272093095969,-5.918138187374488,207278.23302156632,10.5,10500207278.23302,47.655,-122.3035,60.0,4.8
2026-01-20T23:04:49+00:00,SAT-65906,212.20510383398846,42.01895139784365,1113.6248528240553,-5.905146584923143,206823.2121492963,10.5,10500206823.212149,47.655,-122.3035,60.0,4.816666666666666
2026-01-20T23:04:50+00:00,SAT-65906,212.1818923271778,42.24414130359282,1107.7354532966922,-5.891939684692752,206360.65063809542,10.5,10500206360.650639,47.655,-122.3035,60.0,4.833333333333333
2026-01-20T23:04:51+00:00,SAT-65906,212.15862571027256,42.471454566591866,1101.8592254511584,-5.878513376347816,205890.4045266278,10.5,10500205890.404526,47.655,-122.3035,60.0,4.85
2026-01-20T23:04:52+00:00,SAT-65906,212.13530255606088,42.70092047793488,1095.996388110481,-5.864863505676316,205412.32831681616,10.5,10500205412.328318,47.655,-122.3035,60.0,4.866666666666666
2026-01-20T23:04:53+00:00,SAT-65906,212.1119213857665,42.93256874632156,1090.1471642408196,-5.850985779403454,204926.27164001658,10.5,10500204926.27164,47.655,-122.3035,60.0,4.883333333333334
2026-01-20T23:04:54+00:00,SAT-65906,212.0884806668372,43.166429499164906,1084.3117810901613,-5.836875876345547,204432.08315009793,10.5,10500204432.08315,47.655,-122.3035,60.0,4.9
2026-01-20T23:04:55+00:00,SAT-65906,212.06497881027988,43.40253328797211,1078.4904702161527,-5.8225293332026204,203929.60652341534,10.5,10500203929.606524,47.655,-122.3035,60.0,4.916666666666667
2026-01-20T23:04:56+00:00,SAT-65906,212.04141416820215,43.640911089032194,1072.6834676278388,-5.807941636269591,203418.68367092378,10.5,10500203418.68367,47.655,-122.3035,60.0,4.933333333333334
2026-01-20T23:04:57+00:00,SAT-65906,212.01778503089906,43.881594307644484,1066.8910138359324,-5.7931081516726834,202899.15229476246,10.5,10500202899.152294,47.655,-122.3035,60.0,4.95
2026-01-20T23:04:58+00:00,SAT-65906,211.99408962402615,44.12461477933382,1061.1133539726643,-5.77802419166759,202370.8482102965,10.5,10500202370.84821,47.655,-122.3035,60.0,4.966666666666667
2026-01-20T23:04:59+00:00,SAT-65906,211.97032610536084,44.37000477364435,1055.3507378455076,-5.7626849258429305,201833.60223608682,10.5,10500201833.602236,47.655,-122.3035,60.0,4.983333333333333
2026-01-20T23:05:00+00:00,SAT-65906,211.94649256166778,44.617796993985564,1049.603420079467,-5.747085462382942,201287.24304005303,10.5,10500201287.24304,47.655,-122.3035,60.0,5.0
2026-01-20T23:05:01+00:00,SAT-65906,211.92258700511667,44.868024580681734,1043.8716601783171,-5.7312208075701125,200731.59572108445,10.5,10500200731.59572,47.655,-122.3035,60.0,5.016666666666667
2026-01-20T23:05:02+00:00,SAT-65906,211.89860736961836,45.12072111207934,1038.155722626234,-5.715085859244015,200166.4815799407,10.5,10500200166.48158,47.655,-122.3035,60.0,5.033333333333333
2026-01-20T23:05:03+00:00,SAT-65906,211.87455150692784,45.37592060507353,1032.4558769959478,-5.698675411266264,199591.71827563382,10.5,10500199591.718275,47.655,-122.3035,60.0,5.05
2026-01-20T23:05:04+00:00,SAT-65906,211.8504171825437,45.63365751551665,1026.772398052445,-5.681984198696058,199007.12140766598,10.5,10500199007.121408,47.655,-122.3035,60.0,5.066666666666666
2026-01-20T23:05:05+00:00,SAT-65906,211.82620207115212,45.893966740387505,1021.1055658116121,-5.665006758787353,198412.49964756353,10.5,10500198412.499647,47.655,-122.3035,60.0,5.083333333333333
2026-01-20T23:05:06+00:00,SAT-65906,211.80190375227536,46.15688361322961,1015.4556657375149,-5.6477376632282885,197807.66287288332,10.5,10500197807.662872,47.655,-122.3035,60.0,5.1
2026-01-20T23:05:07+00:00,SAT-65906,211.77751970487145,46.42244390994527,1009.8229887080552,-5.630171235525118,197192.4122688028,10.5,10500197192.41227,47.655,-122.3035,60.0,5.116666666666666
2026-01-20T23:05:08+00:00,SAT-65906,211.75304730251676,46.69068384103943,1004.2078312624914,-5.61230179652268,196566.54892728536,10.5,10500196566.548927,47.655,-122.3035,60.0,5.133333333333334
2026-01-20T23:05:09+00:00,SAT-65906,211.72848380746245,46.9616400549115,998.6104956040929,-5.594123523937525,195929.86892733644,10.5,10500195929.868927,47.655,-122.3035,60.0,5.15
2026-01-20T23:05:10+00:00,SAT-65906,211.70382636479076,47.23534963411341,993.0312897428859,-5.5756304688715135,195282.16391337934,10.5,10500195282.163914,47.655,-122.3035,60.0,5.166666666666667
2026-01-20T23:05:11+00:00,SAT-65906,211.67907199609706,47.511850091782634,987.4705276219313,-5.55681658928862,194623.22226775467,10.5,10500194623.222267,47.655,-122.3035,60.0,5.183333333333334
2026-01-20T23:05:12+00:00,SAT-65906,211.6542175926812,47.79117936918604,981.928529210214,-5.5376757311328015,193952.8284493882,10.5,10500193952.82845,47.655,-122.3035,60.0,5.2
2026-01-20T23:05:13+00:00,SAT-65906,211.62925990829783,48.07337583175633,976.4056206143642,-5.518201652825835,193270.76385180865,10.5,10500193270.763851,47.655,-122.3035,60.0,5.216666666666667
2026-01-20T23:05:14+00:00,SAT-65906,211.60419555140737,48.35847826581198,970.902134165946,-5.49838794251059,192576.80390465725,10.5,10500192576.803905,47.655,-122.3035,60.0,5.233333333333333
2026-01-20T23:05:15+00:00,SAT-65906,211.57902097706656,48.64652587027855,965.4184085912821,-5.4782281181696915,191870.7215802666,10.5,10500191870.72158,47.655,-122.3035,60.0,5.25
2026-01-20T23:05:16+00:00,SAT-65906,211.55373247803297,48.93755825288535,959.9547890814275,-5.4577155875105845,191152.285988666,10.5,10500191152.285988,47.655,-122.3035,60.0,5.266666666666667
2026-01-20T23:05:17+00:00,SAT-65906,211.5283261753074,49.231615423577225,954.5116274021503,-5.436843625210762,190421.2615806132,10.5,10500190421.261581,47.655,-122.3035,60.0,5.283333333333333
2026-01-20T23:05:18+00:00,SAT-65906,211.50279800812308,49.52873778588407,949.0892820266068,-5.4156053811385965,189677.40843552264,10.5,10500189677.408436,47.655,-122.3035,60.0,5.3
2026-01-20T23:05:19+00:00,SAT-65906,211.4771437231614,49.828966127792945,943.688118259818,-5.393993909126713,188920.48326923046,10.5,10500188920.483269,47.655,-122.3035,60.0,5.316666666666666
2026-01-20T23:05:20+00:00,SAT-65906,211.451358862938,50.13234161332689,938.3085083344489,-5.372002159298374,188150.23916523255,10.5,10500188150.239164,47.655,-122.3035,60.0,5.333333333333333
2026-01-20T23:05:21+00:00,SAT-65906,211.42543875329224,50.43890577275661,932.9508315142419,-5.349622922124816,187366.42361533514,10.5,10500187366.423615,47.655,-122.3035,60.0,5.35
2026-01-20T23:05:22+00:00,SAT-65906,211.39937849023732,50.748700488591595,927.6154742532428,-5.326848934486134,186568.7822343563,10.5,10500186568.782234,47.655,-122.3035,60.0,5.366666666666666
2026-01-20T23:05:23+00:00,SAT-65906,211.37317292536517,51.06176798654364,922.3028302492487,-5.303672733213653,185757.05363055985,10.5,10500185757.05363,47.655,-122.3035,60.0,5.383333333333334
2026-01-20T23:05:24+00:00,SAT-65906,211.3468166507352,51.37815081679664,917.0133006433235,-5.280086825246867,184930.97536527124,10.5,10500184930.975365,47.655,-122.3035,60.0,5.4
2026-01-20T23:05:25+00:00,SAT-65906,211.32030398194766,51.697891844047334,911.7472940496107,-5.256083562841083,184090.27958212135,10.5,10500184090.279583,47.655,-122.3035,60.0,5.416666666666667
2026-01-20T23:05:26+00:00,SAT-65906,211.2936289403901,52.02103422890719,906.5052267096038,-5.2316551762538355,183234.69415186314,10.5,10500183234.69415,47.655,-122.3035,60.0,5.433333333333334
2026-01-20T23:05:27+00:00,SAT-65906,211.26678523393915,52.34762140977846,901.28752261382,-5.206793818791706,182363.94425010157,10.5,10500182363.94425,47.655,-122.3035,60.0,5.45
2026-01-20T23:05:28+00:00,SAT-65906,211.23976623598415,52.67769708611675,896.094613578545,-5.18149149281035,181477.74976550168,10.5,10500181477.749765,47.655,-122.3035,60.0,5.466666666666667
2026-01-20T23:05:29+00:00,SAT-65906,211.2125649630062,53.01130519551489,890.9269393963822,-5.155740113872411,180575.82754687016,10.5,10500180575.827547,47.655,-122.3035,60.0,5.483333333333333
2026-01-20T23:05:30+00:00,SAT-65906,211.1851740501221,53.34848989319757,885.7849479228134,-5.129531480836122,179657.8903555315,10.5,10500179657.890356,47.655,-122.3035,60.0,5.5
2026-01-20T23:05:31+00:00,SAT-65906,211.15758572466285,53.68929552790527,880.669095192593,-5.102857292040581,178723.64743220492,10.5,10500178723.647432,47.655,-122.3035,60.0,5.516666666666667
2026-01-20T23:05:32+00:00,SAT-65906,211.12979177753178,54.03376661703765,875.5798455199978,-5.075709155635188,177772.80485878492,10.5,10500177772.80486,47.655,-122.3035,60.0,5.533333333333333
2026-01-20T23:05:33+00:00,SAT-65906,211.10178353203162,54.38194782064772,870.5176715887776,-5.048078562265503,176805.06460168448,10.5,10500176805.064602,47.655,-122.3035,60.0,5.55
2026-01-20T23:05:34+00:00,SAT-65906,211.07355181013895,54.733883911580605,865.4830545693449,-5.019956892718522,175820.12477960496,10.5,10500175820.124779,47.655,-122.3035,60.0,5.566666666666666
2026-01-20T23:05:35+00:00,SAT-65906,211.04508689574504,55.0896197439465,860.4764842283402,-4.991335473526112,174817.68161100362,10.5,10500174817.68161,47.655,-122.3035,60.0,5.583333333333333
2026-01-20T23:05:36+00:00,SAT-65906,211.01637849448858,55.449200223406315,855.4984589827434,-4.9622055105617795,173797.4270883715,10.5,10500173797.427088,47.655,-122.3035,60.0,5.6
2026-01-20T23:05:37+00:00,SAT-65906,210.98741569012338,55.81267027042814,850.5494860202099,-4.932558133713059,172759.0505428496,10.5,10500172759.050543,47.655,-122.3035,60.0,5.616666666666666
2026-01-20T23:05:38+00:00,SAT-65906,210.95818689679732,56.180074784328895,845.6300813748534,-4.902384387812718,171702.23832660104,10.5,10500171702.238327,47.655,-122.3035,60.0,5.633333333333334
2026-01-20T23:05:39+00:00,SAT-65906,210.9286798068567,56.55145860413277,840.7407700120749,-4.871675246701061,170626.67430533274,10.5,10500170626.674305,47.655,-122.3035,60.0,5.65
2026-01-20T23:05:40+00:00,SAT-65906,210.89888133371852,56.926866467853706,835.882085899365,-4.840421629781073,169532.04043812625,10.5,10500169532.040438,47.655,-122.3035,60.0,5.666666666666667
2026-01-20T23:05:41+00:00,SAT-65906,210.8687775490923,57.30634297034784,831.0545720605967,-4.808614356933472,168418.0151983725,10.5,10500168418.015198,47.655,-122.3035,60.0,5.683333333333334
2026-01-20T23:05:42+00:00,SAT-65906,210.83835361438463,57.68993251477523,826.2587806752816,-4.776244222384552,167284.27616093596,10.5,10500167284.276161,47.655,-122.3035,60.0,5.7
2026-01-20T23:05:43+00:00,SAT-65906,210.80759370482988,58.07767926680449,821.4952731041568,-4.743301951282994,166130.4984812908,10.5,10500166130.498482,47.655,-122.3035,60.0,5.716666666666667
2026-01-20T23:05:44+00:00,SAT-65906,210.77648092629292,58.469627102338535,816.7646199580772,-4.709778237302922,164956.35621253913,10.5,10500164956.356213,47.655,-122.3035,60.0,5.733333333333333
2026-01-20T23:05:45+00:00,SAT-65906,210.74499722321426,58.8658195549614,812.0674011294071,-4.675663741304487,163761.52225849897,10.5,10500163761.522259,47.655,-122.3035,60.0,5.75
2026-01-20T23:05:46+00:00,SAT-65906,210.71312327708014,59.266299760024786,807.4042058247462,-4.640949090017326,162545.66832759322,10.5,10500162545.668327,47.655,-122.3035,60.0,5.766666666666667
2026-01-20T23:05:47+00:00,SAT-65906,210.68083839394512,59.67111039501927,802.7756325989689,-4.605624891334416,161308.46546850543,10.5,10500161308.46547,47.655,-122.3035,60.0,5.783333333333333
2026-01-20T23:05:48+00:00,SAT-65906,210.6481203798091,60.080293617609364,798.1822893740114,-4.56968177883048,160049.58562940249,10.5,10500160049.585629,47.655,-122.3035,60.0,5.8
2026-01-20T23:05:49+00:00,SAT-65906,210.61494540196995,60.49389100392442,793.6247934132577,-4.533110333603753,158768.69892050256,10.5,10500158768.698921,47.655,-122.3035,60.0,5.816666666666666
2026-01-20T23:05:50+00:00,SAT-65906,210.5812878351807,60.91194347584917,789.103771373877,-4.495901222784674,157465.4784652357,10.5,10500157465.478466,47.655,-122.3035,60.0,5.833333333333333
2026-01-20T23:05:51+00:00,SAT-65906,210.5471200894463,61.33449123689728,784.6198592210196,-4.458045086066805,156139.59642607634,10.5,10500156139.596426,47.655,-122.3035,60.0,5.85
2026-01-20T23:05:52+00:00,SAT-65906,210.512412418337,61.761573693525186,780.1737022551823,-4.419532642591667,154790.72774810268,10.5,10500154790.727749,47.655,-122.3035,60.0,5.866666666666666
2026-01-20T23:05:53+00:00,SAT-65906,210.47713270377776,62.193229382062725,775.765955032971,-4.380354627429283,153418.54793427614,10.5,10500153418.547934,47.655,-122.3035,60.0,5.883333333333334
2026-01-20T23:05:54+00:00,SAT-65906,210.441246215088,62.629495885145055,771.3972813512148,-4.3405019088954955,152022.73715439063,10.5,10500152022.737154,47.655,-122.3035,60.0,5.9
2026-01-20T23:05:55+00:00,SAT-65906,210.40471533737875,63.07040975516309,767.0683541140763,-4.299965389625209,150602.9767802387,10.5,10500150602.97678,47.655,-122.3035,60.0,5.916666666666667
2026-01-20T23:05:56+00:00,SAT-65906,210.36749926607013,63.51600642323766,762.7798552988235,-4.258736071299265,149158.95165262057,10.5,10500149158.951653,47.655,-122.3035,60.0,5.933333333333334
2026-01-20T23:05:57+00:00,SAT-65906,210.32955366138202,63.966320109614884,758.5324758570478,-4.21680510808146,147690.3519529345,10.5,10500147690.351954,47.655,-122.3035,60.0,5.95
2026-01-20T23:05:58+00:00,SAT-65906,210.29083025680387,64.42138373488933,754.3269155625878,-4.174163789481123,146196.87260295183,10.5,10500146196.872602,47.655,-122.3035,60.0,5.966666666666667
2026-01-20T23:05:59+00:00,SAT-65906,210.25127641441637,64.88122882448923,750.1638828765454,-4.130803519613043,144678.212538412,10.5,10500144678.212538,47.655,-122.3035,60.0,5.983333333333333
2026-01-20T23:06:00+00:00,SAT-65906,210.21083461885468,65.34588540554407,746.0440948329845,-4.086715919610749,143134.07829596856,10.5,10500143134.078297,47.655,-122.3035,60.0,6.0
2026-01-20T23:06:01+00:00,SAT-65906,210.16944189855863,65.81538190969206,741.9682768224927,-4.041892805838102,141564.18325006717,10.5,10500141564.18325,47.655,-122.3035,60.0,6.016666666666667
2026-01-20T23:06:02+00:00,SAT-65906,210.12702916306347,66.28974506836794,737.9371623974702,-3.9963261701565274,139968.24692182062,10.5,10500139968.246922,47.655,-122.3035,60.0,6.033333333333333
2026-01-20T23:06:03+00:00,SAT-65906,210.083520441477,66.76899979994586,733.9514930971008,-3.95000829490986,138345.9990062643,10.5,10500138345.999006,47.655,-122.3035,60.0,6.05
2026-01-20T23:06:04+00:00,SAT-65906,210.03883200377803,67.25316910493021,730.012018157644,-3.9029316793996833,136697.17679721172,10.5,10500136697.176798,47.655,-122.3035,60.0,6.066666666666666
2026-01-20T23:06:05+00:00,SAT-65906,209.9928713444871,67.74227394651035,726.1194942960561,-3.855089145801124,135021.52889687373,10.5,10500135021.528896,47.655,-122.3035,60.0,6.083333333333333
2026-01-20T23:06:06+00:00,SAT-65906,209.9455360018968,68.23633313834894,722.274685387977,-3.806473798695219,133318.81379851056,10.5,10500133318.813799,47.655,-122.3035,60.0,6.1
2026-01-20T23:06:07+00:00,SAT-65906,209.89671218168044,68.73536322127428,718.4783621860784,-3.757079101006857,131588.80254610008,10.5,10500131588.802546,47.655,-122.3035,60.0,6.116666666666666
2026-01-20T23:06:08+00:00,SAT-65906,209.84627314551497,69.23937834371841,714.7313019626743,-3.7068988347737717,129831.27736030171,10.5,10500129831.27736,47.655,-122.3035,60.0,6.133333333333334
2026-01-20T23:06:09+00:00,SAT-65906,209.79407731709904,69.74839013046675,711.0342881914598,-3.6559272328913335,128046.03625271654,10.5,10500128046.036253,47.655,-122.3035,60.0,6.15
2026-01-20T23:06:10+00:00,SAT-65906,209.73996604481428,70.26240756302505,707.3881100978562,-3.6041588925676824,126232.88999471982,10.5,10500126232.889996,47.655,-122.3035,60.0,6.166666666666667
2026-01-20T23:06:11+00:00,SAT-65906,209.68376094809648,70.78143684153207,703.7935622956686,-3.551588860660301,124391.66510630886,10.5,10500124391.665106,47.655,-122.3035,60.0,6.183333333333334
2026-01-20T23:06:12+00:00,SAT-65906,209.62526075254456,71.30548125141992,700.2514443386368,-3.4982126790905417,122522.2054467117,10.5,10500122522.205446,47.655,-122.3035,60.0,6.2
2026-01-20T23:06:13+00:00,SAT-65906,209.56423749544334,71.83454102977248,696.7625602266905,-3.444026368867599,120624.37165483925,10.5,10500120624.371655,47.655,-122.3035,60.0,6.216666666666667
2026-01-20T23:06:14+00:00,SAT-65906,209.50043195151844,72.36861322177938,693.3277179281398,-3.3890264805754535,118698.04291755153,10.5,10500118698.042917,47.655,-122.3035,60.0,6.233333333333333
2026-01-20T23:06:15+00:00,SAT-65906,209.43354808426145,72.90769153643775,689.9477288515127,-3.333210141117144,116743.11860683971,10.5,10500116743.118607,47.655,-122.3035,60.0,6.25
2026-01-20T23:06:16+00:00,SAT-65906,209.36324627210803,73.45176620088722,686.6234072707718,-3.2765750463126677,114759.51802057347,10.5,10500114759.51802,47.655,-122.3035,60.0,6.266666666666667
2026-01-20T23:06:17+00:00,SAT-65906,209.28913498251885,74.00082380362228,683.355569757916,-3.219119527583778,112747.1827180845,10.5,10500112747.182718,47.655,-122.3035,60.0,6.283333333333333
2026-01-20T23:06:18+00:00,SAT-65906,209.21076046153297,74.55484713733277,680.1450345490724,-3.160842543664401,110706.07622983035,10.5,10500110706.07623,47.655,-122.3035,60.0,6.3
2026-01-20T23:06:19+00:00,SAT-65906,209.1275938655995,75.1138150271433,676.9926209188577,-3.101743759446873,108636.18681892312,10.5,10500108636.18682,47.655,-122.3035,60.0,6.316666666666666
2026-01-20T23:06:20+00:00,SAT-65906,209.03901506209428,75.67770215684214,673.8991484761027,-3.0418235293871656,106537.52689991034,10.5,10500106537.5269,47.655,-122.3035,60.0,6.333333333333333
2026-01-20T23:06:21+00:00,SAT-65906,208.94429204907433,76.24647887280456,670.8654364761273,-2.981082949663481,104410.13486558941,10.5,10500104410.134865,47.655,-122.3035,60.0,6.35
2026-01-20T23:06:22+00:00,SAT-65906,208.84255454632498,76.82011097281276,667.8923030809963,-2.9195238933157093,102254.07631774028,10.5,10500102254.076317,47.655,-122.3035,60.0,6.366666666666666
2026-01-20T23:06:23+00:00,SAT-65906,208.73275973675206,77.3985594697308,664.9805645847293,-2.8571490075080312,100069.44397125005,10.5,10500100069.443972,47.655,-122.3035,60.0,6.383333333333334
2026-01-20T23:06:24+00:00,SAT-65906,208.61364729734714,77.98178031224775,662.1310346412414,-2.7939617939080663,97856.36046933074,10.5,10500097856.36047,47.655,-122.3035,60.0,6.4
2026-01-20T23:06:25+00:00,SAT-65906,208.48367959641513,78.56972406401944,659.344523412117,-2.7299665827881205,95614.9774764356,10.5,10500095614.977476,47.655,-122.3035,60.0,6.416666666666667
2026-01-20T23:06:26+00:00,SAT-65906,208.3409610246702,79.16233549757145,656.6218367402164,-2.665168578258524,93345.47726252174,10.5,10500093345.477262,47.655,-122.3035,60.0,6.433333333333334
2026-01-20T23:06:27+00:00,SAT-65906,208.18312744240473,79.75955308271423,653.9637752781665,-2.599573896797554,91048.07405253108,10.5,10500091048.074053,47.655,-122.3035,60.0,6.45
2026-01-20T23:06:28+00:00,SAT-65906,208.0071919876353,80.36130831696883,651.3711335784271,-2.53318957534038,88723.01430969952,10.5,10500088723.014309,47.655,-122.3035,60.0,6.466666666666667
2026-01-20T23:06:29+00:00,SAT-65906,207.80932574942216,80.96752480879161,648.8446991752876,-2.4660235919797544,86370.57746058247,10.5,10500086370.577461,47.655,-122.3035,60.0,6.483333333333333
2026-01-20T23:06:30+00:00,SAT-65906,207.58453880498243,81.57811698416485,646.3852516462199,-2.3980848895371087,83991.07672061464,10.5,10500083991.076721,47.655,-122.3035,60.0,6.5
2026-01-20T23:06:31+00:00,SAT-65906,207.326204543389,82.19298819719049,643.9935616497214,-2.329383394046516,81584.85974149629,10.5,10500081584.859741,47.655,-122.3035,60.0,6.516666666666667
2026-01-20T23:06:32+00:00,SAT-65906,207.02532955353072,82.81202786684338,641.6703899447258,-2.259930046786882,79152.30973309629,10.5,10500079152.309732,47.655,-122.3035,60.0,6.533333333333333
2026-01-20T23:06:33+00:00,SAT-65906,206.66939500594447,83.43510697040688,639.4164863780637,-2.1897367666273184,76693.8441446277,10.5,10500076693.844145,47.655,-122.3035,60.0,6.55
2026-01-20T23:06:34+00:00,SAT-65906,206.24044490172068,84.0620706160087,637.2325889094807,-2.1188165207558285,74209.91714186552,10.5,10500074209.917141,47.655,-122.3035,60.0,6.566666666666666
2026-01-20T23:06:35+00:00,SAT-65906,205.7117820604139,84.6927252412933,635.1194225661135,-2.0471833071215833,71701.01899220102,10.5,10500071701.018991,47.655,-122.3035,60.0,6.583333333333333
2026-01-20T23:06:36+00:00,SAT-65906,205.04192948289955,85.32681518663637,633.0776984144776,-1.974852151878326,69167.67597509881,10.5,10500069167.675976,47.655,-122.3035,60.0,6.6
2026-01-20T23:06:37+00:00,SAT-65906,204.162806131697,85.9639767221615,631.1081125350042,-1.901839126613654,66610.45098553936,10.5,10500066610.450985,47.655,-122.3035,60.0,6.616666666666666
2026-01-20T23:06:38+00:00,SAT-65906,202.95446502903826,86.60363948353213,629.2113449793949,-1.8281613320924697,64029.94296464566,10.5,10500064029.942965,47.655,-122.3035,60.0,6.633333333333334
2026-01-20T23:06:39+00:00,SAT-65906,201.18460728213586,87.24478909748079,627.388058744188,-1.7538369287262754,61426.78796684702,10.5,10500061426.787968,47.655,-122.3035,60.0,6.65
2026-01-20T23:06:40+00:00,SAT-65906,198.33936330248383,87.88529636256932,625.6388987139384,-1.6788850890558995,58801.657495623,10.5,10500058801.657495,47.655,-122.3035,60.0,6.666666666666667
2026-01-20T23:06:41+00:00,SAT-65906,193.03026252702458,88.5195165077137,623.9644906517867,-1.6033260009958443,56155.258617134285,10.5,10500056155.258617,47.655,-122.3035,60.0,6.683333333333334
2026-01-20T23:06:42+00:00,SAT-65906,180.06437355228317,89.12568061644387,622.3654401867934,-1.527180875385032,53488.334224681654,10.5,10500053488.334225,47.655,-122.3035,60.0,6.7
2026-01-20T23:06:43+00:00,SAT-65906,132.32528381628575,89.54959627161291,620.8423317937427,-1.4504718989133305,50801.66138999391,10.5,10500050801.66139,47.655,-122.3035,60.0,6.716666666666667
2026-01-20T23:06:44+00:00,SAT-65906,67.94559240241863,89.27918154623585,619.3957278198932,-1.3732222402896905,48096.05157926204,10.5,10500048096.051579,47.655,-122.3035,60.0,6.733333333333333
2026-01-20T23:06:45+00:00,SAT-65906,49.840978337806895,88.68608131532585,618.0261675055776,-1.295455991189803,45372.34858487645,10.5,10500045372.348585,47.655,-122.3035,60.0,6.75
2026-01-20T23:06:46+00:00,SAT-65906,43.230782786764905,88.04184333370114,616.7341660636977,-1.217198185987097,42631.429216489894,10.5,10500042631.429216,47.655,-122.3035,60.0,6.766666666666667
2026-01-20T23:06:47+00:00,SAT-65906,39.89475848326146,87.38199718200798,615.5202137395398,-1.138474727593438,39874.20070364511,10.5,10500039874.200705,47.655,-122.3035,60.0,6.783333333333333
2026-01-20T23:06:48+00:00,SAT-65906,37.89099769823122,86.71447490048793,614.3847749445533,-1.0593123750167626,37101.600259990555,10.5,10500037101.60026,47.655,-122.3035,60.0,6.8
2026-01-20T23:06:49+00:00,SAT-65906,36.55373526081642,86.04204608437993,613.3282874025366,-0.979738695433163,34314.59340464199,10.5,10500034314.593405,47.655,-122.3035,60.0,6.816666666666666
2026-01-20T23:06:50+00:00,SAT-65906,35.59621676167429,85.36598489881922,612.3511613436245,-0.8997820341228886,31514.17290921418,10.5,10500031514.172909,47.655,-122.3035,60.0,6.833333333333333
2026-01-20T23:06:51+00:00,SAT-65906,34.87520020426786,84.6870069765152,611.4537787282594,-0.8194714547174254,28701.3567050208,10.5,10500028701.356705,47.655,-122.3035,60.0,6.85
2026-01-20T23:06:52+00:00,SAT-65906,34.3113167719016,84.0055823391116,610.6364925307545,-0.7388367057585079,25877.1867118296,10.5,10500025877.186712,47.655,-122.3035,60.0,6.866666666666666
2026-01-20T23:06:53+00:00,SAT-65906,33.85708946742353,83.32206009366882,609.8996260562114,-0.6579081513155746,23042.726407792194,10.5,10500023042.726408,47.655,-122.3035,60.0,6.883333333333334
2026-01-20T23:06:54+00:00,SAT-65906,33.48239554809923,82.63672476848252,609.2434723266327,-0.5767167395598715,20199.05972877627,10.5,10500020199.059729,47.655,-122.3035,60.0,6.9
2026-01-20T23:06:55+00:00,SAT-65906,33.16720881572839,81.94982421931401,608.6682934983783,-0.49529392918210835,17347.288491200594,10.5,10500017347.28849,47.655,-122.3035,60.0,6.916666666666667
2026-01-20T23:06:56+00:00,SAT-65906,32.89769999982018,81.26158448409217,608.1743203530073,-0.4136716368008586,14488.530550054782,10.5,10500014488.53055,47.655,-122.3035,60.0,6.933333333333334
2026-01-20T23:06:57+00:00,SAT-65906,32.66401361557345,80.57221811919536,607.7617518405713,-0.33188217623576216,11623.917671989944,10.5,10500011623.917671,47.655,-122.3035,60.0,6.95
2026-01-20T23:06:58+00:00,SAT-65906,32.45893720482816,79.8819290707942,607.4307546834721,-0.24995819525131574,8754.593319818658,10.5,10500008754.593319,47.655,-122.3035,60.0,6.966666666666667
2026-01-20T23:06:59+00:00,SAT-65906,32.27707149149238,79.19091560368182,607.1814630434081,-0.16793261253063377,5881.710445069484,10.5,10500005881.710445,47.655,-122.3035,60.0,6.983333333333333
2026-01-20T23:07:00+00:00,SAT-65906,32.11429456855167,78.49937208294438,607.0139782511776,-0.08583854951657072,3006.429100774752,10.5,10500003006.4291,47.655,-122.3035,60.0,7.0
2026-01-20T23:07:01+00:00,SAT-65906,31.967405406358203,77.80749006885561,606.9283686044598,-0.003709267089570677,129.91422366099718,10.5,10500000129.914223,47.655,-122.3035,60.0,7.016666666666667
2026-01-20T23:07:02+00:00,SAT-65906,31.83388038921664,77.11545896321806,606.9246692287492,0.07842190381614707,-2746.6667959657084,10.5,10499997253.333204,47.655,-122.3035,60.0,7.033333333333333
2026-01-20T23:07:03+00:00,SAT-65906,31.711703186207433,76.42346637255339,607.0028820074884,0.16052162823490984,-5622.146426600743,10.5,10499994377.853573,47.655,-122.3035,60.0,7.05
2026-01-20T23:07:04+00:00,SAT-65906,31.599243427059086,75.73169828897784,607.1629755780481,0.24255663525465063,-8495.359380167702,10.5,10499991504.64062,47.655,-122.3035,60.0,7.066666666666666
2026-01-20T23:07:05+00:00,SAT-65906,31.495168596462126,75.04033913580808,607.4048853956086,0.3244937840479966,-11365.144924706427,10.5,10499988634.855076,47.655,-122.3035,60.0,7.083333333333333
2026-01-20T23:07:06+00:00,SAT-65906,31.398379003847772,74.34957173075003,607.7285138628991,0.4063001332648504,-14230.349314794736,10.5,10499985769.650684,47.655,-122.3035,60.0,7.1
2026-01-20T23:07:07+00:00,SAT-65906,31.307959072754993,73.65957718368057,608.133730529142,0.4879430029001427,-17089.827958418813,10.5,10499982910.17204,47.655,-122.3035,60.0,7.116666666666666
2026-01-20T23:07:08+00:00,SAT-65906,31.223140366514098,72.97053476034729,608.620372350701,0.5693900390669495,-19942.447685601783,10.5,10499980057.552315,47.655,-122.3035,60.0,7.133333333333334
2026-01-20T23:07:09+00:00,SAT-65906,31.14327317795758,72.28262171520818,609.1882440163305,0.6506092833815774,-22787.089178562866,10.5,10499977212.910822,47.655,-122.3035,60.0,7.15
2026-01-20T23:07:10+00:00,SAT-65906,31.06780445490787,71.59601309968879,609.8371183416231,0.7315692234272457,-25622.648739169013,10.5,10499974377.351261,47.655,-122.3035,60.0,7.166666666666667
2026-01-20T23:07:11+00:00,SAT-65906,30.996260474618158,70.91088157155492,610.5667367137878,0.8122388561229925,-28448.040508382037,10.5,10499971551.959492,47.655,-122.3035,60.0,7.183333333333334
2026-01-20T23:07:12+00:00,SAT-65906,30.928233114676058,70.22739719172031,611.3768095996279,0.8925877511376861,-31262.198687285534,10.5,10499968737.801313,47.655,-122.3035,60.0,7.2
2026-01-20T23:07:13+00:00,SAT-65906,30.86336887871736,69.54572721539026,612.2670171167624,0.9725860934583846,-34064.0790280089,10.5,10499965935.920973,47.655,-122.3035,60.0,7.216666666666667
2026-01-20T23:07:14+00:00,SAT-65906,30.801360054535994,68.8660358942871,613.2370096473051,1.0522047448280096,-36852.66098553453,10.5,10499963147.339014,47.655,-122.3035,60.0,7.233333333333333
2026-01-20T23:07:15+00:00,SAT-65906,30.741937534813587,68.18848427519993,614.2864085128134,1.1314152795461225,-39626.9489715925,10.5,10499960373.05103,47.655,-122.3035,60.0,7.25
2026-01-20T23:07:16+00:00,SAT-65906,30.684864948179783,67.51323001339053,615.4148066849475,1.2101900514667774,-42385.97470120867,10.5,10499957614.0253,47.655,-122.3035,60.0,7.266666666666667
2026-01-20T23:07:17+00:00,SAT-65906,30.62993382804316,66.84042718096183,616.6217695629437,1.2885022082854645,-45128.797693094,10.5,10499954871.202307,47.655,-122.3035,60.0,7.283333333333333
2026-01-20T23:07:18+00:00,SAT-65906,30.576959613880213,66.17022610075692,617.9068357653404,1.3663257552115544,-47854.507499722764,10.5,10499952145.4925,47.655,-122.3035,60.0,7.3
2026-01-20T23:07:19+00:00,SAT-65906,30.525778319603038,65.50277317689105,619.2695179852047,1.4436355686007831,-50562.22418479995,10.5,10499949437.775816,47.655,-122.3035,60.0,7.316666666666666
2026-01-20T23:07:20+00:00,SAT-65906,30.476243744946938,64.83821074761171,620.7093038589559,1.5204074482100276,-53251.10015344445,10.5,10499946748.899847,47.655,-122.3035,60.0,7.333333333333333
2026-01-20T23:07:21+00:00,SAT-65906,30.42822512749515,64.17667694044326,622.225656887304,1.5966181373484747,-55920.3208579683,10.5,10499944079.679142,47.655,-122.3035,60.0,7.35
2026-01-20T23:07:22+00:00,SAT-65906,30.38160515749897,63.51830554414481,623.8180173762862,1.672245332763892,-58569.10514413564,10.5,10499941430.894855,47.655,-122.3035,60.0,7.366666666666666
2026-01-20T23:07:23+00:00,SAT-65906,30.336278291646845,62.86322589940732,625.4858033881627,1.7472677249862578,-61196.70666416734,10.5,10499938803.293335,47.655,-122.3035,60.0,7.383333333333334
2026-01-20T23:07:24+00:00,SAT-65906,30.292149313776616,62.21156279417355,627.2284117325489,1.8216650184185763,-63802.41458040632,10.5,10499936197.585419,47.655,-122.3035,60.0,7.4
2026-01-20T23:07:25+00:00,SAT-65906,30.249132101566705,61.56343637256124,629.0452189775851,1.8954179178118808,-66385.55309161497,10.5,10499933614.446909,47.655,-122.3035,60.0,7.416666666666667
2026-01-20T23:07:26+00:00,SAT-65906,30.207148566766104,60.91896206635044,630.9355824476162,1.9685081736091097,-68945.4830211094,10.5,10499931054.51698,47.655,-122.3035,60.0,7.433333333333334
2026-01-20T23:07:27+00:00,SAT-65906,30.16612773913799,60.27825052785159,632.8988412660956,2.040918565007917,-71481.60122354755,10.5,10499928518.398777,47.655,-122.3035,60.0,7.45
2026-01-20T23:07:28+00:00,SAT-65906,30.126004973722562,59.64140758403034,634.9343173815969,2.1126329100476955,-73993.34093821935,10.5,10499926006.659061,47.655,-122.3035,60.0,7.466666666666667
2026-01-20T23:07:29+00:00,SAT-65906,30.086721261393176,59.008534201546325,637.0413166038844,2.183636069366717,-76480.1719206376,10.5,10499923519.82808,47.655,-122.3035,60.0,7.483333333333333
2026-01-20T23:07:30+00:00,SAT-65906,30.04822262776766,58.379726463202594,639.2191296437329,2.2539139284465843,-78941.59982066372,10.5,10499921058.400179,47.655,-122.3035,60.0,7.5
2026-01-20T23:07:31+00:00,SAT-65906,30.010459607601245,57.755075561166024,641.4670331350369,2.3234534394936057,-81377.1676493705,10.5,10499918622.83235,47.655,-122.3035,60.0,7.516666666666667
2026-01-20T23:07:32+00:00,SAT-65906,29.97338678284231,57.134667789131726,643.7842906986918,2.39224253016202,-83786.45258214338,10.5,10499916213.547419,47.655,-122.3035,60.0,7.533333333333333
2026-01-20T23:07:33+00:00,SAT-65906,29.936962377832696,56.518584568426,646.1701539154402,2.460270186458612,-86169.06886235085,10.5,10499913830.931137,47.655,-122.3035,60.0,7.55
2026-01-20T23:07:34+00:00,SAT-65906,29.90114790052229,55.90690246005109,648.6238633814015,2.5275263601003486,-88524.6645566169,10.5,10499911475.335443,47.655,-122.3035,60.0,7.566666666666666
2026-01-20T23:07:35+00:00,SAT-65906,29.86590782656719,55.29969320788764,651.1446496712082,2.5940020144927707,-90852.9231651788,10.5,10499909147.076836,47.655,-122.3035,60.0,7.583333333333333
2026-01-20T23:07:36+00:00,SAT-65906,29.83120931822681,54.69702377632612,653.7317343469957,2.6596890533177415,-93153.56112072802,10.5,10499906846.438879,47.655,-122.3035,60.0,7.6
2026-01-20T23:07:37+00:00,SAT-65906,29.797021975488434,54.098956410050235,656.3843308961713,2.724580354612381,-95426.3289819986,10.5,10499904573.671019,47.655,-122.3035,60.0,7.616666666666666
2026-01-20T23:07:38+00:00,SAT-65906,29.763317613484652,53.505548690231784,659.1016457031714,2.788669694874826,-97671.00877562996,10.5,10499902328.991224,47.655,-122.3035,60.0,7.633333333333334
2026-01-20T23:07:39+00:00,SAT-65906,29.73007006466858,52.91685361097655,661.8828789455265,2.851951783374659,-99887.41519786305,10.5,10499900112.584803,47.655,-122.3035,60.0,7.65
2026-01-20T23:07:40+00:00,SAT-65906,29.697255001079984,52.332919650858486,664.7272255241455,2.9144221723885866,-102075.39247061432,10.5,10499897924.607529,47.655,-122.3035,60.0,7.666666666666667
2026-01-20T23:07:41+00:00,SAT-65906,29.664849775866365,51.75379086503983,667.6338759040744,2.9760773006034285,-104234.81586163184,10.5,10499895765.18414,47.655,-122.3035,60.0,7.683333333333334
2026-01-20T23:07:42+00:00,SAT-65906,29.63283328008158,51.17950696950761,670.6020169985429,3.0369144117186204,-106365.58883361073,10.5,10499893634.411167,47.655,-122.3035,60.0,7.7
2026-01-20T23:07:43+00:00,SAT-65906,29.601185814493206,50.6101034420804,673.6308329718303,3.096931554104692,-108467.64303223154,10.5,10499891532.356968,47.655,-122.3035,60.0,7.716666666666667
2026-01-20T23:07:44+00:00,SAT-65906,29.56988897377125,50.04561162281798,676.7195060417907,3.156127561461946,-110540.93760874541,10.5,10499889459.062391,47.655,-122.3035,60.0,7.733333333333333
2026-01-20T23:07:45+00:00,SAT-65906,29.53892554168107,49.48605881775794,679.8672172630888,3.2145019727158743,-112585.45641437278,10.5,10499887414.543585,47.655,-122.3035,60.0,7.75
2026-01-20T23:07:46+00:00,SAT-65906,29.508279396995047,48.93146841527473,683.073147230544,3.272055077199803,-114601.20958279054,10.5,10499885398.790417,47.655,-122.3035,60.0,7.766666666666667
2026-01-20T23:07:47+00:00,SAT-65906,29.47793542729031,48.38185999283827,686.336476827538,3.328787823765884,-116588.23034681474,10.5,10499883411.769653,47.655,-122.3035,60.0,7.783333333333333
2026-01-20T23:07:48+00:00,SAT-65906,29.447879451503493,47.83724943712443,689.6563878837737,3.3847018143764456,-118546.57481394238,10.5,10499881453.425186,47.655,-122.3035,60.0,7.8
2026-01-20T23:07:49+00:00,SAT-65906,29.418098149144512,47.29764906236572,693.0320638266453,3.4397992919027747,-120476.32153901328,10.5,10499879523.678461,47.655,-122.3035,60.0,7.816666666666666
2026-01-20T23:07:50+00:00,SAT-65906,29.388578995825785,46.763067727651816,696.4626903204363,3.494083060399036,-122377.56873186541,10.5,10499877622.431269,47.655,-122.3035,60.0,7.833333333333333
2026-01-20T23:07:51+00:00,SAT-65906,29.35931020488154,46.233510963441425,699.9474558260076,3.5475565177063455,-124250.43539926753,10.5,10499875749.5646,47.655,-122.3035,60.0,7.85
2026-01-20T23:07:52+00:00,SAT-65906,29.330280673511023,45.70898108922067,703.4855521930001,3.6002235799930626,-126095.05870200096,10.5,10499873904.941298,47.655,-122.3035,60.0,7.866666666666666
2026-01-20T23:07:53+00:00,SAT-65906,29.301479933985586,45.18947733875866,707.0761751767799,3.6520886376602437,-127911.59241048206,10.5,10499872088.407589,47.655,-122.3035,60.0,7.883333333333334
2026-01-20T23:07:54+00:00,SAT-65906,29.272898109108592,44.67499598709621,710.7185249114063,3.7031566277916776,-129700.20944226896,10.5,10499870299.790558,47.655,-122.3035,60.0,7.9
2026-01-20T23:07:55+00:00,SAT-65906,29.24452587044708,44.165530463288164,714.4118064548572,3.753432863827837,-131461.0958965228,10.5,10499868538.904104,47.655,-122.3035,60.0,7.916666666666667
2026-01-20T23:07:56+00:00,SAT-65906,29.21635440133469,43.66107148221832,718.1552301643815,3.802923095540895,-133194.4531545867,10.5,10499866805.546844,47.655,-122.3035,60.0,7.933333333333334
2026-01-20T23:07:57+00:00,SAT-65906,29.188375362039885,43.161607163104286,721.9480121316676,3.8516334858262375,-134900.49706712598,10.5,10499865099.502934,47.655,-122.3035,60.0,7.95
2026-01-20T23:07:58+00:00,SAT-65906,29.160580857722127,42.667123146568755,725.789374594865,3.8995705350433996,-136579.45530422815,10.5,10499863420.544695,47.655,-122.3035,60.0,7.966666666666667
2026-01-20T23:07:59+00:00,SAT-65906,29.132963409352932,42.177602716550254,729.6785462751483,3.9467410978768966,-138231.56794594016,10.5,10499861768.432055,47.655,-122.3035,60.0,7.983333333333333
2026-01-20T23:08:00+00:00,SAT-65906,29.10551592650614,41.693026914967994,733.6147627300975,3.993152324610154,-139857.08542543327,10.5,10499860142.914574,47.655,-122.3035,60.0,8.0
2026-01-20T23:08:01+00:00,SAT-65906,29.078231682554517,41.21337465860035,737.5972666485087,4.038811680289211,-141456.26920019687,10.5,10499858543.7308,47.655,-122.3035,60.0,8.016666666666667
2026-01-20T23:08:02+00:00,SAT-65906,29.05110429138601,40.73862284856954,741.6253081643172,4.083726856447226,-143029.38866025733,10.5,10499856970.61134,47.655,-122.3035,60.0,8.033333333333333
2026-01-20T23:08:03+00:00,SAT-65906,29.024127686394262,40.26874648513923,745.6981450824806,4.12790582422171,-144576.72298856816,10.5,10499855423.277012,47.655,-122.3035,60.0,8.05
2026-01-20T23:08:04+00:00,SAT-65906,28.997296100391644,39.803718771229256,749.8150431578376,4.171356752482473,-146098.5582935044,10.5,10499853901.441706,47.655,-122.3035,60.0,8.066666666666666
2026-01-20T23:08:05+00:00,SAT-65906,28.970604047523157,39.343511220217614,753.9752762923134,4.214087996554614,-147595.18721389398,10.5,10499852404.812786,47.655,-122.3035,60.0,8.083333333333334
2026-01-20T23:08:06+00:00,SAT-65906,28.944046306376535,38.888093759731106,758.1781267208772,4.256108122809494,-149066.90978029772,10.5,10499850933.09022,47.655,-122.3035,60.0,8.1
2026-01-20T23:08:07+00:00,SAT-65906,28.91761790392334,38.437434827959684,762.4228852220259,4.2974258286474445,-150514.0306124651,10.5,10499849485.969387,47.655,-122.3035,60.0,8.116666666666667
2026-01-20T23:08:08+00:00,SAT-65906,28.891314101130654,37.99150147347472,766.7088512484636,4.3380499474703065,-151936.85909349401,10.5,10499848063.140907,47.655,-122.3035,60.0,8.133333333333333
2026-01-20T23:08:09+00:00,SAT-65906,28.865130379330576,37.55025944957516,771.0353330627407,4.377989478095043,-153335.71040001928,10.5,10499846664.2896,47.655,-122.3035,60.0,8.15
2026-01-20T23:08:10+00:00,SAT-65906,28.839062427228058,37.113673300999295,775.4016479022275,4.417253453307261,-154710.90089840163,10.5,10499845289.099102,47.655,-122.3035,60.0,8.166666666666666
2026-01-20T23:08:11+00:00,SAT-65906,28.81310612957195,36.68170645902628,779.8071220129926,4.455851036501489,-156062.75152947856,10.5,10499843937.24847,47.655,-122.3035,60.0,8.183333333333334
2026-01-20T23:08:12+00:00,SAT-65906,28.78725755587496,36.25432132219168,784.2510907800635,4.493791485152252,-157391.58652916696,10.5,10499842608.413471,47.655,-122.3035,60.0,8.2
2026-01-20T23:08:13+00:00,SAT-65906,28.761512949928388,35.83147933652018,788.7328988212553,4.531084047111184,-158697.72979634945,10.5,10499841302.270205,47.655,-122.3035,60.0,8.216666666666667
2026-01-20T23:08:14+00:00,SAT-65906,28.735868720722312,35.41314108076025,793.2518999775741,4.567738097201641,-159981.50967699537,10.5,10499840018.490322,47.655,-122.3035,60.0,8.233333333333333
2026-01-20T23:08:15+00:00,SAT-65906,28.710321432841507,34.99926633487573,797.8074574398498,4.603762949293896,-161243.2523822394,10.5,10499838756.747618,47.655,-122.3035,60.0,8.25
2026-01-20T23:08:16+00:00,SAT-65906,28.68486779875337,34.589814161277715,802.3989436879457,4.6391680199666405,-162483.2877204994,10.5,10499837516.71228,47.655,-122.3035,60.0,8.266666666666667
2026-01-20T23:08:17+00:00,SAT-65906,28.6595046703194,34.18474296748896,807.0257405931924,4.673962687611188,-163701.94416270964,10.5,10499836298.055838,47.655,-122.3035,60.0,8.283333333333333
2026-01-20T23:08:18+00:00,SAT-65906,28.63422903178711,33.78401057726584,811.6872393803033,4.708156315183328,-164899.5496391872,10.5,10499835100.450361,47.655,-122.3035,60.0,8.3
2026-01-20T23:08:19+00:00,SAT-65906,28.609037992930578,33.38757429579345,816.3828406119795,4.741758298935375,-166076.43324643423,10.5,10499833923.566753,47.655,-122.3035,60.0,8.316666666666666
2026-01-20T23:08:20+00:00,SAT-65906,28.583928782271972,32.99539096716784,821.1119542221177,4.774777970838612,-167232.92182955926,10.5,10499832767.07817,47.655,-122.3035,60.0,8.333333333333334
2026-01-20T23:08:21+00:00,SAT-65906,28.558898741282825,32.607417036463495,825.8739994517007,4.8072246419445985,-168369.3415009736,10.5,10499831630.658499,47.655,-122.3035,60.0,8.35
2026-01-20T23:08:22+00:00,SAT-65906,28.53394531857878,32.22360860469223,830.6684048279335,4.839107578392365,-169486.01680006186,10.5,10499830513.9832,47.655,-122.3035,60.0,8.366666666666667
2026-01-20T23:08:23+00:00,SAT-65906,28.509066064559775,31.843921482421806,835.4946081194502,4.870436003943933,-170583.27078198642,10.5,10499829416.729218,47.655,-122.3035,60.0,8.383333333333333
2026-01-20T23:08:24+00:00,SAT-65906,28.48425862636819,31.46831123993597,840.3520562940502,4.901219087321626,-171661.42457418682,10.5,10499828338.575426,47.655,-122.3035,60.0,8.4
2026-01-20T23:08:25+00:00,SAT-65906,28.459520743097766,31.09673325541336,845.2402054638058,4.931465929295356,-172720.79692412156,10.5,10499827279.203075,47.655,-122.3035,60.0,8.416666666666666
2026-01-20T23:08:26+00:00,SAT-65906,28.434850241363154,30.729142761048177,850.1585208172896,4.961185545011314,-173761.7035803442,10.5,10499826238.29642,47.655,-122.3035,60.0,8.433333333333334
2026-01-20T23:08:27+00:00,SAT-65906,28.410245031178633,30.365494887620066,855.1064765341808,4.9903868988815026,-174784.45851448266,10.5,10499825215.541485,47.655,-122.3035,60.0,8.45
2026-01-20T23:08:28+00:00,SAT-65906,28.38570310185266,30.005744703743243,860.0835557346653,5.019078898601242,-175789.37371170637,10.5,10499824210.626287,47.655,-122.3035,60.0,8.466666666666667
