satellites_20260121_005943/SAT-45578.csv

timestamp,satellite,azimuth_deg,elevation_deg,distance_km,relative_velocity_kms,doppler_shift_hz,tx_freq_ghz,rx_freq_hz,ue_lat,ue_lon,ue_alt_m,time_minutes
2026-01-20T23:02:06+00:00,SAT-45578,119.48187525200119,30.04866156908032,585.5165449173378,-2.0280011637561337,71029.17919115697,10.5,10500071029.179192,47.655,-122.3035,60.0,2.1
2026-01-20T23:02:07+00:00,SAT-45578,118.84274446033997,30.461472635954117,583.4939517566851,-1.9506812571972678,68321.10900058504,10.5,10500068321.109001,47.655,-122.3035,60.0,2.1166666666666667
2026-01-20T23:02:08+00:00,SAT-45578,118.19390360233008,30.87370020600149,581.5484723161737,-1.8725809719085493,65585.70664589491,10.5,10500065585.706646,47.655,-122.3035,60.0,2.1333333333333333
2026-01-20T23:02:09+00:00,SAT-45578,117.53527555420126,31.285121885605097,579.6808848935235,-1.7937216862493175,62823.72088766101,10.5,10500062823.720888,47.655,-122.3035,60.0,2.15
2026-01-20T23:02:10+00:00,SAT-45578,116.86679045486068,31.69550913934841,577.8919464651042,-1.7141261629531697,60035.94897310019,10.5,10500060035.948973,47.655,-122.3035,60.0,2.1666666666666665
2026-01-20T23:02:11+00:00,SAT-45578,116.1883863233656,32.10462755646363,576.1823913052523,-1.6338185175759,57223.23553098507,10.5,10500057223.23553,47.655,-122.3035,60.0,2.183333333333333
2026-01-20T23:02:12+00:00,SAT-45578,115.50000970373115,32.51223714693253,574.5529296370565,-1.552824226614438,54386.4728560036,10.5,10500054386.472857,47.655,-122.3035,60.0,2.2
2026-01-20T23:02:13+00:00,SAT-45578,114.80161631790459,32.91809267806818,573.0042462750465,-1.4711700827508551,51526.599341214845,10.5,10500051526.59934,47.655,-122.3035,60.0,2.216666666666667
2026-01-20T23:02:14+00:00,SAT-45578,114.09317174395977,33.321944040726564,571.5369993125163,-1.3888842007938984,48644.59968614665,10.5,10500048644.599686,47.655,-122.3035,60.0,2.2333333333333334
2026-01-20T23:02:15+00:00,SAT-45578,113.37465209169453,33.72353665954685,570.1518188029245,-1.3059959521914435,45741.50260314473,10.5,10500045741.502604,47.655,-122.3035,60.0,2.25
2026-01-20T23:02:16+00:00,SAT-45578,112.64604470282207,34.122611930235465,568.8493055066056,-1.222535942416874,42818.380025347986,10.5,10500042818.380026,47.655,-122.3035,60.0,2.2666666666666666
2026-01-20T23:02:17+00:00,SAT-45578,111.9073488507623,34.518907695801786,567.6300296600351,-1.1385359653606142,39876.34550928712,10.5,10500039876.345509,47.655,-122.3035,60.0,2.283333333333333
2026-01-20T23:02:18+00:00,SAT-45578,111.15857644381396,34.91215875676639,566.4945297905822,-1.0540289599149475,36916.552714301266,10.5,10500036916.552713,47.655,-122.3035,60.0,2.3
2026-01-20T23:02:19+00:00,SAT-45578,110.39975272261404,35.30209741711478,565.4433115745602,-0.9690489459759323,33940.193161054405,10.5,10500033940.193161,47.655,-122.3035,60.0,2.316666666666667
2026-01-20T23:02:20+00:00,SAT-45578,109.63091695701078,35.68845405960958,564.4768467591069,-0.8836309755208352,30948.49451806012,10.5,10500030948.494518,47.655,-122.3035,60.0,2.3333333333333335
2026-01-20T23:02:21+00:00,SAT-45578,108.85212312350966,36.07095775619113,563.5955721328542,-0.7978110512484337,27942.71775212088,10.5,10500027942.717752,47.655,-122.3035,60.0,2.35
2026-01-20T23:02:22+00:00,SAT-45578,108.06344058008023,36.4493369007872,562.7998885777424,-0.7116260834971635,24924.15561941927,10.5,10500024924.155619,47.655,-122.3035,60.0,2.3666666666666667
2026-01-20T23:02:23+00:00,SAT-45578,107.26495469402565,36.823319880647766,562.0901601638013,-0.6251137906945219,21894.129178835043,10.5,10500021894.129179,47.655,-122.3035,60.0,2.3833333333333333
2026-01-20T23:02:24+00:00,SAT-45578,106.45676746405503,37.19263576152231,561.4667133432152,-0.5383126370313457,18853.985609034666,10.5,10500018853.98561,47.655,-122.3035,60.0,2.4
2026-01-20T23:02:25+00:00,SAT-45578,105.63899809154655,37.557015002080476,560.9298362065493,-0.4512617432036827,15805.09508227411,10.5,10500015805.095081,47.655,-122.3035,60.0,2.4166666666666665
2026-01-20T23:02:26+00:00,SAT-45578,104.8117835177059,37.916190183558584,560.4797778279942,-0.36400080794727874,12748.848016204687,10.5,10500012748.848017,47.655,-122.3035,60.0,2.433333333333333
2026-01-20T23:02:27+00:00,SAT-45578,103.97527889966257,38.269896760148455,560.116747688868,-0.27657001185749613,9686.651705239728,10.5,10500009686.651705,47.655,-122.3035,60.0,2.45
2026-01-20T23:02:28+00:00,SAT-45578,103.12965804220842,38.617873816264904,559.8409151970421,-0.1890099305776261,6619.927280042096,10.5,10500006619.92728,47.655,-122.3035,60.0,2.466666666666667
2026-01-20T23:02:29+00:00,SAT-45578,102.27511376293083,38.95986483358653,559.6524092929461,-0.1013614439437425,3550.106525392631,10.5,10500003550.106525,47.655,-122.3035,60.0,2.4833333333333334
2026-01-20T23:02:30+00:00,SAT-45578,101.41185817153499,39.2956184677177,559.5513181461862,-0.013665636002435895,478.6283783882812,10.5,10500000478.628378,47.655,-122.3035,60.0,2.5
2026-01-20T23:02:31+00:00,SAT-45578,100.54012289204907,39.62488931676588,559.5376889518799,0.07403629715789066,-2593.064299695798,10.5,10499997406.9357,47.655,-122.3035,60.0,2.5166666666666666
2026-01-20T23:02:32+00:00,SAT-45578,99.66015918780597,39.94743868988799,559.6115278189119,0.16170314439612687,-5663.52812037497,10.5,10499994336.47188,47.655,-122.3035,60.0,2.533333333333333
2026-01-20T23:02:33+00:00,SAT-45578,98.77223799764104,40.26303536562618,559.772799754923,0.24929377759635785,-8731.322603058137,10.5,10499991268.677397,47.655,-122.3035,60.0,2.55
2026-01-20T23:02:34+00:00,SAT-45578,97.87664987090234,40.57145633730801,560.0214287491124,0.33676724630187904,-11795.013489531248,10.5,10499988204.986511,47.655,-122.3035,60.0,2.566666666666667
2026-01-20T23:02:35+00:00,SAT-45578,96.97370480806876,40.87248753673615,560.3572979494242,0.4240828734625934,-14853.176097436148,10.5,10499985146.823902,47.655,-122.3035,60.0,2.5833333333333335
2026-01-20T23:02:36+00:00,SAT-45578,96.06373198970905,41.16592453546208,560.7802499352242,0.5112003464705763,-17904.398508721162,10.5,10499982095.601492,47.655,-122.3035,60.0,2.6
2026-01-20T23:02:37+00:00,SAT-45578,95.14707939971665,41.45157321600192,561.2900870807708,0.5980798133976513,-20947.28494028805,10.5,10499979052.71506,47.655,-122.3035,60.0,2.6166666666666667
2026-01-20T23:02:38+00:00,SAT-45578,94.22411332708563,41.729250411689634,561.8865720146662,0.6846819716410502,-23980.45884873804,10.5,10499976019.541151,47.655,-122.3035,60.0,2.6333333333333333
2026-01-20T23:02:39+00:00,SAT-45578,93.29521775710106,41.99878450707827,562.5694281677162,0.7709681499261987,-27002.565802456196,10.5,10499972997.434198,47.655,-122.3035,60.0,2.65
2026-01-20T23:02:40+00:00,SAT-45578,92.36079365373176,42.260015993652814,563.3383404025759,0.8569003894136358,-30012.276322318874,10.5,10499969987.723679,47.655,-122.3035,60.0,2.6666666666666665
2026-01-20T23:02:41+00:00,SAT-45578,91.42125812755592,42.512797979169356,564.1929557242844,0.9424415385103333,-33008.28920238714,10.5,10499966991.710798,47.655,-122.3035,60.0,2.683333333333333
2026-01-20T23:02:42+00:00,SAT-45578,90.47704347606238,42.75699664976444,565.1328840853587,1.0275553082285516,-35989.33344880809,10.5,10499964010.666552,47.655,-122.3035,60.0,2.7
2026-01-20T23:02:43+00:00,SAT-45578,89.52859613877968,42.99249167185449,566.1576992460987,1.112206347107216,-38954.17090387834,10.5,10499961045.829096,47.655,-122.3035,60.0,2.716666666666667
2026-01-20T23:02:44+00:00,SAT-45578,88.57637554203927,43.21917653840273,567.2669397096136,1.19636032678882,-41901.59924330922,10.5,10499958098.400757,47.655,-122.3035,60.0,2.7333333333333334
2026-01-20T23:02:45+00:00,SAT-45578,87.62085283140475,43.436958858133934,568.4601097421977,1.2799839686690093,-44830.45290960788,10.5,10499955169.54709,47.655,-122.3035,60.0,2.75
2026-01-20T23:02:46+00:00,SAT-45578,86.66250954442052,43.64576057571212,569.7366804202835,1.363045135163132,-47739.606308617964,10.5,10499952260.393692,47.655,-122.3035,60.0,2.7666666666666666
2026-01-20T23:02:47+00:00,SAT-45578,85.70183617408796,43.84551813390197,571.0960907684196,1.4455128528133403,-50627.97461882804,10.5,10499949372.025381,47.655,-122.3035,60.0,2.783333333333333
2026-01-20T23:02:48+00:00,SAT-45578,84.73933068391963,44.03618256577243,572.537748920292,1.5273573699411034,-53494.5158106065,10.5,10499946505.48419,47.655,-122.3035,60.0,2.8
2026-01-20T23:02:49+00:00,SAT-45578,83.77549695374246,44.217719523070265,574.0610333372466,1.6085501935337367,-56338.2319381238,10.5,10499943661.768063,47.655,-122.3035,60.0,2.816666666666667
2026-01-20T23:02:50+00:00,SAT-45578,82.81084318016943,44.39010923842639,575.6652940635976,1.6890641345836388,-59158.17072732432,10.5,10499940841.829273,47.655,-122.3035,60.0,2.8333333333333335
2026-01-20T23:02:51+00:00,SAT-45578,81.8458802360699,44.553346423127,577.3498540271556,1.7688733072100242,-61953.42554516583,10.5,10499938046.574455,47.655,-122.3035,60.0,2.85
2026-01-20T23:02:52+00:00,SAT-45578,80.88112002533512,44.70744009830201,579.1140103388799,1.847953186339708,-64723.13741984441,10.5,10499935276.86258,47.655,-122.3035,60.0,2.8666666666666667
2026-01-20T23:02:53+00:00,SAT-45578,79.91707380908805,44.852413367088225,580.957035650056,1.9262806036165703,-67466.4948975267,10.5,10499932533.505102,47.655,-122.3035,60.0,2.8833333333333333
2026-01-20T23:02:54+00:00,SAT-45578,78.95425054978291,44.988303124970344,582.8781795053961,2.0038337620833926,-70182.73455656986,10.5,10499929817.265444,47.655,-122.3035,60.0,2.9
2026-01-20T23:02:55+00:00,SAT-45578,77.99315527206977,45.115159713458375,584.8766697107807,2.0805922494615112,-72871.14147263127,10.5,10499927128.858528,47.655,-122.3035,60.0,2.9166666666666665
2026-01-20T23:02:56+00:00,SAT-45578,77.03428745228851,45.233046520581276,586.9517137142437,2.156537039789192,-75531.04927605121,10.5,10499924468.950724,47.655,-122.3035,60.0,2.933333333333333
2026-01-20T23:02:57+00:00,SAT-45578,76.07813945305256,45.34203953124985,589.1024999885934,2.2316504966424704,-78161.8402646605,10.5,10499921838.159735,47.655,-122.3035,60.0,2.95
2026-01-20T23:02:58+00:00,SAT-45578,75.12519501206408,45.44222683202532,591.3281994172448,2.3059163251978356,-80762.94372481269,10.5,10499919237.056274,47.655,-122.3035,60.0,2.966666666666667
2026-01-20T23:02:59+00:00,SAT-45578,74.17592781563452,45.53370807297247,593.6279666322422,2.3793196359300763,-83333.8381623523,10.5,10499916666.161839,47.655,-122.3035,60.0,2.9833333333333334
2026-01-20T23:03:00+00:00,SAT-45578,73.23080011816202,45.616593895775026,596.0009414158098,2.451846862407483,-85874.04842345491,10.5,10499914125.951576,47.655,-122.3035,60.0,3.0
2026-01-20T23:03:01+00:00,SAT-45578,72.29026147715176,45.69100532727852,598.4462500199174,2.523485774155904,-88383.14614518086,10.5,10499911616.853855,47.655,-122.3035,60.0,3.0166666666666666
2026-01-20T23:03:02+00:00,SAT-45578,71.35474756939932,45.757073147528274,600.9630064986757,2.5942254380933805,-90860.74840475305,10.5,10499909139.251595,47.655,-122.3035,60.0,3.033333333333333
2026-01-20T23:03:03+00:00,SAT-45578,70.4246791148443,45.81493723543633,603.5503140022674,2.6640562163539463,-93306.51764333723,10.5,10499906693.482357,47.655,-122.3035,60.0,3.05
2026-01-20T23:03:04+00:00,SAT-45578,69.50046089852933,45.86474589819015,606.2072660687111,2.7329697042881236,-95720.15949455705,10.5,10499904279.840506,47.655,-122.3035,60.0,3.066666666666667
2026-01-20T23:03:05+00:00,SAT-45578,68.58248091515672,45.90665518818286,608.9329478537878,2.800958732840625,-98101.42286777128,10.5,10499901898.577133,47.655,-122.3035,60.0,3.0833333333333335
2026-01-20T23:03:06+00:00,SAT-45578,67.67110961499714,45.940828213534374,611.7264373633409,2.8680173127243203,-100450.09799280996,10.5,10499899549.902008,47.655,-122.3035,60.0,3.1
2026-01-20T23:03:07+00:00,SAT-45578,66.7666992721105,45.96743444586683,614.5868066298979,2.934140596542109,-102766.01509332213,10.5,10499897233.984907,47.655,-122.3035,60.0,3.1166666666666667
2026-01-20T23:03:08+00:00,SAT-45578,65.8695834672331,45.98664903044852,617.5131228515158,2.9993248673749693,-105049.04398708115,10.5,10499894950.956013,47.655,-122.3035,60.0,3.1333333333333333
2026-01-20T23:03:09+00:00,SAT-45578,64.9800766759937,45.998652102668096,620.5044495192445,3.0635674611433896,-107299.09136675345,10.5,10499892700.908634,47.655,-122.3035,60.0,3.15
2026-01-20T23:03:10+00:00,SAT-45578,64.09847397979276,46.00362811472179,623.5598474671582,3.126866768070148,-109516.10085113134,10.5,10499890483.899149,47.655,-122.3035,60.0,3.1666666666666665
2026-01-20T23:03:11+00:00,SAT-45578,63.22505087192995,46.00176517613536,626.6783759238468,3.1892221485281387,-111700.05003776799,10.5,10499888299.949963,47.655,-122.3035,60.0,3.183333333333333
2026-01-20T23:03:12+00:00,SAT-45578,62.36006317939811,45.99325441154674,629.8590934799788,3.250633937491364,-113850.95065886989,10.5,10499886149.049341,47.655,-122.3035,60.0,3.2
2026-01-20T23:03:13+00:00,SAT-45578,61.50374707014582,45.97828933826396,633.1010590603036,3.3111033403835504,-115968.84493347487,10.5,10499884031.155067,47.655,-122.3035,60.0,3.216666666666667
2026-01-20T23:03:14+00:00,SAT-45578,60.65631916944786,45.95706526688844,636.4033327917796,3.370632472319192,-118053.80694183946,10.5,10499881946.193058,47.655,-122.3035,60.0,3.2333333333333334
2026-01-20T23:03:15+00:00,SAT-45578,59.81797674130756,45.929778725996314,639.7649769108392,3.4292242499031853,-120105.93883580435,10.5,10499879894.061165,47.655,-122.3035,60.0,3.25
2026-01-20T23:03:16+00:00,SAT-45578,58.98889796694323,45.89662691402427,643.1850565627426,3.4868823381879257,-122125.36898100759,10.5,10499877874.63102,47.655,-122.3035,60.0,3.2666666666666666
2026-01-20T23:03:17+00:00,SAT-45578,58.16924229772974,45.857807179517636,646.6626405480287,3.5436111722790082,-124112.25271360758,10.5,10499875887.747286,47.655,-122.3035,60.0,3.283333333333333
2026-01-20T23:03:18+00:00,SAT-45578,57.35915085849708,45.813516529892254,650.1968020905149,3.5994158876257645,-126066.76989876284,10.5,10499873933.2301,47.655,-122.3035,60.0,3.3
2026-01-20T23:03:19+00:00,SAT-45578,56.558746916836704,45.76395117048074,653.7866195357738,3.6543022525367936,-127989.12256704048,10.5,10499872010.877434,47.655,-122.3035,60.0,3.316666666666667
2026-01-20T23:03:20+00:00,SAT-45578,55.76813640951314,45.70930607472788,657.4311769823038,3.7082766360189314,-129879.5337880007,10.5,10499870120.466211,47.655,-122.3035,60.0,3.3333333333333335
2026-01-20T23:03:21+00:00,SAT-45578,54.98740851090426,45.64977458516975,661.1295648806266,3.7613459949464723,-131738.24722080887,10.5,10499868261.752779,47.655,-122.3035,60.0,3.35
2026-01-20T23:03:22+00:00,SAT-45578,54.21663623319521,45.585548044886764,664.8808806195866,3.813517810910422,-133565.5249024291,10.5,10499866434.475098,47.655,-122.3035,60.0,3.3666666666666667
2026-01-20T23:03:23+00:00,SAT-45578,53.455877062836706,45.51681545993634,668.6842290496679,3.8648000466339485,-135361.64572110903,10.5,10499864638.354279,47.655,-122.3035,60.0,3.3833333333333333
2026-01-20T23:03:24+00:00,SAT-45578,52.70517362235459,45.44376319222008,672.5387229628442,3.9152011703065797,-137126.90626866632,10.5,10499862873.09373,47.655,-122.3035,60.0,3.4
2026-01-20T23:03:25+00:00,SAT-45578,51.964554339219326,45.36657468049941,676.4434835966966,3.964729962924951,-138861.61409274675,10.5,10499861138.385908,47.655,-122.3035,60.0,3.4166666666666665
2026-01-20T23:03:26+00:00,SAT-45578,51.23403415722024,45.2854301937377,680.3976409463871,4.013395696862938,-140566.0939511055,10.5,10499859433.90605,47.655,-122.3035,60.0,3.433333333333333
2026-01-20T23:03:27+00:00,SAT-45578,50.513615215425666,45.200506607466096,684.4003342547251,4.061207949657007,-142240.68128958257,10.5,10499857759.31871,47.655,-122.3035,60.0,3.45
2026-01-20T23:03:28+00:00,SAT-45578,49.803287559115596,45.111977210373084,688.4507123165163,4.108176601086494,-143885.7221398418,10.5,10499856114.27786,47.655,-122.3035,60.0,3.466666666666667
2026-01-20T23:03:29+00:00,SAT-45578,49.10302984329642,45.02001153590352,692.5479337799999,4.15431181809676,-145501.57259131578,10.5,10499854498.427408,47.655,-122.3035,60.0,3.4833333333333334
2026-01-20T23:03:30+00:00,SAT-45578,48.412810027914,44.92477521796582,696.6911674332483,4.19962406246797,-147088.5990597992,10.5,10499852911.40094,47.655,-122.3035,60.0,3.5
2026-01-20T23:03:31+00:00,SAT-45578,47.73258605853088,44.82642986874357,700.8795924982164,4.244123982000667,-148647.1744763072,10.5,10499851352.825523,47.655,-122.3035,60.0,3.5166666666666666
2026-01-20T23:03:32+00:00,SAT-45578,47.06230654829498,44.72513298044616,705.1123988162651,4.287822415728962,-150177.6784696635,10.5,10499849822.32153,47.655,-122.3035,60.0,3.533333333333333
2026-01-20T23:03:33+00:00,SAT-45578,46.40191143956296,44.62103784670601,709.3887870388855,4.330730417587951,-151680.4981954332,10.5,10499848319.501804,47.655,-122.3035,60.0,3.55
2026-01-20T23:03:34+00:00,SAT-45578,45.751332641111894,44.514293501941225,713.7079688420265,4.372859145744031,-153156.02445980252,10.5,10499846843.97554,47.655,-122.3035,60.0,3.566666666666667
2026-01-20T23:03:35+00:00,SAT-45578,45.11049465975803,44.40504468066953,718.0691670300486,4.414219921650671,-154604.65378796167,10.5,10499845395.346212,47.655,-122.3035,60.0,3.5833333333333335
2026-01-20T23:03:36+00:00,SAT-45578,44.479315198940114,44.2934317912856,722.4716156985749,4.454824100414002,-156026.7838837594,10.5,10499843973.216116,47.655,-122.3035,60.0,3.6
2026-01-20T23:03:37+00:00,SAT-45578,43.857705750995855,44.1795909078481,726.9145602680544,4.494683226695707,-157422.81909008176,10.5,10499842577.18091,47.655,-122.3035,60.0,3.6166666666666667
2026-01-20T23:03:38+00:00,SAT-45578,43.245572141723855,44.06365377109569,731.3972576728122,4.533808783177281,-158793.16157900626,10.5,10499841206.83842,47.655,-122.3035,60.0,3.6333333333333333
2026-01-20T23:03:39+00:00,SAT-45578,42.64281508352735,43.945747808444644,735.9189762992345,4.572212389142821,-160138.21830701164,10.5,10499839861.781693,47.655,-122.3035,60.0,3.65
2026-01-20T23:03:40+00:00,SAT-45578,42.049330674646185,43.82599615966226,740.4789961220063,4.609905617401766,-161458.39460283733,10.5,10499838541.605396,47.655,-122.3035,60.0,3.6666666666666665
2026-01-20T23:03:41+00:00,SAT-45578,41.46501089622624,43.704517717477366,745.0766086577614,4.646900102256876,-162754.0979489791,10.5,10499837245.902052,47.655,-122.3035,60.0,3.683333333333333
2026-01-20T23:03:42+00:00,SAT-45578,40.88974406862801,43.58142717410969,749.7111170264124,4.683207442174428,-164025.73457278736,10.5,10499835974.265427,47.655,-122.3035,60.0,3.7
2026-01-20T23:03:43+00:00,SAT-45578,40.32341529394343,43.456835078387236,754.3818359154076,4.718839215801778,-165273.71000747016,10.5,10499834726.289993,47.655,-122.3035,60.0,3.716666666666667
2026-01-20T23:03:44+00:00,SAT-45578,39.76590687031491,43.33084789941388,759.0880915599673,4.753806932441097,-166498.42735747382,10.5,10499833501.572643,47.655,-122.3035,60.0,3.7333333333333334
2026-01-20T23:03:45+00:00,SAT-45578,39.21709868656515,43.20356809768321,763.8292216739219,4.788122146838546,-167700.2913188855,10.5,10499832299.708681,47.655,-122.3035,60.0,3.75
2026-01-20T23:03:46+00:00,SAT-45578,38.67686857900907,43.07509419815979,768.6045754950355,4.821796250140154,-168879.70085782348,10.5,10499831120.299143,47.655,-122.3035,60.0,3.7666666666666666
2026-01-20T23:03:47+00:00,SAT-45578,38.145092688015865,42.94552087383689,773.4135136218421,4.854840594489382,-170037.05357437147,10.5,10499829962.946426,47.655,-122.3035,60.0,3.783333333333333
2026-01-20T23:03:48+00:00,SAT-45578,37.621645776696106,42.814939029464135,778.255407974746,4.887266501472855,-171172.74599838324,10.5,10499828827.254002,47.655,-122.3035,60.0,3.8
2026-01-20T23:03:49+00:00,SAT-45578,37.106401526782214,42.683435888141695,783.1296417655484,4.919085118346378,-172287.16855390996,10.5,10499827712.831446,47.655,-122.3035,60.0,3.816666666666667
2026-01-20T23:03:50+00:00,SAT-45578,36.59923282789681,42.55109508451064,788.0356093235791,4.950307548959727,-173380.71014473998,10.5,10499826619.289856,47.655,-122.3035,60.0,3.8333333333333335
2026-01-20T23:03:51+00:00,SAT-45578,36.10001203219115,42.417996756108444,792.9727160524084,4.980944803564601,-174453.75639646116,10.5,10499825546.243603,47.655,-122.3035,60.0,3.85
2026-01-20T23:03:52+00:00,SAT-45578,35.60861119462627,42.28421763763367,797.9403783364968,5.011007715699987,-175506.6867454346,10.5,10499824493.313255,47.655,-122.3035,60.0,3.8666666666666667
2026-01-20T23:03:53+00:00,SAT-45578,35.12490230228984,42.14983115847289,802.9380233649549,5.0405070552791855,-176539.87839958086,10.5,10499823460.121601,47.655,-122.3035,60.0,3.8833333333333333
2026-01-20T23:03:54+00:00,SAT-45578,34.64875747453768,42.01490753756595,807.9650890680866,5.069453459823234,-177553.70392988322,10.5,10499822446.29607,47.655,-122.3035,60.0,3.9
2026-01-20T23:03:55+00:00,SAT-45578,34.18004915292955,41.87951388035318,813.0210239853503,5.097857419296386,-178548.53073926247,10.5,10499821451.469261,47.655,-122.3035,60.0,3.9166666666666665
2026-01-20T23:03:56+00:00,SAT-45578,33.71865027612779,41.743714275990676,818.1052871181952,5.12572928110509,-179524.72123766184,10.5,10499820475.278763,47.655,-122.3035,60.0,3.933333333333333
2026-01-20T23:03:57+00:00,SAT-45578,33.2644344389463,41.60756989387754,823.217347787884,5.153079321306442,-180482.63533606852,10.5,10499819517.364664,47.655,-122.3035,60.0,3.95
2026-01-20T23:03:58+00:00,SAT-45578,32.81727603084702,41.471139077441386,828.3566855643337,5.179917567986184,-181422.62426046398,10.5,10499818577.37574,47.655,-122.3035,60.0,3.966666666666667
2026-01-20T23:03:59+00:00,SAT-45578,32.37705037611822,41.334477441862944,833.5227900188052,5.20625398961715,-182345.03714893348,10.5,10499817654.96285,47.655,-122.3035,60.0,3.9833333333333334
2026-01-20T23:04:00+00:00,SAT-45578,31.943633845000907,41.19763796527837,838.7151606644501,5.232098399977575,-183250.217721503,10.5,10499816749.782278,47.655,-122.3035,60.0,4.0
2026-01-20T23:04:01+00:00,SAT-45578,31.516903961257622,41.06067108125541,843.9333068020277,5.257460427536948,-184138.50320790245,10.5,10499815861.496792,47.655,-122.3035,60.0,4.016666666666667
2026-01-20T23:04:02+00:00,SAT-45578,31.096739500779563,40.92362477055286,849.1767473350912,5.282349545963305,-185010.22541606,10.5,10499814989.774584,47.655,-122.3035,60.0,4.033333333333333
2026-01-20T23:04:03+00:00,SAT-45578,30.683020577124942,40.78654465028825,854.4450106155987,5.306775140533319,-185865.7130580645,10.5,10499814134.286942,47.655,-122.3035,60.0,4.05
2026-01-20T23:04:04+00:00,SAT-45578,30.275628712316685,40.64947405951907,859.7376343557571,5.330746376175711,-186705.28712848728,10.5,10499813294.712872,47.655,-122.3035,60.0,4.066666666666666
2026-01-20T23:04:05+00:00,SAT-45578,29.87444690878854,40.51245414647377,865.0541654082631,5.354272313863099,-187529.26498091736,10.5,10499812470.73502,47.655,-122.3035,60.0,4.083333333333333
2026-01-20T23:04:06+00:00,SAT-45578,29.479359703933564,40.37552395067543,870.3941596626227,5.377361806025076,-188337.9566648848,10.5,10499811662.043335,47.655,-122.3035,60.0,4.1
2026-01-20T23:04:07+00:00,SAT-45578,29.090253224648848,40.23872048578399,875.7571818371649,5.400023615357283,-189131.66908705715,10.5,10499810868.330914,47.655,-122.3035,60.0,4.116666666666666
2026-01-20T23:04:08+00:00,SAT-45578,28.707015225989522,40.10207881718998,881.1428053895479,5.4222662953322125,-189910.70182622215,10.5,10499810089.298174,47.655,-122.3035,60.0,4.133333333333334
2026-01-20T23:04:09+00:00,SAT-45578,28.329535131728065,39.96563214064004,886.5506123080926,5.444098291950389,-190675.3506970448,10.5,10499809324.649303,47.655,-122.3035,60.0,4.15
2026-01-20T23:04:10+00:00,SAT-45578,27.957704061572233,39.82941185603199,891.9801930045978,5.465527846929718,-191425.9043593486,10.5,10499808574.09564,47.655,-122.3035,60.0,4.166666666666667
2026-01-20T23:04:11+00:00,SAT-45578,27.591414859347395,39.69344764156319,897.4311461106023,5.48656309597321,-192162.64775986693,10.5,10499807837.35224,47.655,-122.3035,60.0,4.183333333333334
2026-01-20T23:04:12+00:00,SAT-45578,27.230562109305037,39.55776752315889,902.903078371653,5.507212000275306,-192885.85973330497,10.5,10499807114.140266,47.655,-122.3035,60.0,4.2
2026-01-20T23:04:13+00:00,SAT-45578,26.87504215230806,39.42239794350288,908.3956044732608,5.5274823697664575,-193595.813816463,10.5,10499806404.186184,47.655,-122.3035,60.0,4.216666666666667
2026-01-20T23:04:14+00:00,SAT-45578,26.524753095988785,39.28736382833606,913.9083468900412,5.547381889530645,-194292.77917348998,10.5,10499805707.220827,47.655,-122.3035,60.0,4.233333333333333
2026-01-20T23:04:15+00:00,SAT-45578,26.17959481938606,39.15268864992139,919.4409357611999,5.566918043080579,-194977.01790865624,10.5,10499805022.982092,47.655,-122.3035,60.0,4.25
2026-01-20T23:04:16+00:00,SAT-45578,25.839468978550922,39.01839449038932,924.9930086894989,5.586098240588663,-195648.7895575444,10.5,10499804351.210442,47.655,-122.3035,60.0,4.266666666666667
2026-01-20T23:04:17+00:00,SAT-45578,25.504279001180535,38.88450209970315,930.5642106681127,5.604929672987015,-196308.34597701472,10.5,10499803691.654022,47.655,-122.3035,60.0,4.283333333333333
2026-01-20T23:04:18+00:00,SAT-45578,25.173930086879675,38.751030955348426,936.1541938619716,5.623419437876362,-196955.93575506762,10.5,10499803044.064245,47.655,-122.3035,60.0,4.3
2026-01-20T23:04:19+00:00,SAT-45578,24.848329197365814,38.617999316751245,941.7626175146804,5.641574484756609,-197591.802292586,10.5,10499802408.197708,47.655,-122.3035,60.0,4.316666666666666
2026-01-20T23:04:20+00:00,SAT-45578,24.52738504743635,38.4854242792099,947.389147800811,5.659401609587472,-198216.1836128261,10.5,10499801783.816387,47.655,-122.3035,60.0,4.333333333333333
2026-01-20T23:04:21+00:00,SAT-45578,24.211008094079762,38.35332182596755,953.0334576727728,5.676907445015044,-198829.31201911013,10.5,10499801170.68798,47.655,-122.3035,60.0,4.35
2026-01-20T23:04:22+00:00,SAT-45578,23.899110524007643,38.22170687866953,958.6952266979346,5.694098556353668,-199431.4174565176,10.5,10499800568.582544,47.655,-122.3035,60.0,4.366666666666666
2026-01-20T23:04:23+00:00,SAT-45578,23.59160623439046,38.090593343651285,964.3741409914712,5.7109813304052395,-200022.72361786704,10.5,10499799977.276382,47.655,-122.3035,60.0,4.383333333333334
2026-01-20T23:04:24+00:00,SAT-45578,23.288410818046525,37.959994159173654,970.0698930383287,5.727561997294232,-200603.44870847094,10.5,10499799396.551292,47.655,-122.3035,60.0,4.4
2026-01-20T23:04:25+00:00,SAT-45578,22.989441545993966,37.8299213403497,975.7821815369635,5.7438467201465055,-201173.80858706695,10.5,10499798826.191414,47.655,-122.3035,60.0,4.416666666666667
2026-01-20T23:04:26+00:00,SAT-45578,22.694617344219964,37.700386020299746,981.5107113325229,5.759841480776202,-201734.0127620893,10.5,10499798265.987238,47.655,-122.3035,60.0,4.433333333333334
2026-01-20T23:04:27+00:00,SAT-45578,22.40385877534766,37.57139849234966,987.2551932360171,5.77555215867859,-202284.26715833257,10.5,10499797715.732841,47.655,-122.3035,60.0,4.45
2026-01-20T23:04:28+00:00,SAT-45578,22.11708801533789,37.442968248818694,993.0153439222726,5.790984505004518,-202824.77320542678,10.5,10499797175.226795,47.655,-122.3035,60.0,4.466666666666667
2026-01-20T23:04:29+00:00,SAT-45578,21.834228830825374,37.31510401886962,998.7908858019305,5.806144154076543,-203355.72824118115,10.5,10499796644.271759,47.655,-122.3035,60.0,4.483333333333333
2026-01-20T23:04:30+00:00,SAT-45578,21.555206555238893,37.1878138046198,1004.5815469049295,5.82103659518998,-203877.32452393713,10.5,10499796122.675476,47.655,-122.3035,60.0,4.5
2026-01-20T23:04:31+00:00,SAT-45578,21.279948065744826,37.06110491647077,1010.3870607358655,5.83566724983981,-204389.75193738198,10.5,10499795610.248062,47.655,-122.3035,60.0,4.516666666666667
2026-01-20T23:04:32+00:00,SAT-45578,21.00838175617342,36.93498400530661,1016.2071662063724,5.850041380217626,-204893.19478572434,10.5,10499795106.805214,47.655,-122.3035,60.0,4.533333333333333
2026-01-20T23:04:33+00:00,SAT-45578,20.740437513946745,36.80945709540612,1022.0416074762428,5.864164138871944,-205387.83353300838,10.5,10499794612.166468,47.655,-122.3035,60.0,4.55
2026-01-20T23:04:34+00:00,SAT-45578,20.47604669433977,36.6845296149812,1027.8901338440778,5.878040593266897,-205873.84566326355,10.5,10499794126.154337,47.655,-122.3035,60.0,4.566666666666666
2026-01-20T23:04:35+00:00,SAT-45578,20.215142093651462,36.56020642490315,1033.7524996624293,5.891675681520503,-206351.40413027097,10.5,10499793648.59587,47.655,-122.3035,60.0,4.583333333333333
2026-01-20T23:04:36+00:00,SAT-45578,19.957657924196806,36.4364918472383,1039.628464208799,5.905074239734425,-206820.67831476755,10.5,10499793179.321686,47.655,-122.3035,60.0,4.6
2026-01-20T23:04:37+00:00,SAT-45578,19.703529788096645,36.31338969202567,1045.5177915838942,5.918240998810611,-207281.83391295126,10.5,10499792718.166086,47.655,-122.3035,60.0,4.616666666666666
2026-01-20T23:04:38+00:00,SAT-45578,19.452694651242783,36.19090328302745,1051.420250606708,5.9311805933982535,-207735.0332498413,10.5,10499792264.966751,47.655,-122.3035,60.0,4.633333333333334
2026-01-20T23:04:39+00:00,SAT-45578,19.205090817039714,36.06903548219194,1057.3356147185239,5.943897530016459,-208180.43416279944,10.5,10499791819.565838,47.655,-122.3035,60.0,4.65
2026-01-20T23:04:40+00:00,SAT-45578,18.960657901487757,35.94778871382968,1063.2636618551269,5.956396269695116,-208618.19289596245,10.5,10499791381.807104,47.655,-122.3035,60.0,4.666666666666667
2026-01-20T23:04:41+00:00,SAT-45578,18.71933680524718,35.82716498598861,1069.2041744014361,5.968681124374913,-209048.46047173272,10.5,10499790951.539528,47.655,-122.3035,60.0,4.683333333333334
2026-01-20T23:04:42+00:00,SAT-45578,18.481069689975502,35.70716591313838,1075.1569390428126,5.980756347826472,-209471.38587515085,10.5,10499790528.614124,47.655,-122.3035,60.0,4.7
2026-01-20T23:04:43+00:00,SAT-45578,18.245799951383212,35.58779273599897,1081.121746707045,5.992626054305571,-209887.11320485754,10.5,10499790112.886795,47.655,-122.3035,60.0,4.716666666666667
2026-01-20T23:04:44+00:00,SAT-45578,18.01347219566874,35.469046342210405,1087.0983924252057,6.004294325449559,-210295.78541705798,10.5,10499789704.214582,47.655,-122.3035,60.0,4.733333333333333
2026-01-20T23:04:45+00:00,SAT-45578,17.784032212257117,35.35092728392919,1093.0866752991208,6.015765126638983,-210697.54139615255,10.5,10499789302.458603,47.655,-122.3035,60.0,4.75
2026-01-20T23:04:46+00:00,SAT-45578,17.55742695001098,35.233435796413474,1099.0863983854222,6.027042348716343,-211092.51741590374,10.5,10499788907.482584,47.655,-122.3035,60.0,4.766666666666667
2026-01-20T23:04:47+00:00,SAT-45578,17.333604492303653,35.116571814918984,1105.0973686212085,6.038129748652948,-211480.84506133894,10.5,10499788519.154938,47.655,-122.3035,60.0,4.783333333333333
2026-01-20T23:04:48+00:00,SAT-45578,17.112514034487415,35.00033499211643,1111.1193966905316,6.049031054475726,-211862.65490373055,10.5,10499788137.345097,47.655,-122.3035,60.0,4.8
2026-01-20T23:04:49+00:00,SAT-45578,16.894105858096584,34.88472471262264,1117.152296995529,6.059749916292492,-212238.07478529416,10.5,10499787761.925215,47.655,-122.3035,60.0,4.816666666666666
2026-01-20T23:04:50+00:00,SAT-45578,16.6783313071657,34.76974010793099,1123.195887578711,6.070289869452365,-212607.22852891058,10.5,10499787392.771471,47.655,-122.3035,60.0,4.833333333333333
2026-01-20T23:04:51+00:00,SAT-45578,16.46514276630383,34.65538007136339,1129.2499900085118,6.080654370687952,-212970.2372039776,10.5,10499787029.762796,47.655,-122.3035,60.0,4.85
2026-01-20T23:04:52+00:00,SAT-45578,16.254493637816168,34.54164327170528,1135.314429300878,6.090846847897885,-213327.22087000532,10.5,10499786672.77913,47.655,-122.3035,60.0,4.866666666666666
2026-01-20T23:04:53+00:00,SAT-45578,16.04633831768563,34.428528165288974,1141.3890338905146,6.100870608251281,-213678.29535804552,10.5,10499786321.704641,47.655,-122.3035,60.0,4.883333333333334
2026-01-20T23:04:54+00:00,SAT-45578,15.840632175054731,34.31603300928021,1147.4736355104772,6.110728890307721,-214023.57409615375,10.5,10499785976.425903,47.655,-122.3035,60.0,4.9
2026-01-20T23:04:55+00:00,SAT-45578,15.637331530345453,34.20415587343145,1153.5680691237442,6.120424893838428,-214363.1691538534,10.5,10499785636.830847,47.655,-122.3035,60.0,4.916666666666667
2026-01-20T23:04:56+00:00,SAT-45578,15.436393632946656,34.09289465073627,1159.6721728845325,6.129961706408349,-214697.18867072923,10.5,10499785302.811329,47.655,-122.3035,60.0,4.933333333333334
2026-01-20T23:04:57+00:00,SAT-45578,15.237776641637748,33.98224706899658,1165.7857880263903,6.139342390570388,-215025.73991033848,10.5,10499784974.26009,47.655,-122.3035,60.0,4.95
2026-01-20T23:04:58+00:00,SAT-45578,15.041439602751646,33.87221070025633,1171.9087588372527,6.148569899415046,-215348.92630240213,10.5,10499784651.073698,47.655,-122.3035,60.0,4.966666666666667
2026-01-20T23:04:59+00:00,SAT-45578,14.847342431371079,33.762782971382165,1178.0409325502692,6.157647158871274,-215666.85032532865,10.5,10499784333.149675,47.655,-122.3035,60.0,4.983333333333333
2026-01-20T23:05:00+00:00,SAT-45578,14.655445890460408,33.653961172662726,1184.1821593167167,6.166577009885288,-215979.61148107177,10.5,10499784020.38852,47.655,-122.3035,60.0,5.0
2026-01-20T23:05:01+00:00,SAT-45578,14.465711572197785,33.54574246708069,1190.3322921212423,6.175362242248954,-216287.3074799434,10.5,10499783712.69252,47.655,-122.3035,60.0,5.016666666666667
2026-01-20T23:05:02+00:00,SAT-45578,14.278101878731762,33.43812389855987,1196.4911867308454,6.184005568817035,-216590.03333759273,10.5,10499783409.966663,47.655,-122.3035,60.0,5.033333333333333
2026-01-20T23:05:03+00:00,SAT-45578,14.092580004104297,33.33110240030915,1202.6587016181454,6.192509643885176,-216887.88201868092,10.5,10499783112.117981,47.655,-122.3035,60.0,5.05
2026-01-20T23:05:04+00:00,SAT-45578,13.909109916096845,33.22467480245436,1208.8346979029802,6.200877121937831,-217180.94649448193,10.5,10499782819.053505,47.655,-122.3035,60.0,5.066666666666666
2026-01-20T23:05:05+00:00,SAT-45578,13.727656336808202,33.11883783831702,1215.019039352593,6.209110505612275,-217469.31441793937,10.5,10499782530.685581,47.655,-122.3035,60.0,5.083333333333333
2026-01-20T23:05:06+00:00,SAT-45578,13.548184728018027,33.013588153032025,1221.2115922301903,6.217212305621398,-217753.07372483896,10.5,10499782246.926275,47.655,-122.3035,60.0,5.1
2026-01-20T23:05:07+00:00,SAT-45578,13.370661272358657,32.90892230903787,1227.4122253029966,6.225184947532477,-218032.30936880677,10.5,10499781967.690632,47.655,-122.3035,60.0,5.116666666666666
2026-01-20T23:05:08+00:00,SAT-45578,13.19505285759284,32.804836792891734,1233.6208097573358,6.233030867775475,-218307.10668392628,10.5,10499781692.893316,47.655,-122.3035,60.0,5.133333333333334
2026-01-20T23:05:09+00:00,SAT-45578,13.021327058628993,32.70132802016365,1239.837219209464,6.2407523607392825,-218577.54602940165,10.5,10499781422.45397,47.655,-122.3035,60.0,5.15
2026-01-20T23:05:10+00:00,SAT-45578,12.84945212410165,32.59839234266957,1246.0613295639077,6.248351701939034,-218843.7071033984,10.5,10499781156.292896,47.655,-122.3035,60.0,5.166666666666667
2026-01-20T23:05:11+00:00,SAT-45578,12.679396959954122,32.49602605332726,1252.2930189946417,6.255831172589295,-219105.6698037,10.5,10499780894.330196,47.655,-122.3035,60.0,5.183333333333334
2026-01-20T23:05:12+00:00,SAT-45578,12.511131112871492,32.394225390356674,1258.5321679507706,6.263192945655598,-219363.5102367511,10.5,10499780636.489763,47.655,-122.3035,60.0,5.2
2026-01-20T23:05:13+00:00,SAT-45578,12.344624757021336,32.29298654319512,1264.7786590485712,6.2704391376656705,-219617.30253230565,10.5,10499780382.697468,47.655,-122.3035,60.0,5.216666666666667
2026-01-20T23:05:14+00:00,SAT-45578,12.179848679821664,32.19230565725902,1271.032377015203,6.277571877141224,-219867.12124019762,10.5,10499780132.87876,47.655,-122.3035,60.0,5.233333333333333
2026-01-20T23:05:15+00:00,SAT-45578,12.01677426629995,32.092178837406244,1277.293208700672,6.284593211382833,-220113.03806555318,10.5,10499779886.961935,47.655,-122.3035,60.0,5.25
2026-01-20T23:05:16+00:00,SAT-45578,11.85537348625213,31.992602152705558,1283.5610429968244,6.291505132450883,-220355.1227787534,10.5,10499779644.877222,47.655,-122.3035,60.0,5.266666666666667
2026-01-20T23:05:17+00:00,SAT-45578,11.695618881005043,31.89357164059337,1289.8357707822554,6.298309628188045,-220593.44500245724,10.5,10499779406.554998,47.655,-122.3035,60.0,5.283333333333333
2026-01-20T23:05:18+00:00,SAT-45578,11.53748354932616,31.795083310001896,1296.1172849181016,6.30500860044417,-220828.0713474913,10.5,10499779171.928652,47.655,-122.3035,60.0,5.3
2026-01-20T23:05:19+00:00,SAT-45578,11.380941135626788,31.697133145654785,1302.405480162278,6.311603949869205,-221059.06838265643,10.5,10499778940.931618,47.655,-122.3035,60.0,5.316666666666666
2026-01-20T23:05:20+00:00,SAT-45578,11.225965816490584,31.599717110794185,1308.7002531682808,6.318097518926253,-221286.5006388041,10.5,10499778713.499361,47.655,-122.3035,60.0,5.333333333333333
2026-01-20T23:05:21+00:00,SAT-45578,11.072532288830052,31.502831150708356,1315.0015024271565,6.32449109698495,-221510.43078722805,10.5,10499778489.569212,47.655,-122.3035,60.0,5.35
2026-01-20T23:05:22+00:00,SAT-45578,10.920615758301363,31.406471195967086,1321.3091282145497,6.330786466304684,-221730.92125019096,10.5,10499778269.07875,47.655,-122.3035,60.0,5.366666666666666
2026-01-20T23:05:23+00:00,SAT-45578,10.77019192687855,31.310633164830563,1327.623032583611,6.336985351703052,-221948.032438101,10.5,10499778051.967562,47.655,-122.3035,60.0,5.383333333333334
2026-01-20T23:05:24+00:00,SAT-45578,10.621236981979846,31.215312966279182,1333.9431193077094,6.343089457208663,-222161.82403324824,10.5,10499777838.175966,47.655,-122.3035,60.0,5.4
2026-01-20T23:05:25+00:00,SAT-45578,10.473727584978615,31.1205065023607,1340.2692938596988,6.349100402380192,-222372.35275942806,10.5,10499777627.64724,47.655,-122.3035,60.0,5.416666666666667
2026-01-20T23:05:26+00:00,SAT-45578,10.327640861463289,31.026209671377124,1346.6014633276725,6.355019865677715,-222579.67740341224,10.5,10499777420.322598,47.655,-122.3035,60.0,5.433333333333334
2026-01-20T23:05:27+00:00,SAT-45578,10.18295438859324,30.932418368752813,1352.9395364737084,6.360849403737471,-222783.85248518642,10.5,10499777216.147514,47.655,-122.3035,60.0,5.45
2026-01-20T23:05:28+00:00,SAT-45578,10.03964618671647,30.839128490564068,1359.2834236123695,6.366590561855281,-222984.93212754687,10.5,10499777015.067873,47.655,-122.3035,60.0,5.466666666666667
2026-01-20T23:05:29+00:00,SAT-45578,9.897694708800934,30.746335935258294,1365.633036599393,6.372244892161762,-223182.9706926733,10.5,10499776817.029306,47.655,-122.3035,60.0,5.483333333333333
2026-01-20T23:05:30+00:00,SAT-45578,9.757078829796265,30.654036605002904,1371.988288838509,6.377813876121859,-223378.0200677347,10.5,10499776621.979933,47.655,-122.3035,60.0,5.5
2026-01-20T23:05:31+00:00,SAT-45578,9.617777837864903,30.562226408112714,1378.3490952109612,6.383298975878763,-223570.13146317046,10.5,10499776429.868536,47.655,-122.3035,60.0,5.516666666666667
2026-01-20T23:05:32+00:00,SAT-45578,9.479771424809524,30.47090126059757,1384.7153720562376,6.3887016345446135,-223759.35542287206,10.5,10499776240.644577,47.655,-122.3035,60.0,5.533333333333333
2026-01-20T23:05:33+00:00,SAT-45578,9.343039676706923,30.380057087627037,1391.08703715309,6.3940232268981,-223945.7400974045,10.5,10499776054.259903,47.655,-122.3035,60.0,5.55
2026-01-20T23:05:34+00:00,SAT-45578,9.20756306581448,30.289689825631957,1397.464009651383,6.399265131677705,-224129.33377602146,10.5,10499775870.666224,47.655,-122.3035,60.0,5.566666666666666
2026-01-20T23:05:35+00:00,SAT-45578,9.073322441195081,30.199795423264256,1403.8462100760432,6.404428745347854,-224310.18536881424,10.5,10499775689.81463,47.655,-122.3035,60.0,5.583333333333333
2026-01-20T23:05:36+00:00,SAT-45578,8.940299019380435,30.110369842084477,1410.2335603447368,6.409515318858219,-224488.33868933187,10.5,10499775511.66131,47.655,-122.3035,60.0,5.6
2026-01-20T23:05:37+00:00,SAT-45578,8.808474378423258,30.02140905954914,1416.6259836227446,6.414526171659126,-224663.839950306,10.5,10499775336.16005,47.655,-122.3035,60.0,5.616666666666666
