satellites_20260121_005943/SAT-48692.csv

timestamp,satellite,azimuth_deg,elevation_deg,distance_km,relative_velocity_kms,doppler_shift_hz,tx_freq_ghz,rx_freq_hz,ue_lat,ue_lon,ue_alt_m,time_minutes
2026-01-20T23:04:12+00:00,SAT-48692,122.33470284047054,30.0353163455753,589.9957391284366,-2.281349030413484,79902.4931419108,10.5,10500079902.493141,47.655,-122.3035,60.0,4.2
2026-01-20T23:04:13+00:00,SAT-48692,121.72373859338222,30.458736123686617,587.7204736954376,-2.2064272640038594,77278.41596348806,10.5,10500077278.415964,47.655,-122.3035,60.0,4.216666666666667
2026-01-20T23:04:14+00:00,SAT-48692,121.10288592450212,30.882259898737402,585.519930237471,-2.130655524659233,74624.5691374996,10.5,10500074624.569138,47.655,-122.3035,60.0,4.233333333333333
2026-01-20T23:04:15+00:00,SAT-48692,120.47202809370923,31.305677703722026,583.3949564608776,-2.0540508079582596,71941.54792100115,10.5,10500071941.54792,47.655,-122.3035,60.0,4.25
2026-01-20T23:04:16+00:00,SAT-48692,119.83105349038097,31.72877227960813,581.3463831217406,-1.9766315253740256,69229.99716166065,10.5,10500069229.997162,47.655,-122.3035,60.0,4.266666666666667
2026-01-20T23:04:17+00:00,SAT-48692,119.17985623047444,32.151319230344946,579.3750226137676,-1.8984174617950056,66490.60980996247,10.5,10500066490.60981,47.655,-122.3035,60.0,4.283333333333333
2026-01-20T23:04:18+00:00,SAT-48692,118.51833679980975,32.573087201266105,577.4816675985373,-1.8194298620009435,63724.12994795855,10.5,10500063724.129948,47.655,-122.3035,60.0,4.3
2026-01-20T23:04:19+00:00,SAT-48692,117.84640269741337,32.993838109898284,575.6670895495016,-1.7396913324545922,60931.349349599775,10.5,10500060931.34935,47.655,-122.3035,60.0,4.316666666666666
2026-01-20T23:04:20+00:00,SAT-48692,117.16396913987401,33.41332739274072,573.9320373939337,-1.6592259115672892,58113.10994173354,10.5,10500058113.109941,47.655,-122.3035,60.0,4.333333333333333
2026-01-20T23:04:21+00:00,SAT-48692,116.47095976382408,33.8313043062078,572.2772360847972,-1.5780589878755724,55270.30093830283,10.5,10500055270.300938,47.655,-122.3035,60.0,4.35
2026-01-20T23:04:22+00:00,SAT-48692,115.76730738014736,34.247512249792656,570.7033852542227,-1.4962173476277063,52403.86050702755,10.5,10500052403.860508,47.655,-122.3035,60.0,4.366666666666666
2026-01-20T23:04:23+00:00,SAT-48692,115.05295472312754,34.661689144030866,569.211157819522,-1.41372908467015,49514.77261324758,10.5,10500049514.772614,47.655,-122.3035,60.0,4.383333333333334
2026-01-20T23:04:24+00:00,SAT-48692,114.32785524852743,35.07356783120919,567.8011986790775,-1.3306236143422274,46604.06750657279,10.5,10500046604.067507,47.655,-122.3035,60.0,4.4
2026-01-20T23:04:25+00:00,SAT-48692,113.59197392931979,35.482876526597565,566.4741233943736,-1.2469316084818027,43672.81944450693,10.5,10500043672.819445,47.655,-122.3035,60.0,4.416666666666667
2026-01-20T23:04:26+00:00,SAT-48692,112.84528807993944,35.889339301052225,565.2305169368477,-1.1626849773817018,40722.14606048518,10.5,10500040722.14606,47.655,-122.3035,60.0,4.433333333333334
2026-01-20T23:04:27+00:00,SAT-48692,112.0877881772294,36.2926766095142,564.070932452739,-1.07791680308555,37753.206027612185,10.5,10500037753.206028,47.655,-122.3035,60.0,4.45
2026-01-20T23:04:28+00:00,SAT-48692,111.31947869727955,36.69260585239293,562.9958900944617,-0.9926612889963835,34767.19729374255,10.5,10500034767.197294,47.655,-122.3035,60.0,4.466666666666667
2026-01-20T23:04:29+00:00,SAT-48692,110.54037895177402,37.088841974837905,562.005875902236,-0.9069536998609782,31765.354979478074,10.5,10500031765.354979,47.655,-122.3035,60.0,4.483333333333333
2026-01-20T23:04:30+00:00,SAT-48692,109.75052392116515,37.481098101311346,561.1013407455747,-0.8208303088184948,28748.9495235874,10.5,10500028748.949524,47.655,-122.3035,60.0,4.5
2026-01-20T23:04:31+00:00,SAT-48692,108.94996506663692,37.86908620941437,560.2826993175796,-0.7343283118658843,25719.28368722266,10.5,10500025719.283688,47.655,-122.3035,60.0,4.516666666666667
2026-01-20T23:04:32+00:00,SAT-48692,108.13877113733926,38.25251782983464,559.5503292145454,-0.6474857632334255,22677.690290497463,10.5,10500022677.69029,47.655,-122.3035,60.0,4.533333333333333
2026-01-20T23:04:33+00:00,SAT-48692,107.31702894412496,38.63110478035515,558.904570080014,-0.5603414891785821,19625.529193183076,10.5,10500019625.529194,47.655,-122.3035,60.0,4.55
2026-01-20T23:04:34+00:00,SAT-48692,106.48484411024222,39.00455992321692,558.3457228348066,-0.47293501851032627,16564.18486137642,10.5,10500016564.184862,47.655,-122.3035,60.0,4.566666666666666
2026-01-20T23:04:35+00:00,SAT-48692,105.64234176209774,39.37259795504364,557.8740489763455,-0.38530647889826775,13495.062735807089,10.5,10500013495.062737,47.655,-122.3035,60.0,4.583333333333333
2026-01-20T23:04:36+00:00,SAT-48692,104.78966719511442,39.73493620721353,557.4897699813911,-0.29749652012988,10419.586543980835,10.5,10500010419.586544,47.655,-122.3035,60.0,4.6
2026-01-20T23:04:37+00:00,SAT-48692,103.92698646253581,40.0912954716631,557.1930667853148,-0.20954621586240732,7339.194859115758,10.5,10500007339.194859,47.655,-122.3035,60.0,4.616666666666666
2026-01-20T23:04:38+00:00,SAT-48692,103.0544869063329,40.4414008359376,556.9840793593614,-0.12149697112261114,4255.337860392128,10.5,10500004255.33786,47.655,-122.3035,60.0,4.633333333333334
2026-01-20T23:04:39+00:00,SAT-48692,102.17237760219041,40.78498253059188,556.8629063801618,-0.03339042266355011,1169.473843025351,10.5,10500001169.473843,47.655,-122.3035,60.0,4.65
2026-01-20T23:04:40+00:00,SAT-48692,101.28088973460619,41.12177677497328,556.8296049986253,0.05473165573664659,-1916.934098571583,10.5,10499998083.0659,47.655,-122.3035,60.0,4.666666666666667
2026-01-20T23:04:41+00:00,SAT-48692,100.38027686163068,41.45152662798554,556.8841907032801,0.14282745347672293,-5002.421580284021,10.5,10499994997.57842,47.655,-122.3035,60.0,4.683333333333334
2026-01-20T23:04:42+00:00,SAT-48692,99.47081508524988,41.773982829685124,557.0266372835474,0.23085522226862992,-8085.526400469402,10.5,10499991914.4736,47.655,-122.3035,60.0,4.7
2026-01-20T23:04:43+00:00,SAT-48692,98.55280310554635,42.08890463312013,557.2568768918901,0.31877337467269884,-11164.79199107583,10.5,10499988835.20801,47.655,-122.3035,60.0,4.716666666666667
2026-01-20T23:04:44+00:00,SAT-48692,97.62656215923577,42.39606061813236,557.5748002042302,0.4065405794608242,-14238.770757664139,10.5,10499985761.229242,47.655,-122.3035,60.0,4.733333333333333
2026-01-20T23:04:45+00:00,SAT-48692,96.69243583659886,42.695229481408504,557.9802566754793,0.494115862004099,-17306.027595407486,10.5,10499982693.972404,47.655,-122.3035,60.0,4.75
2026-01-20T23:04:46+00:00,SAT-48692,95.75078975564392,42.98620080212923,558.4730548951845,0.581458694799587,-20365.14305972188,10.5,10499979634.856941,47.655,-122.3035,60.0,4.766666666666667
2026-01-20T23:04:47+00:00,SAT-48692,94.80201111195204,43.26877576992489,559.0529630334647,0.6685290936539636,-23414.71673502413,10.5,10499976585.283264,47.655,-122.3035,60.0,4.783333333333333
2026-01-20T23:04:48+00:00,SAT-48692,93.84650808044391,43.54276787638976,559.7197093828689,0.7552876965725651,-26453.36999776003,10.5,10499973546.630003,47.655,-122.3035,60.0,4.8
2026-01-20T23:04:49+00:00,SAT-48692,92.88470909136635,43.8080035574575,560.4729829789173,0.8416958709585012,-29479.74977097076,10.5,10499970520.250229,47.655,-122.3035,60.0,4.816666666666666
2026-01-20T23:04:50+00:00,SAT-48692,91.91706193604507,44.06432279386892,561.3124343275532,0.927715763548742,-32492.530273265886,10.5,10499967507.469727,47.655,-122.3035,60.0,4.833333333333333
2026-01-20T23:04:51+00:00,SAT-48692,90.94403277411364,44.31157964590592,562.2376761823992,1.013310409316466,-35490.41683304419,10.5,10499964509.583166,47.655,-122.3035,60.0,4.85
2026-01-20T23:04:52+00:00,SAT-48692,89.96610496539053,44.54964273902641,563.2482844306243,1.0984437805639464,-38472.147607934276,10.5,10499961527.852392,47.655,-122.3035,60.0,4.866666666666666
2026-01-20T23:04:53+00:00,SAT-48692,88.98377779788063,44.77839567926765,564.3437990277733,1.1830808798392913,-41436.49683913182,10.5,10499958563.50316,47.655,-122.3035,60.0,4.883333333333334
2026-01-20T23:04:54+00:00,SAT-48692,87.9975650670548,44.997737407197654,565.5237250252663,1.2671877749942062,-44382.27607927069,10.5,10499955617.72392,47.655,-122.3035,60.0,4.9
2026-01-20T23:04:55+00:00,SAT-48692,87.00799356470363,45.20758247639553,566.7875336328606,1.3507316765482544,-47308.336902046656,10.5,10499952691.663097,47.655,-122.3035,60.0,4.916666666666667
2026-01-20T23:04:56+00:00,SAT-48692,86.01560144355946,45.407861263622415,568.1346633582714,1.4336809836378994,-50213.572511547114,10.5,10499949786.427488,47.655,-122.3035,60.0,4.933333333333334
2026-01-20T23:04:57+00:00,SAT-48692,85.02093649360847,45.59852010368238,569.5645211926196,1.5160053403596503,-53096.91971562649,10.5,10499946903.080284,47.655,-122.3035,60.0,4.95
2026-01-20T23:04:58+00:00,SAT-48692,84.02455433105966,45.779521350191416,571.0764838520715,1.597675657781697,-55957.35969684674,10.5,10499944042.640303,47.655,-122.3035,60.0,4.966666666666667
2026-01-20T23:04:59+00:00,SAT-48692,83.02701653365473,45.950843358666944,572.6698990414326,1.678664167159858,-58793.91987632494,10.5,10499941206.080124,47.655,-122.3035,60.0,4.983333333333333
2026-01-20T23:05:00+00:00,SAT-48692,82.02888871252014,46.112480396641224,574.3440867708133,1.7589444422968317,-61605.674696848895,10.5,10499938394.325304,47.655,-122.3035,60.0,5.0
2026-01-20T23:05:01+00:00,SAT-48692,81.03073855439563,46.26444247882653,576.0983406945974,1.8384914284175975,-64391.74663421577,10.5,10499935608.253366,47.655,-122.3035,60.0,5.016666666666667
2026-01-20T23:05:02+00:00,SAT-48692,80.03313384317013,46.406755130353616,577.9319294792059,1.9172814444887984,-67151.30627846676,10.5,10499932848.693722,47.655,-122.3035,60.0,5.033333333333333
2026-01-20T23:05:03+00:00,SAT-48692,79.03664048925222,46.539459079113705,579.8440981731759,1.9952922272753004,-69883.57387693407,10.5,10499930116.426123,47.655,-122.3035,60.0,5.05
2026-01-20T23:05:04+00:00,SAT-48692,78.04182055872695,46.66260988341234,581.8340696211785,2.072502915491864,-72587.81877916546,10.5,10499927412.181221,47.655,-122.3035,60.0,5.066666666666666
2026-01-20T23:05:05+00:00,SAT-48692,77.04923034898377,46.776277494857574,583.9010458622291,2.1488940537602743,-75263.35957551967,10.5,10499924736.640425,47.655,-122.3035,60.0,5.083333333333333
2026-01-20T23:05:06+00:00,SAT-48692,76.05941851275838,46.88054576260275,586.044209531846,2.224447596311082,-77909.56422681708,10.5,10499922090.435774,47.655,-122.3035,60.0,5.1
2026-01-20T23:05:07+00:00,SAT-48692,75.07292424430061,46.97551188395024,588.2627252679002,2.2991468994146897,-80525.84979924426,10.5,10499919474.1502,47.655,-122.3035,60.0,5.116666666666666
2026-01-20T23:05:08+00:00,SAT-48692,74.09027554588535,47.061285805756064,590.5557411089164,2.372976721856792,-83111.68248100596,10.5,10499916888.317518,47.655,-122.3035,60.0,5.133333333333334
2026-01-20T23:05:09+00:00,SAT-48692,73.11198758271932,47.137989582659216,592.9223898928483,2.4459231824092713,-85666.57609277598,10.5,10499914333.423906,47.655,-122.3035,60.0,5.15
2026-01-20T23:05:10+00:00,SAT-48692,72.13856115441686,47.20575669650118,595.3617906134378,2.517973761194771,-88190.09213549025,10.5,10499911809.907864,47.655,-122.3035,60.0,5.166666666666667
2026-01-20T23:05:11+00:00,SAT-48692,71.17048127276387,47.26473134459472,597.8730497779361,2.589117262518421,-90681.8384885567,10.5,10499909318.161512,47.655,-122.3035,60.0,5.183333333333334
2026-01-20T23:05:12+00:00,SAT-48692,70.20821586910445,47.31506770159412,600.4552627277545,2.659343826335949,-93141.46981151696,10.5,10499906858.530188,47.655,-122.3035,60.0,5.2
2026-01-20T23:05:13+00:00,SAT-48692,69.25221461880352,47.35692916192904,603.1075149705536,2.728644834988105,-95568.6842774914,10.5,10499904431.315723,47.655,-122.3035,60.0,5.216666666666667
2026-01-20T23:05:14+00:00,SAT-48692,68.30290792547835,47.390487567092336,605.8288834193149,2.797012933021108,-97963.2242673751,10.5,10499902036.775732,47.655,-122.3035,60.0,5.233333333333333
2026-01-20T23:05:15+00:00,SAT-48692,67.36070602509874,47.41592242560196,608.6184376511814,2.8644419795297353,-100324.87470069117,10.5,10499899675.1253,47.655,-122.3035,60.0,5.25
2026-01-20T23:05:16+00:00,SAT-48692,66.42599823649371,47.433420129733754,611.4752411187657,2.9309270057997447,-102653.46155204918,10.5,10499897346.538448,47.655,-122.3035,60.0,5.266666666666667
2026-01-20T23:05:17+00:00,SAT-48692,65.49915235465087,47.44317317493455,614.3983523192167,2.996464161228463,-104948.8499570555,10.5,10499895051.150043,47.655,-122.3035,60.0,5.283333333333333
2026-01-20T23:05:18+00:00,SAT-48692,64.58051418779343,47.445379386912286,617.3868259093485,3.061050724208696,-107210.94459351379,10.5,10499892789.055407,47.655,-122.3035,60.0,5.3
2026-01-20T23:05:19+00:00,SAT-48692,63.67040721484937,47.44024116094164,620.439713831626,3.124684994995997,-109439.68592918362,10.5,10499890560.314072,47.655,-122.3035,60.0,5.316666666666666
2026-01-20T23:05:20+00:00,SAT-48692,62.769132394944414,47.42796471778393,623.5560663333019,3.1873663255875453,-111635.05126826515,10.5,10499888364.948732,47.655,-122.3035,60.0,5.333333333333333
2026-01-20T23:05:21+00:00,SAT-48692,61.87696808150632,47.40875937980919,626.7349330153547,3.2490949755282545,-113797.04970111913,10.5,10499886202.950298,47.655,-122.3035,60.0,5.35
2026-01-20T23:05:22+00:00,SAT-48692,60.994170084723706,47.382836871617414,629.9753637376148,3.3098722066097763,-115925.7254210266,10.5,10499884074.274578,47.655,-122.3035,60.0,5.366666666666666
2026-01-20T23:05:23+00:00,SAT-48692,60.120971807467264,47.35041064635191,633.2764096183403,3.3697000990851422,-118021.15128724817,10.5,10499881978.848713,47.655,-122.3035,60.0,5.383333333333334
2026-01-20T23:05:24+00:00,SAT-48692,59.25758452380673,47.311695242719935,636.6371238504945,3.428581616169482,-120083.43108411208,10.5,10499879916.568916,47.655,-122.3035,60.0,5.4
2026-01-20T23:05:25+00:00,SAT-48692,58.40419772371008,47.2669056723605,640.0565625823543,3.4865204587191476,-122112.69443126234,10.5,10499877887.305569,47.655,-122.3035,60.0,5.416666666666667
2026-01-20T23:05:26+00:00,SAT-48692,57.560979570159375,47.216256841852925,643.5337856531835,3.543521164635691,-124109.10026520667,10.5,10499875890.899734,47.655,-122.3035,60.0,5.433333333333334
2026-01-20T23:05:27+00:00,SAT-48692,56.72807739862672,47.15996300680255,647.0678574280468,3.5995888848212516,-126072.82899232622,10.5,10499873927.171007,47.655,-122.3035,60.0,5.45
2026-01-20T23:05:28+00:00,SAT-48692,55.90561832851944,47.098237264490905,650.6578474091752,3.6547294975506057,-128004.08649466878,10.5,10499871995.913506,47.655,-122.3035,60.0,5.466666666666667
2026-01-20T23:05:29+00:00,SAT-48692,55.093709896236234,47.03129107960576,654.302830961399,3.7089494625611583,-129903.09901956294,10.5,10499870096.90098,47.655,-122.3035,60.0,5.483333333333333
2026-01-20T23:05:30+00:00,SAT-48692,54.292440762837174,46.95933384800321,658.0018898920599,3.762255874044121,-131770.1150355933,10.5,10499868229.884964,47.655,-122.3035,60.0,5.5
2026-01-20T23:05:31+00:00,SAT-48692,53.50188144270413,46.88257249447482,661.7541130837733,3.8146562855882142,-133605.3991013885,10.5,10499866394.600899,47.655,-122.3035,60.0,5.516666666666667
2026-01-20T23:05:32+00:00,SAT-48692,52.722085094420756,46.80121110909774,665.5585969525999,3.866158835870039,-135409.2362678297,10.5,10499864590.763733,47.655,-122.3035,60.0,5.533333333333333
2026-01-20T23:05:33+00:00,SAT-48692,51.9530883026909,46.715450614716175,669.4144460315744,3.9167720565050796,-137181.92534817982,10.5,10499862818.074652,47.655,-122.3035,60.0,5.55
2026-01-20T23:05:34+00:00,SAT-48692,51.194911910420544,46.6254884721526,673.3207733625954,3.9665049606626748,-138923.78202175483,10.5,10499861076.217978,47.655,-122.3035,60.0,5.566666666666666
2026-01-20T23:05:35+00:00,SAT-48692,50.44756183710528,46.53151841536778,677.2767009766964,4.015366900631847,-140635.13384527634,10.5,10499859364.866156,47.655,-122.3035,60.0,5.583333333333333
2026-01-20T23:05:36+00:00,SAT-48692,49.71102992334329,46.43373022107369,681.2813602322599,4.063367619385138,-142316.32205885564,10.5,10499857683.67794,47.655,-122.3035,60.0,5.6
2026-01-20T23:05:37+00:00,SAT-48692,48.98529475843568,46.33230950673813,685.33389220466,4.110517160807324,-143967.69844182304,10.5,10499856032.301558,47.655,-122.3035,60.0,5.616666666666666
2026-01-20T23:05:38+00:00,SAT-48692,48.27032251312602,46.2274375590154,689.4334479863718,4.156825875072361,-145589.62550105175,10.5,10499854410.374498,47.655,-122.3035,60.0,5.633333333333334
2026-01-20T23:05:39+00:00,SAT-48692,47.566067755479466,46.11929118877703,693.579188992444,4.202304352754612,-147182.47416325405,10.5,10499852817.525837,47.655,-122.3035,60.0,5.65
2026-01-20T23:05:40+00:00,SAT-48692,46.872474258759716,46.00804261308859,697.7702872002578,4.246963411709911,-148746.6233155007,10.5,10499851253.376684,47.655,-122.3035,60.0,5.666666666666667
2026-01-20T23:05:41+00:00,SAT-48692,46.189475788608064,45.89385936120948,702.0059253762032,4.29081408972505,-150282.45954777495,10.5,10499849717.540453,47.655,-122.3035,60.0,5.683333333333334
2026-01-20T23:05:42+00:00,SAT-48692,45.51699686651214,45.77690420264498,706.2852972950224,4.333867586008982,-151790.37510374698,10.5,10499848209.624897,47.655,-122.3035,60.0,5.7
2026-01-20T23:05:43+00:00,SAT-48692,44.8549535151761,45.65733509744739,710.6076079008019,4.376135241600572,-153270.76719457033,10.5,10499846729.232805,47.655,-122.3035,60.0,5.716666666666667
2026-01-20T23:05:44+00:00,SAT-48692,44.20325397763846,45.53530516580499,714.9720734484249,4.4176285235164485,-154724.03744367283,10.5,10499845275.962557,47.655,-122.3035,60.0,5.733333333333333
2026-01-20T23:05:45+00:00,SAT-48692,43.56179940805917,45.41096267556045,719.377921629212,4.4583590284174415,-156150.5920151705,10.5,10499843849.407986,47.655,-122.3035,60.0,5.75
2026-01-20T23:05:46+00:00,SAT-48692,42.930484530884016,45.28445104526009,723.8243917002204,4.498338389032222,-157550.8383364278,10.5,10499842449.161663,47.655,-122.3035,60.0,5.766666666666667
2026-01-20T23:05:47+00:00,SAT-48692,42.30919828100016,45.15590886456753,728.3107345202152,4.537578304745413,-158925.18616938265,10.5,10499841074.813831,47.655,-122.3035,60.0,5.783333333333333
2026-01-20T23:05:48+00:00,SAT-48692,41.69782440672705,45.02546992665007,732.8362126161479,4.576090558318897,-160274.04819619717,10.5,10499839725.951803,47.655,-122.3035,60.0,5.8
2026-01-20T23:05:49+00:00,SAT-48692,41.096242038299984,44.89326327170796,737.4001002663114,4.613886903589613,-161597.83608595963,10.5,10499838402.163914,47.655,-122.3035,60.0,5.816666666666666
2026-01-20T23:05:50+00:00,SAT-48692,40.504326238819125,44.75941324435676,742.0016834714913,4.650979134593031,-162896.96291568095,10.5,10499837103.037085,47.655,-122.3035,60.0,5.833333333333333
2026-01-20T23:05:51+00:00,SAT-48692,39.92194851374835,44.624039558102496,746.6402599950587,4.687378979263906,-164171.83944724526,10.5,10499835828.160553,47.655,-122.3035,60.0,5.85
2026-01-20T23:05:52+00:00,SAT-48692,39.34897730221211,44.48725737111053,751.3151392970447,4.723098227808398,-165422.87862354488,10.5,10499834577.121376,47.655,-122.3035,60.0,5.866666666666666
2026-01-20T23:05:53+00:00,SAT-48692,38.78527842151807,44.34917736508843,756.0256425962455,4.758148563941187,-166650.48965769002,10.5,10499833349.510342,47.655,-122.3035,60.0,5.883333333333334
2026-01-20T23:05:54+00:00,SAT-48692,38.23071550224432,44.209905835342155,760.7711027640163,4.79254163916103,-167855.08063445284,10.5,10499832144.919365,47.655,-122.3035,60.0,5.9
2026-01-20T23:05:55+00:00,SAT-48692,37.68515038475687,44.069544783692685,765.5508642921395,4.8262890252752815,-169037.05684747564,10.5,10499830962.943153,47.655,-122.3035,60.0,5.916666666666667
2026-01-20T23:05:56+00:00,SAT-48692,37.14844349302165,43.928192017074466,770.3642832133474,4.859402273860973,-170196.82288184922,10.5,10499829803.177118,47.655,-122.3035,60.0,5.933333333333334
2026-01-20T23:05:57+00:00,SAT-48692,36.620454174717196,43.785941247784734,775.2107270811447,4.8918927863773085,-171334.77806490296,10.5,10499828665.221935,47.655,-122.3035,60.0,5.95
2026-01-20T23:05:58+00:00,SAT-48692,36.101041029516665,43.642882200466566,780.0895748200917,4.9237719112807445,-172451.31986758593,10.5,10499827548.680132,47.655,-122.3035,60.0,5.966666666666667
2026-01-20T23:05:59+00:00,SAT-48692,35.59006220161057,43.499100718250176,785.0002166729424,4.955050867417593,-173546.8412213516,10.5,10499826453.15878,47.655,-122.3035,60.0,5.983333333333333
2026-01-20T23:06:00+00:00,SAT-48692,35.08737565670678,43.35467887261905,789.9420540713802,4.985740806086802,-174621.7326918592,10.5,10499825378.267307,47.655,-122.3035,60.0,6.0
2026-01-20T23:06:01+00:00,SAT-48692,34.5928394299528,43.20969507241087,794.9144995686507,5.015852720369107,-175676.37930329662,10.5,10499824323.620697,47.655,-122.3035,60.0,6.016666666666667
2026-01-20T23:06:02+00:00,SAT-48692,34.10631186156271,43.06422417599156,799.9169766817655,5.045397501758588,-176711.16252185762,10.5,10499823288.837479,47.655,-122.3035,60.0,6.033333333333333
2026-01-20T23:06:03+00:00,SAT-48692,33.627651806330746,42.91833760172858,804.9489197901861,5.074385906375846,-177726.4590723839,10.5,10499822273.540928,47.655,-122.3035,60.0,6.05
2026-01-20T23:06:04+00:00,SAT-48692,33.156718827366745,42.77210343904543,810.0097740008116,5.102828568937558,-178722.64142763845,10.5,10499821277.358572,47.655,-122.3035,60.0,6.066666666666666
2026-01-20T23:06:05+00:00,SAT-48692,32.69337337035363,42.62558655840586,815.0989950268987,5.130735989031374,-179700.0773275938,10.5,10499820299.922672,47.655,-122.3035,60.0,6.083333333333333
2026-01-20T23:06:06+00:00,SAT-48692,32.237476922299166,42.47884872053864,820.2160490532926,5.15811846988204,-180659.12763476328,10.5,10499819340.872366,47.655,-122.3035,60.0,6.1
2026-01-20T23:06:07+00:00,SAT-48692,31.788892159392393,42.33194868628865,825.3604125405883,5.184986278703114,-181600.151950396,10.5,10499818399.84805,47.655,-122.3035,60.0,6.116666666666666
2026-01-20T23:06:08+00:00,SAT-48692,31.34748306633439,42.18494231997144,830.5315721892149,5.211349422338538,-182523.50075649552,10.5,10499817476.499243,47.655,-122.3035,60.0,6.133333333333334
2026-01-20T23:06:09+00:00,SAT-48692,30.913115060843133,42.03788269779298,835.7290246797605,5.237217839297903,-183429.52214170774,10.5,10499816570.477858,47.655,-122.3035,60.0,6.15
2026-01-20T23:06:10+00:00,SAT-48692,30.48565508899211,41.890820208485266,840.9522766048203,5.2626012436224565,-184318.5563328474,10.5,10499815681.443666,47.655,-122.3035,60.0,6.166666666666667
2026-01-20T23:06:11+00:00,SAT-48692,30.06497172129432,41.743802656528096,846.2008442451265,5.287509291146782,-185190.94151808586,10.5,10499814809.058481,47.655,-122.3035,60.0,6.183333333333334
2026-01-20T23:06:12+00:00,SAT-48692,29.65093522433885,41.59687535823833,851.4742535114968,5.31195139162723,-186047.00726689366,10.5,10499813952.992733,47.655,-122.3035,60.0,6.2
2026-01-20T23:06:13+00:00,SAT-48692,29.243417636835765,41.45008124106589,856.772039699413,5.335936854161508,-186887.07962325,10.5,10499813112.920376,47.655,-122.3035,60.0,6.216666666666667
2026-01-20T23:06:14+00:00,SAT-48692,28.84229282468742,41.303460936195954,862.0937473886302,5.359474775384779,-187711.477189797,10.5,10499812288.52281,47.655,-122.3035,60.0,6.233333333333333
2026-01-20T23:06:15+00:00,SAT-48692,28.447436535584238,41.15705287196205,867.4389302312806,5.3825741926595505,-188520.51649319768,10.5,10499811479.483507,47.655,-122.3035,60.0,6.25
2026-01-20T23:06:16+00:00,SAT-48692,28.058726434333284,41.01089336032297,872.8071508927596,5.405243879781492,-189314.50482888953,10.5,10499810685.49517,47.655,-122.3035,60.0,6.266666666666667
2026-01-20T23:06:17+00:00,SAT-48692,27.676042145380627,40.865016686659644,878.1979807888617,5.427492508877419,-190093.74593143666,10.5,10499809906.254068,47.655,-122.3035,60.0,6.283333333333333
2026-01-20T23:06:18+00:00,SAT-48692,27.29926527674386,40.71945519238433,883.6109999843821,5.449328591000239,-190858.53789391366,10.5,10499809141.462107,47.655,-122.3035,60.0,6.3
2026-01-20T23:06:19+00:00,SAT-48692,26.92827944194013,40.57423935668684,889.045797032473,5.470760491406812,-191609.17370300068,10.5,10499808390.826298,47.655,-122.3035,60.0,6.316666666666666
2026-01-20T23:06:20+00:00,SAT-48692,26.56297027516408,40.429397875275995,894.5019688292361,5.49179638114988,-192345.93954352825,10.5,10499807654.060457,47.655,-122.3035,60.0,6.333333333333333
2026-01-20T23:06:21+00:00,SAT-48692,26.203225444242317,40.28495773796731,899.9791204200362,5.512444306682704,-193069.11723632616,10.5,10499806930.882763,47.655,-122.3035,60.0,6.35
2026-01-20T23:06:22+00:00,SAT-48692,25.848934654291348,40.14094430173874,905.4768648752345,5.532712160085906,-193778.98319544122,10.5,10499806221.016804,47.655,-122.3035,60.0,6.366666666666666
2026-01-20T23:06:23+00:00,SAT-48692,25.49998964895382,39.9973813622081,910.9948231362268,5.552607692570862,-194475.80890108334,10.5,10499805524.1911,47.655,-122.3035,60.0,6.383333333333334
2026-01-20T23:06:24+00:00,SAT-48692,25.156284206983038,39.85429122222238,916.5326238749508,5.572138464575697,-195159.85915177633,10.5,10499804840.140848,47.655,-122.3035,60.0,6.4
2026-01-20T23:06:25+00:00,SAT-48692,24.817714138142854,39.71169475945273,922.089903303621,5.591311922938458,-195831.39476728867,10.5,10499804168.605232,47.655,-122.3035,60.0,6.416666666666667
2026-01-20T23:06:26+00:00,SAT-48692,24.484177271357634,39.56961148944586,927.6663050614316,5.610135345896302,-196490.67066227255,10.5,10499803509.329338,47.655,-122.3035,60.0,6.433333333333334
2026-01-20T23:06:27+00:00,SAT-48692,24.155573443194864,39.428059627931546,933.2614800464056,5.628615906492897,-197137.93806705912,10.5,10499802862.061934,47.655,-122.3035,60.0,6.45
2026-01-20T23:06:28+00:00,SAT-48692,23.831804480278098,39.28705614910258,938.875086310481,5.6467605736957545,-197773.44106436934,10.5,10499802226.558935,47.655,-122.3035,60.0,6.466666666666667
2026-01-20T23:06:29+00:00,SAT-48692,23.512774184932226,39.146616844373256,944.5067888559804,5.664576215089024,-198397.42018605,10.5,10499801602.579813,47.655,-122.3035,60.0,6.483333333333333
2026-01-20T23:06:30+00:00,SAT-48692,23.198388313092114,39.006756376189024,950.1562595344958,5.682069536653003,-199010.11030389744,10.5,10499800989.889696,47.655,-122.3035,60.0,6.5
2026-01-20T23:06:31+00:00,SAT-48692,22.8885545537474,38.86748833141073,955.8231768857178,5.699247156408112,-199611.74320898083,10.5,10499800388.25679,47.655,-122.3035,60.0,6.516666666666667
2026-01-20T23:06:32+00:00,SAT-48692,22.583182503015365,38.728825270715696,961.5072260497088,5.71611544710765,-200202.54210207757,10.5,10499799797.457897,47.655,-122.3035,60.0,6.533333333333333
2026-01-20T23:06:33+00:00,SAT-48692,22.282183645042196,38.59077878005481,967.2080985222908,5.732680786165296,-200782.7303471911,10.5,10499799217.269653,47.655,-122.3035,60.0,6.55
2026-01-20T23:06:34+00:00,SAT-48692,21.985471318833525,38.45335951383495,972.9254921596929,5.748949309317552,-201352.52284376777,10.5,10499798647.477156,47.655,-122.3035,60.0,6.566666666666666
2026-01-20T23:06:35+00:00,SAT-48692,21.692960696784667,38.31657724251351,978.659110937519,5.764927073001735,-201912.13171386122,10.5,10499798087.868286,47.655,-122.3035,60.0,6.583333333333333
2026-01-20T23:06:36+00:00,SAT-48692,21.404568754135912,38.18044089425977,984.4086648716593,5.780619989485287,-202461.76403008617,10.5,10499797538.23597,47.655,-122.3035,60.0,6.6
2026-01-20T23:06:37+00:00,SAT-48692,21.1202142409861,38.04495859656971,990.1738698745061,5.796033866601569,-203001.62320733388,10.5,10499796998.376793,47.655,-122.3035,60.0,6.616666666666666
2026-01-20T23:06:38+00:00,SAT-48692,20.83981765192738,37.910137715178884,995.9544476507967,5.811174352940518,-203531.9070831176,10.5,10499796468.092916,47.655,-122.3035,60.0,6.633333333333334
2026-01-20T23:06:39+00:00,SAT-48692,20.56330119781894,37.77598489273489,1001.750125538796,5.826047021593231,-204052.81085066163,10.5,10499795947.18915,47.655,-122.3035,60.0,6.65
2026-01-20T23:06:40+00:00,SAT-48692,20.29058877337469,37.642506083860845,1007.5606364349984,5.840657270798302,-204564.5235791161,10.5,10499795435.476421,47.655,-122.3035,60.0,6.666666666666667
2026-01-20T23:06:41+00:00,SAT-48692,20.021605929099113,37.509706591128264,1013.3857186197412,5.85501043211678,-205067.23200230137,10.5,10499794932.767998,47.655,-122.3035,60.0,6.683333333333334
2026-01-20T23:06:42+00:00,SAT-48692,19.756279838211007,37.37759109699522,1019.2251156907056,5.86911168797923,-205561.11763085754,10.5,10499794438.88237,47.655,-122.3035,60.0,6.7
2026-01-20T23:06:43+00:00,SAT-48692,19.494539267260972,37.24616369629989,1025.0785764141835,5.882966163388779,-206046.35996407282,10.5,10499793953.640036,47.655,-122.3035,60.0,6.716666666666667
2026-01-20T23:06:44+00:00,SAT-48692,19.23631454280327,37.11542792530772,1030.9458546678034,5.896578765954375,-206523.13088717178,10.5,10499793476.869112,47.655,-122.3035,60.0,6.733333333333333
2026-01-20T23:06:45+00:00,SAT-48692,18.981537524986322,36.98538679316782,1036.8267092237152,5.909954418577046,-206991.60282097216,10.5,10499793008.397179,47.655,-122.3035,60.0,6.75
2026-01-20T23:06:46+00:00,SAT-48692,18.730141571495988,36.85604280673518,1042.7209037638427,5.923097860017084,-207451.94173690447,10.5,10499792548.058264,47.655,-122.3035,60.0,6.766666666666667
2026-01-20T23:06:47+00:00,SAT-48692,18.482061510101385,36.72739799886783,1048.628206696233,5.9360137368685,-207904.31037834598,10.5,10499792095.689621,47.655,-122.3035,60.0,6.783333333333333
2026-01-20T23:06:48+00:00,SAT-48692,18.237233607634323,36.59945395339653,1054.5483910631365,5.948706613346689,-208348.8686034264,10.5,10499791651.131397,47.655,-122.3035,60.0,6.8
2026-01-20T23:06:49+00:00,SAT-48692,17.995595538888963,36.47221182885308,1060.4812344588477,5.961180959721602,-208785.77297990874,10.5,10499791214.22702,47.655,-122.3035,60.0,6.816666666666666
2026-01-20T23:06:50+00:00,SAT-48692,17.757086356430523,36.34567238139698,1066.42651893601,5.973441107047954,-209215.17519964933,10.5,10499790784.8248,47.655,-122.3035,60.0,6.833333333333333
2026-01-20T23:06:51+00:00,SAT-48692,17.521646462474152,36.21983598774692,1072.3840308667725,5.985491316947846,-209637.2245226809,10.5,10499790362.775476,47.655,-122.3035,60.0,6.85
2026-01-20T23:06:52+00:00,SAT-48692,17.28921757849951,36.09470266558667,1078.3535608735417,5.997335793319534,-210052.0681873028,10.5,10499789947.931812,47.655,-122.3035,60.0,6.866666666666666
2026-01-20T23:06:53+00:00,SAT-48692,17.059742714909518,35.970272092851054,1084.3349037714127,6.00897855016241,-210459.8467807529,10.5,10499789540.15322,47.655,-122.3035,60.0,6.883333333333334
2026-01-20T23:06:54+00:00,SAT-48692,16.833166146079037,35.84654362895735,1090.3278583787744,6.020423646923929,-210860.7024820526,10.5,10499789139.297518,47.655,-122.3035,60.0,6.9
2026-01-20T23:06:55+00:00,SAT-48692,16.609433377185095,35.723516330141535,1096.33222756264,6.031674925321941,-211254.7698444114,10.5,10499788745.230156,47.655,-122.3035,60.0,6.916666666666667
2026-01-20T23:06:56+00:00,SAT-48692,16.388491121173143,35.601188969626804,1102.3478180214945,6.042736229474992,-211642.18350512144,10.5,10499788357.816494,47.655,-122.3035,60.0,6.933333333333334
2026-01-20T23:06:57+00:00,SAT-48692,16.170287268236603,35.47956005233176,1108.3744402876907,6.05361126794926,-212023.07335385744,10.5,10499787976.926645,47.655,-122.3035,60.0,6.95
2026-01-20T23:06:58+00:00,SAT-48692,15.954770860788258,35.358627831749956,1114.411908592259,6.064303708402784,-212397.56784751813,10.5,10499787602.432152,47.655,-122.3035,60.0,6.966666666666667
2026-01-20T23:06:59+00:00,SAT-48692,15.741892065599034,35.23839032416333,1120.460040824106,6.074817096730245,-212765.79117833436,10.5,10499787234.208822,47.655,-122.3035,60.0,6.983333333333333
2026-01-20T23:07:00+00:00,SAT-48692,15.531602149305623,35.11884532384164,1126.5186584085782,6.085154937337681,-213127.86608542918,10.5,10499786872.133915,47.655,-122.3035,60.0,7.0
2026-01-20T23:07:01+00:00,SAT-48692,15.323853451688391,34.999990415946726,1132.587586266083,6.095320641370255,-213483.9120415353,10.5,10499786516.08796,47.655,-122.3035,60.0,7.016666666666667
2026-01-20T23:07:02+00:00,SAT-48692,15.118599361272185,34.88182298990521,1138.6666527190762,6.105317524244858,-213834.04516657657,10.5,10499786165.954834,47.655,-122.3035,60.0,7.033333333333333
2026-01-20T23:07:03+00:00,SAT-48692,14.915794291482307,34.76434025220762,1144.7556893965898,6.11514888587412,-214178.3810374518,10.5,10499785821.618963,47.655,-122.3035,60.0,7.05
2026-01-20T23:07:04+00:00,SAT-48692,14.715393654814635,34.64753923706153,1150.854531218768,6.124817891506536,-214517.0305145523,10.5,10499785482.969486,47.655,-122.3035,60.0,7.066666666666666
2026-01-20T23:07:05+00:00,SAT-48692,14.517353841338362,34.53141681887516,1156.963016262564,6.134327651641864,-214850.10254073693,10.5,10499785149.897459,47.655,-122.3035,60.0,7.083333333333333
2026-01-20T23:07:06+00:00,SAT-48692,14.321632195149823,34.41596972263812,1163.080985707135,6.143681251031034,-215177.70515703183,10.5,10499784822.294844,47.655,-122.3035,60.0,7.1
2026-01-20T23:07:07+00:00,SAT-48692,14.12818699055782,34.30119453325907,1169.208283808163,6.152881643608696,-215499.9418227236,10.5,10499784500.058178,47.655,-122.3035,60.0,7.116666666666666
2026-01-20T23:07:08+00:00,SAT-48692,13.936977411964861,34.18708770648649,1175.3447577673887,6.1619317924648325,-215816.9163177572,10.5,10499784183.083683,47.655,-122.3035,60.0,7.133333333333334
2026-01-20T23:07:09+00:00,SAT-48692,13.747963530085459,34.07364557667311,1181.4902577417404,6.170834505970552,-216128.72700316826,10.5,10499783871.272997,47.655,-122.3035,60.0,7.15
2026-01-20T23:07:10+00:00,SAT-48692,13.561106283531602,33.96086436726725,1187.6446366890284,6.179592599752818,-216435.4724941232,10.5,10499783564.527506,47.655,-122.3035,60.0,7.166666666666667
2026-01-20T23:07:11+00:00,SAT-48692,13.376367456138771,33.84874019778764,1193.807750375182,6.188208817263762,-216737.24887792044,10.5,10499783262.751122,47.655,-122.3035,60.0,7.183333333333334
2026-01-20T23:07:12+00:00,SAT-48692,13.193709657156198,33.73726909195856,1199.9794573022662,6.196685810655618,-217034.14904414967,10.5,10499782965.850956,47.655,-122.3035,60.0,7.2
2026-01-20T23:07:13+00:00,SAT-48692,13.013096302464852,33.626446985802666,1206.1596186174268,6.205026216852058,-217326.2653490323,10.5,10499782673.734652,47.655,-122.3035,60.0,7.216666666666667
2026-01-20T23:07:14+00:00,SAT-48692,12.834491594117734,33.51626973397519,1212.3480980977006,6.2132325773671475,-217613.68680714126,10.5,10499782386.313192,47.655,-122.3035,60.0,7.233333333333333
2026-01-20T23:07:15+00:00,SAT-48692,12.657860502634447,33.406733117263684,1218.5447620548616,6.221307400559699,-217896.50127181265,10.5,10499782103.498728,47.655,-122.3035,60.0,7.25
2026-01-20T23:07:16+00:00,SAT-48692,12.48316874802296,33.297832848593806,1224.749479302353,6.229253134934723,-218174.79450004906,10.5,10499781825.2055,47.655,-122.3035,60.0,7.266666666666667
2026-01-20T23:07:17+00:00,SAT-48692,12.310382782041156,33.189564579239864,1230.9621210955945,6.237072170059749,-218448.65018461325,10.5,10499781551.349815,47.655,-122.3035,60.0,7.283333333333333
2026-01-20T23:07:18+00:00,SAT-48692,12.13946977083917,33.08192390473096,1237.1825610732008,6.244766871291221,-218718.15117029336,10.5,10499781281.84883,47.655,-122.3035,60.0,7.3
2026-01-20T23:07:19+00:00,SAT-48692,11.970397577205533,32.974906369849165,1243.4106752328353,6.252339493492764,-218983.37643195153,10.5,10499781016.623568,47.655,-122.3035,60.0,7.316666666666666
2026-01-20T23:07:20+00:00,SAT-48692,11.80313474544396,32.86850747490892,1249.6463418210121,6.259792329174125,-219244.40626297647,10.5,10499780755.593737,47.655,-122.3035,60.0,7.333333333333333
2026-01-20T23:07:21+00:00,SAT-48692,11.637650482901309,32.762722679155694,1255.8894413706419,6.267127513103296,-219501.31543197331,10.5,10499780498.684568,47.655,-122.3035,60.0,7.35
2026-01-20T23:07:22+00:00,SAT-48692,11.473914646878256,32.657547407381664,1262.13985654371,6.274347242911746,-219754.18090929204,10.5,10499780245.81909,47.655,-122.3035,60.0,7.366666666666666
2026-01-20T23:07:23+00:00,SAT-48692,11.311897726414399,32.55297705242133,1268.3974721939742,6.281453608717055,-220003.0758996915,10.5,10499779996.9241,47.655,-122.3035,60.0,7.383333333333334
2026-01-20T23:07:24+00:00,SAT-48692,11.151570828723928,32.44900698045182,1274.6621752597346,6.288448662935788,-220248.07228748154,10.5,10499779751.927713,47.655,-122.3035,60.0,7.4
2026-01-20T23:07:25+00:00,SAT-48692,10.992905664336295,32.34563253481761,1280.933854726236,6.295334406579606,-220489.2401565548,10.5,10499779510.759844,47.655,-122.3035,60.0,7.416666666666667
2026-01-20T23:07:26+00:00,SAT-48692,10.835874532872596,32.2428490399412,1287.212401574398,6.30211282691181,-220726.64910927814,10.5,10499779273.350891,47.655,-122.3035,60.0,7.433333333333334
2026-01-20T23:07:27+00:00,SAT-48692,10.680450308404346,32.14065180436982,1293.4977087671048,6.308785845537262,-220960.36644838226,10.5,10499779039.633553,47.655,-122.3035,60.0,7.45
2026-01-20T23:07:28+00:00,SAT-48692,10.526606426343008,32.03903612456729,1299.7896711837204,6.3153553559461075,-221190.45849190152,10.5,10499778809.541508,47.655,-122.3035,60.0,7.466666666666667
2026-01-20T23:07:29+00:00,SAT-48692,10.374316869869405,31.93799728786129,1306.0881855920506,6.321823187869276,-221416.9893247528,10.5,10499778583.010675,47.655,-122.3035,60.0,7.483333333333333
2026-01-20T23:07:30+00:00,SAT-48692,10.223556157483001,31.837530575861393,1312.3931505847522,6.3281911662962536,-221640.02286578759,10.5,10499778359.977135,47.655,-122.3035,60.0,7.5
2026-01-20T23:07:31+00:00,SAT-48692,10.07429932960007,31.73763126671614,1318.704466574605,6.334461060442718,-221859.62108042272,10.5,10499778140.37892,47.655,-122.3035,60.0,7.516666666666667
2026-01-20T23:07:32+00:00,SAT-48692,9.92652193660896,31.638294638098174,1325.0220357388866,6.340634587140604,-222075.84409937472,10.5,10499777924.155901,47.655,-122.3035,60.0,7.533333333333333
2026-01-20T23:07:33+00:00,SAT-48692,9.7802000272212,31.539515969957485,1331.345761967128,6.3467134580349605,-222288.75187169347,10.5,10499777711.248129,47.655,-122.3035,60.0,7.55
2026-01-20T23:07:34+00:00,SAT-48692,9.6353101360275,31.441290546417008,1337.6755508559418,6.352699334100815,-222498.40257175034,10.5,10499777501.597427,47.655,-122.3035,60.0,7.566666666666666
2026-01-20T23:07:35+00:00,SAT-48692,9.491829272460974,31.34361365824936,1344.011309658485,6.358593824353313,-222704.85255406186,10.5,10499777295.147446,47.655,-122.3035,60.0,7.583333333333333
2026-01-20T23:07:36+00:00,SAT-48692,9.349734910004043,31.24648060526524,1350.35294723264,6.364398531328308,-222908.15794621236,10.5,10499777091.842054,47.655,-122.3035,60.0,7.6
2026-01-20T23:07:37+00:00,SAT-48692,9.20900497477132,31.1498866978659,1356.7003740345515,6.370115030118804,-223108.37391462142,10.5,10499776891.626085,47.655,-122.3035,60.0,7.616666666666666
2026-01-20T23:07:38+00:00,SAT-48692,9.06961783482068,31.05382725882627,1363.0535020912566,6.375744814436061,-223305.5527753758,10.5,10499776694.447226,47.655,-122.3035,60.0,7.633333333333334
2026-01-20T23:07:39+00:00,SAT-48692,8.931552290881491,30.95829762580312,1369.4122449195208,6.3812894055297384,-223499.74780907348,10.5,10499776500.252192,47.655,-122.3035,60.0,7.65
2026-01-20T23:07:40+00:00,SAT-48692,8.794787565063226,30.863293152078878,1375.7765175533025,6.3867502509378085,-223691.00971461725,10.5,10499776308.990286,47.655,-122.3035,60.0,7.666666666666667
2026-01-20T23:07:41+00:00,SAT-48692,8.659303291972476,30.768809208751474,1382.146236470238,6.392128783299778,-223879.3886691028,10.5,10499776120.61133,47.655,-122.3035,60.0,7.683333333333334
2026-01-20T23:07:42+00:00,SAT-48692,8.525079508826407,30.674841185956225,1388.5213195767822,6.3974264183855665,-224064.9342587813,10.5,10499775935.06574,47.655,-122.3035,60.0,7.7
2026-01-20T23:07:43+00:00,SAT-48692,8.392096645941669,30.58138449401274,1394.9016861913854,6.402644530155373,-224247.6946055508,10.5,10499775752.305395,47.655,-122.3035,60.0,7.716666666666667
2026-01-20T23:07:44+00:00,SAT-48692,8.2603355178949,30.488434564907525,1401.2872570027935,6.407784455081583,-224427.71651832754,10.5,10499775572.283482,47.655,-122.3035,60.0,7.733333333333333
2026-01-20T23:07:45+00:00,SAT-48692,8.129777314904207,30.39598685359365,1407.6779540326615,6.412847511995004,-224605.04618814506,10.5,10499775394.953812,47.655,-122.3035,60.0,7.75
2026-01-20T23:07:46+00:00,SAT-48692,8.000403593994834,30.30403683895241,1414.073700617958,6.417835015676948,-224779.7296642064,10.5,10499775220.270336,47.655,-122.3035,60.0,7.766666666666667
2026-01-20T23:07:47+00:00,SAT-48692,7.872196270190379,30.212580024479333,1420.4744214069265,6.42274818689925,-224951.8097031051,10.5,10499775048.190296,47.655,-122.3035,60.0,7.783333333333333
2026-01-20T23:07:48+00:00,SAT-48692,7.745137609599503,30.121611940235887,1426.8800422653273,6.427588328207069,-225121.33192548234,10.5,10499774878.668074,47.655,-122.3035,60.0,7.8
2026-01-20T23:07:49+00:00,SAT-48692,7.619210219447936,30.031128142148166,1433.2904903579924,6.432356587011481,-225288.3365185276,10.5,10499774711.66348,47.655,-122.3035,60.0,7.816666666666666
