satellites_20260121_005943/SAT-52470.csv

timestamp,satellite,azimuth_deg,elevation_deg,distance_km,relative_velocity_kms,doppler_shift_hz,tx_freq_ghz,rx_freq_hz,ue_lat,ue_lon,ue_alt_m,time_minutes
2026-01-20T23:09:40+00:00,SAT-52470,187.94793736431785,30.275214432221365,1082.8958492451234,-5.078531175445201,177871.64392966355,10.5,10500177871.64393,47.655,-122.3035,60.0,9.666666666666666
2026-01-20T23:09:41+00:00,SAT-52470,187.9451285164314,30.553514994427726,1077.8308608194793,-5.0575308029820425,177136.12205451628,10.5,10500177136.122055,47.655,-122.3035,60.0,9.683333333333334
2026-01-20T23:09:42+00:00,SAT-52470,187.9425961720353,30.834194917554335,1072.786816765305,-5.0362273845841825,176389.98622885277,10.5,10500176389.986229,47.655,-122.3035,60.0,9.7
2026-01-20T23:09:43+00:00,SAT-52470,187.94034669811543,31.11727773474418,1067.7640193204131,-5.014616551709097,175633.08344783486,10.5,10500175633.083448,47.655,-122.3035,60.0,9.716666666666667
2026-01-20T23:09:44+00:00,SAT-52470,187.93838666184087,31.402787037626066,1062.7627750795089,-4.992693813256429,174865.2564141307,10.5,10500174865.256414,47.655,-122.3035,60.0,9.733333333333333
2026-01-20T23:09:45+00:00,SAT-52470,187.93672283855773,31.69074646180178,1057.783395116421,-4.970454690346727,174086.34825843625,10.5,10500174086.348259,47.655,-122.3035,60.0,9.75
2026-01-20T23:09:46+00:00,SAT-52470,187.9353622200322,31.981179679110216,1052.8261949719151,-4.947894645048958,173296.20004321143,10.5,10500173296.200043,47.655,-122.3035,60.0,9.766666666666667
2026-01-20T23:09:47+00:00,SAT-52470,187.934312023167,32.274110385400995,1047.8914947125863,-4.92500908822476,172494.65103741863,10.5,10500172494.651037,47.655,-122.3035,60.0,9.783333333333333
2026-01-20T23:09:48+00:00,SAT-52470,187.93357969912782,32.56956228800509,1042.9796189819301,-4.90179341832377,171681.54007529965,10.5,10500171681.540075,47.655,-122.3035,60.0,9.8
2026-01-20T23:09:49+00:00,SAT-52470,187.93317294289028,32.86755909483556,1038.090897012722,-4.878242981465635,170856.70415827862,10.5,10500170856.704159,47.655,-122.3035,60.0,9.816666666666666
2026-01-20T23:09:50+00:00,SAT-52470,187.93309970326442,33.16812450044925,1033.2256626792068,-4.8543530958814385,170019.97931100422,10.5,10500170019.979311,47.655,-122.3035,60.0,9.833333333333334
2026-01-20T23:09:51+00:00,SAT-52470,187.93336819346837,33.47128217288971,1028.3842545249145,-4.8301190363663755,169171.20003681662,10.5,10500169171.200037,47.655,-122.3035,60.0,9.85
2026-01-20T23:09:52+00:00,SAT-52470,187.93398690215028,33.77705573875062,1023.5670158059784,-4.8055360532893285,168310.1999835431,10.5,10500168310.199984,47.655,-122.3035,60.0,9.866666666666667
2026-01-20T23:09:53+00:00,SAT-52470,187.9349646050423,34.08546876871601,1018.7742945154979,-4.780599377658418,167436.8121209153,10.5,10500167436.81212,47.655,-122.3035,60.0,9.883333333333333
2026-01-20T23:09:54+00:00,SAT-52470,187.9363103771611,34.396544762577214,1014.0064434028465,-4.755304200186039,166550.86800733797,10.5,10500166550.868008,47.655,-122.3035,60.0,9.9
2026-01-20T23:09:55+00:00,SAT-52470,187.93803360565775,34.7103071321625,1009.2638200138609,-4.729645691819411,165652.19850895586,10.5,10500165652.19851,47.655,-122.3035,60.0,9.916666666666666
2026-01-20T23:09:56+00:00,SAT-52470,187.94014400333356,35.02677918465718,1004.5467867105531,-4.703619000657713,164740.63369167875,10.5,10500164740.633692,47.655,-122.3035,60.0,9.933333333333334
2026-01-20T23:09:57+00:00,SAT-52470,187.9426516228549,35.34598410489032,999.8557106938971,-4.677219255862337,163816.0029581349,10.5,10500163816.002958,47.655,-122.3035,60.0,9.95
2026-01-20T23:09:58+00:00,SAT-52470,187.94556687172783,35.667944936931626,995.1909640227171,-4.6504415690452054,162878.13509629603,10.5,10500162878.135096,47.655,-122.3035,60.0,9.966666666666667
2026-01-20T23:09:59+00:00,SAT-52470,187.94890052806954,35.99268456487888,990.5529236311893,-4.623281038504539,161926.8584278316,10.5,10500161926.858427,47.655,-122.3035,60.0,9.983333333333333
2026-01-20T23:10:00+00:00,SAT-52470,187.95266375721937,36.32022569292221,985.9419713421208,-4.595732755061119,160962.00101251964,10.5,10500160962.001013,47.655,-122.3035,60.0,10.0
2026-01-20T23:10:01+00:00,SAT-52470,187.95686812926235,36.65059082485725,981.3584938744065,-4.567791786375389,159983.39009896503,10.5,10500159983.390099,47.655,-122.3035,60.0,10.016666666666667
2026-01-20T23:10:02+00:00,SAT-52470,187.96152563750272,36.983802241419426,976.8028828661281,-4.539453223342712,158990.85374955792,10.5,10500158990.85375,47.655,-122.3035,60.0,10.033333333333333
2026-01-20T23:10:03+00:00,SAT-52470,187.9666487179711,37.31988197987224,972.2755348513809,-4.510712121276334,157984.21878045212,10.5,10500157984.21878,47.655,-122.3035,60.0,10.05
2026-01-20T23:10:04+00:00,SAT-52470,187.97225026998893,37.65885180827091,967.7768512957614,-4.481563581234234,156963.31360997565,10.5,10500156963.31361,47.655,-122.3035,60.0,10.066666666666666
2026-01-20T23:10:05+00:00,SAT-52470,187.97834367794533,38.0007332045386,963.3072385507438,-4.4520026689273235,155927.96541845257,10.5,10500155927.965418,47.655,-122.3035,60.0,10.083333333333334
2026-01-20T23:10:06+00:00,SAT-52470,187.98494283424364,38.34554732841888,958.8671078889337,-4.422024500053363,154878.00313695785,10.5,10500154878.003138,47.655,-122.3035,60.0,10.1
2026-01-20T23:10:07+00:00,SAT-52470,187.99206216363226,38.693314998603284,954.4568754542137,-4.391624156325961,153813.2545062978,10.5,10500153813.254507,47.655,-122.3035,60.0,10.116666666666667
2026-01-20T23:10:08+00:00,SAT-52470,187.99971664885112,39.044056662256324,950.0769622956379,-4.360796812293454,152733.55051874346,10.5,10500152733.550518,47.655,-122.3035,60.0,10.133333333333333
2026-01-20T23:10:09+00:00,SAT-52470,188.00792185793287,39.397792373121014,945.727794274844,-4.329537584411865,151638.72013192734,10.5,10500151638.720133,47.655,-122.3035,60.0,10.15
2026-01-20T23:10:10+00:00,SAT-52470,188.01669397290158,39.75454175653929,941.4098021239905,-4.297841695190992,150528.5960179339,10.5,10500150528.596018,47.655,-122.3035,60.0,10.166666666666666
2026-01-20T23:10:11+00:00,SAT-52470,188.02604982039276,40.11432398614853,937.1234213399867,-4.265704338448579,149403.00984393037,10.5,10500149403.009844,47.655,-122.3035,60.0,10.183333333333334
2026-01-20T23:10:12+00:00,SAT-52470,188.0360069039576,40.47715774847465,932.8690922131073,-4.233120805120624,148261.79667857607,10.5,10500148261.796679,47.655,-122.3035,60.0,10.2
2026-01-20T23:10:13+00:00,SAT-52470,188.04658343846668,40.843061216404564,928.6472597301337,-4.2000864002900595,147104.7920860158,10.5,10500147104.792086,47.655,-122.3035,60.0,10.216666666666667
2026-01-20T23:10:14+00:00,SAT-52470,188.0577983864951,41.21205201445526,924.4583735602444,-4.166596469549002,145931.8330491974,10.5,10500145931.83305,47.655,-122.3035,60.0,10.233333333333333
2026-01-20T23:10:15+00:00,SAT-52470,188.0696714970309,41.58414718476733,920.3028880146143,-4.132646455815808,144742.75995984522,10.5,10500144742.75996,47.655,-122.3035,60.0,10.25
2026-01-20T23:10:16+00:00,SAT-52470,188.0822233466467,41.95936315652226,916.1812619493472,-4.0982318477542075,143537.4148118802,10.5,10500143537.414812,47.655,-122.3035,60.0,10.266666666666667
2026-01-20T23:10:17+00:00,SAT-52470,188.0954753832294,42.337715709600246,912.0939587198536,-4.0633482136720644,142315.64238869768,10.5,10500142315.64239,47.655,-122.3035,60.0,10.283333333333333
2026-01-20T23:10:18+00:00,SAT-52470,188.10944997253662,42.71921993965506,908.0414461014182,-4.027991161582421,141077.28886433638,10.5,10500141077.288864,47.655,-122.3035,60.0,10.3
2026-01-20T23:10:19+00:00,SAT-52470,188.12417044764146,43.10389021799666,904.0241962495999,-3.9921564499801643,139822.20568334553,10.5,10500139822.205683,47.655,-122.3035,60.0,10.316666666666666
2026-01-20T23:10:20+00:00,SAT-52470,188.13966116189914,43.491740160154315,900.042685550153,-3.9558398909281913,138550.24616645294,10.5,10500138550.246166,47.655,-122.3035,60.0,10.333333333333334
2026-01-20T23:10:21+00:00,SAT-52470,188.15594754513577,43.88278258407188,896.0973945656007,-3.9190373953973503,137261.26709856116,10.5,10500137261.2671,47.655,-122.3035,60.0,10.35
2026-01-20T23:10:22+00:00,SAT-52470,188.17305616367062,44.27702947078145,892.1888079365909,-3.8817450098475983,135955.13000997438,10.5,10500135955.13001,47.655,-122.3035,60.0,10.366666666666667
2026-01-20T23:10:23+00:00,SAT-52470,188.19101478452703,44.674491927214795,888.3174142467697,-3.84395886050665,134631.69922480115,10.5,10500134631.699224,47.655,-122.3035,60.0,10.383333333333333
2026-01-20T23:10:24+00:00,SAT-52470,188.20985244380304,45.075180141906124,884.4837059432243,-3.8056752260046243,133290.84440492681,10.5,10500133290.844404,47.655,-122.3035,60.0,10.4
2026-01-20T23:10:25+00:00,SAT-52470,188.22959951998928,45.47910334630439,880.6881791844891,-3.7668905320039365,131932.44036192977,10.5,10500131932.440361,47.655,-122.3035,60.0,10.416666666666666
2026-01-20T23:10:26+00:00,SAT-52470,188.25028781238365,45.886269774154485,876.9313336939038,-3.7276012962475353,130556.3651324381,10.5,10500130556.365133,47.655,-122.3035,60.0,10.433333333333334
2026-01-20T23:10:27+00:00,SAT-52470,188.27195062479655,46.29668661346618,873.2136726677796,-3.6878042284727357,129162.50347753488,10.5,10500129162.503477,47.655,-122.3035,60.0,10.45
2026-01-20T23:10:28+00:00,SAT-52470,188.2946228556119,46.71035996727166,869.5357025839162,-3.6474962042139047,127750.74596521704,10.5,10500127750.745966,47.655,-122.3035,60.0,10.466666666666667
2026-01-20T23:10:29+00:00,SAT-52470,188.3183410942613,47.12729481031252,865.8979330362469,-3.6066742337918947,126320.98788427457,10.5,10500126320.987885,47.655,-122.3035,60.0,10.483333333333333
2026-01-20T23:10:30+00:00,SAT-52470,188.34314372454995,47.54749494055105,862.3008766004117,-3.5653355290159845,124873.13158047436,10.5,10500124873.13158,47.655,-122.3035,60.0,10.5
2026-01-20T23:10:31+00:00,SAT-52470,188.36907103594433,47.9709629364709,858.7450486328064,-3.523477497102908,123407.08624357899,10.5,10500123407.086243,47.655,-122.3035,60.0,10.516666666666667
2026-01-20T23:10:32+00:00,SAT-52470,188.39616534315843,48.39770011225847,855.2309670756957,-3.4810977245839436,121922.76734370485,10.5,10500121922.767344,47.655,-122.3035,60.0,10.533333333333333
2026-01-20T23:10:33+00:00,SAT-52470,188.42447111469076,48.82770646955473,851.7591522783773,-3.4381940196969216,120420.09811606961,10.5,10500120420.098116,47.655,-122.3035,60.0,10.55
2026-01-20T23:10:34+00:00,SAT-52470,188.4540351114379,49.26098065255848,848.3301267760663,-3.394764399366529,118899.0091049874,10.5,10500118899.009106,47.655,-122.3035,60.0,10.566666666666666
2026-01-20T23:10:35+00:00,SAT-52470,188.48490653603895,49.69751990014379,844.9444150817648,-3.3508071344079107,117359.43974709017,10.5,10500117359.439747,47.655,-122.3035,60.0,10.583333333333334
2026-01-20T23:10:36+00:00,SAT-52470,188.51713719420098,50.13732000202762,841.6025434330486,-3.3063206973687125,115801.33654453536,10.5,10500115801.336544,47.655,-122.3035,60.0,10.6
2026-01-20T23:10:37+00:00,SAT-52470,188.55078166858095,50.580375247022175,838.305039590873,-3.2613038350868555,114224.65560628608,10.5,10500114224.655607,47.655,-122.3035,60.0,10.616666666666667
2026-01-20T23:10:38+00:00,SAT-52470,188.58589750719054,51.02667837886597,835.052432566013,-3.215755544614005,112629.36180484918,10.5,10500112629.361805,47.655,-122.3035,60.0,10.633333333333333
2026-01-20T23:10:39+00:00,SAT-52470,188.62254542707035,51.476220547736126,831.8452523695179,-3.169675104742603,111015.42988048527,10.5,10500111015.42988,47.655,-122.3035,60.0,10.65
2026-01-20T23:10:40+00:00,SAT-52470,188.66078953514733,51.928991264552636,828.6840297317212,-3.1230620572023713,109382.84378263078,10.5,10500109382.843782,47.655,-122.3035,60.0,10.666666666666666
2026-01-20T23:10:41+00:00,SAT-52470,188.70069756748967,52.38497835141097,825.5692958400048,-3.075916243525685,107731.5979610791,10.5,10500107731.597961,47.655,-122.3035,60.0,10.683333333333334
2026-01-20T23:10:42+00:00,SAT-52470,188.7423411493474,52.844167895709816,822.5015820397952,-3.0282378083553207,106061.69748183213,10.5,10500106061.697481,47.655,-122.3035,60.0,10.7
2026-01-20T23:10:43+00:00,SAT-52470,188.78579607777786,53.30654420366483,819.4814195322622,-2.9800272155687457,104373.158591841,10.5,10500104373.158592,47.655,-122.3035,60.0,10.716666666666667
2026-01-20T23:10:44+00:00,SAT-52470,188.83114262928396,53.772089754998596,816.5093390559349,-2.931285213005504,102666.00748360985,10.5,10500102666.007484,47.655,-122.3035,60.0,10.733333333333333
2026-01-20T23:10:45+00:00,SAT-52470,188.87846589444143,54.24078515105037,813.5858706034974,-2.8820129351113484,100940.28389022767,10.5,10500100940.28389,47.655,-122.3035,60.0,10.75
2026-01-20T23:10:46+00:00,SAT-52470,188.9278561441716,54.712609077394774,810.711543036213,-2.832211809774441,99196.03782237787,10.5,10500099196.037823,47.655,-122.3035,60.0,10.766666666666667
2026-01-20T23:10:47+00:00,SAT-52470,188.9794092284254,55.18753825116121,807.8868837912646,-2.78188363657176,97433.3323088584,10.5,10500097433.33231,47.655,-122.3035,60.0,10.783333333333333
2026-01-20T23:10:48+00:00,SAT-52470,189.03322701319462,55.665547379352965,805.1124185110571,-2.731030576610545,95652.24304078633,10.5,10500095652.24304,47.655,-122.3035,60.0,10.8
2026-01-20T23:10:49+00:00,SAT-52470,189.08941785886,56.146609114842036,802.3886706826507,-2.6796551545441556,93852.8584422015,10.5,10500093852.858442,47.655,-122.3035,60.0,10.816666666666666
2026-01-20T23:10:50+00:00,SAT-52470,189.1480971446996,56.63069401169229,799.7161612751854,-2.6277602629070542,92035.27982189623,10.5,10500092035.279821,47.655,-122.3035,60.0,10.833333333333334
2026-01-20T23:10:51+00:00,SAT-52470,189.20938784479227,57.117770480118786,797.0954083729795,-2.5753492032521503,90199.62281421895,10.5,10500090199.622814,47.655,-122.3035,60.0,10.85
2026-01-20T23:10:52+00:00,SAT-52470,189.27342116212196,57.60780474786573,794.5269267676027,-2.522425647041382,88346.01600929705,10.5,10500088346.016008,47.655,-122.3035,60.0,10.866666666666667
2026-01-20T23:10:53+00:00,SAT-52470,189.34033722609067,58.100760813698976,792.0112275889535,-2.4689936826687506,86474.60259998229,10.5,10500086474.6026,47.655,-122.3035,60.0,10.883333333333333
2026-01-20T23:10:54+00:00,SAT-52470,189.410285862892,58.59660040848282,789.5488178894385,-2.415057784373406,84585.53929305574,10.5,10500084585.539293,47.655,-122.3035,60.0,10.9
2026-01-20T23:10:55+00:00,SAT-52470,189.48342744585747,59.095282949365966,787.1402002591566,-2.3606228774199773,82678.99859211856,10.5,10500082678.998592,47.655,-122.3035,60.0,10.916666666666666
2026-01-20T23:10:56+00:00,SAT-52470,189.5599338382338,59.59676550576994,784.7858723760766,-2.3056942683388,80755.1663543097,10.5,10500080755.166355,47.655,-122.3035,60.0,10.933333333333334
2026-01-20T23:10:57+00:00,SAT-52470,189.63998943638381,60.101002750427725,782.4863266257867,-2.250277714872968,78814.24424014751,10.5,10500078814.24424,47.655,-122.3035,60.0,10.95
2026-01-20T23:10:58+00:00,SAT-52470,189.72379233031947,60.60794692322437,780.2420496514866,-2.1943793996312015,76856.44879074182,10.5,10500076856.448792,47.655,-122.3035,60.0,10.966666666666667
2026-01-20T23:10:59+00:00,SAT-52470,189.81155559421867,61.11754778857076,778.0535219302544,-2.1380059165962657,74882.01095526155,10.5,10500074882.010956,47.655,-122.3035,60.0,10.983333333333333
2026-01-20T23:11:00+00:00,SAT-52470,189.9035087243952,61.62975258768915,775.9212173627691,-2.0811643374904687,72891.17841533532,10.5,10500072891.178415,47.655,-122.3035,60.0,11.0
2026-01-20T23:11:01+00:00,SAT-52470,189.9998992479763,62.14450600421675,773.8456027968452,-2.0238621466749938,70884.21330495056,10.5,10500070884.213305,47.655,-122.3035,60.0,11.016666666666667
2026-01-20T23:11:02+00:00,SAT-52470,190.10099452091404,62.66175011292237,771.8271376158948,-1.966107273354517,68861.39333839556,10.5,10500068861.39334,47.655,-122.3035,60.0,11.033333333333333
2026-01-20T23:11:03+00:00,SAT-52470,190.2070837459788,63.18142433304169,769.8662732952691,-1.907908088751507,66823.01171129136,10.5,10500066823.011711,47.655,-122.3035,60.0,11.05
2026-01-20T23:11:04+00:00,SAT-52470,190.31848024087049,63.70346537760827,767.963452961421,-1.8492734128448332,64769.37733660646,10.5,10500064769.377337,47.655,-122.3035,60.0,11.066666666666666
2026-01-20T23:11:05+00:00,SAT-52470,190.43552399414332,64.2278072009958,766.1191109443437,-1.7902125087563567,62700.81464805144,10.5,10500062700.814648,47.655,-122.3035,60.0,11.083333333333334
2026-01-20T23:11:06+00:00,SAT-52470,190.5585845513539,64.75438094045211,764.3336723356107,-1.7307350632017455,60617.662915383706,10.5,10500060617.662916,47.655,-122.3035,60.0,11.1
2026-01-20T23:11:07+00:00,SAT-52470,190.68806428122087,65.28311484639568,762.6075525659109,-1.6708512217799856,58520.27748039561,10.5,10500058520.277481,47.655,-122.3035,60.0,11.116666666666667
2026-01-20T23:11:08+00:00,SAT-52470,190.82440208486847,65.81393421570948,760.941156947389,-1.61057155282841,56409.028490964585,10.5,10500056409.02849,47.655,-122.3035,60.0,11.133333333333333
2026-01-20T23:11:09+00:00,SAT-52470,190.96807761478172,66.34676130675437,759.3348802520347,-1.549907046552244,54284.30087056614,10.5,10500054284.30087,47.655,-122.3035,60.0,11.15
2026-01-20T23:11:10+00:00,SAT-52470,191.1196160886553,66.88151524303287,757.7891062909399,-1.4888691374921146,52146.49510518108,10.5,10500052146.495106,47.655,-122.3035,60.0,11.166666666666666
2026-01-20T23:11:11+00:00,SAT-52470,191.27959380073324,67.41811191210768,756.3042074711478,-1.4274696500611845,49996.02533577559,10.5,10500049996.025335,47.655,-122.3035,60.0,11.183333333333334
2026-01-20T23:11:12+00:00,SAT-52470,191.44864444279514,67.9564638311959,754.8805444068201,-1.3657208464601134,47833.32103648581,10.5,10500047833.321037,47.655,-122.3035,60.0,11.2
2026-01-20T23:11:13+00:00,SAT-52470,191.62746638712898,68.4964800105499,753.5184654826172,-1.3036353710248318,45658.82506544155,10.5,10500045658.825066,47.655,-122.3035,60.0,11.216666666666667
2026-01-20T23:11:14+00:00,SAT-52470,191.81683109382107,69.03806577490607,752.2183064725818,-1.2412262618228478,43472.9940709179,10.5,10500043472.99407,47.655,-122.3035,60.0,11.233333333333333
2026-01-20T23:11:15+00:00,SAT-52470,192.0175928565269,69.58112256059827,750.9803901474572,-1.1785069472541452,41276.29837228436,10.5,10500041276.298372,47.655,-122.3035,60.0,11.25
2026-01-20T23:11:16+00:00,SAT-52470,192.2307001387952,70.12554767793532,749.8050258853957,-1.1154912186145571,39069.22099905812,10.5,10500039069.220999,47.655,-122.3035,60.0,11.266666666666667
2026-01-20T23:11:17+00:00,SAT-52470,192.45720880567166,70.67123402099158,748.6925093100308,-1.0521932197911033,36852.25732999122,10.5,10500036852.25733,47.655,-122.3035,60.0,11.283333333333333
2026-01-20T23:11:18+00:00,SAT-52470,192.69829762975306,71.21806972081974,747.6431219388259,-0.9886274480146637,34625.915119432284,10.5,10500034625.91512,47.655,-122.3035,60.0,11.3
2026-01-20T23:11:19+00:00,SAT-52470,192.9552865397158,71.76593773629406,746.6571308306726,-0.9248087204050135,32390.7133255922,10.5,10500032390.713326,47.655,-122.3035,60.0,11.316666666666666
2026-01-20T23:11:20+00:00,SAT-52470,193.22965818002237,72.31471535061779,745.7347882668553,-0.8607521772268609,30147.182224584314,10.5,10500030147.182224,47.655,-122.3035,60.0,11.333333333333334
2026-01-20T23:11:21+00:00,SAT-52470,193.5230835060659,72.86427357285221,744.8763314287677,-0.7964732486747628,27895.86224709165,10.5,10500027895.862247,47.655,-122.3035,60.0,11.35
2026-01-20T23:11:22+00:00,SAT-52470,193.83745230196303,73.41447640073734,744.081982108756,-0.7319876453924125,25637.303646312314,10.5,10500025637.303646,47.655,-122.3035,60.0,11.366666666666667
2026-01-20T23:11:23+00:00,SAT-52470,194.1749097541224,73.9651799264418,743.351946430418,-0.6673113498645393,23372.066196467367,10.5,10500023372.066196,47.655,-122.3035,60.0,11.383333333333333
2026-01-20T23:11:24+00:00,SAT-52470,194.53790051065815,74.51623124863372,742.6864145774864,-0.60246057647109,21100.717793729305,10.5,10500021100.717794,47.655,-122.3035,60.0,11.4
2026-01-20T23:11:25+00:00,SAT-52470,194.92922203236128,75.06746711855702,742.0855605625527,-0.5374517740835956,18823.834547157796,10.5,10500018823.834547,47.655,-122.3035,60.0,11.416666666666666
2026-01-20T23:11:26+00:00,SAT-52470,195.35208958331705,75.61871228375188,741.5495419931998,-0.47230158880554773,16541.99947371008,10.5,10500016541.999474,47.655,-122.3035,60.0,11.433333333333334
2026-01-20T23:11:27+00:00,SAT-52470,195.81021585279802,76.16977741576696,741.0784998752979,-0.4070268565681453,14255.802238912647,10.5,10500014255.802238,47.655,-122.3035,60.0,11.45
2026-01-20T23:11:28+00:00,SAT-52470,196.30790913301837,76.72045653279739,740.6725584236805,-0.34164457329118625,11965.838111769495,10.5,10500011965.838112,47.655,-122.3035,60.0,11.466666666666667
2026-01-20T23:11:29+00:00,SAT-52470,196.8501951558204,77.27052374974575,740.3318249025848,-0.2761718778800676,9672.707369245127,10.5,10500009672.707369,47.655,-122.3035,60.0,11.483333333333333
2026-01-20T23:11:30+00:00,SAT-52470,197.44296934044337,77.81972916954987,740.0563894830458,-0.2106260263164874,7377.014388811334,10.5,10500007377.014389,47.655,-122.3035,60.0,11.5
2026-01-20T23:11:31+00:00,SAT-52470,198.09318839219048,78.36779363668029,739.8463251261328,-0.14502437331742865,5079.3670060672475,10.5,10500005079.367006,47.655,-122.3035,60.0,11.516666666666667
2026-01-20T23:11:32+00:00,SAT-52470,198.80911322695758,78.91440199971419,739.7016874844775,-0.0793843467542983,2780.3756187893564,10.5,10500002780.375618,47.655,-122.3035,60.0,11.533333333333333
2026-01-20T23:11:33+00:00,SAT-52470,199.60061930920358,79.45919437004012,739.6225148293146,-0.013723424787484652,480.652386087007,10.5,10500000480.652386,47.655,-122.3035,60.0,11.55
2026-01-20T23:11:34+00:00,SAT-52470,200.47959619734132,80.00175468093228,739.6088280003265,0.05194088511689336,-1819.1895065198082,10.5,10499998180.810493,47.655,-122.3035,60.0,11.566666666666666
2026-01-20T23:11:35+00:00,SAT-52470,201.46046595803764,80.54159557531958,739.6606303764164,0.11759107197774184,-4118.536750401804,10.5,10499995881.46325,47.655,-122.3035,60.0,11.583333333333334
2026-01-20T23:11:36+00:00,SAT-52470,202.56086089653374,81.07813822275412,739.7779078722023,0.18320964293123929,-6416.7766714732115,10.5,10499993583.223328,47.655,-122.3035,60.0,11.6
2026-01-20T23:11:37+00:00,SAT-52470,203.80251577392363,81.61068506684418,739.9606289560857,0.2487791470049762,-8713.298062862708,10.5,10499991286.701937,47.655,-122.3035,60.0,11.616666666666667
2026-01-20T23:11:38+00:00,SAT-52470,205.21244936603878,82.1383826295153,740.208744692032,0.31428219801795676,-11007.49198696835,10.5,10499988992.508013,47.655,-122.3035,60.0,11.633333333333333
2026-01-20T23:11:39+00:00,SAT-52470,206.82453521929196,82.66017014722817,740.5221888041885,0.3797014990568439,-13298.752632719204,10.5,10499986701.247368,47.655,-122.3035,60.0,11.65
2026-01-20T23:11:40+00:00,SAT-52470,208.68159036605897,83.17470786415618,740.9008777659145,0.4450198603851158,-15586.477942829755,10.5,10499984413.522057,47.655,-122.3035,60.0,11.666666666666666
2026-01-20T23:11:41+00:00,SAT-52470,210.838135826217,83.68027592192229,741.3447109066719,0.5102202263740127,-17870.070557035604,10.5,10499982129.929443,47.655,-122.3035,60.0,11.683333333333334
2026-01-20T23:11:42+00:00,SAT-52470,213.36398063095723,84.17463073829364,741.8535705457757,0.5752856974488634,-20148.938580746635,10.5,10499979851.061419,47.655,-122.3035,60.0,11.7
2026-01-20T23:11:43+00:00,SAT-52470,216.34868917729804,84.65480041928913,742.4273221480313,0.6401995483417996,-22422.496224334292,10.5,10499977577.503777,47.655,-122.3035,60.0,11.716666666666667
2026-01-20T23:11:44+00:00,SAT-52470,219.90665803351067,85.11679511288587,743.0658144975775,0.7049452488080631,-24690.164528704263,10.5,10499975309.835472,47.655,-122.3035,60.0,11.733333333333333
2026-01-20T23:11:45+00:00,SAT-52470,224.18161222823866,85.55520633214296,743.7688798923888,0.7695064893686078,-26951.372266911334,10.5,10499973048.627733,47.655,-122.3035,60.0,11.75
2026-01-20T23:11:46+00:00,SAT-52470,229.34716576437742,85.96268367320349,744.5363343644524,0.8338671916591058,-29205.556306625338,10.5,10499970794.443693,47.655,-122.3035,60.0,11.766666666666667
2026-01-20T23:11:47+00:00,SAT-52470,235.5957244996855,86.32933941863645,745.3679779102671,0.8980115412839423,-31452.162760817,10.5,10499968547.837238,47.655,-122.3035,60.0,11.783333333333333
2026-01-20T23:11:48+00:00,SAT-52470,243.101421427091,86.64230165172984,746.2635947541077,0.9619239840698725,-33690.6468565452,10.5,10499966309.353144,47.655,-122.3035,60.0,11.8
2026-01-20T23:11:49+00:00,SAT-52470,251.93970602535524,86.88597112088834,747.2229536075532,1.02558927294434,-35920.474576833985,10.5,10499964079.525423,47.655,-122.3035,60.0,11.816666666666666
2026-01-20T23:11:50+00:00,SAT-52470,261.96635018855625,87.04389233674611,748.2458079757697,1.0889924537266702,-38141.12216301998,10.5,10499961858.877836,47.655,-122.3035,60.0,11.833333333333334
2026-01-20T23:11:51+00:00,SAT-52470,272.72371150967365,87.1028163194071,749.3318964496198,1.1521189059235037,-40352.07754358113,10.5,10499959647.922457,47.655,-122.3035,60.0,11.85
2026-01-20T23:11:52+00:00,SAT-52470,283.50089661736706,87.05764241090509,750.480943038461,1.2149543390232418,-42552.84020435243,10.5,10499957447.159796,47.655,-122.3035,60.0,11.866666666666667
2026-01-20T23:11:53+00:00,SAT-52470,293.57947254483133,86.9138044485196,751.6926574992468,1.2774848218759745,-44742.92221753534,10.5,10499955257.077782,47.655,-122.3035,60.0,11.883333333333333
2026-01-20T23:11:54+00:00,SAT-52470,302.4853669881385,86.68497504596928,752.966735694931,1.3396967787878133,-46921.84810490476,10.5,10499953078.151896,47.655,-122.3035,60.0,11.9
2026-01-20T23:11:55+00:00,SAT-52470,310.05963947984753,86.38809993405543,754.3028599489754,1.4015770224147812,-49089.155989892184,10.5,10499950910.84401,47.655,-122.3035,60.0,11.916666666666666
2026-01-20T23:11:56+00:00,SAT-52470,316.3695274315878,86.0392449797329,755.7006994326638,1.4631127445407806,-51244.397274591196,10.5,10499948755.602726,47.655,-122.3035,60.0,11.933333333333334
2026-01-20T23:11:57+00:00,SAT-52470,321.5864564078108,85.65166111791173,757.1599105432191,1.5242915286024188,-53387.13707842976,10.5,10499946612.86292,47.655,-122.3035,60.0,11.95
2026-01-20T23:11:58+00:00,SAT-52470,325.9031009089384,85.23551300700048,758.6801372944119,1.5851013845165447,-55516.95545797793,10.5,10499944483.044542,47.655,-122.3035,60.0,11.966666666666667
2026-01-20T23:11:59+00:00,SAT-52470,329.49447298965123,84.79833990961464,760.2610117419031,1.645530713745984,-57633.44618340209,10.5,10499942366.553816,47.655,-122.3035,60.0,11.983333333333333
2026-01-20T23:12:00+00:00,SAT-52470,332.50589120013007,84.34567249849896,761.9021543737458,1.7055683558721653,-59736.21836963535,10.5,10499940263.78163,47.655,-122.3035,60.0,12.0
2026-01-20T23:12:01+00:00,SAT-52470,335.05317629467345,83.88157517428454,763.6031745473356,1.7652035637767134,-61824.89560713195,10.5,10499938175.104393,47.655,-122.3035,60.0,12.016666666666667
2026-01-20T23:12:02+00:00,SAT-52470,337.2270526490518,83.40906099783469,765.3636709016089,1.824426039893529,-63899.11723156843,10.5,10499936100.882769,47.655,-122.3035,60.0,12.033333333333333
2026-01-20T23:12:03+00:00,SAT-52470,339.0982361669652,82.9303912536413,767.1832318053961,1.8832259018882012,-65958.53712179148,10.5,10499934041.462877,47.655,-122.3035,60.0,12.05
2026-01-20T23:12:04+00:00,SAT-52470,340.7219445459857,82.4472867552186,769.0614357715459,1.9415937230960343,-68002.8251161287,10.5,10499931997.174885,47.655,-122.3035,60.0,12.066666666666666
2026-01-20T23:12:05+00:00,SAT-52470,342.141527107331,81.96107596961492,770.9978519113803,1.9995205102311513,-70031.66623166714,10.5,10499929968.333769,47.655,-122.3035,60.0,12.083333333333334
2026-01-20T23:12:06+00:00,SAT-52470,343.3912645145067,81.47279916357945,772.9920403669175,2.056997714121617,-72044.76104024264,10.5,10499927955.23896,47.655,-122.3035,60.0,12.1
2026-01-20T23:12:07+00:00,SAT-52470,344.49848836732724,80.98328218715062,775.0435527538015,2.1140172296850457,-74041.8256675856,10.5,10499925958.174332,47.655,-122.3035,60.0,12.116666666666667
2026-01-20T23:12:08+00:00,SAT-52470,345.485175385929,80.4931892817124,777.1519326042073,2.170571386873394,-76022.5914761693,10.5,10499923977.408524,47.655,-122.3035,60.0,12.133333333333333
2026-01-20T23:12:09+00:00,SAT-52470,346.3691464417696,80.00306130758895,779.3167158007158,2.2266529648932067,-77986.80556326294,10.5,10499922013.194437,47.655,-122.3035,60.0,12.15
2026-01-20T23:12:10+00:00,SAT-52470,347.1649717526317,79.51334373884934,781.5374310243692,2.282255183978296,-79934.23047277628,10.5,10499920065.769527,47.655,-122.3035,60.0,12.166666666666666
2026-01-20T23:12:11+00:00,SAT-52470,347.884658224107,79.02440740920622,783.8136001945236,2.3373716821986616,-81864.64338300982,10.5,10499918135.356617,47.655,-122.3035,60.0,12.183333333333334
2026-01-20T23:12:12+00:00,SAT-52470,348.5381750086,78.53656406620688,786.1447388855697,2.3919965466371047,-83777.83719859156,10.5,10499916222.162802,47.655,-122.3035,60.0,12.2
2026-01-20T23:12:13+00:00,SAT-52470,349.1338584143196,78.05007815220472,788.5303567747491,2.446124294351567,-85673.61988369784,10.5,10499914326.380116,47.655,-122.3035,60.0,12.216666666666667
2026-01-20T23:12:14+00:00,SAT-52470,349.67872627422,77.56517583002963,790.9699580709824,2.4997498378446488,-87551.81325264965,10.5,10499912448.186747,47.655,-122.3035,60.0,12.233333333333333
2026-01-20T23:12:15+00:00,SAT-52470,350.17872391805497,77.08205197144306,793.4630419092595,2.55286853708524,-89412.25479193016,10.5,10499910587.745209,47.655,-122.3035,60.0,12.25
2026-01-20T23:12:16+00:00,SAT-52470,350.63891811761147,76.6008756054954,796.0091027969125,2.605476152645698,-91254.79601885058,10.5,10499908745.203981,47.655,-122.3035,60.0,12.266666666666667
2026-01-20T23:12:17+00:00,SAT-52470,351.0636511272408,76.12179422057811,798.6076310131511,2.6575688420896806,-93079.3023550367,10.5,10499906920.697645,47.655,-122.3035,60.0,12.283333333333333
2026-01-20T23:12:18+00:00,SAT-52470,351.4566639156083,75.64493718513152,801.2581130049953,2.709143154374609,-94885.65293037958,10.5,10499905114.347069,47.655,-122.3035,60.0,12.3
2026-01-20T23:12:19+00:00,SAT-52470,351.8211954286387,75.17041849046618,803.9600317776249,2.7601960546358986,-96673.74145108393,10.5,10499903326.258549,47.655,-122.3035,60.0,12.316666666666666
2026-01-20T23:12:20+00:00,SAT-52470,352.16006307562697,74.69833896245923,806.7128673094484,2.8107248664913054,-98443.4741789225,10.5,10499901556.525822,47.655,-122.3035,60.0,12.333333333333334
2026-01-20T23:12:21+00:00,SAT-52470,352.47572839036485,74.22878807127998,809.516096909629,2.860727274846684,-100194.77002950548,10.5,10499899805.22997,47.655,-122.3035,60.0,12.35
2026-01-20T23:12:22+00:00,SAT-52470,352.77035092632457,73.76184541509724,812.3691955784095,2.910201349694773,-101927.56140581467,10.5,10499898072.438595,47.655,-122.3035,60.0,12.366666666666667
2026-01-20T23:12:23+00:00,SAT-52470,353.04583274890524,73.29758194138124,815.2716363911717,2.959145517676743,-103641.79320216857,10.5,10499896358.206799,47.655,-122.3035,60.0,12.383333333333333
2026-01-20T23:12:24+00:00,SAT-52470,353.3038553590486,72.83606096665073,818.2228908541347,3.00755853071119,-105337.42170547698,10.5,10499894662.578295,47.655,-122.3035,60.0,12.4
2026-01-20T23:12:25+00:00,SAT-52470,353.54591049494263,72.37733903459572,821.222429228764,3.0554394824634983,-107014.41517206791,10.5,10499892985.584827,47.655,-122.3035,60.0,12.416666666666666
2026-01-20T23:12:26+00:00,SAT-52470,353.77332595718315,71.92146663649822,824.2697208726075,3.102787810508705,-108672.75390344008,10.5,10499891327.246096,47.655,-122.3035,60.0,12.433333333333334
2026-01-20T23:12:27+00:00,SAT-52470,353.9872873619235,71.46848882146915,827.3642345822883,3.1496032360103814,-110312.42813356234,10.5,10499889687.571867,47.655,-122.3035,60.0,12.45
2026-01-20T23:12:28+00:00,SAT-52470,354.18885654156577,71.01844572543543,830.505438876336,3.1958858091798805,-111933.43962104859,10.5,10499888066.560379,47.655,-122.3035,60.0,12.466666666666667
2026-01-20T23:12:29+00:00,SAT-52470,354.3789871835227,70.57137301863662,833.692802323358,3.24163585819643,-113535.79986012362,10.5,10499886464.20014,47.655,-122.3035,60.0,12.483333333333333
2026-01-20T23:12:30+00:00,SAT-52470,354.55853816920774,70.12730229880746,836.9257938192659,3.2868540098517927,-115119.53080368627,10.5,10499884880.469196,47.655,-122.3035,60.0,12.5
2026-01-20T23:12:31+00:00,SAT-52470,354.72828500033035,69.68626142963082,840.2038828850915,3.331541165208436,-116684.66401075564,10.5,10499883315.335989,47.655,-122.3035,60.0,12.516666666666667
2026-01-20T23:12:32+00:00,SAT-52470,354.8889296202698,69.24827483937052,843.526539940526,3.375698478044284,-118231.23989151516,10.5,10499881768.760109,47.655,-122.3035,60.0,12.533333333333333
2026-01-20T23:12:33+00:00,SAT-52470,355.0411088863951,68.81336378573283,846.8932365559622,3.4193273460973623,-119759.30740066284,10.5,10499880240.6926,47.655,-122.3035,60.0,12.55
2026-01-20T23:12:34+00:00,SAT-52470,355.18540190397033,68.38154659068474,850.3034456958032,3.4624294601951466,-121268.9257581291,10.5,10499878731.074242,47.655,-122.3035,60.0,12.566666666666666
2026-01-20T23:12:35+00:00,SAT-52470,355.32233639784704,67.95283884261214,853.7566420107712,3.505006679743643,-122760.16008817757,10.5,10499877239.839912,47.655,-122.3035,60.0,12.583333333333334
2026-01-20T23:12:36+00:00,SAT-52470,355.45239425801776,67.52725359172285,857.2523020060356,3.547061124686069,-124233.08464018707,10.5,10499875766.91536,47.655,-122.3035,60.0,12.6
2026-01-20T23:12:37+00:00,SAT-52470,355.57601638947807,67.10480151401896,860.7899043010558,3.588595112253381,-125687.78057338754,10.5,10499874312.219427,47.655,-122.3035,60.0,12.616666666666667
2026-01-20T23:12:38+00:00,SAT-52470,355.69360695968106,66.68549106633944,864.3689298263432,3.629611188301486,-127124.33705442183,10.5,10499872875.662945,47.655,-122.3035,60.0,12.633333333333333
2026-01-20T23:12:39+00:00,SAT-52470,355.8055371321661,66.26932862285368,867.9888620514758,3.6701120525123416,-128542.84863757175,10.5,10499871457.151363,47.655,-122.3035,60.0,12.65
2026-01-20T23:12:40+00:00,SAT-52470,355.91214835354634,65.85631860747903,871.6491871385148,3.710100616655005,-129943.41730530644,10.5,10499870056.582695,47.655,-122.3035,60.0,12.666666666666666
2026-01-20T23:12:41+00:00,SAT-52470,356.0137552590357,65.44646360801023,875.3493941535254,3.749579940444104,-131326.15022177473,10.5,10499868673.84978,47.655,-122.3035,60.0,12.683333333333334
2026-01-20T23:12:42+00:00,SAT-52470,356.1106482431899,65.03976448757679,879.0889752141283,3.7885532892574654,-132691.16175432067,10.5,10499867308.838245,47.655,-122.3035,60.0,12.7
2026-01-20T23:12:43+00:00,SAT-52470,356.20309574336426,64.63622048075287,882.8674256946144,3.8270240450350226,-134038.5703527863,10.5,10499865961.429647,47.655,-122.3035,60.0,12.716666666666667
2026-01-20T23:12:44+00:00,SAT-52470,356.291346268519,64.2358292915323,886.684244342196,3.864995745322424,-135368.4999169841,10.5,10499864631.500084,47.655,-122.3035,60.0,12.733333333333333
2026-01-20T23:12:45+00:00,SAT-52470,356.3756302091986,63.83858717971577,890.5389334321975,3.902472067629933,-136681.07924887922,10.5,10499863318.920752,47.655,-122.3035,60.0,12.75
2026-01-20T23:12:46+00:00,SAT-52470,356.4561614541326,63.44448904257314,894.4309989076472,3.9394568286019935,-137976.44202350458,10.5,10499862023.557976,47.655,-122.3035,60.0,12.766666666666667
2026-01-20T23:12:47+00:00,SAT-52470,356.53313883751946,63.053528490786704,898.3599505180396,3.9759539446038965,-139254.72540853886,10.5,10499860745.274591,47.655,-122.3035,60.0,12.783333333333333
2026-01-20T23:12:48+00:00,SAT-52470,356.60674743635803,62.66569792307275,902.3253019187912,4.0119674580906475,-140516.07098785587,10.5,10499859483.929012,47.655,-122.3035,60.0,12.8
2026-01-20T23:12:49+00:00,SAT-52470,356.6771597370345,62.2809885931815,906.3265707969936,4.047501504314487,-141760.62359548121,10.5,10499858239.376404,47.655,-122.3035,60.0,12.816666666666666
2026-01-20T23:12:50+00:00,SAT-52470,356.7445366849176,61.89939067579354,910.3632789639632,4.082560344038123,-142988.53246134796,10.5,10499857011.467539,47.655,-122.3035,60.0,12.833333333333334
2026-01-20T23:12:51+00:00,SAT-52470,356.8090286318049,61.52089332511272,914.4349524804172,4.117148280527699,-144199.9483040392,10.5,10499855800.051697,47.655,-122.3035,60.0,12.85
2026-01-20T23:12:52+00:00,SAT-52470,356.87077619032203,61.14548473757155,918.5411216988635,4.151269741838021,-145395.02621276493,10.5,10499854604.973787,47.655,-122.3035,60.0,12.866666666666667
2026-01-20T23:12:53+00:00,SAT-52470,356.9299110087871,60.773152203157274,922.6813213880567,4.184929198259501,-146573.9227560046,10.5,10499853426.077244,47.655,-122.3035,60.0,12.883333333333333
2026-01-20T23:12:54+00:00,SAT-52470,356.9865564720986,60.403882161180476,926.8550907751207,4.2181312135954885,-147736.79777745655,10.5,10499852263.202223,47.655,-122.3035,60.0,12.9
2026-01-20T23:12:55+00:00,SAT-52470,357.04082833899594,60.03766024820691,931.0619736388134,4.250880405646552,-148883.8130120298,10.5,10499851116.186989,47.655,-122.3035,60.0,12.916666666666666
2026-01-20T23:12:56+00:00,SAT-52470,357.09283532082486,59.67447134674846,935.3015183633782,4.283181418548691,-150015.13111701183,10.5,10499849984.868883,47.655,-122.3035,60.0,12.933333333333334
2026-01-20T23:12:57+00:00,SAT-52470,357.1426796082654,59.31429963349127,939.5732779648107,4.315039000023261,-151130.91837768728,10.5,10499848869.081623,47.655,-122.3035,60.0,12.95
2026-01-20T23:12:58+00:00,SAT-52470,357.19045735266286,58.95712861837903,943.8768101941673,4.346457912656921,-152231.34159998668,10.5,10499847768.6584,47.655,-122.3035,60.0,12.966666666666667
2026-01-20T23:12:59+00:00,SAT-52470,357.23625910440853,58.60294118894667,948.2116775523905,4.377442922329716,-153316.56770518897,10.5,10499846683.432295,47.655,-122.3035,60.0,12.983333333333333
2026-01-20T23:13:00+00:00,SAT-52470,357.2801702136528,58.25171965310086,952.577447293594,4.407998902908613,-154386.76739673162,10.5,10499845613.232603,47.655,-122.3035,60.0,13.0
2026-01-20T23:13:01+00:00,SAT-52470,357.3222711985153,57.903445771206826,956.9736915327616,4.438130683365459,-155442.10980563535,10.5,10499844557.890194,47.655,-122.3035,60.0,13.016666666666667
2026-01-20T23:13:02+00:00,SAT-52470,357.36263808075176,57.5581007986112,961.3999872009714,4.467843168329892,-156482.76671277653,10.5,10499843517.233288,47.655,-122.3035,60.0,13.033333333333333
2026-01-20T23:13:03+00:00,SAT-52470,357.4013426953111,57.21566551644783,965.8559161208524,4.497141230467823,-157508.90877952686,10.5,10499842491.09122,47.655,-122.3035,60.0,13.05
2026-01-20T23:13:04+00:00,SAT-52470,357.4384529736018,56.87612026909519,970.3410649747055,4.526029805455781,-158520.70887415617,10.5,10499841479.291126,47.655,-122.3035,60.0,13.066666666666666
2026-01-20T23:13:05+00:00,SAT-52470,357.47403320511137,56.53944499247963,974.8550253673468,4.554513802946137,-159518.33895345838,10.5,10499840481.661047,47.655,-122.3035,60.0,13.083333333333334
2026-01-20T23:13:06+00:00,SAT-52470,357.50814427747076,56.2056192475585,979.3973938001518,4.582598160985373,-160501.97196870917,10.5,10499839498.02803,47.655,-122.3035,60.0,13.1
2026-01-20T23:13:07+00:00,SAT-52470,357.540843898367,55.874622248029674,983.9677716993746,4.610287798798688,-161471.78021198328,10.5,10499838528.219788,47.655,-122.3035,60.0,13.116666666666667
2026-01-20T23:13:08+00:00,SAT-52470,357.57218679992354,55.54643289003018,988.5657653973764,4.637587636887929,-162427.93602006912,10.5,10499837572.06398,47.655,-122.3035,60.0,13.133333333333333
2026-01-20T23:13:09+00:00,SAT-52470,357.6022249277917,55.22102977882493,993.1909861338993,4.664502588513955,-163370.61147614502,10.5,10499836629.388523,47.655,-122.3035,60.0,13.15
2026-01-20T23:13:10+00:00,SAT-52470,357.63100761592284,54.89839125472358,997.8430500488438,4.6910375866828495,-164299.9793549507,10.5,10499835700.020645,47.655,-122.3035,60.0,13.166666666666666
2026-01-20T23:13:11+00:00,SAT-52470,357.6585817486652,54.578495415785056,1002.5215782019623,4.717197498278134,-165216.21011533387,10.5,10499834783.789885,47.655,-122.3035,60.0,13.183333333333334
2026-01-20T23:13:12+00:00,SAT-52470,357.6849919102772,54.26132014520806,1007.2261965069116,4.742987219314608,-166119.475236443,10.5,10499833880.524763,47.655,-122.3035,60.0,13.2
2026-01-20T23:13:13+00:00,SAT-52470,357.7102805243891,53.946843130844876,1011.956535760308,4.7684116028599615,-167009.94469323705,10.5,10499832990.055307,47.655,-122.3035,60.0,13.216666666666667
2026-01-20T23:13:14+00:00,SAT-52470,357.73448798294805,53.63504188850782,1016.7122315988937,4.793475505551493,-167887.78858569777,10.5,10499832112.211414,47.655,-122.3035,60.0,13.233333333333333
2026-01-20T23:13:15+00:00,SAT-52470,357.75765276639083,53.32589378101175,1021.4929245030971,4.818183714356054,-168753.1745736531,10.5,10499831246.825426,47.655,-122.3035,60.0,13.25
2026-01-20T23:13:16+00:00,SAT-52470,357.77981155492074,53.019376040923234,1026.2982597275482,4.842541048891451,-169606.2714605056,10.5,10499830393.72854,47.655,-122.3035,60.0,13.266666666666667
2026-01-20T23:13:17+00:00,SAT-52470,357.80099933279723,52.71546578559839,1031.1278873336425,4.86655225847739,-170447.24558752106,10.5,10499829552.754412,47.655,-122.3035,60.0,13.283333333333333
2026-01-20T23:13:18+00:00,SAT-52470,357.8212494848151,52.41414003791202,1035.9814621194307,4.890222066973039,-171276.26240422938,10.5,10499828723.737597,47.655,-122.3035,60.0,13.3
2026-01-20T23:13:19+00:00,SAT-52470,357.840593886614,52.11537574306115,1040.8586435942252,4.9135551819319705,-172093.48678906958,10.5,10499827906.51321,47.655,-122.3035,60.0,13.316666666666666
2026-01-20T23:13:20+00:00,SAT-52470,357.85906298893343,51.81914978394475,1045.7590959623385,4.936556281971372,-172899.0826070061,10.5,10499827100.917393,47.655,-122.3035,60.0,13.333333333333334
2026-01-20T23:13:21+00:00,SAT-52470,357.87668589628953,51.52543899647812,1050.682488094225,4.959229971573398,-173693.21112648098,10.5,10499826306.788874,47.655,-122.3035,60.0,13.35
2026-01-20T23:13:22+00:00,SAT-52470,357.89349044025033,51.23422018674717,1055.6284934525406,4.981580860809988,-174476.0338117141,10.5,10499825523.966188,47.655,-122.3035,60.0,13.366666666666667
2026-01-20T23:13:23+00:00,SAT-52470,357.9095032484011,50.9454701425508,1060.5967900977219,5.003613499672479,-175247.71002264848,10.5,10499824752.289978,47.655,-122.3035,60.0,13.383333333333333
2026-01-20T23:13:24+00:00,SAT-52470,357.9247498085453,50.6591656481317,1065.5870606280619,5.025332398284657,-176008.39772289703,10.5,10499823991.602278,47.655,-122.3035,60.0,13.4
2026-01-20T23:13:25+00:00,SAT-52470,357.93925452898424,50.375283496917305,1070.5989921399512,5.046742051879218,-176758.25435452347,10.5,10499823241.745646,47.655,-122.3035,60.0,13.416666666666666
2026-01-20T23:13:26+00:00,SAT-52470,357.9530407950785,50.093800502164456,1075.6322762130253,5.06784685265606,-177497.43375094724,10.5,10499822502.56625,47.655,-122.3035,60.0,13.433333333333334
2026-01-20T23:13:27+00:00,SAT-52470,357.96613102199143,49.81469351188483,1080.6866088074075,5.088651218868591,-178226.09065809188,10.5,10499821773.909342,47.655,-122.3035,60.0,13.45
2026-01-20T23:13:28+00:00,SAT-52470,357.9785467046636,49.53793941585196,1085.7616902896925,5.109159481648135,-178944.37677049707,10.5,10499821055.62323,47.655,-122.3035,60.0,13.466666666666667
2026-01-20T23:13:29+00:00,SAT-52470,357.9903084643531,49.26351515833861,1090.8572253460563,5.129375948624537,-179652.44295958118,10.5,10499820347.557041,47.655,-122.3035,60.0,13.483333333333333
2026-01-20T23:13:30+00:00,SAT-52470,358.0014360925824,48.99139774672082,1095.972922958818,5.14930487354059,-180350.43820941017,10.5,10499819649.56179,47.655,-122.3035,60.0,13.5
2026-01-20T23:13:31+00:00,SAT-52470,358.01194859237836,48.72156426117727,1101.1084963526957,5.16895045428917,-181038.5095479496,10.5,10499818961.490452,47.655,-122.3035,60.0,13.516666666666667
2026-01-20T23:13:32+00:00,SAT-52470,358.0218642170634,48.45399186392,1106.2636629391066,5.188316860733809,-181716.80302145894,10.5,10499818283.196978,47.655,-122.3035,60.0,13.533333333333333
2026-01-20T23:13:33+00:00,SAT-52470,358.03120050689444,48.18865780643856,1111.4381442882118,5.20740818705523,-182385.46202546536,10.5,10499817614.537975,47.655,-122.3035,60.0,13.55
2026-01-20T23:13:34+00:00,SAT-52470,358.0399743233881,47.9255394387337,1116.6316660534349,5.2262285210592925,-183044.6297322215,10.5,10499816955.370268,47.655,-122.3035,60.0,13.566666666666666
2026-01-20T23:13:35+00:00,SAT-52470,358.0482018819411,47.66461421450312,1121.8439579651047,5.244781875082498,-183694.44667072388,10.5,10499816305.55333,47.655,-122.3035,60.0,13.583333333333334
2026-01-20T23:13:36+00:00,SAT-52470,358.0558987823432,47.40585969943337,1127.074753755187,5.263072204104932,-184335.0513611046,10.5,10499815664.948639,47.655,-122.3035,60.0,13.6
2026-01-20T23:13:37+00:00,SAT-52470,358.06308003767884,47.14925357807672,1132.323791100081,5.281103445629384,-184966.58171136692,10.5,10499815033.41829,47.655,-122.3035,60.0,13.616666666666667
2026-01-20T23:13:38+00:00,SAT-52470,358.0697601016727,46.8947736583664,1137.5908116031887,5.298879452335114,-185589.17265863536,10.5,10499814410.827341,47.655,-122.3035,60.0,13.633333333333333
2026-01-20T23:13:39+00:00,SAT-52470,358.07595289439524,46.64239787904314,1142.8755607103176,5.31640406407607,-186202.95869083784,10.5,10499813797.04131,47.655,-122.3035,60.0,13.65
2026-01-20T23:13:40+00:00,SAT-52470,358.08167182671394,46.39210431320387,1148.1777876968895,5.333681044021689,-186808.0716100861,10.5,10499813191.92839,47.655,-122.3035,60.0,13.666666666666666
2026-01-20T23:13:41+00:00,SAT-52470,358.0869298232612,46.14387117457651,1153.4972455914606,5.350714106397551,-187404.64150427122,10.5,10499812595.358496,47.655,-122.3035,60.0,13.683333333333334
2026-01-20T23:13:42+00:00,SAT-52470,358.0917393442674,45.897676822090055,1158.8336911269075,5.367506934144755,-187992.79736556925,10.5,10499812007.202635,47.655,-122.3035,60.0,13.7
2026-01-20T23:13:43+00:00,SAT-52470,358.0961124062171,45.65349976331855,1164.1868847092278,5.384063166264989,-188572.66664721226,10.5,10499811427.333353,47.655,-122.3035,60.0,13.716666666666667
2026-01-20T23:13:44+00:00,SAT-52470,358.1000606014302,45.41131865823861,1169.5565903737163,5.400386341414994,-189144.37328792788,10.5,10499810855.626713,47.655,-122.3035,60.0,13.733333333333333
2026-01-20T23:13:45+00:00,SAT-52470,358.10359511648403,45.1711123252136,1174.9425756848873,5.416480028104092,-189708.0422720073,10.5,10499810291.957727,47.655,-122.3035,60.0,13.75
2026-01-20T23:13:46+00:00,SAT-52470,358.10672674992543,44.932859740826196,1180.34461176625,5.432347685834558,-190263.79476585388,10.5,10499809736.205235,47.655,-122.3035,60.0,13.766666666666667
2026-01-20T23:13:47+00:00,SAT-52470,358.10946592882436,44.69654004570883,1185.762473191589,5.447992739519233,-190811.75072440263,10.5,10499809188.249275,47.655,-122.3035,60.0,13.783333333333333
2026-01-20T23:13:48+00:00,SAT-52470,358.11182272462133,44.46213254674527,1191.1959379504692,5.46341856986549,-191352.02855432624,10.5,10499808647.971445,47.655,-122.3035,60.0,13.8
2026-01-20T23:13:49+00:00,SAT-52470,358.11380686812856,44.2296167194884,1196.6447874041487,5.478628524163224,-191884.74549187574,10.5,10499808115.254509,47.655,-122.3035,60.0,13.816666666666666
2026-01-20T23:13:50+00:00,SAT-52470,358.1154277638297,43.99897220990137,1202.1088062522474,5.493625868245626,-192410.01592034407,10.5,10499807589.98408,47.655,-122.3035,60.0,13.833333333333334
2026-01-20T23:13:51+00:00,SAT-52470,358.11669450335916,43.77017883792825,1207.5877824515112,5.508413858913044,-192927.9539066555,10.5,10499807072.046093,47.655,-122.3035,60.0,13.85
2026-01-20T23:13:52+00:00,SAT-52470,358.11761587845484,43.5432165977808,1213.0815072068003,5.52299566692752,-193438.6705043092,10.5,10499806561.329496,47.655,-122.3035,60.0,13.866666666666667
2026-01-20T23:13:53+00:00,SAT-52470,358.11820039313574,43.31806566127851,1218.5897748852826,5.537374445366574,-193942.2761474174,10.5,10499806057.723852,47.655,-122.3035,60.0,13.883333333333333
2026-01-20T23:13:54+00:00,SAT-52470,358.1184562754129,43.09470637814201,1224.112382998795,5.551553305062468,-194438.87979048464,10.5,10499805561.120209,47.655,-122.3035,60.0,13.9
2026-01-20T23:13:55+00:00,SAT-52470,358.11839148836356,42.87311927717475,1229.6491321617107,5.565535272984593,-194928.58745078312,10.5,10499805071.41255,47.655,-122.3035,60.0,13.916666666666666
2026-01-20T23:13:56+00:00,SAT-52470,358.118013740672,42.653285068925925,1235.1998260073005,5.579323358354796,-195411.50452399094,10.5,10499804588.495476,47.655,-122.3035,60.0,13.933333333333334
2026-01-20T23:13:57+00:00,SAT-52470,358.11733049670283,42.43518464553048,1240.7642711700332,5.592920535341743,-195887.7351780754,10.5,10499804112.264822,47.655,-122.3035,60.0,13.95
2026-01-20T23:13:58+00:00,SAT-52470,358.1163489861145,42.218799081137696,1246.342277250614,5.606329703718595,-196357.38097535877,10.5,10499803642.619024,47.655,-122.3035,60.0,13.966666666666667
2026-01-20T23:13:59+00:00,SAT-52470,358.11507621295243,42.004109633731694,1251.9336567417893,5.61955373859207,-196820.54261423994,10.5,10499803179.457386,47.655,-122.3035,60.0,13.983333333333333
2026-01-20T23:14:00+00:00,SAT-52470,358.11351896440544,41.79109774487032,1257.538225003745,5.632595460759252,-197277.31889096473,10.5,10499802722.681108,47.655,-122.3035,60.0,14.0
2026-01-20T23:14:01+00:00,SAT-52470,358.11168381908874,41.5797450404609,1263.1558002099423,5.645457662581313,-197727.80760583305,10.5,10499802272.192394,47.655,-122.3035,60.0,14.016666666666667
2026-01-20T23:14:02+00:00,SAT-52470,358.10957715501286,41.37003333043674,1268.7862033187569,5.658143082948857,-198172.10468637937,10.5,10499801827.895313,47.655,-122.3035,60.0,14.033333333333333
2026-01-20T23:14:03+00:00,SAT-52470,358.10720515713433,41.161944609280795,1274.429258020151,5.670654404578959,-198610.3040927036,10.5,10499801389.695908,47.655,-122.3035,60.0,14.05
2026-01-20T23:14:04+00:00,SAT-52470,358.1045738245968,40.95546105651989,1280.0847906796512,5.68299429560533,-199042.4992741344,10.5,10499800957.500727,47.655,-122.3035,60.0,14.066666666666666
2026-01-20T23:14:05+00:00,SAT-52470,358.1016889776495,40.750565035607536,1285.7526303238014,5.695165364863359,-199468.7816031225,10.5,10499800531.218397,47.655,-122.3035,60.0,14.083333333333334
2026-01-20T23:14:06+00:00,SAT-52470,358.0985562642572,40.5472390943592,1291.432608581025,5.7071701931098,-199889.24146868597,10.5,10499800110.758532,47.655,-122.3035,60.0,14.1
2026-01-20T23:14:07+00:00,SAT-52470,358.09518116640163,40.34546596417782,1297.12455965362,5.719011277220497,-200303.96632197875,10.5,10499799696.033678,47.655,-122.3035,60.0,14.116666666666667
2026-01-20T23:14:08+00:00,SAT-52470,358.0915690061344,40.14522856117002,1302.8283202341013,5.730691152152204,-200713.0449479091,10.5,10499799286.955051,47.655,-122.3035,60.0,14.133333333333333
2026-01-20T23:14:09+00:00,SAT-52470,358.0877249513523,39.946509982889104,1308.5437295431811,5.742212244585704,-201116.5623391029,10.5,10499798883.43766,47.655,-122.3035,60.0,14.15
2026-01-20T23:14:10+00:00,SAT-52470,358.0836540213325,39.7492935101812,1314.2706292217813,5.75357697133266,-201514.60314252778,10.5,10499798485.396858,47.655,-122.3035,60.0,14.166666666666666
2026-01-20T23:14:11+00:00,SAT-52470,358.07936109201194,39.55356260549516,1320.0088633211906,5.764787706104144,-201907.25049558622,10.5,10499798092.749504,47.655,-122.3035,60.0,14.183333333333334
2026-01-20T23:14:12+00:00,SAT-52470,358.07485090107565,39.35930091230859,1325.7582782600782,5.775846783491774,-202294.586165552,10.5,10499797705.413834,47.655,-122.3035,60.0,14.2
2026-01-20T23:14:13+00:00,SAT-52470,358.0701280527955,39.16649225436277,1331.5187227854808,5.786756507017909,-202676.69083152202,10.5,10499797323.309168,47.655,-122.3035,60.0,14.216666666666667
2026-01-20T23:14:14+00:00,SAT-52470,358.06519702269844,38.97512063457673,1337.2900479418133,5.797519121497656,-203053.64311641685,10.5,10499796946.356884,47.655,-122.3035,60.0,14.233333333333333
2026-01-20T23:14:15+00:00,SAT-52470,358.0600621620074,38.78517023483839,1343.0721070123202,5.808136866367879,-203425.5214547883,10.5,10499796574.478546,47.655,-122.3035,60.0,14.25
2026-01-20T23:14:16+00:00,SAT-52470,358.0547277019382,38.59662541398351,1348.864755513711,5.8186119146329895,-203792.40195444273,10.5,10499796207.598045,47.655,-122.3035,60.0,14.266666666666667
2026-01-20T23:14:17+00:00,SAT-52470,358.04919775777984,38.40947070775466,1354.667851129905,5.828946453906685,-204154.36123486533,10.5,10499795845.638765,47.655,-122.3035,60.0,14.283333333333333
2026-01-20T23:14:18+00:00,SAT-52470,358.0434763328414,38.2236908260988,1360.4812537266014,5.839142565877719,-204511.4722056018,10.5,10499795488.527794,47.655,-122.3035,60.0,14.3
2026-01-20T23:14:19+00:00,SAT-52470,358.03756732221507,38.03927065431405,1366.3048252456367,5.849202329031537,-204863.80766400447,10.5,10499795136.192335,47.655,-122.3035,60.0,14.316666666666666
2026-01-20T23:14:20+00:00,SAT-52470,358.03147451641826,37.856195250841765,1372.138429701791,5.859127811959309,-205211.4400608862,10.5,10499794788.559938,47.655,-122.3035,60.0,14.333333333333334
2026-01-20T23:14:21+00:00,SAT-52470,358.02520160484926,37.67444984529836,1377.9819331729184,5.86892104027612,-205554.44034185563,10.5,10499794445.559658,47.655,-122.3035,60.0,14.35
2026-01-20T23:14:22+00:00,SAT-52470,358.0187521791344,37.49401983753513,1383.835203757087,5.878583961263876,-205892.8767089621,10.5,10499794107.123291,47.655,-122.3035,60.0,14.366666666666667
2026-01-20T23:14:23+00:00,SAT-52470,358.0121297363503,37.31489079774055,1389.698111494454,5.888118564960504,-206226.81886175164,10.5,10499793773.181139,47.655,-122.3035,60.0,14.383333333333333
2026-01-20T23:14:24+00:00,SAT-52470,358.0053376820871,37.13704846280365,1395.570528409908,5.897526723461113,-206556.33236891398,10.5,10499793443.667631,47.655,-122.3035,60.0,14.4
2026-01-20T23:14:25+00:00,SAT-52470,357.9983793334311,36.96047873758401,1401.45232839544,5.906810384401329,-206881.4854448872,10.5,10499793118.514555,47.655,-122.3035,60.0,14.416666666666666
2026-01-20T23:14:26+00:00,SAT-52470,357.9912579217884,36.78516769030325,1407.3433872854828,5.915971336624018,-207202.34074251525,10.5,10499792797.659258,47.655,-122.3035,60.0,14.433333333333334
2026-01-20T23:14:27+00:00,SAT-52470,357.9839765956606,36.61110155497514,1413.2435826985427,5.925011440699139,-207518.9634268283,10.5,10499792481.036573,47.655,-122.3035,60.0,14.45
2026-01-20T23:14:28+00:00,SAT-52470,357.97653842325377,36.438266726918364,1419.1527941087334,5.933932501601468,-207831.41671567806,10.5,10499792168.583284,47.655,-122.3035,60.0,14.466666666666667
2026-01-20T23:14:29+00:00,SAT-52470,357.96894639500556,36.266649762098986,1425.0709027903304,5.942736253575316,-208139.76134963616,10.5,10499791860.238651,47.655,-122.3035,60.0,14.483333333333333
2026-01-20T23:14:30+00:00,SAT-52470,357.96120342606497,36.09623737685633,1430.9977917472297,5.951424447869773,-208444.05866485345,10.5,10499791555.941336,47.655,-122.3035,60.0,14.5
2026-01-20T23:14:31+00:00,SAT-52470,357.9533123586021,35.92701644508054,1436.9333457299049,5.959998802342362,-208744.368827967,10.5,10499791255.631172,47.655,-122.3035,60.0,14.516666666666667
2026-01-20T23:14:32+00:00,SAT-52470,357.94527596408466,35.75897399687571,1442.8774512021077,5.968460980365894,-209040.75009732862,10.5,10499790959.249903,47.655,-122.3035,60.0,14.533333333333333
2026-01-20T23:14:33+00:00,SAT-52470,357.93709694545544,35.59209721780067,1448.829996286526,5.976812633568724,-209333.26031994977,10.5,10499790666.73968,47.655,-122.3035,60.0,14.55
2026-01-20T23:14:34+00:00,SAT-52470,357.92877793924055,35.42637344689522,1454.7908707530719,5.985055401045243,-209621.95690384932,10.5,10499790378.043097,47.655,-122.3035,60.0,14.566666666666666
2026-01-20T23:14:35+00:00,SAT-52470,357.9203215175399,35.26179017475411,1460.7599660063809,5.993190865348864,-209906.895276742,10.5,10499790093.104723,47.655,-122.3035,60.0,14.583333333333334
2026-01-20T23:14:36+00:00,SAT-52470,357.91173019001627,35.09833504282114,1466.7371750294224,6.00122060138658,-210188.13059853256,10.5,10499789811.869402,47.655,-122.3035,60.0,14.6
2026-01-20T23:14:37+00:00,SAT-52470,357.9030064057393,34.935995841330836,1472.7223923758718,6.009146154972599,-210465.71701017336,10.5,10499789534.28299,47.655,-122.3035,60.0,14.616666666666667
2026-01-20T23:14:38+00:00,SAT-52470,357.89415255501746,34.774760507855866,1478.7155141410979,6.016969044622609,-210739.70769650716,10.5,10499789260.292303,47.655,-122.3035,60.0,14.633333333333333
2026-01-20T23:14:39+00:00,SAT-52470,357.885170971131,34.614617125810504,1484.716437934935,6.024690759657618,-211010.15481985538,10.5,10499788989.84518,47.655,-122.3035,60.0,14.65
2026-01-20T23:14:40+00:00,SAT-52470,357.87606393202657,34.45555392300997,1490.7250628525667,6.03231279013174,-211277.11056821604,10.5,10499788722.889431,47.655,-122.3035,60.0,14.666666666666666
2026-01-20T23:14:41+00:00,SAT-52470,357.86683366191716,34.297559269454176,1496.7412894752579,6.039836545186685,-211540.6242956926,10.5,10499788459.375704,47.655,-122.3035,60.0,14.683333333333334
2026-01-20T23:14:42+00:00,SAT-52470,357.85748233290434,34.14062167726683,1502.7650197896576,6.047263476849281,-211800.74685840643,10.5,10499788199.253141,47.655,-122.3035,60.0,14.7
2026-01-20T23:14:43+00:00,SAT-52470,357.8480120664222,33.98472979739761,1508.7961572305685,6.054594983289535,-212057.52722618566,10.5,10499787942.472775,47.655,-122.3035,60.0,14.716666666666667
2026-01-20T23:14:44+00:00,SAT-52470,357.83842493474003,33.829872418881024,1514.834606627236,6.0618324075569605,-212311.0124383052,10.5,10499787688.987562,47.655,-122.3035,60.0,14.733333333333333
2026-01-20T23:14:45+00:00,SAT-52470,357.8287229623848,33.67603846810539,1520.880274148373,6.068977138545797,-212561.25113971636,10.5,10499787438.74886,47.655,-122.3035,60.0,14.75
2026-01-20T23:14:46+00:00,SAT-52470,357.8189081274586,33.52321700552261,1526.9330673478826,6.076030484555012,-212808.28915258314,10.5,10499787191.710848,47.655,-122.3035,60.0,14.766666666666667
2026-01-20T23:14:47+00:00,SAT-52470,357.808982362995,33.37139722560121,1532.9928950844787,6.08299375935202,-213052.17249059753,10.5,10499786947.827509,47.655,-122.3035,60.0,14.783333333333333
2026-01-20T23:14:48+00:00,SAT-52470,357.79894755821056,33.22056845459987,1539.0596675271393,6.089868237807634,-213292.94580512814,10.5,10499786707.054195,47.655,-122.3035,60.0,14.8
2026-01-20T23:14:49+00:00,SAT-52470,357.78880555974945,33.070720149473736,1545.1332961163125,6.0966552170214365,-213530.65452608914,10.5,10499786469.345474,47.655,-122.3035,60.0,14.816666666666666
2026-01-20T23:14:50+00:00,SAT-52470,357.7785581728323,32.921841895292836,1551.2136935860888,6.103355903869522,-213765.34092338636,10.5,10499786234.659077,47.655,-122.3035,60.0,14.833333333333334
2026-01-20T23:14:51+00:00,SAT-52470,357.7682071624608,32.77392340543477,1557.3007738742147,6.109971553970574,-213997.04897409736,10.5,10499786002.951025,47.655,-122.3035,60.0,14.85
2026-01-20T23:14:52+00:00,SAT-52470,357.7577542544771,32.62695451839316,1563.3944521707078,6.116503333777899,-214225.8195323511,10.5,10499785774.180468,47.655,-122.3035,60.0,14.866666666666667
2026-01-20T23:14:53+00:00,SAT-52470,357.7472011366873,32.480925197951414,1569.4946448289288,6.122952458915323,-214451.69517443597,10.5,10499785548.304825,47.655,-122.3035,60.0,14.883333333333333
2026-01-20T23:14:54+00:00,SAT-52470,357.7365494598495,32.33582553004054,1575.6012694146204,6.129320083001315,-214674.71630495056,10.5,10499785325.283695,47.655,-122.3035,60.0,14.9
