satellites_20260121_005943/SAT-53230.csv

timestamp,satellite,azimuth_deg,elevation_deg,distance_km,relative_velocity_kms,doppler_shift_hz,tx_freq_ghz,rx_freq_hz,ue_lat,ue_lon,ue_alt_m,time_minutes
2026-01-20T23:05:25+00:00,SAT-53230,301.42669490890125,30.012898397203788,4248.825888257117,-2.5028315513745896,87659.74789610348,10.5,10500087659.747896,47.655,-122.3035,60.0,5.416666666666667
2026-01-20T23:05:26+00:00,SAT-53230,301.31665738203594,30.046490383690912,4246.329730923212,-2.4931999233533015,87322.40754105184,10.5,10500087322.407541,47.655,-122.3035,60.0,5.433333333333334
2026-01-20T23:05:27+00:00,SAT-53230,301.20639475239585,30.079930750161463,4243.843179532988,-2.4835481810120545,86984.36269743174,10.5,10500086984.362698,47.655,-122.3035,60.0,5.45
2026-01-20T23:05:28+00:00,SAT-53230,301.09590739020166,30.113218666294763,4241.366254147126,-2.473876347689316,86645.61418265506,10.5,10500086645.614183,47.655,-122.3035,60.0,5.466666666666667
2026-01-20T23:05:29+00:00,SAT-53230,300.9851956751882,30.14635330130558,4238.898974803031,-2.4641844691396053,86306.16359923856,10.5,10500086306.163599,47.655,-122.3035,60.0,5.483333333333333
2026-01-20T23:05:30+00:00,SAT-53230,300.87425999569064,30.179333824285244,4236.441361492474,-2.4544725718630236,85966.01187532792,10.5,10500085966.011875,47.655,-122.3035,60.0,5.5
2026-01-20T23:05:31+00:00,SAT-53230,300.763100749554,30.212159403975466,4233.993434180804,-2.4447406967194256,85625.16044200808,10.5,10500085625.160442,47.655,-122.3035,60.0,5.516666666666667
2026-01-20T23:05:32+00:00,SAT-53230,300.65171834358114,30.24482920900066,4231.5552127926085,-2.434988865405729,85283.61005919687,10.5,10500085283.61006,47.655,-122.3035,60.0,5.533333333333333
2026-01-20T23:05:33+00:00,SAT-53230,300.54011319444174,30.277342407645822,4229.126717230844,-2.4252171298254024,84941.3625447733,10.5,10500084941.362545,47.655,-122.3035,60.0,5.55
2026-01-20T23:05:34+00:00,SAT-53230,300.428285727406,30.309698168301946,4226.707967346698,-2.415425520845681,84598.41897983855,10.5,10500084598.41898,47.655,-122.3035,60.0,5.566666666666666
2026-01-20T23:05:35+00:00,SAT-53230,300.316236377346,30.341895659218856,4224.298982960574,-2.405614079330993,84254.78079563771,10.5,10500084254.780796,47.655,-122.3035,60.0,5.583333333333333
2026-01-20T23:05:36+00:00,SAT-53230,300.20396558834454,30.373934048680407,4221.899783852122,-2.3957828355229545,83910.44905136013,10.5,10500083910.44905,47.655,-122.3035,60.0,5.6
2026-01-20T23:05:37+00:00,SAT-53230,300.09147381426493,30.405812504897288,4219.510389770827,-2.385931829677146,83565.4251569265,10.5,10500083565.425158,47.655,-122.3035,60.0,5.616666666666666
2026-01-20T23:05:38+00:00,SAT-53230,299.9787615183572,30.437530196183026,4217.1308204260295,-2.3760611046131155,83219.71061205852,10.5,10500083219.710611,47.655,-122.3035,60.0,5.633333333333334
2026-01-20T23:05:39+00:00,SAT-53230,299.8658291731922,30.469086291027065,4214.761095484361,-2.36617069782071,82873.30672980924,10.5,10500082873.30673,47.655,-122.3035,60.0,5.65
2026-01-20T23:05:40+00:00,SAT-53230,299.752677260991,30.50047995806304,4212.401234575069,-2.356260649609381,82526.21492198615,10.5,10500082526.214922,47.655,-122.3035,60.0,5.666666666666667
2026-01-20T23:05:41+00:00,SAT-53230,299.6393062735505,30.53171036614511,4210.051257287191,-2.3463310004014053,82178.43660434832,10.5,10500082178.436604,47.655,-122.3035,60.0,5.683333333333334
2026-01-20T23:05:42+00:00,SAT-53230,299.52571671230805,30.56277668439272,4207.711183169457,-2.3363817935667317,81829.97329589487,10.5,10500081829.973295,47.655,-122.3035,60.0,5.7
2026-01-20T23:05:43+00:00,SAT-53230,299.41190908826303,30.593678082267928,4205.38103172734,-2.3264130669311416,81480.82632144465,10.5,10500081480.82632,47.655,-122.3035,60.0,5.716666666666667
2026-01-20T23:05:44+00:00,SAT-53230,299.2978839223095,30.6244137295448,4203.060822428588,-2.3164248631657833,81130.99717552176,10.5,10500081130.997175,47.655,-122.3035,60.0,5.733333333333333
2026-01-20T23:05:45+00:00,SAT-53230,299.18364174507326,30.654982796413584,4200.750574698391,-2.306417226907091,80780.48742148295,10.5,10500080780.487421,47.655,-122.3035,60.0,5.75
2026-01-20T23:05:46+00:00,SAT-53230,299.0691830968735,30.68538445355126,4198.450307917422,-2.296390207461022,80429.2987862314,10.5,10500080429.298786,47.655,-122.3035,60.0,5.766666666666667
2026-01-20T23:05:47+00:00,SAT-53230,298.9545085275552,30.715617872223312,4196.160041417181,-2.2863438378130714,80077.43242505871,10.5,10500080077.432425,47.655,-122.3035,60.0,5.783333333333333
2026-01-20T23:05:48+00:00,SAT-53230,298.83961859736604,30.74568222411037,4193.879794496269,-2.276278171970229,79724.89022951809,10.5,10500079724.89023,47.655,-122.3035,60.0,5.8
2026-01-20T23:05:49+00:00,SAT-53230,298.72451387596533,30.775576681630355,4191.609586399423,-2.2661932460074614,79371.6734631074,10.5,10500079371.673464,47.655,-122.3035,60.0,5.816666666666666
2026-01-20T23:05:50+00:00,SAT-53230,298.6091949433933,30.80530041774428,4189.349436335406,-2.256089116988189,79017.78412442913,10.5,10500079017.784124,47.655,-122.3035,60.0,5.833333333333333
2026-01-20T23:05:51+00:00,SAT-53230,298.4936623890718,30.834852606276808,4187.099363456063,-2.245965825719921,78663.22364273477,10.5,10500078663.223642,47.655,-122.3035,60.0,5.85
2026-01-20T23:05:52+00:00,SAT-53230,298.37791681268345,30.864232421746188,4184.859386872545,-2.2358234158622903,78307.99354716939,10.5,10500078307.993547,47.655,-122.3035,60.0,5.866666666666666
2026-01-20T23:05:53+00:00,SAT-53230,298.2619588240942,30.893439039444914,4182.629525652457,-2.2256619422654254,77952.09575881647,10.5,10500077952.095758,47.655,-122.3035,60.0,5.883333333333334
2026-01-20T23:05:54+00:00,SAT-53230,298.1457890428393,30.92247163563328,4180.409798808705,-2.215481447851026,77595.53178097554,10.5,10500077595.53178,47.655,-122.3035,60.0,5.9
2026-01-20T23:05:55+00:00,SAT-53230,298.0294080987926,30.951329387426142,4178.2002253113815,-2.2052819832758983,77238.3033878622,10.5,10500077238.303389,47.655,-122.3035,60.0,5.916666666666667
2026-01-20T23:05:56+00:00,SAT-53230,297.9128166318339,30.980011472940255,4176.000824080061,-2.1950635945115686,76880.41218959376,10.5,10500076880.41219,47.655,-122.3035,60.0,5.933333333333334
2026-01-20T23:05:57+00:00,SAT-53230,297.79601529213926,31.008517071278426,4173.811613988468,-2.1848263421393592,76521.86030798437,10.5,10500076521.860308,47.655,-122.3035,60.0,5.95
2026-01-20T23:05:58+00:00,SAT-53230,297.6790047394846,31.03684536276743,4171.632613849908,-2.1745702628984773,76162.6490297965,10.5,10500076162.64903,47.655,-122.3035,60.0,5.966666666666667
2026-01-20T23:05:59+00:00,SAT-53230,297.56178564454825,31.0649955286897,4169.463842441044,-2.1642954219767456,75802.78063818347,10.5,10500075802.780638,47.655,-122.3035,60.0,5.983333333333333
2026-01-20T23:06:00+00:00,SAT-53230,297.44435868747115,31.092966751704708,4167.305318473525,-2.15400185901785,75442.25652163479,10.5,10500075442.256521,47.655,-122.3035,60.0,6.0
2026-01-20T23:06:01+00:00,SAT-53230,297.3267245592559,31.120758215560052,4165.1570606194655,-2.1436896351911194,75081.07882255915,10.5,10500075081.078823,47.655,-122.3035,60.0,6.016666666666667
2026-01-20T23:06:02+00:00,SAT-53230,297.20888396068943,31.14836910542034,4163.019087489968,-2.133358796685093,74719.24915867455,10.5,10500074719.249159,47.655,-122.3035,60.0,6.033333333333333
2026-01-20T23:06:03+00:00,SAT-53230,297.09083760318987,31.175798607718825,4160.891417650074,-2.123009403928116,74356.76964643727,10.5,10500074356.769646,47.655,-122.3035,60.0,6.05
2026-01-20T23:06:04+00:00,SAT-53230,296.9725862080932,31.203045910390998,4158.774069604556,-2.112641506218524,73993.64201248351,10.5,10500073993.642012,47.655,-122.3035,60.0,6.066666666666666
2026-01-20T23:06:05+00:00,SAT-53230,296.8541305073097,31.23011020277632,4156.667061809021,-2.1022551582422877,73629.86817214734,10.5,10500073629.868172,47.655,-122.3035,60.0,6.083333333333333
2026-01-20T23:06:06+00:00,SAT-53230,296.735471243087,31.256990675738788,4154.570412664534,-2.0918504207784254,73265.45025416705,10.5,10500073265.450254,47.655,-122.3035,60.0,6.1
2026-01-20T23:06:07+00:00,SAT-53230,296.61660916771746,31.283686521791395,4152.484140511545,-2.08142734122148,72900.38991850003,10.5,10500072900.38992,47.655,-122.3035,60.0,6.116666666666666
2026-01-20T23:06:08+00:00,SAT-53230,296.49754504433764,31.310196934974584,4150.408263643232,-2.0709859882324517,72534.6895699449,10.5,10500072534.68957,47.655,-122.3035,60.0,6.133333333333334
2026-01-20T23:06:09+00:00,SAT-53230,296.37827964578224,31.336521111177166,4148.342800284302,-2.060526410558763,72168.35091584263,10.5,10500072168.350916,47.655,-122.3035,60.0,6.15
2026-01-20T23:06:10+00:00,SAT-53230,296.2588137557582,31.36265824793045,4146.287768610839,-2.0500486611320112,71801.37581008165,10.5,10500071801.37581,47.655,-122.3035,60.0,6.166666666666667
2026-01-20T23:06:11+00:00,SAT-53230,296.13914816865645,31.388607544512062,4144.2431867461355,-2.039552813418413,71433.76682575962,10.5,10500071433.766827,47.655,-122.3035,60.0,6.183333333333334
2026-01-20T23:06:12+00:00,SAT-53230,296.0192836884282,31.414368202257695,4142.20907274022,-2.029038914910598,71065.52562626934,10.5,10500071065.525627,47.655,-122.3035,60.0,6.2
2026-01-20T23:06:13+00:00,SAT-53230,295.8992211301154,31.439939424278975,4140.185444595749,-2.0185070269323955,70696.65435943073,10.5,10500070696.65436,47.655,-122.3035,60.0,6.216666666666667
2026-01-20T23:06:14+00:00,SAT-53230,295.77896131910956,31.46532041569147,4138.172320254222,-2.0079572131454473,70327.15525494372,10.5,10500070327.155254,47.655,-122.3035,60.0,6.233333333333333
2026-01-20T23:06:15+00:00,SAT-53230,295.65850509104814,31.490510383693213,4136.169717593645,-1.9973895343907746,69957.03044371828,10.5,10500069957.030443,47.655,-122.3035,60.0,6.25
2026-01-20T23:06:16+00:00,SAT-53230,295.53785329203345,31.515508537580747,4134.177654431346,-1.9868040505173534,69586.28202191868,10.5,10500069586.282022,47.655,-122.3035,60.0,6.266666666666667
2026-01-20T23:06:17+00:00,SAT-53230,295.4170067787171,31.540314088786765,4132.196148524963,-1.976200818869654,69214.91199799084,10.5,10500069214.911999,47.655,-122.3035,60.0,6.283333333333333
2026-01-20T23:06:18+00:00,SAT-53230,295.295966418519,31.564926250900356,4130.225217574944,-1.9655799102782645,68842.92285272159,10.5,10500068842.922853,47.655,-122.3035,60.0,6.3
2026-01-20T23:06:19+00:00,SAT-53230,295.1747330888403,31.589344239887627,4128.264879211093,-1.9549413863343388,68470.31674329365,10.5,10500068470.316744,47.655,-122.3035,60.0,6.316666666666666
2026-01-20T23:06:20+00:00,SAT-53230,295.05330767766657,31.613567274027407,4126.315151001789,-1.9442853095092678,68097.09585771938,10.5,10500068097.095858,47.655,-122.3035,60.0,6.333333333333333
2026-01-20T23:06:21+00:00,SAT-53230,294.9316910835511,31.637594573973196,4124.376050453105,-1.9336117395198904,67723.2622875351,10.5,10500067723.262287,47.655,-122.3035,60.0,6.35
2026-01-20T23:06:22+00:00,SAT-53230,294.80988421582947,31.66142536277241,4122.447595011557,-1.922920747954551,67348.81854006743,10.5,10500067348.81854,47.655,-122.3035,60.0,6.366666666666666
2026-01-20T23:06:23+00:00,SAT-53230,294.687887993922,31.685058866065116,4120.529802052263,-1.9122124035082997,66973.76702130762,10.5,10500066973.767021,47.655,-122.3035,60.0,6.383333333333334
2026-01-20T23:06:24+00:00,SAT-53230,294.5657033475479,31.70849431210076,4118.622688881832,-1.9014867649084712,66598.10978813533,10.5,10500066598.109789,47.655,-122.3035,60.0,6.4
2026-01-20T23:06:25+00:00,SAT-53230,294.4433312173785,31.731730931666164,4116.726272748296,-1.8907439021028787,66221.84929041886,10.5,10500066221.84929,47.655,-122.3035,60.0,6.416666666666667
2026-01-20T23:06:26+00:00,SAT-53230,294.32077255438094,31.754767958278613,4114.840570829932,-1.8799838812947687,65844.98784687596,10.5,10500065844.987846,47.655,-122.3035,60.0,6.433333333333334
2026-01-20T23:06:27+00:00,SAT-53230,294.1980283200787,31.777604628190904,4112.9656002389875,-1.8692067766212082,65467.528054100294,10.5,10500065467.528053,47.655,-122.3035,60.0,6.45
2026-01-20T23:06:28+00:00,SAT-53230,294.07509948608265,31.800240180542662,4111.101378013771,-1.8584126478747611,65089.4720062804,10.5,10500065089.472006,47.655,-122.3035,60.0,6.466666666666667
2026-01-20T23:06:29+00:00,SAT-53230,293.95198703504127,31.822673857237024,4109.247921132957,-1.8476015688799399,64710.82228906295,10.5,10500064710.822289,47.655,-122.3035,60.0,6.483333333333333
2026-01-20T23:06:30+00:00,SAT-53230,293.8286919597669,31.844904903166565,4107.405246501594,-1.836773611255582,64331.5814108426,10.5,10500064331.581411,47.655,-122.3035,60.0,6.5
2026-01-20T23:06:31+00:00,SAT-53230,293.7052152634108,31.866932566238006,4105.5733709533015,-1.825928847000674,63951.75189332841,10.5,10500063951.751894,47.655,-122.3035,60.0,6.516666666666667
2026-01-20T23:06:32+00:00,SAT-53230,293.58155795946277,31.888756097430587,4103.752311249893,-1.8150673399227162,63571.33597132894,10.5,10500063571.335972,47.655,-122.3035,60.0,6.533333333333333
2026-01-20T23:06:33+00:00,SAT-53230,293.4577210723142,31.91037475075171,4101.942084089544,-1.8041891662602638,63190.336315040884,10.5,10500063190.336315,47.655,-122.3035,60.0,6.55
2026-01-20T23:06:34+00:00,SAT-53230,293.33370563647964,31.931787783440015,4100.142706094393,-1.7932944014249996,62808.755565700376,10.5,10500062808.755566,47.655,-122.3035,60.0,6.566666666666666
2026-01-20T23:06:35+00:00,SAT-53230,293.2095126966551,31.95299445600826,4098.354193811372,-1.7823831138985202,62426.596121822586,10.5,10500062426.596123,47.655,-122.3035,60.0,6.583333333333333
2026-01-20T23:06:36+00:00,SAT-53230,293.0851433082199,31.97399403221545,4096.576563719111,-1.7714553788831213,62043.860617310034,10.5,10500062043.860617,47.655,-122.3035,60.0,6.6
2026-01-20T23:06:37+00:00,SAT-53230,292.9605985368058,31.99478577920003,4094.809832221238,-1.760511270513837,61660.5516486852,10.5,10500061660.55165,47.655,-122.3035,60.0,6.616666666666666
2026-01-20T23:06:38+00:00,SAT-53230,292.83587945838724,32.015368967522186,4093.0540156474453,-1.749550863661096,61276.671838227194,10.5,10500061276.671839,47.655,-122.3035,60.0,6.633333333333334
2026-01-20T23:06:39+00:00,SAT-53230,292.71098715925683,32.03574287122557,4091.3091302527537,-1.7385742336872825,60892.223825445486,10.5,10500060892.223825,47.655,-122.3035,60.0,6.65
2026-01-20T23:06:40+00:00,SAT-53230,292.5859227360125,32.05590676789805,4089.575192217023,-1.7275814552178623,60507.210224039576,10.5,10500060507.210224,47.655,-122.3035,60.0,6.666666666666667
2026-01-20T23:06:41+00:00,SAT-53230,292.46068729561927,32.07585993871729,4087.8522176456863,-1.7165726091212739,60121.633866364224,10.5,10500060121.633867,47.655,-122.3035,60.0,6.683333333333334
2026-01-20T23:06:42+00:00,SAT-53230,292.3352819550052,32.095601668577,4086.1402225635225,-1.7055477696748524,59735.49735392592,10.5,10500059735.497355,47.655,-122.3035,60.0,6.7
2026-01-20T23:06:43+00:00,SAT-53230,292.20970784151694,32.115131246065374,4084.439222921233,-1.6945070119558714,59348.80331624836,10.5,10500059348.803316,47.655,-122.3035,60.0,6.716666666666667
2026-01-20T23:06:44+00:00,SAT-53230,292.08396609291276,32.1344479635287,4082.7492345946425,-1.6834504185759624,58961.55464674033,10.5,10500058961.554647,47.655,-122.3035,60.0,6.733333333333333
2026-01-20T23:06:45+00:00,SAT-53230,291.9580578568122,32.15355111721253,4081.0702733771827,-1.6723780656735623,58573.75401209194,10.5,10500058573.754011,47.655,-122.3035,60.0,6.75
2026-01-20T23:06:46+00:00,SAT-53230,291.83198429119216,32.17244000724168,4079.402354986351,-1.661290037012436,58185.40434606456,10.5,10500058185.404346,47.655,-122.3035,60.0,6.766666666666667
2026-01-20T23:06:47+00:00,SAT-53230,291.7057465638327,32.191113937761315,4077.745495056104,-1.6501864072348214,57796.50826294511,10.5,10500057796.508263,47.655,-122.3035,60.0,6.783333333333333
2026-01-20T23:06:48+00:00,SAT-53230,291.5793458530021,32.2095722168881,4076.0997091459553,-1.6390672625485134,57407.068782095215,10.5,10500057407.068783,47.655,-122.3035,60.0,6.8
2026-01-20T23:06:49+00:00,SAT-53230,291.45278334661197,32.22781415689486,4074.4650127294403,-1.6279326802181626,57017.08860964977,10.5,10500057017.08861,47.655,-122.3035,60.0,6.816666666666666
2026-01-20T23:06:50+00:00,SAT-53230,291.3260602428952,32.24583907416486,4072.8414212030357,-1.6167827462025368,56626.57075624843,10.5,10500056626.570757,47.655,-122.3035,60.0,6.833333333333333
2026-01-20T23:06:51+00:00,SAT-53230,291.1991777497491,32.26364628934244,4071.22894987749,-1.6056175350488358,56235.51783284947,10.5,10500056235.517834,47.655,-122.3035,60.0,6.85
2026-01-20T23:06:52+00:00,SAT-53230,291.0721370856297,32.2812351272617,4069.6276139892016,-1.5944371365183267,55843.932983272156,10.5,10500055843.932983,47.655,-122.3035,60.0,6.866666666666666
2026-01-20T23:06:53+00:00,SAT-53230,290.9449394783779,32.29860491716889,4068.0374286850465,-1.5832416355528294,55451.819182538304,10.5,10500055451.819183,47.655,-122.3035,60.0,6.883333333333334
2026-01-20T23:06:54+00:00,SAT-53230,290.81758616560205,32.31575499272219,4066.458409027189,-1.5720311137632903,55059.17928900849,10.5,10500055059.179289,47.655,-122.3035,60.0,6.9
2026-01-20T23:06:55+00:00,SAT-53230,290.69007839492747,32.33268469200986,4064.8905699963957,-1.5608056521665472,54666.01614023507,10.5,10500054666.01614,47.655,-122.3035,60.0,6.916666666666667
2026-01-20T23:06:56+00:00,SAT-53230,290.5624174240624,32.34939335759868,4063.333926492635,-1.549565345163914,54272.33304255138,10.5,10500054272.333042,47.655,-122.3035,60.0,6.933333333333334
2026-01-20T23:06:57+00:00,SAT-53230,290.43460451973215,32.365880336731664,4061.7884933217247,-1.5383102697806708,53878.13269370853,10.5,10500053878.132694,47.655,-122.3035,60.0,6.95
2026-01-20T23:06:58+00:00,SAT-53230,290.3066409590664,32.382144981195445,4060.2542852126635,-1.5270405164687548,53483.41826171599,10.5,10500053483.418262,47.655,-122.3035,60.0,6.966666666666667
2026-01-20T23:06:59+00:00,SAT-53230,290.1785280285175,32.39818664751795,4058.7313168042388,-1.5157561748334105,53088.192884928445,10.5,10500053088.192884,47.655,-122.3035,60.0,6.983333333333333
2026-01-20T23:07:00+00:00,SAT-53230,290.05026702393354,32.41400469701202,4057.219602645872,-1.5044573300227941,52692.4595455945,10.5,10500052692.459545,47.655,-122.3035,60.0,7.0
2026-01-20T23:07:01+00:00,SAT-53230,289.92185925089694,32.42959849578202,4055.719157202062,-1.4931440691259537,52296.221293941,10.5,10500052296.221294,47.655,-122.3035,60.0,7.016666666666667
2026-01-20T23:07:02+00:00,SAT-53230,289.793306024589,32.44496741479843,4054.2299948504537,-1.481816481027985,51899.48124309999,10.5,10500051899.481243,47.655,-122.3035,60.0,7.033333333333333
2026-01-20T23:07:03+00:00,SAT-53230,289.6646086696161,32.4601108299693,4052.7521298800416,-1.4704746563795403,51502.24256804077,10.5,10500051502.242569,47.655,-122.3035,60.0,7.05
2026-01-20T23:07:04+00:00,SAT-53230,289.53576851987106,32.47502812221198,4051.2855764894125,-1.4591186875272009,51104.50850313121,10.5,10500051104.508503,47.655,-122.3035,60.0,7.066666666666666
2026-01-20T23:07:05+00:00,SAT-53230,289.40678691836274,32.48971867752234,4049.830348785052,-1.4477486625769618,50706.282134215995,10.5,10500050706.282135,47.655,-122.3035,60.0,7.083333333333333
2026-01-20T23:07:06+00:00,SAT-53230,289.27766521756746,32.50418188698472,4048.3864607855758,-1.4363646702578965,50307.56656896256,10.5,10500050307.566568,47.655,-122.3035,60.0,7.1
2026-01-20T23:07:07+00:00,SAT-53230,289.1484047793862,32.518417146831496,4046.953926421105,-1.4249668069650645,49908.365183533664,10.5,10500049908.365183,47.655,-122.3035,60.0,7.116666666666666
2026-01-20T23:07:08+00:00,SAT-53230,289.0190069744459,32.53242385857176,4045.532759525625,-1.4135551590383977,49508.68100191892,10.5,10500049508.681002,47.655,-122.3035,60.0,7.133333333333334
2026-01-20T23:07:09+00:00,SAT-53230,288.8894731829859,32.54620142894415,4044.1229738470106,-1.4021298262404203,49108.51751822393,10.5,10500049108.517519,47.655,-122.3035,60.0,7.15
2026-01-20T23:07:10+00:00,SAT-53230,288.7598047936443,32.559749270100546,4042.7245830336406,-1.3906908983405308,48707.87787655277,10.5,10500048707.877876,47.655,-122.3035,60.0,7.166666666666667
2026-01-20T23:07:11+00:00,SAT-53230,288.6300032043308,32.573066799559726,4041.3376006443623,-1.3792384669412767,48306.765285214104,10.5,10500048306.765285,47.655,-122.3035,60.0,7.183333333333334
2026-01-20T23:07:12+00:00,SAT-53230,288.5000698220549,32.586153440277656,4039.962040146666,-1.3677726309945724,47905.18320992254,10.5,10500047905.18321,47.655,-122.3035,60.0,7.2
2026-01-20T23:07:13+00:00,SAT-53230,288.3700060622448,32.59900862076905,4038.597914909354,-1.356293480896959,47503.134816747355,10.5,10500047503.134817,47.655,-122.3035,60.0,7.216666666666667
2026-01-20T23:07:14+00:00,SAT-53230,288.23981334949445,32.61163177507719,4037.245238211073,-1.344801114441609,47100.62353081909,10.5,10500047100.623531,47.655,-122.3035,60.0,7.233333333333333
2026-01-20T23:07:15+00:00,SAT-53230,288.10949311688773,32.62402234289474,4035.904023232936,-1.333295630915353,46697.65282958255,10.5,10500046697.65283,47.655,-122.3035,60.0,7.25
2026-01-20T23:07:16+00:00,SAT-53230,287.97904680580524,32.63617976962688,4034.5742830570366,-1.3217771213225638,46294.2259003958,10.5,10500046294.2259,47.655,-122.3035,60.0,7.266666666666667
2026-01-20T23:07:17+00:00,SAT-53230,287.8484758667039,32.64810350636594,4033.2560306747046,-1.3102456849947952,45890.34622227004,10.5,10500045890.346222,47.655,-122.3035,60.0,7.283333333333333
2026-01-20T23:07:18+00:00,SAT-53230,287.71778175829206,32.65979301001806,4031.949278978203,-1.2987014184572114,45486.01717592482,10.5,10500045486.017176,47.655,-122.3035,60.0,7.3
2026-01-20T23:07:19+00:00,SAT-53230,287.58696594778974,32.671247743327626,4030.654040763528,-1.2871444230747529,45081.24231158913,10.5,10500045081.242311,47.655,-122.3035,60.0,7.316666666666666
2026-01-20T23:07:20+00:00,SAT-53230,287.4560299104167,32.682467174968835,4029.3703287255817,-1.2755747921708,44676.02489784249,10.5,10500044676.024899,47.655,-122.3035,60.0,7.333333333333333
2026-01-20T23:07:21+00:00,SAT-53230,287.3249751301602,32.69345077952519,4028.0981554661903,-1.2639926313214025,44270.368632404774,10.5,10500044270.368633,47.655,-122.3035,60.0,7.35
2026-01-20T23:07:22+00:00,SAT-53230,287.19380309853784,32.70419803764372,4026.8375334818857,-1.2523980359488875,43864.27685736951,10.5,10500043864.276857,47.655,-122.3035,60.0,7.366666666666666
2026-01-20T23:07:23+00:00,SAT-53230,287.0625153155759,32.71470843599681,4025.5884751740327,-1.2407911083899126,43457.75315699931,10.5,10500043457.753157,47.655,-122.3035,60.0,7.383333333333334
2026-01-20T23:07:24+00:00,SAT-53230,286.9311132890781,32.7249814673887,4024.3509928419317,-1.2291719472833273,43050.80098604394,10.5,10500043050.800985,47.655,-122.3035,60.0,7.4
2026-01-20T23:07:25+00:00,SAT-53230,286.7995985349886,32.73501663077275,4023.125098686508,-1.217540653931054,42643.423892525236,10.5,10500042643.423893,47.655,-122.3035,60.0,7.416666666666667
2026-01-20T23:07:26+00:00,SAT-53230,286.6679725770686,32.74481343132129,4021.9108048076537,-1.2058973330695635,42235.62554475742,10.5,10500042235.625546,47.655,-122.3035,60.0,7.433333333333334
2026-01-20T23:07:27+00:00,SAT-53230,286.536236946524,32.754371380500096,4020.708123200806,-1.1942420839496026,41827.4094189215,10.5,10500041827.409418,47.655,-122.3035,60.0,7.45
2026-01-20T23:07:28+00:00,SAT-53230,286.4043931825245,32.763689996070724,4019.517065762413,-1.1825750102988257,41418.77914799868,10.5,10500041418.779148,47.655,-122.3035,60.0,7.466666666666667
2026-01-20T23:07:29+00:00,SAT-53230,286.2724428317105,32.77276880217313,4018.3376442854756,-1.17089621346337,41009.73828155939,10.5,10500041009.738281,47.655,-122.3035,60.0,7.483333333333333
2026-01-20T23:07:30+00:00,SAT-53230,286.1403874484084,32.78160732935313,4017.169870461915,-1.1592058029625625,40600.290655433724,10.5,10500040600.290655,47.655,-122.3035,60.0,7.5
2026-01-20T23:07:31+00:00,SAT-53230,286.0082285937097,32.790205114669774,4016.0137558744264,-1.1475038772151946,40190.43971666407,10.5,10500040190.439716,47.655,-122.3035,60.0,7.516666666666667
2026-01-20T23:07:32+00:00,SAT-53230,285.8759678366239,32.798561701656254,4014.8693120075504,-1.1357905419304695,39780.189167633864,10.5,10500039780.189167,47.655,-122.3035,60.0,7.533333333333333
2026-01-20T23:07:33+00:00,SAT-53230,285.7436067532725,32.806676640420655,4013.736550240398,-1.1240659042126542,39369.542759587595,10.5,10500039369.542759,47.655,-122.3035,60.0,7.55
2026-01-20T23:07:34+00:00,SAT-53230,285.6111469266608,32.81454948769925,4012.6154818452637,-1.1123300696901457,38958.50419207854,10.5,10500038958.504192,47.655,-122.3035,60.0,7.566666666666666
2026-01-20T23:07:35+00:00,SAT-53230,285.4785899468197,32.8221798068892,4011.506117989093,-1.1005831426674275,38547.07711829091,10.5,10500038547.077118,47.655,-122.3035,60.0,7.583333333333333
2026-01-20T23:07:36+00:00,SAT-53230,285.3459374108958,32.82956716808329,4010.408469734806,-1.0888252297954346,38135.26527359158,10.5,10500038135.265274,47.655,-122.3035,60.0,7.6
2026-01-20T23:07:37+00:00,SAT-53230,285.2131909228618,32.8367111481298,4009.3225480389565,-1.0770564399968445,37723.07247291347,10.5,10500037723.072474,47.655,-122.3035,60.0,7.616666666666666
2026-01-20T23:07:38+00:00,SAT-53230,285.08035209319183,32.84361133068946,4008.2483637494665,-1.0652768799078536,37310.50245110723,10.5,10500037310.50245,47.655,-122.3035,60.0,7.633333333333334
2026-01-20T23:07:39+00:00,SAT-53230,284.94742253908646,32.85026730626204,4007.1859276079053,-1.053486659290718,36897.55905251138,10.5,10500036897.559053,47.655,-122.3035,60.0,7.65
2026-01-20T23:07:40+00:00,SAT-53230,284.81440388404536,32.85667867224782,4006.1352502463724,-1.0416858822410435,36484.245922994356,10.5,10500036484.245922,47.655,-122.3035,60.0,7.666666666666667
2026-01-20T23:07:41+00:00,SAT-53230,284.68129775851844,32.862845032954034,4005.0963421931506,-1.0298746612055034,36070.5670009143,10.5,10500036070.567001,47.655,-122.3035,60.0,7.683333333333334
2026-01-20T23:07:42+00:00,SAT-53230,284.5481057988277,32.86876599968665,4004.069213864375,-1.01805310385198,35656.526057255884,10.5,10500035656.526058,47.655,-122.3035,60.0,7.7
2026-01-20T23:07:43+00:00,SAT-53230,284.41482964772536,32.87444119076175,4003.0538755688003,-1.0062213225392242,35242.12702729785,10.5,10500035242.127028,47.655,-122.3035,60.0,7.716666666666667
2026-01-20T23:07:44+00:00,SAT-53230,284.281470953727,32.87987023157121,4002.0503375031208,-0.9943794249966138,34827.37368417869,10.5,10500034827.373684,47.655,-122.3035,60.0,7.733333333333333
2026-01-20T23:07:45+00:00,SAT-53230,284.1480313716691,32.88505275459629,4001.0586097565906,-0.9825275211500515,34412.269877968516,10.5,10500034412.269878,47.655,-122.3035,60.0,7.75
2026-01-20T23:07:46+00:00,SAT-53230,284.01451256236965,32.88998839945907,4000.0787023088305,-0.9706657270652435,33996.819673779304,10.5,10500033996.819674,47.655,-122.3035,60.0,7.766666666666667
2026-01-20T23:07:47+00:00,SAT-53230,283.8809161917816,32.894676812991165,3999.110625023704,-0.9587941493611061,33581.02680585651,10.5,10500033581.026806,47.655,-122.3035,60.0,7.783333333333333
2026-01-20T23:07:48+00:00,SAT-53230,283.7472439321537,32.89911764922287,3998.154387658741,-0.9469129009244314,33164.89522797311,10.5,10500033164.895227,47.655,-122.3035,60.0,7.8
2026-01-20T23:07:49+00:00,SAT-53230,283.6134974611887,32.90331056945294,3997.209999858886,-0.9350220965275059,32748.428959940054,10.5,10500032748.42896,47.655,-122.3035,60.0,7.816666666666666
2026-01-20T23:07:50+00:00,SAT-53230,283.47967846169223,32.90725524229171,3996.277471154616,-0.9231218474181121,32331.631898125263,10.5,10500032331.631899,47.655,-122.3035,60.0,7.833333333333333
2026-01-20T23:07:51+00:00,SAT-53230,283.345788622022,32.91095134368094,3995.3568109654575,-0.9112122653136281,31914.507955343877,10.5,10500031914.507956,47.655,-122.3035,60.0,7.85
2026-01-20T23:07:52+00:00,SAT-53230,283.21182963594646,32.91439855693246,3994.4480285995182,-0.8992934662167403,31497.061194500675,10.5,10500031497.061195,47.655,-122.3035,60.0,7.866666666666666
2026-01-20T23:07:53+00:00,SAT-53230,283.0778032020192,32.91759657277971,3993.551133249211,-0.8873655619108951,31079.295530724787,10.5,10500031079.29553,47.655,-122.3035,60.0,7.883333333333334
2026-01-20T23:07:54+00:00,SAT-53230,282.94371102408144,32.92054508939563,3992.6661339954653,-0.8754286713571265,30661.21513053483,10.5,10500030661.21513,47.655,-122.3035,60.0,7.9
2026-01-20T23:07:55+00:00,SAT-53230,282.8095548102038,32.92324381245055,3991.793039800565,-0.8634829049138326,30242.823859148724,10.5,10500030242.823858,47.655,-122.3035,60.0,7.916666666666667
2026-01-20T23:07:56+00:00,SAT-53230,282.675336273835,32.92569245511592,3990.9318595167315,-0.8515283793485711,29824.125806260265,10.5,10500029824.125807,47.655,-122.3035,60.0,7.933333333333334
2026-01-20T23:07:57+00:00,SAT-53230,282.54105713283667,32.92789073811849,3990.0826018797275,-0.8395652103057332,29405.125022225206,10.5,10500029405.125023,47.655,-122.3035,60.0,7.95
2026-01-20T23:07:58+00:00,SAT-53230,282.4067191095732,32.92983838976768,3989.245275509983,-0.8275935138073189,28985.82557062476,10.5,10500028985.825571,47.655,-122.3035,60.0,7.966666666666667
2026-01-20T23:07:59+00:00,SAT-53230,282.2723239307976,32.93153514598739,3988.419888912212,-0.8156134055658211,28566.231504199885,10.5,10500028566.231504,47.655,-122.3035,60.0,7.983333333333333
2026-01-20T23:08:00+00:00,SAT-53230,282.13787332762365,32.93298075034613,3987.6064504757283,-0.803625004443171,28146.34698599821,10.5,10500028146.346987,47.655,-122.3035,60.0,8.0
2026-01-20T23:08:01+00:00,SAT-53230,282.0033690349952,32.934174954092605,3986.8049684712964,-0.7916284261493206,27726.176068671703,10.5,10500027726.17607,47.655,-122.3035,60.0,8.016666666666667
2026-01-20T23:08:02+00:00,SAT-53230,281.8688127920763,32.93511751617826,3986.015451054284,-0.7796237862468388,27305.72279971035,10.5,10500027305.7228,47.655,-122.3035,60.0,8.033333333333333
2026-01-20T23:08:03+00:00,SAT-53230,281.73420634225687,32.93580820328745,3985.2379062648,-0.7676112066164819,26884.99144789379,10.5,10500026884.991447,47.655,-122.3035,60.0,8.05
2026-01-20T23:08:04+00:00,SAT-53230,281.5995514320491,32.936246789872826,3984.4723420214013,-0.7555908021662313,26463.986037785613,10.5,10500026463.986038,47.655,-122.3035,60.0,8.066666666666666
2026-01-20T23:08:05+00:00,SAT-53230,281.46484981214655,32.936433058174096,3983.718766128041,-0.7435626946604617,26042.710834089252,10.5,10500026042.710835,47.655,-122.3035,60.0,8.083333333333334
2026-01-20T23:08:06+00:00,SAT-53230,281.33010323622136,32.936366798249374,3982.977186267233,-0.7315269992546569,25621.169870036887,10.5,10500025621.16987,47.655,-122.3035,60.0,8.1
2026-01-20T23:08:07+00:00,SAT-53230,281.19531346199295,32.93604780799926,3982.247610006643,-0.7194838377070931,25199.36741011836,10.5,10500025199.36741,47.655,-122.3035,60.0,8.116666666666667
2026-01-20T23:08:08+00:00,SAT-53230,281.06048225000393,32.935475893192695,3981.5300447925033,-0.7074333290037069,24777.307621724503,10.5,10500024777.307621,47.655,-122.3035,60.0,8.133333333333333
2026-01-20T23:08:09+00:00,SAT-53230,280.92561136405453,32.934650867491094,3980.8244979523765,-0.6953755930523459,24354.994704535333,10.5,10500024354.994705,47.655,-122.3035,60.0,8.15
2026-01-20T23:08:10+00:00,SAT-53230,280.79070257094384,32.933572552471446,3980.1309766942395,-0.6833107495824722,23932.43285198308,10.5,10500023932.432852,47.655,-122.3035,60.0,8.166666666666666
2026-01-20T23:08:11+00:00,SAT-53230,280.65575764047384,32.93224077765106,3979.4494881066553,-0.6712389208321211,23509.626345360804,10.5,10500023509.626345,47.655,-122.3035,60.0,8.183333333333334
2026-01-20T23:08:12+00:00,SAT-53230,280.5207783448607,32.93065538050367,3978.780039156279,-0.6591602265785276,23086.579379773924,10.5,10500023086.57938,47.655,-122.3035,60.0,8.2
2026-01-20T23:08:13+00:00,SAT-53230,280.38576645917215,32.92881620648662,3978.1226366903047,-0.6470747868418558,22663.296158836278,10.5,10500022663.29616,47.655,-122.3035,60.0,8.216666666666667
2026-01-20T23:08:14+00:00,SAT-53230,280.25072376117413,32.926723109061385,3977.477287436228,-0.634982724900975,22239.781000295334,10.5,10500022239.781,47.655,-122.3035,60.0,8.233333333333333
2026-01-20T23:08:15+00:00,SAT-53230,280.11565203067704,32.92437594970743,3976.843997998593,-0.6228841619114117,21816.038147530126,10.5,10500021816.038147,47.655,-122.3035,60.0,8.25
2026-01-20T23:08:16+00:00,SAT-53230,279.9805530498238,32.92177459794416,3976.2227748611135,-0.6107792200741016,21392.07188053432,10.5,10500021392.07188,47.655,-122.3035,60.0,8.266666666666667
2026-01-20T23:08:17+00:00,SAT-53230,279.8454286028661,32.91891893134904,3975.6136243856263,-0.5986680222049253,20967.88650083958,10.5,10500020967.886501,47.655,-122.3035,60.0,8.283333333333333
2026-01-20T23:08:18+00:00,SAT-53230,279.71028047590266,32.91580883557091,3975.016552811481,-0.5865506889806671,20543.48623505734,10.5,10500020543.486235,47.655,-122.3035,60.0,8.3
2026-01-20T23:08:19+00:00,SAT-53230,279.57511045731076,32.91244420435899,3974.4315662576705,-0.5744273464098445,20118.875496538898,10.5,10500020118.875496,47.655,-122.3035,60.0,8.316666666666666
2026-01-20T23:08:20+00:00,SAT-53230,279.4399203365114,32.908824939553085,3973.8586707175177,-0.562298116156204,19694.058546463304,10.5,10500019694.058546,47.655,-122.3035,60.0,8.333333333333334
2026-01-20T23:08:21+00:00,SAT-53230,279.3047119048275,32.90495095111934,3973.2978720630044,-0.5501631197955706,19269.039642930216,10.5,10500019269.039642,47.655,-122.3035,60.0,8.35
2026-01-20T23:08:22+00:00,SAT-53230,279.1694869554442,32.90082215717068,3972.749176044862,-0.5380224859812378,18843.82329192216,10.5,10500018843.823292,47.655,-122.3035,60.0,8.366666666666667
2026-01-20T23:08:23+00:00,SAT-53230,279.0342472817743,32.896438483934546,3972.21258828551,-0.5258763338526241,18418.41366620555,10.5,10500018418.413666,47.655,-122.3035,60.0,8.383333333333333
2026-01-20T23:08:24+00:00,SAT-53230,278.8989946794739,32.891799865827984,3971.6881142885477,-0.5137247905637752,17992.815219252912,10.5,10500017992.81522,47.655,-122.3035,60.0,8.4
2026-01-20T23:08:25+00:00,SAT-53230,278.7637309445936,32.88690624541665,3971.1757594307587,-0.5015679787811551,17567.032247362702,10.5,10500017567.032248,47.655,-122.3035,60.0,8.416666666666666
2026-01-20T23:08:26+00:00,SAT-53230,278.62845787450624,32.88175757345975,3970.6755289665875,-0.4894060250921437,17141.069184160428,10.5,10500017141.069183,47.655,-122.3035,60.0,8.433333333333334
2026-01-20T23:08:27+00:00,SAT-53230,278.49317726693124,32.87635380888907,3970.187428024229,-0.4772390522572262,16714.93032923755,10.5,10500016714.930328,47.655,-122.3035,60.0,8.45
2026-01-20T23:08:28+00:00,SAT-53230,278.35789092074674,32.870694918853154,3969.7114616094445,-0.46506718816279213,16288.6201617164,10.5,10500016288.620161,47.655,-122.3035,60.0,8.466666666666667
2026-01-20T23:08:29+00:00,SAT-53230,278.22260063469355,32.86478087867894,3969.2476346004496,-0.4528905564531206,15862.143012142642,10.5,10500015862.143013,47.655,-122.3035,60.0,8.483333333333333
2026-01-20T23:08:30+00:00,SAT-53230,278.0873082083088,32.858611671921416,3968.7959517521476,-0.44070928337203524,15435.503302108988,10.5,10500015435.503302,47.655,-122.3035,60.0,8.5
2026-01-20T23:08:31+00:00,SAT-53230,277.95201544122284,32.85218729034571,3968.356417693531,-0.42852349502817283,15008.705448473338,10.5,10500015008.705448,47.655,-122.3035,60.0,8.516666666666667
2026-01-20T23:08:32+00:00,SAT-53230,277.81672413307683,32.845507733933395,3967.929036927823,-0.41633331649950034,14581.753831995178,10.5,10500014581.753832,47.655,-122.3035,60.0,8.533333333333333
2026-01-20T23:08:33+00:00,SAT-53230,277.68143608378915,32.83857301090748,3967.5138138335005,-0.40413887476269417,14154.652899934823,10.5,10500014154.6529,47.655,-122.3035,60.0,8.55
2026-01-20T23:08:34+00:00,SAT-53230,277.5461530928804,32.831383137707796,3967.110752662404,-0.3919402974790026,13727.407123529196,10.5,10500013727.407124,47.655,-122.3035,60.0,8.566666666666666
2026-01-20T23:08:35+00:00,SAT-53230,277.4108769592444,32.82393813898723,3966.7198575390516,-0.37973770911398796,13300.020862088779,10.5,10500013300.020863,47.655,-122.3035,60.0,8.583333333333334
2026-01-20T23:08:36+00:00,SAT-53230,277.27560948196646,32.81623804766444,3966.3411324638287,-0.3675312380078803,12872.498610631303,10.5,10500012872.498611,47.655,-122.3035,60.0,8.6
2026-01-20T23:08:37+00:00,SAT-53230,277.14035245913016,32.80828290486701,3965.974581309122,-0.3553210111495529,12444.844816844276,10.5,10500012444.844816,47.655,-122.3035,60.0,8.616666666666667
2026-01-20T23:08:38+00:00,SAT-53230,277.0051076880926,32.800072759952805,3965.620207820669,-0.343107154516522,12017.063892993203,10.5,10500012017.063892,47.655,-122.3035,60.0,8.633333333333333
2026-01-20T23:08:39+00:00,SAT-53230,276.8698769658038,32.79160767053694,3965.2780156185645,-0.3308897980051864,11589.160388599428,10.5,10500011589.160389,47.655,-122.3035,60.0,8.65
2026-01-20T23:08:40+00:00,SAT-53230,276.73466208735994,32.782887702407955,3964.9480081933543,-0.31866906611973345,11161.138664326243,10.5,10500011161.138664,47.655,-122.3035,60.0,8.666666666666666
2026-01-20T23:08:41+00:00,SAT-53230,276.5994648478216,32.77391292964847,3964.6301889114106,-0.3064450889019124,10733.003274785788,10.5,10500010733.003275,47.655,-122.3035,60.0,8.683333333333334
2026-01-20T23:08:42+00:00,SAT-53230,276.4642870401297,32.76468343450501,3964.3245610094127,-0.2942179931957544,10304.75866259258,10.5,10500010304.758663,47.655,-122.3035,60.0,8.7
2026-01-20T23:08:43+00:00,SAT-53230,276.32913045628186,32.75519930747034,3964.031127597532,-0.2819879069100107,9876.409307652137,10.5,10500009876.409307,47.655,-122.3035,60.0,8.716666666666667
2026-01-20T23:08:44+00:00,SAT-53230,276.193996886744,32.74546064724702,3963.7498916583736,-0.2697549585760017,9447.959711674994,10.5,10500009447.959711,47.655,-122.3035,60.0,8.733333333333333
2026-01-20T23:08:45+00:00,SAT-53230,276.05888812023505,32.73546756073473,3963.480856046354,-0.25751927691410575,9019.414382993287,10.5,10500009019.414383,47.655,-122.3035,60.0,8.75
2026-01-20T23:08:46+00:00,SAT-53230,275.9238059434622,32.725220163012544,3963.2240234875117,-0.24528098984374685,8590.777801886336,10.5,10500008590.777802,47.655,-122.3035,60.0,8.766666666666667
2026-01-20T23:08:47+00:00,SAT-53230,275.78875214144335,32.71471857736321,3962.9793965803074,-0.23304022562028204,8162.054460399272,10.5,10500008162.05446,47.655,-122.3035,60.0,8.783333333333333
2026-01-20T23:08:48+00:00,SAT-53230,275.65372849724343,32.70396293525647,3962.746977795289,-0.22079711302202673,7733.248868893429,10.5,10500007733.248869,47.655,-122.3035,60.0,8.8
2026-01-20T23:08:49+00:00,SAT-53230,275.5187367917582,32.69295337633245,3962.5267694745685,-0.2085517811815254,7304.365550136744,10.5,10500007304.365551,47.655,-122.3035,60.0,8.816666666666666
2026-01-20T23:08:50+00:00,SAT-53230,275.3837788033486,32.681690048370655,3962.31877383147,-0.19630435898686882,6875.409018335354,10.5,10500006875.409018,47.655,-122.3035,60.0,8.833333333333334
2026-01-20T23:08:51+00:00,SAT-53230,275.2488563079364,32.67017310729638,3962.1229929507736,-0.1840549749607378,6446.383774897189,10.5,10500006446.383776,47.655,-122.3035,60.0,8.85
2026-01-20T23:08:52+00:00,SAT-53230,275.11397107908306,32.65840271718618,3961.939428789079,-0.1718037582295782,6017.294342376588,10.5,10500006017.294342,47.655,-122.3035,60.0,8.866666666666667
2026-01-20T23:08:53+00:00,SAT-53230,274.9791248876535,32.64637905023725,3961.768083174205,-0.15955083822934168,5588.145254168094,10.5,10500005588.145254,47.655,-122.3035,60.0,8.883333333333333
2026-01-20T23:08:54+00:00,SAT-53230,274.8443195014539,32.63410228673225,3961.6089578048777,-0.1472963444737376,5158.941046389649,10.5,10500005158.941046,47.655,-122.3035,60.0,8.9
2026-01-20T23:08:55+00:00,SAT-53230,274.70955668523584,32.62157261503462,3961.462054250656,-0.1350404050031462,4729.68620355698,10.5,10500004729.686203,47.655,-122.3035,60.0,8.916666666666666
2026-01-20T23:08:56+00:00,SAT-53230,274.5748382014016,32.608790231651206,3961.3273739533993,-0.1227831507049948,4300.385309901444,10.5,10500004300.38531,47.655,-122.3035,60.0,8.933333333333334
2026-01-20T23:08:57+00:00,SAT-53230,274.4401658081779,32.59575534105574,3961.2049182244295,-0.11052471041706051,3871.0428778669784,10.5,10500003871.042877,47.655,-122.3035,60.0,8.95
2026-01-20T23:08:58+00:00,SAT-53230,274.3055412607644,32.58246815578954,3961.0946882465737,-0.09826521306351763,3441.6634229235183,10.5,10500003441.663424,47.655,-122.3035,60.0,8.966666666666667
2026-01-20T23:08:59+00:00,SAT-53230,274.17096631143,32.56892889646939,3960.9966850740784,-0.0860047889981628,3012.251510612416,10.5,10500003012.25151,47.655,-122.3035,60.0,8.983333333333333
2026-01-20T23:09:00+00:00,SAT-53230,274.0364427080907,32.55513779163712,3960.9109096311845,-0.07374356728137334,2582.811661174011,10.5,10500002582.81166,47.655,-122.3035,60.0,9.0
2026-01-20T23:09:01+00:00,SAT-53230,273.9019721955943,32.54109507788311,3960.8373627134156,-0.06148167817241693,2153.348436838854,10.5,10500002153.348436,47.655,-122.3035,60.0,9.016666666666667
2026-01-20T23:09:02+00:00,SAT-53230,273.76755651407024,32.526800999665255,3960.776044986385,-0.04921925043131303,1723.8663473274796,10.5,10500001723.866348,47.655,-122.3035,60.0,9.033333333333333
2026-01-20T23:09:03+00:00,SAT-53230,273.6331974007629,32.51225580949406,3960.726956987288,-0.036956414468778835,1294.3699601748413,10.5,10500001294.36996,47.655,-122.3035,60.0,9.05
2026-01-20T23:09:04+00:00,SAT-53230,273.4988965879543,32.4974597677028,3960.690099123258,-0.024693299683666015,864.8638074760812,10.5,10500000864.863808,47.655,-122.3035,60.0,9.066666666666666
2026-01-20T23:09:05+00:00,SAT-53230,273.36465580415063,32.48241314256281,3960.6654716723733,-0.012430035754347089,435.35243111634395,10.5,10500000435.35243,47.655,-122.3035,60.0,9.083333333333334
2026-01-20T23:09:06+00:00,SAT-53230,273.2304767734013,32.467116210200196,3960.6530747833813,-0.00016675260059898596,5.840381435777656,10.5,10500000005.840382,47.655,-122.3035,60.0,9.1
2026-01-20T23:09:07+00:00,SAT-53230,273.0963612154174,32.45156925459694,3960.652908475454,0.012096420144437322,-423.66780126467313,10.5,10499999576.3322,47.655,-122.3035,60.0,9.116666666666667
2026-01-20T23:09:08+00:00,SAT-53230,272.962310845,32.43577256751165,3960.664972638478,0.024359352819668775,-853.1675757050637,10.5,10499999146.832424,47.655,-122.3035,60.0,9.133333333333333
2026-01-20T23:09:09+00:00,SAT-53230,272.8283273727967,32.41972644855635,3960.6892670330235,0.03662191555664864,-1282.6543933430466,10.5,10499998717.345606,47.655,-122.3035,60.0,9.15
2026-01-20T23:09:10+00:00,SAT-53230,272.69441250377355,32.403431205000466,3960.7257912901387,0.0488839788106662,-1712.1237169748783,10.5,10499998287.876284,47.655,-122.3035,60.0,9.166666666666666
2026-01-20T23:09:11+00:00,SAT-53230,272.56056793904435,32.386887151977454,3960.7745449116724,0.06114541283829678,-2141.5710024370132,10.5,10499997858.428997,47.655,-122.3035,60.0,9.183333333333334
2026-01-20T23:09:12+00:00,SAT-53230,272.42679537380604,32.37009461221906,3960.8355272700765,0.07340608797387334,-2570.991708289306,10.5,10499997429.008291,47.655,-122.3035,60.0,9.2
2026-01-20T23:09:13+00:00,SAT-53230,272.2930964985295,32.3530539161845,3960.9087376084826,0.08566587459391109,-3000.381294569013,10.5,10499996999.618706,47.655,-122.3035,60.0,9.216666666666667
2026-01-20T23:09:14+00:00,SAT-53230,272.15947299828827,32.33576540196295,3960.9941750407443,0.09792464313743626,-3429.73522350279,10.5,10499996570.264776,47.655,-122.3035,60.0,9.233333333333333
2026-01-20T23:09:15+00:00,SAT-53230,272.02592655277084,32.31822941525582,3961.0918385514997,0.110182264103445,-3859.0489594176934,10.5,10499996140.95104,47.655,-122.3035,60.0,9.25
2026-01-20T23:09:16+00:00,SAT-53230,271.89245883615433,32.300446309343535,3961.201726996232,0.1224386080361651,-4288.317968224983,10.5,10499995711.682032,47.655,-122.3035,60.0,9.266666666666667
2026-01-20T23:09:17+00:00,SAT-53230,271.759071516888,32.28241644503916,3961.3238391013138,0.13469354517692522,-4717.537705227111,10.5,10499995282.462296,47.655,-122.3035,60.0,9.283333333333333
2026-01-20T23:09:18+00:00,SAT-53230,271.6257662582341,32.264140190742886,3961.4581734637036,0.1469469467423279,-5146.703659884743,10.5,10499994853.29634,47.655,-122.3035,60.0,9.3
2026-01-20T23:09:19+00:00,SAT-53230,271.4925447167511,32.24561792221545,3961.6047285519217,0.15919868304942658,-5575.811290152534,10.5,10499994424.18871,47.655,-122.3035,60.0,9.316666666666666
2026-01-20T23:09:20+00:00,SAT-53230,271.35940854349,32.226850022720846,3961.763502705149,0.17144862508510844,-6004.856077445545,10.5,10499993995.143923,47.655,-122.3035,60.0,9.333333333333334
2026-01-20T23:09:21+00:00,SAT-53230,271.2263593834327,32.207836882929136,3961.934494133901,0.18369664328433397,-6433.833483848038,10.5,10499993566.166515,47.655,-122.3035,60.0,9.35
2026-01-20T23:09:22+00:00,SAT-53230,271.093398875728,32.18857890092993,3962.11770091947,0.1959426092514773,-6862.7390124020785,10.5,10499993137.260988,47.655,-122.3035,60.0,9.366666666666667
2026-01-20T23:09:23+00:00,SAT-53230,270.96052865261356,32.169076482053484,3962.3131210150964,0.2081863934469099,-7291.568126081924,10.5,10499992708.431873,47.655,-122.3035,60.0,9.383333333333333
2026-01-20T23:09:24+00:00,SAT-53230,270.82775034048814,32.14933003900468,3962.5207522448272,0.22042786765491573,-7720.316334230847,10.5,10499992279.683666,47.655,-122.3035,60.0,9.4
2026-01-20T23:09:25+00:00,SAT-53230,270.6950655587429,32.12933999166635,3962.7405923048354,0.23266690230181553,-8148.979098630503,10.5,10499991851.0209,47.655,-122.3035,60.0,9.416666666666666
2026-01-20T23:09:26+00:00,SAT-53230,270.5624759209373,32.109106767251674,3962.9726387620644,0.24490336958405953,-8577.551943059972,10.5,10499991422.448057,47.655,-122.3035,60.0,9.433333333333334
2026-01-20T23:09:27+00:00,SAT-53230,270.42998303320235,32.08863080003963,3963.216889055996,0.25713714055307874,-9006.030351194915,10.5,10499990993.969648,47.655,-122.3035,60.0,9.45
2026-01-20T23:09:28+00:00,SAT-53230,270.2975884952197,32.06791253149566,3963.4733404975077,0.26936808650323324,-9434.409815219398,10.5,10499990565.590185,47.655,-122.3035,60.0,9.466666666666667
2026-01-20T23:09:29+00:00,SAT-53230,270.1652939000972,32.046952410231114,3963.741990269114,0.2815960798896572,-9862.685867972705,10.5,10499990137.314133,47.655,-122.3035,60.0,9.483333333333333
2026-01-20T23:09:30+00:00,SAT-53230,270.0331008333455,32.02575089181308,3964.022835426124,0.29382099218916147,-10290.854008029099,10.5,10499989709.145992,47.655,-122.3035,60.0,9.5
2026-01-20T23:09:31+00:00,SAT-53230,269.9010108738183,32.00430843888585,3964.315872895667,0.3060426955631292,-10718.909757939462,10.5,10499989281.090242,47.655,-122.3035,60.0,9.516666666666667
2026-01-20T23:09:32+00:00,SAT-53230,269.7690255929955,31.98262552103009,3964.6210994773755,0.31826106146753436,-11146.848615548262,10.5,10499988853.151384,47.655,-122.3035,60.0,9.533333333333333
2026-01-20T23:09:33+00:00,SAT-53230,269.6371465555155,31.960702614821123,3964.938511842679,0.3304759633754751,-11574.666149348188,10.5,10499988425.33385,47.655,-122.3035,60.0,9.55
2026-01-20T23:09:34+00:00,SAT-53230,269.50537531803667,31.9385402036098,3965.268106536819,0.3426872727627461,-12002.357857877912,10.5,10499987997.642141,47.655,-122.3035,60.0,9.566666666666666
2026-01-20T23:09:35+00:00,SAT-53230,269.3737134302897,31.91613877767092,3965.6098799768542,0.35489486334334175,-12429.919318067328,10.5,10499987570.080683,47.655,-122.3035,60.0,9.583333333333334
2026-01-20T23:09:36+00:00,SAT-53230,269.2421624339551,31.89349883397946,3965.963828453895,0.36709860661491,-12857.346029220505,10.5,10499987142.65397,47.655,-122.3035,60.0,9.6
2026-01-20T23:09:37+00:00,SAT-53230,269.1107238637092,31.870620876362885,3966.3299481308927,0.37929837639308933,-13284.63357182734,10.5,10499986715.366428,47.655,-122.3035,60.0,9.616666666666667
2026-01-20T23:09:38+00:00,SAT-53230,268.97939924610745,31.847505415273968,3966.708235044948,0.3914940455878704,-13711.777494658118,10.5,10499986288.222506,47.655,-122.3035,60.0,9.633333333333333
2026-01-20T23:09:39+00:00,SAT-53230,268.8481901000024,31.824152967833825,3967.098685106415,0.40368548785175307,-14138.773372488935,10.5,10499985861.226627,47.655,-122.3035,60.0,9.65
2026-01-20T23:09:40+00:00,SAT-53230,268.7170979362676,31.800564057746175,3967.501294099632,0.415872575965132,-14565.616749551073,10.5,10499985434.383251,47.655,-122.3035,60.0,9.666666666666666
2026-01-20T23:09:41+00:00,SAT-53230,268.5861242581177,31.776739215325563,3967.9160576820614,0.4280551843590999,-14992.30322789024,10.5,10499985007.696772,47.655,-122.3035,60.0,9.683333333333334
2026-01-20T23:09:42+00:00,SAT-53230,268.4552705604069,31.752678977334845,3968.3429713859286,0.44023318681981805,-15418.828386963924,10.5,10499984581.171614,47.655,-122.3035,60.0,9.7
2026-01-20T23:09:43+00:00,SAT-53230,268.324538329961,31.72838388701049,3968.782030617584,0.45240645739975566,-15845.187815556836,10.5,10499984154.812185,47.655,-122.3035,60.0,9.716666666666667
2026-01-20T23:09:44+00:00,SAT-53230,268.1939290454018,31.703854493995426,3969.2332306577637,0.46457487024641825,-16271.377105782267,10.5,10499983728.622894,47.655,-122.3035,60.0,9.733333333333333
2026-01-20T23:09:45+00:00,SAT-53230,268.0634441771563,31.67909135430633,3969.6965666616898,0.47673830075295853,-16697.391893381337,10.5,10499983302.608107,47.655,-122.3035,60.0,9.75
2026-01-20T23:09:46+00:00,SAT-53230,267.93308518698564,31.65409503020532,3970.1720336603075,0.4888966232589895,-17123.22777719575,10.5,10499982876.772223,47.655,-122.3035,60.0,9.766666666666667
2026-01-20T23:09:47+00:00,SAT-53230,267.8028535284057,31.62886609024517,3970.6596265592375,0.5010497120294156,-17548.8803534506,10.5,10499982451.119646,47.655,-122.3035,60.0,9.783333333333333
2026-01-20T23:09:48+00:00,SAT-53230,267.67275064663426,31.603405109221466,3971.1593401387017,0.5131974434839935,-17974.345293843024,10.5,10499982025.654707,47.655,-122.3035,60.0,9.8
2026-01-20T23:09:49+00:00,SAT-53230,267.54277797798113,31.577712668015632,3971.6711690556695,0.5253396929294784,-18399.61823108813,10.5,10499981600.38177,47.655,-122.3035,60.0,9.816666666666666
2026-01-20T23:09:50+00:00,SAT-53230,267.4129369501005,31.55178935360595,3972.1951078427514,0.5374763353595619,-18824.694786936234,10.5,10499981175.305214,47.655,-122.3035,60.0,9.833333333333334
2026-01-20T23:09:51+00:00,SAT-53230,267.2832289822212,31.525635759072838,3972.7311509078836,0.5496072471548676,-19249.570631713857,10.5,10499980750.429369,47.655,-122.3035,60.0,9.85
2026-01-20T23:09:52+00:00,SAT-53230,267.1536554845737,31.49925248344681,3973.2792925357126,0.5617323060885413,-19674.24148451955,10.5,10499980325.758516,47.655,-122.3035,60.0,9.866666666666667
2026-01-20T23:09:53+00:00,SAT-53230,267.024217858199,31.47264013162544,3973.839526888985,0.5738513861942477,-20098.702933479402,10.5,10499979901.297066,47.655,-122.3035,60.0,9.883333333333333
2026-01-20T23:09:54+00:00,SAT-53230,266.8949174958371,31.445799314515504,3974.4118480048155,0.5859643663921844,-20522.950737866584,10.5,10499979477.049263,47.655,-122.3035,60.0,9.9
2026-01-20T23:09:55+00:00,SAT-53230,266.7657557807015,31.41873064874008,3974.9962497995643,0.5980711224495537,-20946.980546523002,10.5,10499979053.019453,47.655,-122.3035,60.0,9.916666666666666
2026-01-20T23:09:56+00:00,SAT-53230,266.6367340872654,31.39143475675718,3975.592726065687,0.61017153137768,-21370.788051865,10.5,10499978629.211948,47.655,-122.3035,60.0,9.933333333333334
2026-01-20T23:09:57+00:00,SAT-53230,266.50785378096924,31.363912266760856,3976.2012704729814,0.622265472897207,-21794.36904120074,10.5,10499978205.630959,47.655,-122.3035,60.0,9.95
2026-01-20T23:09:58+00:00,SAT-53230,266.379116217565,31.33616381249187,3976.821876571284,0.6343528233481007,-22217.719183432753,10.5,10499977782.280817,47.655,-122.3035,60.0,9.966666666666667
2026-01-20T23:09:59+00:00,SAT-53230,266.2505227439656,31.308190033379805,3977.454537787103,0.6464334613044614,-22640.83422571239,10.5,10499977359.165773,47.655,-122.3035,60.0,9.983333333333333
2026-01-20T23:10:00+00:00,SAT-53230,266.12207469768754,31.27999157437699,3978.0992474258446,0.6585072658907908,-23063.70993446841,10.5,10499976936.290066,47.655,-122.3035,60.0,10.0
2026-01-20T23:10:01+00:00,SAT-53230,265.9937734067779,31.251569085898563,3978.755998672359,0.6705741149305486,-23486.34203056156,10.5,10499976513.657969,47.655,-122.3035,60.0,10.016666666666667
2026-01-20T23:10:02+00:00,SAT-53230,265.86562019008727,31.222923223835718,3979.4247845896502,0.6826338876747834,-23908.72628485279,10.5,10499976091.273716,47.655,-122.3035,60.0,10.033333333333333
2026-01-20T23:10:03+00:00,SAT-53230,265.73761635698924,31.194054649450653,3980.1055981202912,0.6946864644016565,-24330.858504176893,10.5,10499975669.141497,47.655,-122.3035,60.0,10.05
2026-01-20T23:10:04+00:00,SAT-53230,265.60976320714656,31.16496402927394,3980.7984320874543,0.7067317246264908,-24752.734468650822,10.5,10499975247.265532,47.655,-122.3035,60.0,10.066666666666666
2026-01-20T23:10:05+00:00,SAT-53230,265.48206203074426,31.135652035112514,3981.503279194148,0.7187695494055316,-25174.35001236116,10.5,10499974825.649988,47.655,-122.3035,60.0,10.083333333333334
2026-01-20T23:10:06+00:00,SAT-53230,265.3545141081559,31.10611934392253,3982.220132024756,0.7307998161561708,-25595.700841946444,10.5,10499974404.299158,47.655,-122.3035,60.0,10.1
2026-01-20T23:10:07+00:00,SAT-53230,265.22712071069486,31.076366637939806,3982.948983041402,0.7428224086724339,-26016.782887381894,10.5,10499973983.217113,47.655,-122.3035,60.0,10.116666666666667
2026-01-20T23:10:08+00:00,SAT-53230,265.0998830993533,31.046394604335987,3983.689824590318,0.7548372061728434,-26437.591918389277,10.5,10499973562.408081,47.655,-122.3035,60.0,10.133333333333333
2026-01-20T23:10:09+00:00,SAT-53230,264.97280252577036,31.016203935395524,3984.4426488972745,0.7668440943674133,-26858.123932049817,10.5,10499973141.876068,47.655,-122.3035,60.0,10.15
2026-01-20T23:10:10+00:00,SAT-53230,264.84588023097945,30.985795328166912,3985.2074480740566,0.7788429490594294,-27278.374578469244,10.5,10499972721.625422,47.655,-122.3035,60.0,10.166666666666666
2026-01-20T23:10:11+00:00,SAT-53230,264.7191174472782,30.95516948486611,3985.9842141085855,0.7908336551665909,-27698.339826978587,10.5,10499972301.660173,47.655,-122.3035,60.0,10.183333333333334
2026-01-20T23:10:12+00:00,SAT-53230,264.59251539658294,30.924327112425193,3986.772938874005,0.8028160971979885,-28118.015632597664,10.5,10499971881.984367,47.655,-122.3035,60.0,10.2
2026-01-20T23:10:13+00:00,SAT-53230,264.46607529057235,30.893268922476675,3987.5736141282773,0.8147901530538225,-28537.397718875025,10.5,10499971462.602282,47.655,-122.3035,60.0,10.216666666666667
2026-01-20T23:10:14+00:00,SAT-53230,264.33979833178466,30.861995631573592,3988.3862315075894,0.8267557123147089,-28956.482218456753,10.5,10499971043.517782,47.655,-122.3035,60.0,10.233333333333333
2026-01-20T23:10:15+00:00,SAT-53230,264.21368571173815,30.83050796066976,3989.210782538005,0.838712652922522,-29375.26485635099,10.5,10499970624.735144,47.655,-122.3035,60.0,10.25
2026-01-20T23:10:16+00:00,SAT-53230,264.08773861283703,30.79880663554449,3990.0472586238525,0.8506608646250821,-29793.741771060035,10.5,10499970206.258228,47.655,-122.3035,60.0,10.266666666666667
2026-01-20T23:10:17+00:00,SAT-53230,263.9619582065054,30.766892386278876,3990.8956510595053,0.8626002261992683,-30211.908716837428,10.5,10499969788.091284,47.655,-122.3035,60.0,10.283333333333333
2026-01-20T23:10:18+00:00,SAT-53230,263.8363456549796,30.734765947657866,3991.755951018435,0.8745306249788576,-30629.76174763544,10.5,10499969370.238253,47.655,-122.3035,60.0,10.3
2026-01-20T23:10:19+00:00,SAT-53230,263.7109021099539,30.70242805877426,3992.628149561747,0.8864519467602603,-31047.2968635613,10.5,10499968952.703136,47.655,-122.3035,60.0,10.316666666666666
2026-01-20T23:10:20+00:00,SAT-53230,263.5856287128735,30.669879463043497,3993.512237636649,0.8983640773592001,-31464.51006539865,10.5,10499968535.489935,47.655,-122.3035,60.0,10.333333333333334
2026-01-20T23:10:21+00:00,SAT-53230,263.46052659498355,30.637120908165898,3994.408206076469,0.910266900523963,-31881.39728152071,10.5,10499968118.602718,47.655,-122.3035,60.0,10.35
2026-01-20T23:10:22+00:00,SAT-53230,263.33559687762664,30.6041531461484,3995.3160455985912,0.9221603055104116,-32297.95463319935,10.5,10499967702.045366,47.655,-122.3035,60.0,10.366666666666667
2026-01-20T23:10:23+00:00,SAT-53230,263.21084067149275,30.570976933052677,3996.235746809954,0.9340441763671895,-32714.178059327598,10.5,10499967285.821941,47.655,-122.3035,60.0,10.383333333333333
2026-01-20T23:10:24+00:00,SAT-53230,263.0862590774152,30.53759302914887,3997.1673002018506,0.9459184031704271,-33130.06370990655,10.5,10499966869.93629,47.655,-122.3035,60.0,10.4
2026-01-20T23:10:25+00:00,SAT-53230,262.96185318553523,30.504002198636304,3998.110696155946,0.9577828706716349,-33545.60754844662,10.5,10499966454.392452,47.655,-122.3035,60.0,10.416666666666666
2026-01-20T23:10:26+00:00,SAT-53230,262.83762407608396,30.47020520979958,3999.0659249389623,0.9696374698968058,-33960.80575821711,10.5,10499966039.194242,47.655,-122.3035,60.0,10.433333333333334
2026-01-20T23:10:27+00:00,SAT-53230,262.7135728185632,30.436202834726263,4000.0329767089397,0.9814820878427661,-34375.65438136888,10.5,10499965624.34562,47.655,-122.3035,60.0,10.45
2026-01-20T23:10:28+00:00,SAT-53230,262.58970047233106,30.40199584940983,4001.0118415112147,0.9933166113365971,-34790.14945410758,10.5,10499965209.850546,47.655,-122.3035,60.0,10.466666666666667
2026-01-20T23:10:29+00:00,SAT-53230,262.4660080866649,30.367585033714587,4002.0025092782544,1.005140934027721,-35204.28725158614,10.5,10499964795.712748,47.655,-122.3035,60.0,10.483333333333333
2026-01-20T23:10:30+00:00,SAT-53230,262.34249669987787,30.33297117106427,4003.0049698364583,1.0169549421760464,-35618.06379014541,10.5,10499964381.93621,47.655,-122.3035,60.0,10.5
2026-01-20T23:10:31+00:00,SAT-53230,262.2191673403674,30.298155048683764,4004.0192128987883,1.0287585296769741,-36031.47535355352,10.5,10499963968.524647,47.655,-122.3035,60.0,10.516666666666667
2026-01-20T23:10:32+00:00,SAT-53230,262.09602102563724,30.263137457257557,4005.045228072386,1.040551580440912,-36444.51787586189,10.5,10499963555.482124,47.655,-122.3035,60.0,10.533333333333333
2026-01-20T23:10:33+00:00,SAT-53230,261.973058763646,30.22791919126205,4006.0830048486123,1.0523339955444064,-36857.18789235274,10.5,10499963142.812107,47.655,-122.3035,60.0,10.55
2026-01-20T23:10:34+00:00,SAT-53230,261.85028155064197,30.192501048278604,4007.1325326201686,1.064105659118433,-37269.4813448027,10.5,10499962730.518656,47.655,-122.3035,60.0,10.566666666666666
2026-01-20T23:10:35+00:00,SAT-53230,261.72769037340834,30.156883829582682,4008.1938006641963,1.075866465947269,-37681.3945481121,10.5,10499962318.605452,47.655,-122.3035,60.0,10.583333333333334
2026-01-20T23:10:36+00:00,SAT-53230,261.6052862078899,30.12106833968748,4009.266798152901,1.0876163056872552,-38092.92363757923,10.5,10499961907.076363,47.655,-122.3035,60.0,10.6
2026-01-20T23:10:37+00:00,SAT-53230,261.4830700199498,30.085055386505243,4010.35151414844,1.0993550759920778,-38504.06502860328,10.5,10499961495.93497,47.655,-122.3035,60.0,10.616666666666667
2026-01-20T23:10:38+00:00,SAT-53230,261.3610427644102,30.0488457809987,4011.4479376108957,1.1110826663798419,-38914.81485164093,10.5,10499961085.185148,47.655,-122.3035,60.0,10.633333333333333
2026-01-20T23:10:39+00:00,SAT-53230,261.2392053860979,30.01244033743576,4012.5560573901657,1.1227989748284775,-39325.16953344775,10.5,10499960674.830467,47.655,-122.3035,60.0,10.65
