satellites_20260121_005943/SAT-51863.csv

timestamp,satellite,azimuth_deg,elevation_deg,distance_km,relative_velocity_kms,doppler_shift_hz,tx_freq_ghz,rx_freq_hz,ue_lat,ue_lon,ue_alt_m,time_minutes
2026-01-20T23:09:51+00:00,SAT-51863,207.47036972169164,30.01989890412175,1569.323938802323,-6.523251446907395,228471.85899695865,10.5,10500228471.858997,47.655,-122.3035,60.0,9.85
2026-01-20T23:09:52+00:00,SAT-51863,207.38756331524158,30.11941349283472,1562.8180826926075,-6.519780493208173,228350.2915162923,10.5,10500228350.291515,47.655,-122.3035,60.0,9.866666666666667
2026-01-20T23:09:53+00:00,SAT-51863,207.30411089049718,30.219506461932447,1556.3156882807145,-6.516258431323833,228226.93401079573,10.5,10500228226.934011,47.655,-122.3035,60.0,9.883333333333333
2026-01-20T23:09:54+00:00,SAT-51863,207.22000268181202,30.32018417803709,1549.816806538541,-6.51268446384714,228101.75855189448,10.5,10500228101.758553,47.655,-122.3035,60.0,9.9
2026-01-20T23:09:55+00:00,SAT-51863,207.13522872826158,30.42145309027931,1543.321489233264,-6.509057772780337,227974.736489847,10.5,10500227974.73649,47.655,-122.3035,60.0,9.916666666666666
2026-01-20T23:09:56+00:00,SAT-51863,207.0497788689085,30.523319731256368,1536.8297889478777,-6.505377528775334,227845.83877737515,10.5,10500227845.838778,47.655,-122.3035,60.0,9.933333333333334
2026-01-20T23:09:57+00:00,SAT-51863,206.9636427377603,30.625790718137527,1530.3417590925126,-6.501642858745387,227715.03483528786,10.5,10500227715.034836,47.655,-122.3035,60.0,9.95
2026-01-20T23:09:58+00:00,SAT-51863,206.8768097590281,30.728872753267364,1523.8574539480571,-6.4978529337060404,227582.2956290429,10.5,10500227582.29563,47.655,-122.3035,60.0,9.966666666666667
2026-01-20T23:09:59+00:00,SAT-51863,206.7892691410998,30.83257262617895,1517.3769286221743,-6.494006818421111,227447.58840271315,10.5,10500227447.588402,47.655,-122.3035,60.0,9.983333333333333
2026-01-20T23:10:00+00:00,SAT-51863,206.7010098722581,30.93689721320254,1510.900239155269,-6.490103677040606,227310.8838812962,10.5,10500227310.88388,47.655,-122.3035,60.0,10.0
2026-01-20T23:10:01+00:00,SAT-51863,206.61202071362285,31.041853480404555,1504.4274424213672,-6.486142505029528,227172.1468817272,10.5,10500227172.146881,47.655,-122.3035,60.0,10.016666666666667
2026-01-20T23:10:02+00:00,SAT-51863,206.5222901953494,31.1474484821698,1497.9585962963508,-6.482122441189149,227031.34724118398,10.5,10500227031.34724,47.655,-122.3035,60.0,10.033333333333333
2026-01-20T23:10:03+00:00,SAT-51863,206.4318066086375,31.253689364894832,1491.493759515005,-6.478042483154064,226888.44985258993,10.5,10500226888.449852,47.655,-122.3035,60.0,10.05
2026-01-20T23:10:04+00:00,SAT-51863,206.34055800124128,31.36058336601875,1485.032991811806,-6.473901669747792,226743.42105147892,10.5,10500226743.421051,47.655,-122.3035,60.0,10.066666666666666
2026-01-20T23:10:05+00:00,SAT-51863,206.24853217039725,31.468137816052977,1478.576353879844,-6.469698981820712,226596.2251429203,10.5,10500226596.225143,47.655,-122.3035,60.0,10.083333333333334
2026-01-20T23:10:06+00:00,SAT-51863,206.155716656899,31.576360138976785,1472.1239074286416,-6.465433435254542,226446.82765892893,10.5,10500226446.82766,47.655,-122.3035,60.0,10.1
2026-01-20T23:10:07+00:00,SAT-51863,206.06209873769288,31.685257854195864,1465.6757151492145,-6.4611039700654755,226295.19147438824,10.5,10500226295.191475,47.655,-122.3035,60.0,10.116666666666667
2026-01-20T23:10:08+00:00,SAT-51863,205.9676654197707,31.79483857663317,1459.2318407897358,-6.456709526478329,226141.27947148844,10.5,10500226141.279472,47.655,-122.3035,60.0,10.133333333333333
2026-01-20T23:10:09+00:00,SAT-51863,205.87240343281343,31.905110018093257,1452.792349155328,-6.452249046598081,225985.05459827094,10.5,10500225985.054598,47.655,-122.3035,60.0,10.15
2026-01-20T23:10:10+00:00,SAT-51863,205.77629922159986,32.0160799886882,1446.3573061061877,-6.447721388338274,225826.47685403706,10.5,10500225826.476854,47.655,-122.3035,60.0,10.166666666666666
2026-01-20T23:10:11+00:00,SAT-51863,205.67933893933923,32.12775639674238,1439.9267786415514,-6.4431254651570615,225665.50818349523,10.5,10500225665.508184,47.655,-122.3035,60.0,10.183333333333334
2026-01-20T23:10:12+00:00,SAT-51863,205.58150843886722,32.240147251141245,1433.5008348443016,-6.438460111037189,225502.10774778895,10.5,10500225502.107748,47.655,-122.3035,60.0,10.2
2026-01-20T23:10:13+00:00,SAT-51863,205.48279326542277,32.35326066131106,1427.079543960227,-6.433724137827925,225336.23393285368,10.5,10500225336.233932,47.655,-122.3035,60.0,10.216666666666667
2026-01-20T23:10:14+00:00,SAT-51863,205.3831786484416,32.46710483819449,1420.6629764201,-6.428916381089273,225167.84595507526,10.5,10500225167.845955,47.655,-122.3035,60.0,10.233333333333333
2026-01-20T23:10:15+00:00,SAT-51863,205.28264949233764,32.58168809603433,1414.251203816027,-6.4240355923323635,224996.9000870923,10.5,10500224996.900087,47.655,-122.3035,60.0,10.25
2026-01-20T23:10:16+00:00,SAT-51863,205.18119036863746,32.69701885223303,1407.8442989852742,-6.4190805463229355,224823.3534160183,10.5,10500224823.353416,47.655,-122.3035,60.0,10.266666666666667
2026-01-20T23:10:17+00:00,SAT-51863,205.07878550621177,32.81310562911496,1401.4423359870748,-6.4140499591863,224647.16097513083,10.5,10500224647.160975,47.655,-122.3035,60.0,10.283333333333333
2026-01-20T23:10:18+00:00,SAT-51863,204.9754187824503,32.92995705420136,1395.0453901611131,-6.408942520000822,224468.27685040905,10.5,10500224468.27685,47.655,-122.3035,60.0,10.3
2026-01-20T23:10:19+00:00,SAT-51863,204.87107371364058,33.04758186103086,1388.6535381544988,-6.403756913226161,224286.65496606551,10.5,10500224286.654966,47.655,-122.3035,60.0,10.316666666666666
2026-01-20T23:10:20+00:00,SAT-51863,204.7657334447239,33.16598889038701,1382.2668579263748,-6.398491800136993,224102.24843427658,10.5,10500224102.248434,47.655,-122.3035,60.0,10.333333333333334
2026-01-20T23:10:21+00:00,SAT-51863,204.65938073893804,33.28518709116487,1375.885428771038,-6.3931457594837795,223915.00747687148,10.5,10500223915.007477,47.655,-122.3035,60.0,10.35
2026-01-20T23:10:22+00:00,SAT-51863,204.55199796811445,33.40518552009236,1369.5093314002463,-6.387717422404776,223724.88415052174,10.5,10500223724.884151,47.655,-122.3035,60.0,10.366666666666667
2026-01-20T23:10:23+00:00,SAT-51863,204.44356710045065,33.525993343968864,1363.1386478909678,-6.382205296967493,223531.8262014406,10.5,10500223531.826202,47.655,-122.3035,60.0,10.383333333333333
2026-01-20T23:10:24+00:00,SAT-51863,204.33406969072908,33.64761983854157,1356.7734618081258,-6.376607964930794,223335.78395682434,10.5,10500223335.783957,47.655,-122.3035,60.0,10.4
2026-01-20T23:10:25+00:00,SAT-51863,204.2234868669908,33.77007439111976,1350.4138581311013,-6.370923883548595,223136.70338317932,10.5,10500223136.703382,47.655,-122.3035,60.0,10.416666666666666
2026-01-20T23:10:26+00:00,SAT-51863,204.11179932000866,33.893366499334306,1344.0599233779087,-6.365151527019113,222934.53104047297,10.5,10500222934.53104,47.655,-122.3035,60.0,10.433333333333334
2026-01-20T23:10:27+00:00,SAT-51863,203.99898729006887,34.01750577258215,1337.7117455882951,-6.3592893315923025,222729.212159564,10.5,10500222729.21216,47.655,-122.3035,60.0,10.45
2026-01-20T23:10:28+00:00,SAT-51863,203.8850305542226,34.14250193237894,1331.3694143615871,-6.3533356774675775,222520.69000818414,10.5,10500222520.690008,47.655,-122.3035,60.0,10.466666666666667
2026-01-20T23:10:29+00:00,SAT-51863,203.76990841337738,34.2683648122822,1325.0330209125927,-6.3472889383635325,222308.90762707943,10.5,10500222308.907627,47.655,-122.3035,60.0,10.483333333333333
2026-01-20T23:10:30+00:00,SAT-51863,203.65359967815004,34.39510435876198,1318.7026580780648,-6.341147457563512,222093.8069910247,10.5,10500222093.806992,47.655,-122.3035,60.0,10.5
2026-01-20T23:10:31+00:00,SAT-51863,203.53608265457433,34.52273063153763,1312.3784203470548,-6.334909482633262,221875.32672235955,10.5,10500221875.326723,47.655,-122.3035,60.0,10.516666666666667
2026-01-20T23:10:32+00:00,SAT-51863,203.41733513052324,34.65125380251328,1306.0604039563752,-6.328573327482546,221653.40776707177,10.5,10500221653.407766,47.655,-122.3035,60.0,10.533333333333333
2026-01-20T23:10:33+00:00,SAT-51863,203.29733435874093,34.780684157964664,1299.7487068244327,-6.322137159448521,221427.9859375564,10.5,10500221427.985937,47.655,-122.3035,60.0,10.55
2026-01-20T23:10:34+00:00,SAT-51863,203.1760570431122,34.91103209627748,1293.4434286974094,-6.315599155368744,221198.9973789528,10.5,10500221198.99738,47.655,-122.3035,60.0,10.566666666666666
2026-01-20T23:10:35+00:00,SAT-51863,203.05347932162806,35.04230812879792,1287.1446711397884,-6.3089574975103435,220966.3784265667,10.5,10500220966.378428,47.655,-122.3035,60.0,10.583333333333334
2026-01-20T23:10:36+00:00,SAT-51863,202.92957674883166,35.174522880584846,1280.852537528938,-6.302210254772623,220730.06144508324,10.5,10500220730.061445,47.655,-122.3035,60.0,10.6
2026-01-20T23:10:37+00:00,SAT-51863,202.80432427978585,35.307687088513696,1274.567133168178,-6.295355455876809,220489.9773919813,10.5,10500220489.977392,47.655,-122.3035,60.0,10.616666666666667
2026-01-20T23:10:38+00:00,SAT-51863,202.67769625219967,35.441811600830555,1268.2885653268502,-6.288391162265355,220246.05837077537,10.5,10500220246.05837,47.655,-122.3035,60.0,10.633333333333333
2026-01-20T23:10:39+00:00,SAT-51863,202.54966636644377,35.57690737817894,1262.016943207684,-6.281315310668658,219998.23211703647,10.5,10500219998.232117,47.655,-122.3035,60.0,10.65
2026-01-20T23:10:40+00:00,SAT-51863,202.42020766792677,35.71298549111684,1255.7523780711772,-6.2741258469292465,219746.4266854808,10.5,10500219746.426685,47.655,-122.3035,60.0,10.666666666666666
2026-01-20T23:10:41+00:00,SAT-51863,202.28929252619682,35.850057120399875,1249.4949832265065,-6.266820639100515,219490.56740632016,10.5,10500219490.567406,47.655,-122.3035,60.0,10.683333333333334
2026-01-20T23:10:42+00:00,SAT-51863,202.15689261504292,35.98813355524069,1243.2448741091102,-6.259397507835213,219230.5779495952,10.5,10500219230.57795,47.655,-122.3035,60.0,10.7
2026-01-20T23:10:43+00:00,SAT-51863,202.0229788912355,36.127226192068406,1237.0021683279626,-6.251854242572761,218966.38089212368,10.5,10500218966.380892,47.655,-122.3035,60.0,10.716666666666667
2026-01-20T23:10:44+00:00,SAT-51863,201.88752157219832,36.26734653351418,1230.7669856967034,-6.244188609937828,218697.89801165444,10.5,10500218697.898012,47.655,-122.3035,60.0,10.733333333333333
2026-01-20T23:10:45+00:00,SAT-51863,201.75049011264863,36.408506187433744,1224.5394482563922,-6.23639825128933,218425.04669859962,10.5,10500218425.0467,47.655,-122.3035,60.0,10.75
2026-01-20T23:10:46+00:00,SAT-51863,201.61185318255383,36.550716863403544,1218.3196804004394,-6.22848080445736,218147.74421977712,10.5,10500218147.744219,47.655,-122.3035,60.0,10.766666666666667
2026-01-20T23:10:47+00:00,SAT-51863,201.47157864169566,36.693990371791116,1212.1078088781276,-6.220433876420019,217865.90676143763,10.5,10500217865.906761,47.655,-122.3035,60.0,10.783333333333333
2026-01-20T23:10:48+00:00,SAT-51863,201.32963351389913,36.838338622043196,1205.903962825378,-6.212254971457156,217579.44691290447,10.5,10500217579.446913,47.655,-122.3035,60.0,10.8
2026-01-20T23:10:49+00:00,SAT-51863,201.18598396181397,36.983773619050815,1199.708273867178,-6.203941565455396,217288.2762690503,10.5,10500217288.27627,47.655,-122.3035,60.0,10.816666666666666
2026-01-20T23:10:50+00:00,SAT-51863,201.04059525919737,37.13030746102557,1193.520876145897,-6.1954910721656535,216992.30424849232,10.5,10500216992.304249,47.655,-122.3035,60.0,10.833333333333334
2026-01-20T23:10:51+00:00,SAT-51863,200.89343176286152,37.27795233633131,1187.341906383257,-6.1869008527180185,216691.43842684393,10.5,10500216691.438427,47.655,-122.3035,60.0,10.85
2026-01-20T23:10:52+00:00,SAT-51863,200.7444568833878,37.42672052028452,1181.1715039328133,-6.178168192776273,216385.58373656907,10.5,10500216385.583736,47.655,-122.3035,60.0,10.866666666666667
2026-01-20T23:10:53+00:00,SAT-51863,200.59363305525483,37.57662437110633,1175.0098108552174,-6.169290322759687,216074.64317523528,10.5,10500216074.643175,47.655,-122.3035,60.0,10.883333333333333
2026-01-20T23:10:54+00:00,SAT-51863,200.4409217053996,37.72767632606249,1168.8569719733187,-6.160264437202389,215758.51848356065,10.5,10500215758.518484,47.655,-122.3035,60.0,10.9
2026-01-20T23:10:55+00:00,SAT-51863,200.28628322009465,37.879888897774514,1162.7131349079489,-6.151087640312101,215437.10823865043,10.5,10500215437.108238,47.655,-122.3035,60.0,10.916666666666666
2026-01-20T23:10:56+00:00,SAT-51863,200.12967691190536,38.03327466883642,1156.5784501680107,-6.141756959724341,215110.3083357273,10.5,10500215110.308336,47.655,-122.3035,60.0,10.933333333333334
2026-01-20T23:10:57+00:00,SAT-51863,199.97106098504253,38.18784628637894,1150.4530712268456,-6.132269395923495,214778.0137190666,10.5,10500214778.01372,47.655,-122.3035,60.0,10.95
2026-01-20T23:10:58+00:00,SAT-51863,199.81039249822385,38.34361645752516,1144.3371545493114,-6.122621840392246,214440.1155152428,10.5,10500214440.115515,47.655,-122.3035,60.0,10.966666666666667
2026-01-20T23:10:59+00:00,SAT-51863,199.64762732809766,38.50059794232187,1138.2308597004935,-6.112811138157155,214096.50322374064,10.5,10500214096.503223,47.655,-122.3035,60.0,10.983333333333333
2026-01-20T23:11:00+00:00,SAT-51863,199.48272012976057,38.65880354784716,1132.134349392038,-6.1028340618111505,213747.06380711248,10.5,10500213747.063807,47.655,-122.3035,60.0,11.0
2026-01-20T23:11:01+00:00,SAT-51863,199.31562429636915,38.818246121171384,1126.0477895543918,-6.092687290154946,213391.6809429106,10.5,10500213391.680943,47.655,-122.3035,60.0,11.016666666666667
2026-01-20T23:11:02+00:00,SAT-51863,199.14629191780648,38.97893854125611,1119.971349430344,-6.082367451998338,213030.2365577941,10.5,10500213030.236557,47.655,-122.3035,60.0,11.033333333333333
2026-01-20T23:11:03+00:00,SAT-51863,198.97467373656326,39.14089371145759,1113.9052016248843,-6.071871100932828,212662.60994395896,10.5,10500212662.609943,47.655,-122.3035,60.0,11.05
2026-01-20T23:11:04+00:00,SAT-51863,198.8007191026361,39.30412455085073,1107.8495221802207,-6.061194689867509,212288.67686727748,10.5,10500212288.676867,47.655,-122.3035,60.0,11.066666666666666
2026-01-20T23:11:05+00:00,SAT-51863,198.62437592732425,39.468643984204256,1101.8044906761927,-6.050334592149801,211908.31030703548,10.5,10500211908.310307,47.655,-122.3035,60.0,11.083333333333334
2026-01-20T23:11:06+00:00,SAT-51863,198.44559063474213,39.63446493190356,1095.770290309622,-6.039287124248051,211521.38125037332,10.5,10500211521.38125,47.655,-122.3035,60.0,11.1
2026-01-20T23:11:07+00:00,SAT-51863,198.26430811073567,39.801600299818936,1089.7471079510385,-6.028048499005235,211127.7570550323,10.5,10500211127.757055,47.655,-122.3035,60.0,11.116666666666667
2026-01-20T23:11:08+00:00,SAT-51863,198.08047165122466,39.97006296718157,1083.7351342480306,-6.016614846624494,210727.3021843571,10.5,10500210727.302185,47.655,-122.3035,60.0,11.133333333333333
2026-01-20T23:11:09+00:00,SAT-51863,197.89402290785898,40.13986577422365,1077.734563707664,-6.0049822163108,210319.8782647941,10.5,10500210319.878265,47.655,-122.3035,60.0,11.15
2026-01-20T23:11:10+00:00,SAT-51863,197.7049018315951,40.31102150911112,1071.7455947772632,-5.993146540341866,209905.34282750232,10.5,10500209905.342827,47.655,-122.3035,60.0,11.166666666666666
2026-01-20T23:11:11+00:00,SAT-51863,197.51304661511745,40.483542892917676,1065.768429961029,-5.981103711448535,209483.55201854216,10.5,10500209483.55202,47.655,-122.3035,60.0,11.183333333333334
2026-01-20T23:11:12+00:00,SAT-51863,197.31839363068585,40.65744256597204,1059.8032758594777,-5.968849476611591,209054.35687919043,10.5,10500209054.356878,47.655,-122.3035,60.0,11.2
2026-01-20T23:11:13+00:00,SAT-51863,197.12087736882697,40.83273307011002,1053.8503433148037,-5.956379512401271,208617.60598464866,10.5,10500208617.605984,47.655,-122.3035,60.0,11.216666666666667
2026-01-20T23:11:14+00:00,SAT-51863,196.92043037232833,41.009426832091485,1047.9098474811021,-5.943689392112855,208173.14429299277,10.5,10500208173.144293,47.655,-122.3035,60.0,11.233333333333333
2026-01-20T23:11:15+00:00,SAT-51863,196.71698316867392,41.18753614495841,1041.9820079273682,-5.930774589261818,207720.8132675876,10.5,10500207720.813267,47.655,-122.3035,60.0,11.25
2026-01-20T23:11:16+00:00,SAT-51863,196.5104641997999,41.36707314833782,1036.067048737011,-5.917630469291977,207260.4505866714,10.5,10500207260.450586,47.655,-122.3035,60.0,11.266666666666667
2026-01-20T23:11:17+00:00,SAT-51863,196.30079974935532,41.54804980722993,1030.1651986156373,-5.904252319108256,206791.8911777183,10.5,10500206791.891178,47.655,-122.3035,60.0,11.283333333333333
2026-01-20T23:11:18+00:00,SAT-51863,196.08791386619882,41.73047789043553,1024.27669096938,-5.890635267365604,206314.96442561888,10.5,10500206314.964426,47.655,-122.3035,60.0,11.3
2026-01-20T23:11:19+00:00,SAT-51863,195.87172828765222,41.91436894506434,1018.4017640627274,-5.876774385400038,205829.49770771217,10.5,10500205829.497707,47.655,-122.3035,60.0,11.316666666666666
2026-01-20T23:11:20+00:00,SAT-51863,195.6521623563349,42.099734272770135,1012.5406610756883,-5.862664612079458,205335.31376174348,10.5,10500205335.313763,47.655,-122.3035,60.0,11.333333333333334
2026-01-20T23:11:21+00:00,SAT-51863,195.4291329363966,42.28658490203135,1006.6936302359078,-5.848300753341289,204832.23066967062,10.5,10500204832.230669,47.655,-122.3035,60.0,11.35
2026-01-20T23:11:22+00:00,SAT-51863,195.20255432667167,42.47493155875174,1000.860924951242,-5.833677554376215,204320.0643858434,10.5,10500204320.064386,47.655,-122.3035,60.0,11.366666666666667
2026-01-20T23:11:23+00:00,SAT-51863,194.97233816777353,42.66478463745714,995.0428038703442,-5.818789572311749,203798.62427784412,10.5,10500203798.624277,47.655,-122.3035,60.0,11.383333333333333
2026-01-20T23:11:24+00:00,SAT-51863,194.73839335053742,42.856154166468315,989.2395310702253,-5.803631293243178,203267.7172254059,10.5,10500203267.717226,47.655,-122.3035,60.0,11.4
2026-01-20T23:11:25+00:00,SAT-51863,194.50062591649606,43.04904977491826,983.4513761270974,-5.7881970822819175,202727.1458708949,10.5,10500202727.14587,47.655,-122.3035,60.0,11.416666666666666
2026-01-20T23:11:26+00:00,SAT-51863,194.25893895661437,43.24348065613214,977.6786142370349,-5.7724811279140775,202176.70667051207,10.5,10500202176.70667,47.655,-122.3035,60.0,11.433333333333334
2026-01-20T23:11:27+00:00,SAT-51863,194.01323250844436,43.4394555267806,971.9215263921285,-5.756477567043495,201616.1942738289,10.5,10500201616.194273,47.655,-122.3035,60.0,11.45
2026-01-20T23:11:28+00:00,SAT-51863,193.7634034444674,43.63698258805573,966.1803994319305,-5.74018033241603,201045.39617994096,10.5,10500201045.39618,47.655,-122.3035,60.0,11.466666666666667
2026-01-20T23:11:29+00:00,SAT-51863,193.50934536266342,43.83606947907935,960.4555262470676,-5.723583279262847,200464.0971730513,10.5,10500200464.097174,47.655,-122.3035,60.0,11.483333333333333
2026-01-20T23:11:30+00:00,SAT-51863,193.25094846779342,44.03672323208454,954.7472058565494,-5.706680109214449,199872.07665761796,10.5,10500199872.076658,47.655,-122.3035,60.0,11.5
2026-01-20T23:11:31+00:00,SAT-51863,192.9880994517169,44.23895022219869,949.0557435609596,-5.689464367489339,199269.1085598893,10.5,10500199269.10856,47.655,-122.3035,60.0,11.516666666666667
2026-01-20T23:11:32+00:00,SAT-51863,192.72068136963836,44.442756114125075,943.3814510984503,-5.6719295106080745,198654.96369953637,10.5,10500198654.9637,47.655,-122.3035,60.0,11.533333333333333
2026-01-20T23:11:33+00:00,SAT-51863,192.4485735090494,44.648145808236904,937.7246467332038,-5.654068814023945,198029.4065544885,10.5,10500198029.406555,47.655,-122.3035,60.0,11.55
2026-01-20T23:11:34+00:00,SAT-51863,192.17165125832844,44.855123379998,932.0856554360172,-5.635875387230437,197392.19579006082,10.5,10500197392.19579,47.655,-122.3035,60.0,11.566666666666666
2026-01-20T23:11:35+00:00,SAT-51863,191.8897859704519,45.06369201644222,926.4648090498193,-5.617342285815314,196743.08818356198,10.5,10500196743.088184,47.655,-122.3035,60.0,11.583333333333334
2026-01-20T23:11:36+00:00,SAT-51863,191.60284481670027,45.27385395321587,920.8624463434329,-5.598462322897608,196081.83202001994,10.5,10500196081.83202,47.655,-122.3035,60.0,11.6
2026-01-20T23:11:37+00:00,SAT-51863,191.31069064494363,45.485610400706484,915.2789132533964,-5.579228214038483,195408.17216757356,10.5,10500195408.172167,47.655,-122.3035,60.0,11.616666666666667
2026-01-20T23:11:38+00:00,SAT-51863,191.01318182633227,45.698961471482626,909.714562981262,-5.559632501718254,194721.84743233825,10.5,10500194721.847433,47.655,-122.3035,60.0,11.633333333333333
2026-01-20T23:11:39+00:00,SAT-51863,190.71017210125245,45.91390610065243,904.1697561662149,-5.539667578998087,194022.59138713861,10.5,10500194022.591387,47.655,-122.3035,60.0,11.65
2026-01-20T23:11:40+00:00,SAT-51863,190.40151041950594,46.13044196249415,898.6448610340942,-5.519325714284524,193310.13323886722,10.5,10500193310.13324,47.655,-122.3035,60.0,11.666666666666666
2026-01-20T23:11:41+00:00,SAT-51863,190.08704077474047,46.34856538339712,893.1402535217145,-5.49859898097167,192584.1953642561,10.5,10500192584.195364,47.655,-122.3035,60.0,11.683333333333334
2026-01-20T23:11:42+00:00,SAT-51863,189.76660203822064,46.568271246904196,887.6563174713586,-5.477479300612429,191844.49482191613,10.5,10500191844.494822,47.655,-122.3035,60.0,11.7
2026-01-20T23:11:43+00:00,SAT-51863,189.4400277861977,46.789552895171674,882.1934447822146,-5.455958454117762,191090.74374458246,10.5,10500191090.743744,47.655,-122.3035,60.0,11.716666666666667
2026-01-20T23:11:44+00:00,SAT-51863,189.1071461224551,47.01240202530638,876.7520355506412,-5.434028068068548,190322.64885969798,10.5,10500190322.648859,47.655,-122.3035,60.0,11.733333333333333
2026-01-20T23:11:45+00:00,SAT-51863,188.76777949776434,47.23680857934443,871.3324982240874,-5.411679559697873,189539.9095624603,10.5,10500189539.909563,47.655,-122.3035,60.0,11.75
2026-01-20T23:11:46+00:00,SAT-51863,188.42174452906838,47.462760625633855,865.9352498098822,-5.388904255611554,188742.2220739166,10.5,10500188742.222075,47.655,-122.3035,60.0,11.766666666666667
2026-01-20T23:11:47+00:00,SAT-51863,188.06885180834706,47.6902442388444,860.5607159656189,-5.365693249416458,187929.2744545055,10.5,10500187929.274454,47.655,-122.3035,60.0,11.783333333333333
2026-01-20T23:11:48+00:00,SAT-51863,187.70890571730774,47.9192433670564,855.2093312315342,-5.342037532464878,187100.75118327764,10.5,10500187100.751183,47.655,-122.3035,60.0,11.8
2026-01-20T23:11:49+00:00,SAT-51863,187.3417042316506,48.149739697363565,849.8815391324891,-5.317927867837489,186256.32874424628,10.5,10500186256.328745,47.655,-122.3035,60.0,11.816666666666666
2026-01-20T23:11:50+00:00,SAT-51863,186.96703873167263,48.381712508477534,844.5777924056325,-5.2933549295333275,185395.68050140855,10.5,10500185395.680502,47.655,-122.3035,60.0,11.833333333333334
2026-01-20T23:11:51+00:00,SAT-51863,186.5846938026593,48.61513852169011,839.2985530892446,-5.268309182388365,184518.4724929866,10.5,10500184518.472492,47.655,-122.3035,60.0,11.85
2026-01-20T23:11:52+00:00,SAT-51863,186.19444704296475,48.84999173832478,834.0442927313427,-5.242780933856002,183624.365244999,10.5,10500183624.365246,47.655,-122.3035,60.0,11.866666666666667
2026-01-20T23:11:53+00:00,SAT-51863,185.79606886943367,49.08624327094545,828.8154925466436,-5.216760330046632,182713.01363254988,10.5,10500182713.013632,47.655,-122.3035,60.0,11.883333333333333
2026-01-20T23:11:54+00:00,SAT-51863,185.38932232484729,49.323861165477986,823.6126435774771,-5.190237353162785,181784.0667899966,10.5,10500181784.06679,47.655,-122.3035,60.0,11.9
2026-01-20T23:11:55+00:00,SAT-51863,184.9739628886304,49.56281021397495,818.4362468572562,-5.163201880144264,180837.17016495045,10.5,10500180837.170164,47.655,-122.3035,60.0,11.916666666666666
2026-01-20T23:11:56+00:00,SAT-51863,184.54973828726892,49.803051760538764,813.2868135154589,-5.135643529586743,179871.96015671882,10.5,10500179871.960157,47.655,-122.3035,60.0,11.933333333333334
2026-01-20T23:11:57+00:00,SAT-51863,184.11638832295523,50.044543490010184,808.1648650352844,-5.1075518595125935,178888.0710430755,10.5,10500178888.071043,47.655,-122.3035,60.0,11.95
2026-01-20T23:11:58+00:00,SAT-51863,183.67364469451945,50.28723921570595,803.0709333140638,-5.078916233174668,177885.13028014204,10.5,10500177885.13028,47.655,-122.3035,60.0,11.966666666666667
2026-01-20T23:11:59+00:00,SAT-51863,183.22123083905865,50.531088650141896,798.005560857511,-5.049725866287208,176862.76015661372,10.5,10500176862.760157,47.655,-122.3035,60.0,11.983333333333333
2026-01-20T23:12:00+00:00,SAT-51863,182.7588617822746,50.776037166972024,792.9693009268672,-5.019969875112587,175820.5794779606,10.5,10500175820.579477,47.655,-122.3035,60.0,12.0
2026-01-20T23:12:01+00:00,SAT-51863,182.2862439995373,51.02202555411916,787.9627176380883,-4.989637149973145,174758.19913627722,10.5,10500174758.199137,47.655,-122.3035,60.0,12.016666666666667
2026-01-20T23:12:02+00:00,SAT-51863,181.80307530651302,51.26898974897779,782.9863861871817,-4.958716538980143,173675.22854524746,10.5,10500173675.228546,47.655,-122.3035,60.0,12.033333333333333
2026-01-20T23:12:03+00:00,SAT-51863,181.30904475464644,51.51686057111521,778.0408928923055,-4.9271967058943495,172571.2706618212,10.5,10500172571.270662,47.655,-122.3035,60.0,12.05
2026-01-20T23:12:04+00:00,SAT-51863,180.80383256489424,51.765563435845856,773.1268353776268,-4.895066210863732,171445.92481398975,10.5,10500171445.924814,47.655,-122.3035,60.0,12.066666666666666
2026-01-20T23:12:05+00:00,SAT-51863,180.28711008359937,52.01501805983991,768.2448226766587,-4.862313503048049,170298.78644246786,10.5,10500170298.786442,47.655,-122.3035,60.0,12.083333333333334
2026-01-20T23:12:06+00:00,SAT-51863,179.75853977305601,52.26513815421099,763.3954753429522,-4.828926930567255,169129.4474491289,10.5,10500169129.447449,47.655,-122.3035,60.0,12.1
2026-01-20T23:12:07+00:00,SAT-51863,179.2177752405146,52.5158311061335,758.5794255508664,-4.79489472576401,167937.49568083568,10.5,10500167937.495682,47.655,-122.3035,60.0,12.116666666666667
2026-01-20T23:12:08+00:00,SAT-51863,178.66446131391098,52.76699764758142,753.7973172110377,-4.76020503402165,166722.51593876764,10.5,10500166722.51594,47.655,-122.3035,60.0,12.133333333333333
2026-01-20T23:12:09+00:00,SAT-51863,178.0982341662952,53.01853151393988,749.0498060571068,-4.724845943044507,165484.09100394155,10.5,10500165484.091003,47.655,-122.3035,60.0,12.15
2026-01-20T23:12:10+00:00,SAT-51863,177.51872149520617,53.27031909280233,744.3375597032438,-4.688805453920382,164221.80062369682,10.5,10500164221.800623,47.655,-122.3035,60.0,12.166666666666666
2026-01-20T23:12:11+00:00,SAT-51863,176.92554277155807,53.52223906039194,739.6612577305339,-4.652071541055281,162935.22361086367,10.5,10500162935.22361,47.655,-122.3035,60.0,12.183333333333334
2026-01-20T23:12:12+00:00,SAT-51863,176.31830955573923,53.774162011072455,735.0215917135881,-4.614632086275744,161623.9355357476,10.5,10500161623.935535,47.655,-122.3035,60.0,12.2
2026-01-20T23:12:13+00:00,SAT-51863,175.69662590560816,54.02595007398157,730.4192653128757,-4.5764749808977845,160287.51230101573,10.5,10500160287.5123,47.655,-122.3035,60.0,12.216666666666667
2026-01-20T23:12:14+00:00,SAT-51863,175.06008886503218,54.27745652714061,725.8549942652603,-4.537588143827781,158925.5307756665,10.5,10500158925.530775,47.655,-122.3035,60.0,12.233333333333333
2026-01-20T23:12:15+00:00,SAT-51863,174.40828905297388,54.52852540595481,721.3295063564827,-4.497959412637253,157537.56498000745,10.5,10500157537.56498,47.655,-122.3035,60.0,12.25
2026-01-20T23:12:16+00:00,SAT-51863,173.7408113828781,54.778991100336874,716.8435415022792,-4.457576687737063,156123.19113524584,10.5,10500156123.191135,47.655,-122.3035,60.0,12.266666666666667
2026-01-20T23:12:17+00:00,SAT-51863,173.0572358897767,55.02867795688321,712.3978516857094,-4.4164279490753575,154681.98824832097,10.5,10500154681.988249,47.655,-122.3035,60.0,12.283333333333333
2026-01-20T23:12:18+00:00,SAT-51863,172.35713869360202,55.27739988128797,707.9932008778317,-4.374501173562272,153213.53521976812,10.5,10500153213.53522,47.655,-122.3035,60.0,12.3
2026-01-20T23:12:19+00:00,SAT-51863,171.6400931282557,55.52495993790472,703.6303650407322,-4.331784466969475,151717.41546339862,10.5,10500151717.415462,47.655,-122.3035,60.0,12.316666666666666
2026-01-20T23:12:20+00:00,SAT-51863,170.905671017564,55.77114996201558,699.310131999008,-4.288266026387473,150193.2155913958,10.5,10500150193.215591,47.655,-122.3035,60.0,12.333333333333334
2026-01-20T23:12:21+00:00,SAT-51863,170.15344413786335,56.01575017870986,695.0333013486909,-4.243934159679369,148640.5260956677,10.5,10500148640.526096,47.655,-122.3035,60.0,12.35
2026-01-20T23:12:22+00:00,SAT-51863,169.38298587346497,56.25852883561463,690.8006843467706,-4.198777390028527,147058.945009549,10.5,10500147058.94501,47.655,-122.3035,60.0,12.366666666666667
2026-01-20T23:12:23+00:00,SAT-51863,168.59387306378943,56.49924185952546,686.6131036964489,-4.152784330668251,145448.07352030394,10.5,10500145448.07352,47.655,-122.3035,60.0,12.383333333333333
2026-01-20T23:12:24+00:00,SAT-51863,167.78568809735893,56.73763252819567,682.471393457329,-4.105943900371281,143807.52351648037,10.5,10500143807.523516,47.655,-122.3035,60.0,12.4
2026-01-20T23:12:25+00:00,SAT-51863,166.95802120449108,56.97343118376962,678.376398740692,-4.058245185715378,142136.9127638677,10.5,10500142136.912764,47.655,-122.3035,60.0,12.416666666666666
2026-01-20T23:12:26+00:00,SAT-51863,166.1104730261682,57.20635497305826,674.3289755421387,-4.009677594530751,140435.87027987503,10.5,10500140435.87028,47.655,-122.3035,60.0,12.433333333333334
2026-01-20T23:12:27+00:00,SAT-51863,165.2426574152781,57.43610763936523,670.3299904211933,-3.9602307926214873,138704.03411724794,10.5,10500138704.034117,47.655,-122.3035,60.0,12.45
2026-01-20T23:12:28+00:00,SAT-51863,164.35420452179116,57.662379360564934,666.3803202440188,-3.9098948256958637,136941.0556345836,10.5,10500136941.055635,47.655,-122.3035,60.0,12.466666666666667
2026-01-20T23:12:29+00:00,SAT-51863,163.44476413029201,57.884846653125265,662.4808518045248,-3.8586600970008607,135146.5987129971,10.5,10500135146.598713,47.655,-122.3035,60.0,12.483333333333333
2026-01-20T23:12:30+00:00,SAT-51863,162.5140092829709,58.10317234223661,658.6324814677827,-3.8065174100482024,133320.3412525679,10.5,10500133320.341253,47.655,-122.3035,60.0,12.5
2026-01-20T23:12:31+00:00,SAT-51863,161.56164017424516,58.31700561184186,654.8361147708279,-3.7534580189542823,131461.976935457,10.5,10500131461.976936,47.655,-122.3035,60.0,12.516666666666667
2026-01-20T23:12:32+00:00,SAT-51863,160.58738830875575,58.52598214488404,651.0926659732575,-3.6994736649354296,129571.2165041257,10.5,10500129571.216505,47.655,-122.3035,60.0,12.533333333333333
2026-01-20T23:12:33+00:00,SAT-51863,159.59102091421823,58.72972436354625,647.4030575714285,-3.644556640911405,127647.79002402305,10.5,10500127647.790024,47.655,-122.3035,60.0,12.55
2026-01-20T23:12:34+00:00,SAT-51863,158.57234558290133,58.927841781731246,643.7682197482262,-3.5886997518986936,125691.44549639165,10.5,10500125691.445496,47.655,-122.3035,60.0,12.566666666666666
2026-01-20T23:12:35+00:00,SAT-51863,157.53121514465445,59.11993147463862,640.1890898623326,-3.53189648271845,123701.95473210912,10.5,10500123701.954733,47.655,-122.3035,60.0,12.583333333333334
2026-01-20T23:12:36+00:00,SAT-51863,156.46753267982592,59.30557868798214,636.6666117702347,-3.474140911034641,121679.11030591613,10.5,10500121679.110306,47.655,-122.3035,60.0,12.6
2026-01-20T23:12:37+00:00,SAT-51863,155.38125669929073,59.484357582514676,633.2017352349628,-3.415427862082939,119622.7309756767,10.5,10500119622.730976,47.655,-122.3035,60.0,12.616666666666667
2026-01-20T23:12:38+00:00,SAT-51863,154.2724063686806,59.655832137180795,629.7954151805121,-3.3557528751267056,117532.66050752487,10.5,10500117532.660507,47.655,-122.3035,60.0,12.633333333333333
2026-01-20T23:12:39+00:00,SAT-51863,153.14106676777172,59.81955720888944,626.4486109797191,-3.295112282390628,115408.7704404545,10.5,10500115408.770441,47.655,-122.3035,60.0,12.65
2026-01-20T23:12:40+00:00,SAT-51863,151.98739407688635,59.9750797623498,623.1622856634149,-3.233503268934476,113250.96218335151,10.5,10500113250.962183,47.655,-122.3035,60.0,12.666666666666666
2026-01-20T23:12:41+00:00,SAT-51863,150.81162060898464,60.12194027424978,619.9374050698641,-3.170923881880843,111059.16733818852,10.5,10500111059.167337,47.655,-122.3035,60.0,12.683333333333334
2026-01-20T23:12:42+00:00,SAT-51863,149.61405960994222,60.25967431239113,616.7749369850017,-3.1073731025354774,108833.35022598371,10.5,10500108833.350225,47.655,-122.3035,60.0,12.7
2026-01-20T23:12:43+00:00,SAT-51863,148.39510970113162,60.387814293656994,613.6758502107397,-3.042850904717437,106573.50992976977,10.5,10500106573.50993,47.655,-122.3035,60.0,12.716666666666667
2026-01-20T23:12:44+00:00,SAT-51863,147.15525885544716,60.50589141745068,610.6411135751015,-2.977358245344194,104279.67996484434,10.5,10500104279.679964,47.655,-122.3035,60.0,12.733333333333333
2026-01-20T23:12:45+00:00,SAT-51863,145.89508781728716,60.61343776588107,607.6716949517448,-2.910897187686238,101951.93259566756,10.5,10500101951.932596,47.655,-122.3035,60.0,12.75
2026-01-20T23:12:46+00:00,SAT-51863,144.61527279336306,60.709988566804725,604.7685601565591,-2.8434708658844383,99590.3775931101,10.5,10500099590.377594,47.655,-122.3035,60.0,12.766666666666667
2026-01-20T23:12:47+00:00,SAT-51863,143.31658735994324,60.795084599373006,601.9326718796503,-2.7750835959162776,97195.16612095998,10.5,10500097195.16612,47.655,-122.3035,60.0,12.783333333333333
2026-01-20T23:12:48+00:00,SAT-51863,141.99990341049312,60.86827473009204,599.1649885066565,-2.7057408678363486,94766.49046415191,10.5,10500094766.490463,47.655,-122.3035,60.0,12.8
2026-01-20T23:12:49+00:00,SAT-51863,140.66619108884407,60.92911855278399,596.4664629478011,-2.6354494116972886,92304.58633759736,10.5,10500092304.586338,47.655,-122.3035,60.0,12.816666666666666
2026-01-20T23:12:50+00:00,SAT-51863,139.31651758294836,60.97718910863906,593.8380414012016,-2.5642172334753246,89809.73414444904,10.5,10500089809.734144,47.655,-122.3035,60.0,12.833333333333334
2026-01-20T23:12:51+00:00,SAT-51863,137.95204471680282,61.01207565525656,591.280662080349,-2.492053635391697,87282.25968784317,10.5,10500087282.259687,47.655,-122.3035,60.0,12.85
2026-01-20T23:12:52+00:00,SAT-51863,136.57402529682685,61.033386450231816,588.7952539213182,-2.4189692719234315,84722.53613263356,10.5,10500084722.536133,47.655,-122.3035,60.0,12.866666666666667
2026-01-20T23:12:53+00:00,SAT-51863,135.18379816704882,61.040751513730406,586.3827352341199,-2.3449761463779386,82130.98388541967,10.5,10500082130.983885,47.655,-122.3035,60.0,12.883333333333333
2026-01-20T23:12:54+00:00,SAT-51863,133.7827820089862,61.033825329822506,584.0440123574657,-2.270087668175481,79508.07260082089,10.5,10500079508.072601,47.655,-122.3035,60.0,12.9
2026-01-20T23:12:55+00:00,SAT-51863,132.37246788766535,61.01228944762955,581.7799782564053,-2.194318674833488,76854.32195146027,10.5,10500076854.32195,47.655,-122.3035,60.0,12.916666666666666
2026-01-20T23:12:56+00:00,SAT-51863,130.9544106304336,60.97585494071264,579.591511098038,-2.1176854168554056,74170.30109870795,10.5,10500074170.301098,47.655,-122.3035,60.0,12.933333333333334
2026-01-20T23:12:57+00:00,SAT-51863,129.53021916524224,60.924264686008385,577.4794728422943,-2.0402056073537804,71456.6304306918,10.5,10500071456.63043,47.655,-122.3035,60.0,12.95
2026-01-20T23:12:58+00:00,SAT-51863,128.10154591146303,60.857295424383544,575.4447077832267,-1.9618984299213147,68713.98183797474,10.5,10500068713.981838,47.655,-122.3035,60.0,12.966666666666667
2026-01-20T23:12:59+00:00,SAT-51863,126.6700754092164,60.77475956816714,573.4880410824519,-1.8827845126300908,65943.07780289774,10.5,10500065943.077803,47.655,-122.3035,60.0,12.983333333333333
2026-01-20T23:13:00+00:00,SAT-51863,125.23751239970072,60.676506726880234,571.6102773285222,-1.8028859605134155,63144.692537231414,10.5,10500063144.692537,47.655,-122.3035,60.0,13.0
2026-01-20T23:13:01+00:00,SAT-51863,123.80556951963632,60.562424924794,569.8121990639034,-1.7222263458181077,60319.65164076987,10.5,10500060319.65164,47.655,-122.3035,60.0,13.016666666666667
2026-01-20T23:13:02+00:00,SAT-51863,122.37595485461624,60.43244149156121,568.0945653216742,-1.6408306778666188,57468.83104577467,10.5,10500057468.831045,47.655,-122.3035,60.0,13.033333333333333
2026-01-20T23:13:03+00:00,SAT-51863,120.95035959039429,60.28652361529256,566.4581101922819,-1.5587254027249726,54593.15700534472,10.5,10500054593.157005,47.655,-122.3035,60.0,13.05
2026-01-20T23:13:04+00:00,SAT-51863,119.53044595659864,60.124678550639636,564.9035413906308,-1.4759383787654659,51693.605237518655,10.5,10500051693.605238,47.655,-122.3035,60.0,13.066666666666666
2026-01-20T23:13:05+00:00,SAT-51863,118.11783568872245,59.94695348401003,563.4315388475421,-1.3924988491019066,48771.19995984028,10.5,10500048771.19996,47.655,-122.3035,60.0,13.083333333333334
2026-01-20T23:13:06+00:00,SAT-51863,116.71409920106005,59.75343506384583,562.0427533287045,-1.3084374011891913,45827.01247436488,10.5,10500045827.012474,47.655,-122.3035,60.0,13.1
2026-01-20T23:13:07+00:00,SAT-51863,115.3207456497838,59.54424861145425,560.7378050939185,-1.2237859326717626,42862.159971527726,10.5,10500042862.159971,47.655,-122.3035,60.0,13.116666666666667
2026-01-20T23:13:08+00:00,SAT-51863,113.93921401847531,59.31955703107479,559.5172825904004,-1.1385775987156521,39877.803685489474,10.5,10500039877.803686,47.655,-122.3035,60.0,13.133333333333333
2026-01-20T23:13:09+00:00,SAT-51863,112.57086535201258,59.07955944598429,558.3817411986147,-1.05284676984536,36875.14741740528,10.5,10500036875.147417,47.655,-122.3035,60.0,13.15
2026-01-20T23:13:10+00:00,SAT-51863,111.21697619996517,58.824489586641064,557.3317020201556,-0.9666289628010016,33855.43511374965,10.5,10500033855.435114,47.655,-122.3035,60.0,13.166666666666666
2026-01-20T23:13:11+00:00,SAT-51863,109.87873333948205,58.55461396666202,556.3676507345888,-0.8799607878211785,30819.949019939566,10.5,10500030819.94902,47.655,-122.3035,60.0,13.183333333333334
2026-01-20T23:13:12+00:00,SAT-51863,108.55722976418606,58.27022987548232,555.4900365088685,-0.792879859566917,27770.006560514033,10.5,10500027770.006561,47.655,-122.3035,60.0,13.2
2026-01-20T23:13:13+00:00,SAT-51863,107.2534619653118,57.97166323107883,554.6992709955938,-0.70542475279811,24706.958786735573,10.5,10500024706.958786,47.655,-122.3035,60.0,13.216666666666667
2026-01-20T23:13:14+00:00,SAT-51863,105.96832838538673,57.659266312002195,553.9957273754698,-0.6176348966690123,21632.186674371336,10.5,10500021632.186674,47.655,-122.3035,60.0,13.233333333333333
2026-01-20T23:13:15+00:00,SAT-51863,104.702629060837,57.33341541937418,553.3797395051918,-0.5295505010302118,18547.098542476426,10.5,10500018547.098543,47.655,-122.3035,60.0,13.25
2026-01-20T23:13:16+00:00,SAT-51863,103.45706631310136,56.99450849039508,552.851601138831,-0.44121246818897386,15453.126962867844,10.5,10500015453.126963,47.655,-122.3035,60.0,13.266666666666667
2026-01-20T23:13:17+00:00,SAT-51863,102.23224639933527,56.6429626956884,552.4115652372238,-0.3526623037265808,12351.725636570545,10.5,10500012351.725637,47.655,-122.3035,60.0,13.283333333333333
2026-01-20T23:13:18+00:00,SAT-51863,101.02868200014548,56.27921204409756,552.0598433663072,-0.2639420111715006,9244.365704826225,10.5,10500009244.365705,47.655,-122.3035,60.0,13.3
2026-01-20T23:13:19+00:00,SAT-51863,99.84679546746078,55.90370503094006,551.7966052004988,-0.17509400516330584,6132.53270772646,10.5,10500006132.532707,47.655,-122.3035,60.0,13.316666666666666
2026-01-20T23:13:20+00:00,SAT-51863,98.68692265119522,55.516902333385126,551.6219781126827,-0.08616100529115404,3017.722865987234,10.5,10500003017.722866,47.655,-122.3035,60.0,13.333333333333334
2026-01-20T23:13:21+00:00,SAT-51863,97.54931723558597,55.119274584379795,551.5360468700723,0.002814064320083145,-98.56043596958341,10.5,10499999901.439564,47.655,-122.3035,60.0,13.35
2026-01-20T23:13:22+00:00,SAT-51863,96.4341554413328,54.711300230514745,551.5388534302209,0.09178817917981676,-3214.8102984901507,10.5,10499996785.189701,47.655,-122.3035,60.0,13.366666666666667
2026-01-20T23:13:23+00:00,SAT-51863,95.34154101923558,54.29346349623163,551.6303968409229,0.1807183165692389,-6329.519883975896,10.5,10499993670.480116,47.655,-122.3035,60.0,13.383333333333333
2026-01-20T23:13:24+00:00,SAT-51863,94.27151039897721,53.86625245025768,551.8106332419812,0.26956156047301394,-9441.186092035197,10.5,10499990558.813908,47.655,-122.3035,60.0,13.4
2026-01-20T23:13:25+00:00,SAT-51863,93.2240379303126,53.430157188897944,552.0794759716264,0.3582752054409122,-12548.313197157142,10.5,10499987451.686802,47.655,-122.3035,60.0,13.416666666666666
2026-01-20T23:13:26+00:00,SAT-51863,92.19904112993444,52.98566813713886,552.4367957765194,0.44681685493532347,-15649.41629325744,10.5,10499984350.583706,47.655,-122.3035,60.0,13.433333333333334
2026-01-20T23:13:27+00:00,SAT-51863,91.19638587741753,52.533274473942946,552.8824211198415,0.5351445256018176,-18743.024945674533,10.5,10499981256.975054,47.655,-122.3035,60.0,13.45
2026-01-20T23:13:28+00:00,SAT-51863,90.21589148077051,52.073462672634044,553.4161385933751,0.623216742565941,-21827.686528866518,10.5,10499978172.31347,47.655,-122.3035,60.0,13.466666666666667
2026-01-20T23:13:29+00:00,SAT-51863,89.25733558744749,51.60671516426473,554.0376934246275,0.7109926369275565,-24901.969641075306,10.5,10499975098.03036,47.655,-122.3035,60.0,13.483333333333333
2026-01-20T23:13:30+00:00,SAT-51863,88.32045888965764,51.13350911559002,554.7467900811899,0.7984320354531831,-27964.467245731787,10.5,10499972035.532755,47.655,-122.3035,60.0,13.5
2026-01-20T23:13:31+00:00,SAT-51863,87.40496960447433,50.65431532241283,555.5430929645486,0.8854955465150054,-31013.79968140345,10.5,10499968986.20032,47.655,-122.3035,60.0,13.516666666666667
2026-01-20T23:13:32+00:00,SAT-51863,86.51054770490767,50.169597212808114,556.4262271896062,0.9721446510738383,-34048.61784840265,10.5,10499965951.38215,47.655,-122.3035,60.0,13.533333333333333
2026-01-20T23:13:33+00:00,SAT-51863,85.6368488798512,49.67980995134084,557.3957794549439,1.0583417761278102,-37067.605781270206,10.5,10499962932.394218,47.655,-122.3035,60.0,13.55
2026-01-20T23:13:34+00:00,SAT-51863,84.78350823000446,49.18539964626386,558.4512989863352,1.1440503635812869,-40069.48306085643,10.5,10499959930.51694,47.655,-122.3035,60.0,13.566666666666666
2026-01-20T23:13:35+00:00,SAT-51863,83.95014369283561,48.686802653240534,559.592298548947,1.2292349558314315,-43053.00781192444,10.5,10499956946.992188,47.655,-122.3035,60.0,13.583333333333334
2026-01-20T23:13:36+00:00,SAT-51863,83.1363591826642,48.18444496072029,560.8182555448963,1.3138612477643592,-46016.978524275524,10.5,10499953983.021475,47.655,-122.3035,60.0,13.6
2026-01-20T23:13:37+00:00,SAT-51863,82.34174747476268,47.67874166477979,562.1286131626665,1.3978961379622181,-48960.23584623763,10.5,10499951039.764154,47.655,-122.3035,60.0,13.616666666666667
2026-01-20T23:13:38+00:00,SAT-51863,81.56589283353328,47.17009652419326,563.5227815775942,1.4813077966668466,-51881.66496504021,10.5,10499948118.335035,47.655,-122.3035,60.0,13.633333333333333
2026-01-20T23:13:39+00:00,SAT-51863,80.80837338252738,46.65890158271167,565.0001392201367,1.564065699124581,-54780.196774690376,10.5,10499945219.803225,47.655,-122.3035,60.0,13.65
2026-01-20T23:13:40+00:00,SAT-51863,80.06876324609348,46.145536864196586,566.560034077397,1.6461406816509634,-57654.80983959615,10.5,10499942345.19016,47.655,-122.3035,60.0,13.666666666666666
2026-01-20T23:13:41+00:00,SAT-51863,79.3466344598669,45.630370125829586,568.2017850505636,1.7275049482781935,-60504.53062738833,10.5,10499939495.469372,47.655,-122.3035,60.0,13.683333333333334
2026-01-20T23:13:42+00:00,SAT-51863,78.64155868461268,45.11375667857693,569.9246833189795,1.808132125580796,-63328.43542914732,10.5,10499936671.564571,47.655,-122.3035,60.0,13.7
2026-01-20T23:13:43+00:00,SAT-51863,77.95310871176548,44.596039253168264,571.7279937588921,1.887997268258163,-66125.65055492727,10.5,10499933874.349445,47.655,-122.3035,60.0,13.716666666666667
2026-01-20T23:13:44+00:00,SAT-51863,77.2808597952193,44.077547921141445,573.6109563677684,1.967076892663271,-68895.35350807372,10.5,10499931104.646492,47.655,-122.3035,60.0,13.733333333333333
2026-01-20T23:13:45+00:00,SAT-51863,76.62439080928574,43.558600056978285,575.5727877220511,2.045348964687801,-71636.77256090916,10.5,10499928363.22744,47.655,-122.3035,60.0,13.75
2026-01-20T23:13:46+00:00,SAT-51863,75.98328526135536,43.03950034844493,577.6126824228331,2.122792911473939,-74349.18716492981,10.5,10499925650.812836,47.655,-122.3035,60.0,13.766666666666667
2026-01-20T23:13:47+00:00,SAT-51863,75.3571321607197,42.52054084320526,579.7298145532098,2.1993896359799527,-77031.92846095383,10.5,10499922968.071539,47.655,-122.3035,60.0,13.783333333333333
2026-01-20T23:13:48+00:00,SAT-51863,74.74552675509459,42.002001026977275,581.9233391501605,2.2751215075984548,-79684.37895053308,10.5,10499920315.62105,47.655,-122.3035,60.0,13.8
2026-01-20T23:13:49+00:00,SAT-51863,74.14807115330926,41.48414793491424,584.192393667072,2.3499723224621514,-82305.97110569268,10.5,10499917694.028894,47.655,-122.3035,60.0,13.816666666666666
2026-01-20T23:13:50+00:00,SAT-51863,73.56437485093834,40.96723629833766,586.5360993966742,2.4239273327765085,-84896.18839628494,10.5,10499915103.811604,47.655,-122.3035,60.0,13.833333333333334
2026-01-20T23:13:51+00:00,SAT-51863,72.99405514965669,40.4515087074362,588.95356292323,2.4969731976176,-87454.5635667219,10.5,10499912545.436434,47.655,-122.3035,60.0,13.85
2026-01-20T23:13:52+00:00,SAT-51863,72.43673750050917,39.937195804207285,591.4438775256539,2.5690979775351956,-89980.67844695265,10.5,10499910019.321552,47.655,-122.3035,60.0,13.866666666666667
2026-01-20T23:13:53+00:00,SAT-51863,71.89205576752008,39.42451649233458,594.006124575249,2.6402910710124514,-92474.16172701296,10.5,10499907525.838272,47.655,-122.3035,60.0,13.883333333333333
2026-01-20T23:13:54+00:00,SAT-51863,71.35965243218624,38.91367817273294,596.6393748700722,2.710543265074824,-94934.69072956349,10.5,10499905065.30927,47.655,-122.3035,60.0,13.9
2026-01-20T23:13:55+00:00,SAT-51863,70.83917872175869,38.404876979733885,599.3426900197734,2.7798465989449905,-97361.98663450834,10.5,10499902638.013365,47.655,-122.3035,60.0,13.916666666666666
2026-01-20T23:13:56+00:00,SAT-51863,70.33029470688118,37.898298051168446,602.1151236944545,2.8481944249822164,-99755.81661334947,10.5,10499900244.183386,47.655,-122.3035,60.0,13.933333333333334
2026-01-20T23:13:57+00:00,SAT-51863,69.83266933387276,37.394115792463,604.9557229343035,2.915581283354721,-102115.98943968287,10.5,10499897884.010561,47.655,-122.3035,60.0,13.95
2026-01-20T23:13:58+00:00,SAT-51863,69.34598043360153,36.892494166801505,607.863529334236,2.9820029340364345,-104442.35660986029,10.5,10499895557.64339,47.655,-122.3035,60.0,13.966666666666667
2026-01-20T23:13:59+00:00,SAT-51863,68.86991468215452,36.39358698095954,610.8375802604482,3.0474562905408566,-106734.81002206865,10.5,10499893265.189978,47.655,-122.3035,60.0,13.983333333333333
2026-01-20T23:14:00+00:00,SAT-51863,68.40416753643512,35.89753818274181,613.876910000881,3.111939357460084,-108993.27978868262,10.5,10499891006.720211,47.655,-122.3035,60.0,14.0
2026-01-20T23:14:01+00:00,SAT-51863,67.94844314687195,35.40448216675564,616.980550853388,3.1754511933722647,-111217.73293712673,10.5,10499888782.267063,47.655,-122.3035,60.0,14.016666666666667
2026-01-20T23:14:02+00:00,SAT-51863,67.502454246502,34.91454408276037,620.1475341769111,3.2379919066452274,-113408.17326290073,10.5,10499886591.826736,47.655,-122.3035,60.0,14.033333333333333
2026-01-20T23:14:03+00:00,SAT-51863,67.06592201576828,34.42784014052738,623.376891438472,3.2995625454295165,-115564.63747667035,10.5,10499884435.362524,47.655,-122.3035,60.0,14.05
2026-01-20T23:14:04+00:00,SAT-51863,66.63857594107978,33.944477926029656,626.667655150447,3.3601651047048593,-117687.19545106443,10.5,10499882312.804548,47.655,-122.3035,60.0,14.066666666666666
2026-01-20T23:14:05+00:00,SAT-51863,66.22015365307163,33.46455670980166,630.0188598148727,3.419802452030657,-119775.94762014292,10.5,10499880224.05238,47.655,-122.3035,60.0,14.083333333333334
2026-01-20T23:14:06+00:00,SAT-51863,65.81040075828007,32.98816775900132,633.4295427936979,3.4784782779848973,-121831.02324355813,10.5,10499878168.976757,47.655,-122.3035,60.0,14.1
2026-01-20T23:14:07+00:00,SAT-51863,65.4090706628782,32.515394647937605,636.8987451296082,3.5361970821034983,-123852.57991409088,10.5,10499876147.420086,47.655,-122.3035,60.0,14.116666666666667
2026-01-20T23:14:08+00:00,SAT-51863,65.01592438611215,32.046313561989926,640.4255123528261,3.5929640842751085,-125840.80045432177,10.5,10499874159.199545,47.655,-122.3035,60.0,14.133333333333333
2026-01-20T23:14:09+00:00,SAT-51863,64.63073037420382,31.58099360394687,644.0088951995431,3.6487852100887523,-127795.89240344365,10.5,10499872204.107597,47.655,-122.3035,60.0,14.15
2026-01-20T23:14:10+00:00,SAT-51863,64.2532643073008,31.119497092331294,647.6479503157383,3.703667043790593,-129718.0863696085,10.5,10499870281.91363,47.655,-122.3035,60.0,14.166666666666666
2026-01-20T23:14:11+00:00,SAT-51863,63.88330890489101,30.661879855607204,651.3417409140787,3.757616772732084,-131607.63408426667,10.5,10499868392.365915,47.655,-122.3035,60.0,14.183333333333334
2026-01-20T23:14:12+00:00,SAT-51863,63.52065373158798,30.208191522776094,655.0893373754169,3.810642139900842,-133464.80673959732,10.5,10499866535.19326,47.655,-122.3035,60.0,14.2
