satellites_20260121_005943/SAT-56474.csv

timestamp,satellite,azimuth_deg,elevation_deg,distance_km,relative_velocity_kms,doppler_shift_hz,tx_freq_ghz,rx_freq_hz,ue_lat,ue_lon,ue_alt_m,time_minutes
2026-01-20T23:03:23+00:00,SAT-56474,246.9146604540196,30.065303734697995,3358.4494137992006,-4.1754582870699,146242.2113842302,10.5,10500146242.211384,47.655,-122.3035,60.0,3.3833333333333333
2026-01-20T23:03:24+00:00,SAT-56474,246.99857153903372,30.136780347921256,3354.2850900675626,-4.168182236397798,145987.37331202935,10.5,10500145987.373312,47.655,-122.3035,60.0,3.4
2026-01-20T23:03:25+00:00,SAT-56474,247.0828769928488,30.208264621567707,3350.1280229837953,-4.160874475724248,145731.42462144463,10.5,10500145731.424622,47.655,-122.3035,60.0,3.4166666666666665
2026-01-20T23:03:26+00:00,SAT-56474,247.16757863140924,30.279755701327502,3345.9782441733396,-4.153534930440559,145474.36269936405,10.5,10500145474.3627,47.655,-122.3035,60.0,3.433333333333333
2026-01-20T23:03:27+00:00,SAT-56474,247.2526782766601,30.351252722964336,3341.835785336047,-4.146163482203182,145216.183400896,10.5,10500145216.183401,47.655,-122.3035,60.0,3.45
2026-01-20T23:03:28+00:00,SAT-56474,247.33817775557046,30.422754811494865,3337.700678289796,-4.1387600421239705,144956.88361280152,10.5,10500144956.883614,47.655,-122.3035,60.0,3.466666666666667
2026-01-20T23:03:29+00:00,SAT-56474,247.42407890068353,30.494261081597298,3333.572954941118,-4.131324510226949,144696.4598334991,10.5,10500144696.459833,47.655,-122.3035,60.0,3.4833333333333334
2026-01-20T23:03:30+00:00,SAT-56474,247.51038354980165,30.565770637341217,3329.4526472962516,-4.1238568014203745,144434.90908271595,10.5,10500144434.909082,47.655,-122.3035,60.0,3.5
2026-01-20T23:03:31+00:00,SAT-56474,247.5970935462397,30.63728257235091,3325.3397874463017,-4.11635681221393,144172.22773578332,10.5,10500144172.227736,47.655,-122.3035,60.0,3.5166666666666666
2026-01-20T23:03:32+00:00,SAT-56474,247.6842107383559,30.708795969410847,3321.2344075855867,-4.108824440235382,143908.41220719274,10.5,10500143908.412207,47.655,-122.3035,60.0,3.533333333333333
2026-01-20T23:03:33+00:00,SAT-56474,247.7717369794828,30.78030990038984,3317.136540010526,-4.101259596288605,143643.4593729184,10.5,10500143643.459373,47.655,-122.3035,60.0,3.55
2026-01-20T23:03:34+00:00,SAT-56474,247.85967412814915,30.85182342638818,3313.0462171064937,-4.093662192610651,143377.3661591308,10.5,10500143377.36616,47.655,-122.3035,60.0,3.566666666666667
2026-01-20T23:03:35+00:00,SAT-56474,247.94802404801464,30.92333559766667,3308.963471346397,-4.086032126087795,143110.12895435095,10.5,10500143110.128954,47.655,-122.3035,60.0,3.5833333333333335
2026-01-20T23:03:36+00:00,SAT-56474,248.03678860745833,30.99484545330424,3304.8883353059787,-4.078369295101495,142841.7441994678,10.5,10500142841.7442,47.655,-122.3035,60.0,3.6
2026-01-20T23:03:37+00:00,SAT-56474,248.12596967951407,31.066352021125763,3300.8208416623306,-4.070673610996877,142572.2087894126,10.5,10500142572.20879,47.655,-122.3035,60.0,3.6166666666666667
2026-01-20T23:03:38+00:00,SAT-56474,248.21556914206943,31.13785431784727,3296.761023180963,-4.062944986696582,142301.5196743679,10.5,10500142301.519674,47.655,-122.3035,60.0,3.6333333333333333
2026-01-20T23:03:39+00:00,SAT-56474,248.3055888778069,31.209351349005455,3292.7089127142312,-4.055183320016421,142029.67327541116,10.5,10500142029.673275,47.655,-122.3035,60.0,3.65
2026-01-20T23:03:40+00:00,SAT-56474,248.39603077376916,31.28084210861618,3288.6645432164014,-4.047388509717998,141756.66604674552,10.5,10500141756.666046,47.655,-122.3035,60.0,3.6666666666666665
2026-01-20T23:03:41+00:00,SAT-56474,248.4868967212829,31.352325579096025,3284.6279477427092,-4.03956046842563,141482.49492810495,10.5,10500141482.494928,47.655,-122.3035,60.0,3.683333333333333
2026-01-20T23:03:42+00:00,SAT-56474,248.5781886161637,31.42380073141704,3280.599159435533,-4.031699109322675,141207.15687880342,10.5,10500141207.15688,47.655,-122.3035,60.0,3.7
2026-01-20T23:03:43+00:00,SAT-56474,248.66990835862782,31.495266525025194,3276.5782115238353,-4.0238043313455645,140930.6483591673,10.5,10500140930.64836,47.655,-122.3035,60.0,3.716666666666667
2026-01-20T23:03:44+00:00,SAT-56474,248.76205785286243,31.566721907506473,3272.565137337373,-4.015876030570982,140652.9657293624,10.5,10500140652.965729,47.655,-122.3035,60.0,3.7333333333333334
2026-01-20T23:03:45+00:00,SAT-56474,248.85463900684266,31.638165814442953,3268.5599703095504,-4.00791413471991,140374.1064578718,10.5,10500140374.106459,47.655,-122.3035,60.0,3.75
2026-01-20T23:03:46+00:00,SAT-56474,248.94765373294217,31.709597169878034,3264.5627439458563,-3.9999185366474257,140094.06679202706,10.5,10500140094.066792,47.655,-122.3035,60.0,3.7666666666666666
2026-01-20T23:03:47+00:00,SAT-56474,249.04110394702667,31.78101488561782,3260.57349185864,-3.9918891504389755,139812.84372273716,10.5,10500139812.843723,47.655,-122.3035,60.0,3.783333333333333
2026-01-20T23:03:48+00:00,SAT-56474,249.1349915688075,31.852417861511967,3256.5922477459353,-3.983825869618453,139530.4335207584,10.5,10500139530.433521,47.655,-122.3035,60.0,3.8
2026-01-20T23:03:49+00:00,SAT-56474,249.22931852124992,31.923804985003073,3252.619045411969,-3.975728622657484,139246.83368086457,10.5,10500139246.833681,47.655,-122.3035,60.0,3.816666666666667
2026-01-20T23:03:50+00:00,SAT-56474,249.32408673126588,31.995175131651276,3248.6539187323056,-3.96759731093348,138962.04074887547,10.5,10500138962.040749,47.655,-122.3035,60.0,3.8333333333333335
2026-01-20T23:03:51+00:00,SAT-56474,249.41929812894,32.06652716456537,3244.6969016808675,-3.959431821727363,138676.05077689217,10.5,10500138676.050777,47.655,-122.3035,60.0,3.85
2026-01-20T23:03:52+00:00,SAT-56474,249.51495464705374,32.137859934065766,3240.748028343998,-3.9512320913693606,138388.8615349299,10.5,10500138388.861534,47.655,-122.3035,60.0,3.8666666666666667
2026-01-20T23:03:53+00:00,SAT-56474,249.6110582221425,32.20917227845979,3236.8073328715395,-3.9429980250856325,138100.4697036079,10.5,10500138100.469704,47.655,-122.3035,60.0,3.8833333333333333
2026-01-20T23:03:54+00:00,SAT-56474,249.7076107935946,32.28046302340417,3232.874849507854,-3.934729515178314,137810.87151089136,10.5,10500137810.871511,47.655,-122.3035,60.0,3.9
2026-01-20T23:03:55+00:00,SAT-56474,249.80461430319338,32.35173098158025,3228.9506126047163,-3.9264264846902237,137520.0642614143,10.5,10500137520.06426,47.655,-122.3035,60.0,3.9166666666666665
2026-01-20T23:03:56+00:00,SAT-56474,249.9020706957185,32.42297495315453,3225.0346565906516,-3.9180888436390213,137228.04480361452,10.5,10500137228.044804,47.655,-122.3035,60.0,3.933333333333333
2026-01-20T23:03:57+00:00,SAT-56474,249.99998191848917,32.49419372545424,3221.127015983929,-3.909716492071598,136934.80963671135,10.5,10500136934.809637,47.655,-122.3035,60.0,3.95
2026-01-20T23:03:58+00:00,SAT-56474,250.09834992093732,32.56538607269932,3217.227725402503,-3.9013093472884015,136640.35586421663,10.5,10500136640.355864,47.655,-122.3035,60.0,3.966666666666667
2026-01-20T23:03:59+00:00,SAT-56474,250.19717665490538,32.636550756221844,3213.3368195468074,-3.8928673304040675,136344.68072323123,10.5,10500136344.680723,47.655,-122.3035,60.0,3.9833333333333334
2026-01-20T23:04:00+00:00,SAT-56474,250.29646407457318,32.7076865244452,3209.454333195951,-3.8843903325848563,136047.78040193723,10.5,10500136047.780401,47.655,-122.3035,60.0,4.0
2026-01-20T23:04:01+00:00,SAT-56474,250.39621413552334,32.77879211225418,3205.5803012375864,-3.8758782822815574,135749.65239437862,10.5,10500135749.652395,47.655,-122.3035,60.0,4.016666666666667
2026-01-20T23:04:02+00:00,SAT-56474,250.49642879553653,32.84986624157883,3201.714758630724,-3.867331078323369,135450.29315712597,10.5,10500135450.293158,47.655,-122.3035,60.0,4.033333333333333
2026-01-20T23:04:03+00:00,SAT-56474,250.59711001364875,32.92090762076788,3197.857740435277,-3.8587486397778177,135149.6998555817,10.5,10500135149.699856,47.655,-122.3035,60.0,4.05
2026-01-20T23:04:04+00:00,SAT-56474,250.69825975049434,32.99191494486811,3194.009281791871,-3.850130886618077,134847.86968686787,10.5,10500134847.869686,47.655,-122.3035,60.0,4.066666666666666
2026-01-20T23:04:05+00:00,SAT-56474,250.79987996816368,33.06288689554827,3190.1694179209508,-3.8414777251624748,134544.79936985602,10.5,10500134544.79937,47.655,-122.3035,60.0,4.083333333333333
2026-01-20T23:04:06+00:00,SAT-56474,250.90197262964625,33.13382214076766,3186.338184136389,-3.83278906615542,134240.48577843778,10.5,10500134240.485779,47.655,-122.3035,60.0,4.1
2026-01-20T23:04:07+00:00,SAT-56474,251.00453969876338,33.20471933476267,3182.515615841077,-3.8240648203962118,133934.92578842735,10.5,10500133934.925789,47.655,-122.3035,60.0,4.116666666666666
2026-01-20T23:04:08+00:00,SAT-56474,251.10758313996683,33.275577117962534,3178.701748526868,-3.815304922743783,133628.11711830896,10.5,10500133628.117119,47.655,-122.3035,60.0,4.133333333333334
2026-01-20T23:04:09+00:00,SAT-56474,251.21110491879946,33.34639411733779,3174.896617750585,-3.806509268281243,133320.05609344933,10.5,10500133320.056093,47.655,-122.3035,60.0,4.15
2026-01-20T23:04:10+00:00,SAT-56474,251.315107000612,33.41716894558961,3171.1002591736856,-3.79767777954726,133010.74000082494,10.5,10500133010.740002,47.655,-122.3035,60.0,4.166666666666667
2026-01-20T23:04:11+00:00,SAT-56474,251.41959135110318,33.487900201560656,3167.3127085348838,-3.7888103626787255,132700.1655529527,10.5,10500132700.165552,47.655,-122.3035,60.0,4.183333333333334
2026-01-20T23:04:12+00:00,SAT-56474,251.52455993564632,33.55858646984973,3163.534001666506,-3.7799069674279506,132388.330989946,10.5,10500132388.33099,47.655,-122.3035,60.0,4.2
2026-01-20T23:04:13+00:00,SAT-56474,251.63001472031243,33.62922632152609,3159.7641744509906,-3.770967468115745,132075.23190998795,10.5,10500132075.23191,47.655,-122.3035,60.0,4.216666666666667
2026-01-20T23:04:14+00:00,SAT-56474,251.73595766951416,33.69981831265648,3156.0032628961235,-3.7619918089334776,131760.86635842425,10.5,10500131760.866358,47.655,-122.3035,60.0,4.233333333333333
2026-01-20T23:04:15+00:00,SAT-56474,251.84239074776113,33.77036098550412,3152.251303065347,-3.7529799013096246,131445.23123310544,10.5,10500131445.231234,47.655,-122.3035,60.0,4.25
2026-01-20T23:04:16+00:00,SAT-56474,251.9493159184957,33.840852867843104,3148.5083311104413,-3.7439316710944137,131128.3239369929,10.5,10500131128.323936,47.655,-122.3035,60.0,4.266666666666667
2026-01-20T23:04:17+00:00,SAT-56474,252.05673514427684,33.911292473135425,3144.7743832571364,-3.7348470175205697,130810.1409407904,10.5,10500130810.140942,47.655,-122.3035,60.0,4.283333333333333
2026-01-20T23:04:18+00:00,SAT-56474,252.164650385773,33.981678299959924,3141.049495831662,-3.725725877447379,130490.68003304298,10.5,10500130490.680033,47.655,-122.3035,60.0,4.3
2026-01-20T23:04:19+00:00,SAT-56474,252.27306360259368,34.05200883261928,3137.3337052232214,-3.7165681773740626,130169.93863944254,10.5,10500130169.938639,47.655,-122.3035,60.0,4.316666666666666
2026-01-20T23:04:20+00:00,SAT-56474,252.38197675276595,34.12228254087299,3133.6270478943206,-3.707373822520177,129847.913440377,10.5,10500129847.91344,47.655,-122.3035,60.0,4.333333333333333
2026-01-20T23:04:21+00:00,SAT-56474,252.49139179184206,34.19249787945369,3129.929560401994,-3.6981427346173357,129524.60169455639,10.5,10500129524.601694,47.655,-122.3035,60.0,4.35
2026-01-20T23:04:22+00:00,SAT-56474,252.60131067311391,34.26265328829431,3126.241279381335,-3.6888748553879784,129200.00136085403,10.5,10500129200.00136,47.655,-122.3035,60.0,4.366666666666666
2026-01-20T23:04:23+00:00,SAT-56474,252.71173534797276,34.332747192821586,3122.5622415255616,-3.6795700853064113,128874.10895345913,10.5,10500128874.108953,47.655,-122.3035,60.0,4.383333333333334
2026-01-20T23:04:24+00:00,SAT-56474,252.8226677643799,34.402778003104345,3118.8924836271494,-3.670228364249728,128546.9223666132,10.5,10500128546.922367,47.655,-122.3035,60.0,4.4
2026-01-20T23:04:25+00:00,SAT-56474,252.93410986779665,34.47274411451101,3115.232042538538,-3.660849606585946,128218.43860112198,10.5,10500128218.4386,47.655,-122.3035,60.0,4.416666666666667
2026-01-20T23:04:26+00:00,SAT-56474,253.04606360012713,34.54264390715601,3111.5809551975694,-3.651433737659107,127888.65504221799,10.5,10500127888.655043,47.655,-122.3035,60.0,4.433333333333334
2026-01-20T23:04:27+00:00,SAT-56474,253.15853089975784,34.61247574602375,3107.939258616544,-3.6419806924511304,127557.56941269306,10.5,10500127557.569412,47.655,-122.3035,60.0,4.45
2026-01-20T23:04:28+00:00,SAT-56474,253.2715137015797,34.68223798107734,3104.306989872606,-3.632490384749648,127225.17869302537,10.5,10500127225.178694,47.655,-122.3035,60.0,4.466666666666667
2026-01-20T23:04:29+00:00,SAT-56474,253.38501393603008,34.75192894678092,3100.684186128882,-3.622962751227936,126891.48066524518,10.5,10500126891.480665,47.655,-122.3035,60.0,4.483333333333333
2026-01-20T23:04:30+00:00,SAT-56474,253.49903352949502,34.82154696245727,3097.0708846116577,-3.613397719631881,126556.4727987078,10.5,10500126556.4728,47.655,-122.3035,60.0,4.5
2026-01-20T23:04:31+00:00,SAT-56474,253.61357440374638,34.891090332046,3093.467122619278,-3.603795211893335,126220.15235913648,10.5,10500126220.152359,47.655,-122.3035,60.0,4.516666666666667
2026-01-20T23:04:32+00:00,SAT-56474,253.72863847542698,34.960557343922524,3089.87293752795,-3.5941551546416304,125882.51677678002,10.5,10500125882.516777,47.655,-122.3035,60.0,4.533333333333333
2026-01-20T23:04:33+00:00,SAT-56474,253.8442276558832,35.029946270909676,3086.288366787054,-3.5844774994612068,125543.56435592077,10.5,10500125543.564356,47.655,-122.3035,60.0,4.55
2026-01-20T23:04:34+00:00,SAT-56474,253.9603438516532,35.09925537068835,3082.713447894258,-3.5747621430558896,125203.29147868972,10.5,10500125203.29148,47.655,-122.3035,60.0,4.566666666666666
2026-01-20T23:04:35+00:00,SAT-56474,254.0769889623543,35.16848288467791,3079.14821845025,-3.565009054329237,124861.69705595793,10.5,10500124861.697056,47.655,-122.3035,60.0,4.583333333333333
2026-01-20T23:04:36+00:00,SAT-56474,254.19416488270565,35.23762703934799,3075.5927160867327,-3.5552181316123916,124518.77752685196,10.5,10500124518.777527,47.655,-122.3035,60.0,4.6
2026-01-20T23:04:37+00:00,SAT-56474,254.31187349986487,35.306686044801836,3072.0469785368045,-3.545389329522852,124174.53130188466,10.5,10500124174.531301,47.655,-122.3035,60.0,4.616666666666666
2026-01-20T23:04:38+00:00,SAT-56474,254.4301166949495,35.37565809578972,3068.511043578827,-3.5355225763767293,123828.95587038303,10.5,10500123828.95587,47.655,-122.3035,60.0,4.633333333333334
2026-01-20T23:04:39+00:00,SAT-56474,254.54889634180424,35.44454137113675,3064.984949062654,-3.525617815719954,123482.04925508672,10.5,10500123482.049255,47.655,-122.3035,60.0,4.65
2026-01-20T23:04:40+00:00,SAT-56474,254.66821430716317,35.513334033978715,3061.4687328944424,-3.515674956221369,123133.8082571923,10.5,10500123133.808258,47.655,-122.3035,60.0,4.666666666666667
2026-01-20T23:04:41+00:00,SAT-56474,254.78807244908813,35.582034231021765,3057.9624330714378,-3.5056939588090383,122784.23150823527,10.5,10500122784.231508,47.655,-122.3035,60.0,4.683333333333334
2026-01-20T23:04:42+00:00,SAT-56474,254.90847261837825,35.65064009349371,3054.466087629852,-3.4956747699857154,122433.31713451582,10.5,10500122433.317135,47.655,-122.3035,60.0,4.7
2026-01-20T23:04:43+00:00,SAT-56474,255.02941665773184,35.719149736808404,3050.979734659253,-3.4856172916060326,122081.06169856797,10.5,10500122081.061699,47.655,-122.3035,60.0,4.716666666666667
2026-01-20T23:04:44+00:00,SAT-56474,255.15090639978172,35.7875612596435,3047.5034123470914,-3.475521493700778,121727.46415074315,10.5,10500121727.464151,47.655,-122.3035,60.0,4.733333333333333
2026-01-20T23:04:45+00:00,SAT-56474,255.27294366908632,35.85587274520242,3044.037158910707,-3.465387309907123,121372.52216673439,10.5,10500121372.522167,47.655,-122.3035,60.0,4.75
2026-01-20T23:04:46+00:00,SAT-56474,255.39553028048007,35.924082260461425,3040.5810126336264,-3.455214675841753,121016.23349156571,10.5,10500121016.233492,47.655,-122.3035,60.0,4.766666666666667
2026-01-20T23:04:47+00:00,SAT-56474,255.5186680387207,35.99218785614951,3037.135011863587,-3.445003536137682,120658.59618605103,10.5,10500120658.596186,47.655,-122.3035,60.0,4.783333333333333
2026-01-20T23:04:48+00:00,SAT-56474,255.642358738408,36.060187566878916,3033.699195003546,-3.4347538284673482,120299.60806721548,10.5,10500120299.608067,47.655,-122.3035,60.0,4.8
2026-01-20T23:04:49+00:00,SAT-56474,255.7666041633135,36.12807941095458,3030.273600518621,-3.424465514327003,119939.26778649492,10.5,10500119939.267786,47.655,-122.3035,60.0,4.816666666666666
2026-01-20T23:04:50+00:00,SAT-56474,255.89140608683306,36.19586139079923,3026.858266912332,-3.4141385211393067,119577.57280192392,10.5,10500119577.572802,47.655,-122.3035,60.0,4.833333333333333
2026-01-20T23:04:51+00:00,SAT-56474,256.01676627031776,36.2635314922385,3023.4532327605825,-3.4037727979003396,119214.52132712948,10.5,10500119214.521328,47.655,-122.3035,60.0,4.85
2026-01-20T23:04:52+00:00,SAT-56474,256.14268646341145,36.331087684881275,3020.0585366901432,-3.3933683004000645,118850.11181368906,10.5,10500118850.111814,47.655,-122.3035,60.0,4.866666666666666
2026-01-20T23:04:53+00:00,SAT-56474,256.2691684038919,36.398527922213134,3016.6742173718776,-3.382924971153235,118484.34224822617,10.5,10500118484.342249,47.655,-122.3035,60.0,4.883333333333334
2026-01-20T23:04:54+00:00,SAT-56474,256.3962138167058,36.465850141294666,3013.300313533981,-3.3724427504043875,118117.21053785173,10.5,10500118117.210537,47.655,-122.3035,60.0,4.9
2026-01-20T23:04:55+00:00,SAT-56474,256.52382441342877,36.533052262681984,3009.9368639642444,-3.361921606024884,117748.7155572849,10.5,10500117748.715557,47.655,-122.3035,60.0,4.916666666666667
2026-01-20T23:04:56+00:00,SAT-56474,256.65200189286935,36.6001321909354,3006.583907482502,-3.3513614775574094,117378.85518905481,10.5,10500117378.855188,47.655,-122.3035,60.0,4.933333333333334
2026-01-20T23:04:57+00:00,SAT-56474,256.7807479395049,36.66708781402937,3003.2414829688846,-3.3407623176038634,117007.62777307948,10.5,10500117007.627773,47.655,-122.3035,60.0,4.95
2026-01-20T23:04:58+00:00,SAT-56474,256.910064223517,36.73391700357893,2999.9096293507946,-3.330124088248002,116635.03198137166,10.5,10500116635.03198,47.655,-122.3035,60.0,4.966666666666667
2026-01-20T23:04:59+00:00,SAT-56474,257.03995240067866,36.80061761500134,2996.5883855934485,-3.3194467355936266,116261.0659262585,10.5,10500116261.065926,47.655,-122.3035,60.0,4.983333333333333
2026-01-20T23:05:00+00:00,SAT-56474,257.17041411124114,36.867187487172686,2993.2777907158165,-3.3087302154596685,115885.72806033205,10.5,10500115885.72806,47.655,-122.3035,60.0,5.0
2026-01-20T23:05:01+00:00,SAT-56474,257.3014509798176,36.933624442598294,2989.9778837809313,-3.297974496302452,115509.01727879941,10.5,10500115509.017279,47.655,-122.3035,60.0,5.016666666666667
2026-01-20T23:05:02+00:00,SAT-56474,257.433064615399,36.99992628764302,2986.6887038832856,-3.287179518997721,115130.931510879,10.5,10500115130.93151,47.655,-122.3035,60.0,5.033333333333333
2026-01-20T23:05:03+00:00,SAT-56474,257.5652566097241,37.06609081196623,2983.4102901763385,-3.276345254504782,114751.46973944291,10.5,10500114751.46974,47.655,-122.3035,60.0,5.05
2026-01-20T23:05:04+00:00,SAT-56474,257.69802853799087,37.13211578910304,2980.1426818425125,-3.265471654616449,114370.63027607156,10.5,10500114370.630276,47.655,-122.3035,60.0,5.066666666666666
2026-01-20T23:05:05+00:00,SAT-56474,257.83138195754395,37.19799897607236,2976.8859181123084,-3.25455870110796,113988.41248245673,10.5,10500113988.412483,47.655,-122.3035,60.0,5.083333333333333
2026-01-20T23:05:06+00:00,SAT-56474,257.96531840859666,37.26373811396327,2973.640038234403,-3.243606334137964,113604.8142627011,10.5,10500113604.814262,47.655,-122.3035,60.0,5.1
2026-01-20T23:05:07+00:00,SAT-56474,258.099839411962,37.329330927098916,2970.4050815171563,-3.2326145183343633,113219.83437792427,10.5,10500113219.834377,47.655,-122.3035,60.0,5.116666666666666
2026-01-20T23:05:08+00:00,SAT-56474,258.2349464695217,37.394775123517796,2967.181087304204,-3.221583241320991,112833.47239466046,10.5,10500112833.472395,47.655,-122.3035,60.0,5.133333333333334
2026-01-20T23:05:09+00:00,SAT-56474,258.3706410646586,37.460068395437645,2963.968094951527,-3.210512453245045,112445.7265668537,10.5,10500112445.726566,47.655,-122.3035,60.0,5.15
2026-01-20T23:05:10+00:00,SAT-56474,258.506924660117,37.52520841850271,2960.7661438648233,-3.1994021165556914,112056.59557931495,10.5,10500112056.59558,47.655,-122.3035,60.0,5.166666666666667
2026-01-20T23:05:11+00:00,SAT-56474,258.64379869795033,37.59019285203658,2957.575273487246,-3.1882522174344348,111666.07894806202,10.5,10500111666.078949,47.655,-122.3035,60.0,5.183333333333334
2026-01-20T23:05:12+00:00,SAT-56474,258.78126459998305,37.65501933952574,2954.3955232757244,-3.1770627180468547,111274.17534797348,10.5,10500111274.175348,47.655,-122.3035,60.0,5.2
2026-01-20T23:05:13+00:00,SAT-56474,258.9193237661942,37.71968550814986,2951.2269327249255,-3.1658335853749286,110880.88362261852,10.5,10500110880.883623,47.655,-122.3035,60.0,5.216666666666667
2026-01-20T23:05:14+00:00,SAT-56474,259.05797757434027,37.784188968888785,2948.069541362445,-3.1545647979560276,110486.20302028509,10.5,10500110486.20302,47.655,-122.3035,60.0,5.233333333333333
2026-01-20T23:05:15+00:00,SAT-56474,259.19722737987144,37.84852731677748,2944.923388737284,-3.1432563335001418,110090.13276028274,10.5,10500110090.132761,47.655,-122.3035,60.0,5.25
2026-01-20T23:05:16+00:00,SAT-56474,259.3370745153116,37.912698130907266,2941.788514420673,-3.131908173505529,109692.67219460223,10.5,10500109692.672195,47.655,-122.3035,60.0,5.266666666666667
2026-01-20T23:05:17+00:00,SAT-56474,259.477520289824,37.976698974527785,2938.6649580022963,-3.120520273995934,109293.81978300905,10.5,10500109293.819782,47.655,-122.3035,60.0,5.283333333333333
2026-01-20T23:05:18+00:00,SAT-56474,259.6185659874427,38.04052739455896,2935.552759115698,-3.1090926300751667,108893.57535401791,10.5,10500108893.575354,47.655,-122.3035,60.0,5.3
2026-01-20T23:05:19+00:00,SAT-56474,259.7602128682305,38.104180922412986,2932.451957399303,-3.0976252252067726,108491.93832845226,10.5,10500108491.938328,47.655,-122.3035,60.0,5.316666666666666
2026-01-20T23:05:20+00:00,SAT-56474,259.9024621671357,38.167657073792824,2929.36259250803,-3.0861180327437725,108088.90777302213,10.5,10500108088.907774,47.655,-122.3035,60.0,5.333333333333333
2026-01-20T23:05:21+00:00,SAT-56474,260.04531509289467,38.23095334852857,2926.2847041233736,-3.0745710391868344,107684.48321492384,10.5,10500107684.483215,47.655,-122.3035,60.0,5.35
2026-01-20T23:05:22+00:00,SAT-56474,260.1887728280025,38.294067230881645,2923.218331940291,-3.062984229016957,107278.66411061632,10.5,10500107278.66411,47.655,-122.3035,60.0,5.366666666666666
2026-01-20T23:05:23+00:00,SAT-56474,260.33283652797707,38.35699618955449,2920.163515669218,-3.05135758621658,106871.44989909683,10.5,10500106871.4499,47.655,-122.3035,60.0,5.383333333333334
2026-01-20T23:05:24+00:00,SAT-56474,260.4775073206903,38.41973767772628,2917.120295036565,-3.0396911116705123,106462.84061135513,10.5,10500106462.84061,47.655,-122.3035,60.0,5.4
2026-01-20T23:05:25+00:00,SAT-56474,260.62278630651764,38.48228913345364,2914.0887097678587,-3.027984768495722,106052.83495559145,10.5,10500106052.834955,47.655,-122.3035,60.0,5.416666666666667
2026-01-20T23:05:26+00:00,SAT-56474,260.7686745558663,38.544647978956554,2911.0687996254123,-3.016238576543781,105641.43362709178,10.5,10500105641.433626,47.655,-122.3035,60.0,5.433333333333334
2026-01-20T23:05:27+00:00,SAT-56474,260.91517311124363,38.60681162183829,2908.0606043517396,-3.0044525074138435,105228.63563113839,10.5,10500105228.635632,47.655,-122.3035,60.0,5.45
2026-01-20T23:05:28+00:00,SAT-56474,261.0622829842426,38.66877745416533,2905.0641637176786,-2.9926265629177142,104814.44103118831,10.5,10500104814.44103,47.655,-122.3035,60.0,5.466666666666667
2026-01-20T23:05:29+00:00,SAT-56474,261.2100051563369,38.730542853155704,2902.0795174922623,-2.9807607465920927,104398.84995111176,10.5,10500104398.84995,47.655,-122.3035,60.0,5.483333333333333
2026-01-20T23:05:30+00:00,SAT-56474,261.35834057829857,38.79210518128706,2899.1067054409946,-2.968855037524246,103981.86165845634,10.5,10500103981.861658,47.655,-122.3035,60.0,5.5
2026-01-20T23:05:31+00:00,SAT-56474,261.5072901682645,38.85346178587621,2896.145767350237,-2.9569094552664024,103563.47683802381,10.5,10500103563.476837,47.655,-122.3035,60.0,5.516666666666667
2026-01-20T23:05:32+00:00,SAT-56474,261.65685481309845,38.914609999989096,2893.196742986851,-2.9449239849937934,103143.69497058805,10.5,10500103143.694971,47.655,-122.3035,60.0,5.533333333333333
2026-01-20T23:05:33+00:00,SAT-56474,261.80703536592546,38.97554714182439,2890.259672132484,-2.9328986289812096,102722.51613582188,10.5,10500102722.516136,47.655,-122.3035,60.0,5.55
2026-01-20T23:05:34+00:00,SAT-56474,261.9578326463056,39.03627051515486,2887.3345945665133,-2.9208334035709664,102299.94090610226,10.5,10500102299.940907,47.655,-122.3035,60.0,5.566666666666666
2026-01-20T23:05:35+00:00,SAT-56474,262.1092474402497,39.09677740971394,2884.4215500520186,-2.908728309511163,101875.96930763085,10.5,10500101875.969307,47.655,-122.3035,60.0,5.583333333333333
2026-01-20T23:05:36+00:00,SAT-56474,262.26128049869226,39.15706510097391,2881.520578351333,-2.8965833387470243,101450.60105829532,10.5,10500101450.601059,47.655,-122.3035,60.0,5.6
2026-01-20T23:05:37+00:00,SAT-56474,262.413932536293,39.21713085007255,2878.6317192348224,-2.8843985204523985,101023.83717988724,10.5,10500101023.83718,47.655,-122.3035,60.0,5.616666666666666
2026-01-20T23:05:38+00:00,SAT-56474,262.5672042326834,39.27697190468714,2875.755012443758,-2.87217386273034,100595.67795620987,10.5,10500100595.677956,47.655,-122.3035,60.0,5.633333333333334
2026-01-20T23:05:39+00:00,SAT-56474,262.7210962306148,39.33658549871665,2872.8904977113284,-2.8599093682042813,100166.12347914687,10.5,10500100166.12348,47.655,-122.3035,60.0,5.65
2026-01-20T23:05:40+00:00,SAT-56474,262.8756091349275,39.39596885228832,2870.0382147681057,-2.847605053345623,99735.17432559642,10.5,10500099735.174326,47.655,-122.3035,60.0,5.666666666666667
2026-01-20T23:05:41+00:00,SAT-56474,263.03074351253713,39.45511917216794,2867.1982033282356,-2.8352609345200603,99302.83106875434,10.5,10500099302.831068,47.655,-122.3035,60.0,5.683333333333334
2026-01-20T23:05:42+00:00,SAT-56474,263.18649989169256,39.514033651885505,2864.370503089541,-2.822877048666021,98869.09500236066,10.5,10500098869.095003,47.655,-122.3035,60.0,5.7
2026-01-20T23:05:43+00:00,SAT-56474,263.3428787623756,39.572709472297056,2861.5551537130045,-2.810453374259381,98433.96537254952,10.5,10500098433.965372,47.655,-122.3035,60.0,5.716666666666667
2026-01-20T23:05:44+00:00,SAT-56474,263.49988057226506,39.63114380051423,2858.752194881077,-2.797989973746629,97997.44436646103,10.5,10500097997.444366,47.655,-122.3035,60.0,5.733333333333333
2026-01-20T23:05:45+00:00,SAT-56474,263.65750573069505,39.689333791785884,2855.961666213927,-2.7854868512783955,97559.53212946789,10.5,10500097559.53213,47.655,-122.3035,60.0,5.75
2026-01-20T23:05:46+00:00,SAT-56474,263.8157546046079,39.74727658844054,2853.183607327585,-2.772944031741695,97120.22953321859,10.5,10500097120.229534,47.655,-122.3035,60.0,5.766666666666667
2026-01-20T23:05:47+00:00,SAT-56474,263.9746275189465,39.80496932047278,2850.418057813262,-2.76036153977502,96679.5374406574,10.5,10500096679.537441,47.655,-122.3035,60.0,5.783333333333333
2026-01-20T23:05:48+00:00,SAT-56474,264.134124755878,39.86240910569679,2847.6650572375925,-2.7477394161970596,96237.45728142743,10.5,10500096237.457281,47.655,-122.3035,60.0,5.8
2026-01-20T23:05:49+00:00,SAT-56474,264.29424655494824,39.919593050246355,2844.9246451265053,-2.7350776846141125,95793.98988232113,10.5,10500095793.989882,47.655,-122.3035,60.0,5.816666666666666
2026-01-20T23:05:50+00:00,SAT-56474,264.454993111322,39.97651824839042,2842.1968609823834,-2.7223763728400314,95349.13621749726,10.5,10500095349.136217,47.655,-122.3035,60.0,5.833333333333333
2026-01-20T23:05:51+00:00,SAT-56474,264.6163645752168,40.03318178279654,2839.4817442798712,-2.709635525130593,94902.89783698035,10.5,10500094902.897837,47.655,-122.3035,60.0,5.85
2026-01-20T23:05:52+00:00,SAT-56474,264.7783610521173,40.089580725051675,2836.7793344494744,-2.6968551660587305,94455.27560141846,10.5,10500094455.275602,47.655,-122.3035,60.0,5.866666666666666
2026-01-20T23:05:53+00:00,SAT-56474,264.9409826007963,40.1457121354437,2834.0896708971914,-2.684035350545723,94006.27143438709,10.5,10500094006.271435,47.655,-122.3035,60.0,5.883333333333334
2026-01-20T23:05:54+00:00,SAT-56474,265.1042292343717,40.201573063781176,2831.412792974247,-2.6711761049671585,93555.8862596709,10.5,10500093555.88626,47.655,-122.3035,60.0,5.9
2026-01-20T23:05:55+00:00,SAT-56474,265.26810091777264,40.257160549001775,2828.74874000556,-2.6582774742029103,93104.12164915288,10.5,10500093104.121649,47.655,-122.3035,60.0,5.916666666666667
2026-01-20T23:05:56+00:00,SAT-56474,265.4325975680761,40.31247161975849,2826.097551271288,-2.6453395071828507,92650.97931656417,10.5,10500092650.979317,47.655,-122.3035,60.0,5.933333333333334
2026-01-20T23:05:57+00:00,SAT-56474,265.59771905396195,40.367503294713615,2823.4592660027915,-2.6323622505168327,92196.46089437895,10.5,10500092196.460894,47.655,-122.3035,60.0,5.95
2026-01-20T23:05:58+00:00,SAT-56474,265.7634651947908,40.42225258270537,2820.8339233849424,-2.6193457454784004,91740.56782817132,10.5,10500091740.567827,47.655,-122.3035,60.0,5.966666666666667
2026-01-20T23:05:59+00:00,SAT-56474,265.92983575944896,40.47671648286034,2818.2215625614517,-2.606290049664606,91283.30213523371,10.5,10500091283.302135,47.655,-122.3035,60.0,5.983333333333333
2026-01-20T23:06:00+00:00,SAT-56474,266.0968304666016,40.53089198515609,2815.6222226185864,-2.593195213182364,90824.66557052221,10.5,10500090824.665571,47.655,-122.3035,60.0,6.0
2026-01-20T23:06:01+00:00,SAT-56474,266.264448983404,40.584776070499764,2813.0359425926395,-2.5800612951599935,90364.66020496063,10.5,10500090364.660206,47.655,-122.3035,60.0,6.016666666666667
2026-01-20T23:06:02+00:00,SAT-56474,266.4326909253073,40.638365711152936,2810.462761460933,-2.566888338813963,89903.28755217254,10.5,10500089903.287552,47.655,-122.3035,60.0,6.033333333333333
2026-01-20T23:06:03+00:00,SAT-56474,266.60155585419045,40.69165787064776,2807.902718157689,-2.553676416495455,89440.55014620238,10.5,10500089440.550146,47.655,-122.3035,60.0,6.05
2026-01-20T23:06:04+00:00,SAT-56474,266.7710432794949,40.744649504637785,2805.3558515449713,-2.5404255842799137,88976.44995104946,10.5,10500088976.449951,47.655,-122.3035,60.0,6.066666666666666
2026-01-20T23:06:05+00:00,SAT-56474,266.9411526563475,40.797337560819685,2802.822200428916,-2.5271359076346855,88510.98925965709,10.5,10500088510.98926,47.655,-122.3035,60.0,6.083333333333333
2026-01-20T23:06:06+00:00,SAT-56474,267.1118833853986,40.84971897938741,2800.3018035503683,-2.5138074448332657,88044.17011300962,10.5,10500088044.170113,47.655,-122.3035,60.0,6.1
2026-01-20T23:06:07+00:00,SAT-56474,267.28323481152023,40.90179069315335,2797.7946995920547,-2.500440272092356,87575.99518053833,10.5,10500087575.99518,47.655,-122.3035,60.0,6.116666666666666
2026-01-20T23:06:08+00:00,SAT-56474,267.45520622425425,40.95354962819098,2795.300927160688,-2.4870344499292427,87106.46658181457,10.5,10500087106.466581,47.655,-122.3035,60.0,6.133333333333334
2026-01-20T23:06:09+00:00,SAT-56474,267.6277968559204,41.0049927037924,2792.820524802625,-2.4735900585796284,86635.58712703205,10.5,10500086635.587128,47.655,-122.3035,60.0,6.15
2026-01-20T23:06:10+00:00,SAT-56474,267.80100588221495,41.05611683315938,2790.3535309842014,-2.460107165349599,86163.35917353463,10.5,10500086163.359173,47.655,-122.3035,60.0,6.166666666666667
2026-01-20T23:06:11+00:00,SAT-56474,267.97483242050026,41.10691892342976,2787.899984104626,-2.4465858462210592,85689.78538252995,10.5,10500085689.785383,47.655,-122.3035,60.0,6.183333333333334
2026-01-20T23:06:12+00:00,SAT-56474,268.1492755296312,41.15739587615337,2785.4599224873286,-2.433026185530539,85214.86870784007,10.5,10500085214.868708,47.655,-122.3035,60.0,6.2
2026-01-20T23:06:13+00:00,SAT-56474,268.32433420977964,41.20754458776819,2783.033384371626,-2.419428255276008,84738.61167113844,10.5,10500084738.611671,47.655,-122.3035,60.0,6.216666666666667
2026-01-20T23:06:14+00:00,SAT-56474,268.5000074007603,41.257361949656236,2780.6204079250306,-2.405792146274812,84261.0174532327,10.5,10500084261.017454,47.655,-122.3035,60.0,6.233333333333333
2026-01-20T23:06:15+00:00,SAT-56474,268.6762939826181,41.30684484884593,2778.2210312244792,-2.3921179370702865,83782.08880504261,10.5,10500083782.088804,47.655,-122.3035,60.0,6.25
2026-01-20T23:06:16+00:00,SAT-56474,268.8531927739705,41.35599016808234,2775.835292268575,-2.378405712738927,83301.828706307,10.5,10500083301.828707,47.655,-122.3035,60.0,6.266666666666667
2026-01-20T23:06:17+00:00,SAT-56474,269.03070253168903,41.40479478628829,2773.46322897107,-2.3646555767532633,82820.2407810715,10.5,10500082820.240782,47.655,-122.3035,60.0,6.283333333333333
2026-01-20T23:06:18+00:00,SAT-56474,269.2088219515648,41.45325557927523,2771.104879142521,-2.350867600223913,82337.32751993074,10.5,10500082337.32752,47.655,-122.3035,60.0,6.3
2026-01-20T23:06:19+00:00,SAT-56474,269.3875496650587,41.50136941942131,2768.7602805225642,-2.3370418933141157,81853.09278126743,10.5,10500081853.092781,47.655,-122.3035,60.0,6.316666666666666
2026-01-20T23:06:20+00:00,SAT-56474,269.5668842415522,41.54913317681421,2766.429470740966,-2.3231785437842816,81367.53963882224,10.5,10500081367.539639,47.655,-122.3035,60.0,6.333333333333333
2026-01-20T23:06:21+00:00,SAT-56474,269.74682418586883,41.59654371914599,2764.112487339965,-2.3092776502508956,80880.67154656173,10.5,10500080880.671547,47.655,-122.3035,60.0,6.35
2026-01-20T23:06:22+00:00,SAT-56474,269.92736793837435,41.64359791229175,2761.809367763448,-2.2953393191524585,80392.49223241238,10.5,10500080392.492233,47.655,-122.3035,60.0,6.366666666666666
2026-01-20T23:06:23+00:00,SAT-56474,270.1085138748579,41.69029262083187,2759.5201493491463,-2.2813636438194638,79903.00496520287,10.5,10500079903.004965,47.655,-122.3035,60.0,6.383333333333334
2026-01-20T23:06:24+00:00,SAT-56474,270.290260304769,41.736624708154835,2757.2448693417105,-2.2673507449246313,79412.21397140228,10.5,10500079412.213972,47.655,-122.3035,60.0,6.4
2026-01-20T23:06:25+00:00,SAT-56474,270.4726054726901,41.78259103738689,2754.9835648654393,-2.2533007127354137,78920.12241255863,10.5,10500078920.122412,47.655,-122.3035,60.0,6.416666666666667
2026-01-20T23:06:26+00:00,SAT-56474,270.6555475551686,41.828188471156615,2752.7362729546044,-2.239213664833537,78426.73440688138,10.5,10500078426.734407,47.655,-122.3035,60.0,6.433333333333334
2026-01-20T23:06:27+00:00,SAT-56474,270.83908466221436,41.873413872534584,2750.5030305262108,-2.225089719434986,77932.05409479431,10.5,10500077932.054094,47.655,-122.3035,60.0,6.45
2026-01-20T23:06:28+00:00,SAT-56474,271.02321483669715,41.91826410543667,2748.2838743793604,-2.2109289794491804,77436.08508062066,10.5,10500077436.085081,47.655,-122.3035,60.0,6.466666666666667
2026-01-20T23:06:29+00:00,SAT-56474,271.2079360523623,41.96273603471454,2746.078841210523,-2.1967315679095205,76938.83167351049,10.5,10500076938.831673,47.655,-122.3035,60.0,6.483333333333333
2026-01-20T23:06:30+00:00,SAT-56474,271.39324621483763,42.00682652696328,2743.887967593462,-2.182497603994048,76440.29804758298,10.5,10500076440.298048,47.655,-122.3035,60.0,6.5
2026-01-20T23:06:31+00:00,SAT-56474,271.5791431606525,42.0505324508531,2741.7112899830786,-2.168227216915608,75940.48872841854,10.5,10500075940.488728,47.655,-122.3035,60.0,6.516666666666667
2026-01-20T23:06:32+00:00,SAT-56474,271.7656246574604,42.0938506777425,2739.5488447054076,-2.1539205157976244,75439.40753798101,10.5,10500075439.407537,47.655,-122.3035,60.0,6.533333333333333
2026-01-20T23:06:33+00:00,SAT-56474,271.95268840162197,42.13677808169841,2737.400667977652,-2.1395776347450632,74937.05917319363,10.5,10500074937.059174,47.655,-122.3035,60.0,6.55
2026-01-20T23:06:34+00:00,SAT-56474,272.14033201975815,42.17931154041897,2735.2667958832662,-2.125198704353126,74433.44820805274,10.5,10500074433.448208,47.655,-122.3035,60.0,6.566666666666666
2026-01-20T23:06:35+00:00,SAT-56474,272.3285530678176,42.22144793559331,2733.1472643754587,-2.1107838578089346,73928.57930733472,10.5,10500073928.579308,47.655,-122.3035,60.0,6.583333333333333
2026-01-20T23:06:36+00:00,SAT-56474,272.51734903072014,42.263184153387314,2731.0421092746033,-2.096333217801823,73422.45676813903,10.5,10500073422.456768,47.655,-122.3035,60.0,6.6
2026-01-20T23:06:37+00:00,SAT-56474,272.7067173207767,42.30451708467764,2728.951366278716,-2.0818469331639498,72915.08580319746,10.5,10500072915.085804,47.655,-122.3035,60.0,6.616666666666666
2026-01-20T23:06:38+00:00,SAT-56474,272.8966552794946,42.34544362601301,2726.8750709373735,-2.0673251333729414,72406.47094736414,10.5,10500072406.470947,47.655,-122.3035,60.0,6.633333333333334
2026-01-20T23:06:39+00:00,SAT-56474,273.0871601752249,42.38596067968214,2724.813258671023,-2.0527679682601176,71896.6174483657,10.5,10500071896.617449,47.655,-122.3035,60.0,6.65
2026-01-20T23:06:40+00:00,SAT-56474,273.278229204503,42.426065154569194,2722.7659647506784,-2.0381755688257295,71385.529894385,10.5,10500071385.529894,47.655,-122.3035,60.0,6.666666666666667
2026-01-20T23:06:41+00:00,SAT-56474,273.4698594897074,42.46575396624504,2720.7332243167025,-2.0235480930722547,70873.21381933722,10.5,10500070873.21382,47.655,-122.3035,60.0,6.683333333333334
2026-01-20T23:06:42+00:00,SAT-56474,273.6620480811099,42.50502403795829,2718.7150723518785,-2.0088856840162923,70359.67423226862,10.5,10500070359.674232,47.655,-122.3035,60.0,6.7
2026-01-20T23:06:43+00:00,SAT-56474,273.85479195491627,42.543872300811955,2716.711543696353,-1.9941884871652287,69844.91622946333,10.5,10500069844.91623,47.655,-122.3035,60.0,6.716666666666667
2026-01-20T23:06:44+00:00,SAT-56474,274.0480880129987,42.58229569428615,2714.722673045154,-1.9794566657602697,69328.9455283189,10.5,10500069328.945528,47.655,-122.3035,60.0,6.733333333333333
2026-01-20T23:06:45+00:00,SAT-56474,274.24193308413817,42.62029116705818,2712.748494930502,-1.9646903686315413,68811.76734149591,10.5,10500068811.767342,47.655,-122.3035,60.0,6.75
2026-01-20T23:06:46+00:00,SAT-56474,274.4363239221523,42.65785567720514,2710.7890437361866,-1.9498897552746708,68293.38725520587,10.5,10500068293.387255,47.655,-122.3035,60.0,6.766666666666667
2026-01-20T23:06:47+00:00,SAT-56474,274.6312572064807,42.69498619289594,2708.8443536869263,-1.935054986217986,67773.81089182988,10.5,10500067773.810892,47.655,-122.3035,60.0,6.783333333333333
2026-01-20T23:06:48+00:00,SAT-56474,274.82672954185915,42.73167969289964,2706.914458847338,-1.9201862242412295,67253.04395260307,10.5,10500067253.043953,47.655,-122.3035,60.0,6.8
2026-01-20T23:06:49+00:00,SAT-56474,275.0227374581268,42.767933167122436,2704.999393119695,-1.9052836330252185,66731.09217032001,10.5,10500066731.09217,47.655,-122.3035,60.0,6.816666666666666
2026-01-20T23:06:50+00:00,SAT-56474,275.2192774099159,42.8037436171219,2703.099190243024,-1.8903473851491872,66207.96158943554,10.5,10500066207.96159,47.655,-122.3035,60.0,6.833333333333333
2026-01-20T23:06:51+00:00,SAT-56474,275.4163457771869,42.839108056774265,2701.2138837842353,-1.8753776459593898,65683.65800107484,10.5,10500065683.658,47.655,-122.3035,60.0,6.85
2026-01-20T23:06:52+00:00,SAT-56474,275.61393886411827,42.87402351264306,2699.3435071453323,-1.860374589679661,65158.1875072936,10.5,10500065158.187508,47.655,-122.3035,60.0,6.866666666666666
2026-01-20T23:06:53+00:00,SAT-56474,275.8120528996716,42.908487024652764,2697.4880935545584,-1.8453383898314757,64631.55618554786,10.5,10500064631.556185,47.655,-122.3035,60.0,6.883333333333334
2026-01-20T23:06:54+00:00,SAT-56474,276.01068403720393,42.942495646586025,2695.6476760671,-1.8302692333339992,64103.77058253744,10.5,10500064103.770582,47.655,-122.3035,60.0,6.9
2026-01-20T23:06:55+00:00,SAT-56474,276.2098283556256,42.97604644684318,2693.8222875517213,-1.8151672798805556,63574.836291398075,10.5,10500063574.836292,47.655,-122.3035,60.0,6.916666666666667
2026-01-20T23:06:56+00:00,SAT-56474,276.40948185608113,43.0091365084584,2692.0119607179204,-1.8000327306092825,63044.760356838146,10.5,10500063044.760357,47.655,-122.3035,60.0,6.933333333333334
2026-01-20T23:06:57+00:00,SAT-56474,276.60964046628555,43.041762930379384,2690.2167280745925,-1.7848657656698572,62513.54908846139,10.5,10500062513.549088,47.655,-122.3035,60.0,6.95
2026-01-20T23:06:58+00:00,SAT-56474,276.81030003795945,43.07392282760158,2688.4366219509648,-1.769666570796785,61981.20899147584,10.5,10500061981.208992,47.655,-122.3035,60.0,6.966666666666667
2026-01-20T23:06:59+00:00,SAT-56474,277.0114563471959,43.10561333179346,2686.671674491023,-1.7544353312783536,61447.7465554611,10.5,10500061447.746555,47.655,-122.3035,60.0,6.983333333333333
2026-01-20T23:07:00+00:00,SAT-56474,277.21310509420204,43.13683159181645,2684.9219176539614,-1.739172248358919,60913.16882884575,10.5,10500060913.168829,47.655,-122.3035,60.0,7.0
2026-01-20T23:07:01+00:00,SAT-56474,277.4152419049616,43.167574774536284,2683.187383198265,-1.7238775120852294,60377.482467870854,10.5,10500060377.482468,47.655,-122.3035,60.0,7.016666666666667
2026-01-20T23:07:02+00:00,SAT-56474,277.61786232977977,43.19784006515109,2681.468102692879,-1.7085513166211241,59840.69427297536,10.5,10500059840.694273,47.655,-122.3035,60.0,7.033333333333333
2026-01-20T23:07:03+00:00,SAT-56474,277.8209618435847,43.2276246677965,2679.764107513102,-1.6931938644154392,59302.81133477384,10.5,10500059302.811335,47.655,-122.3035,60.0,7.05
2026-01-20T23:07:04+00:00,SAT-56474,278.0245358468181,43.2569258062234,2678.075428832325,-1.6778053616651314,58763.84087515597,10.5,10500058763.840876,47.655,-122.3035,60.0,7.066666666666666
2026-01-20T23:07:05+00:00,SAT-56474,278.228579665806,43.28574072439424,2676.402097618291,-1.6623860055000097,58223.7897984415,10.5,10500058223.789799,47.655,-122.3035,60.0,7.083333333333333
2026-01-20T23:07:06+00:00,SAT-56474,278.43308855154675,43.3140666868595,2674.744144642139,-1.6469360013943428,57682.66530120848,10.5,10500057682.6653,47.655,-122.3035,60.0,7.1
2026-01-20T23:07:07+00:00,SAT-56474,278.6380576806789,43.34190097943995,2673.1016004700814,-1.631455571065103,57140.47514892314,10.5,10500057140.47515,47.655,-122.3035,60.0,7.116666666666666
2026-01-20T23:07:08+00:00,SAT-56474,278.84348215752243,43.36924091003443,2671.4744954472058,-1.6159449121101697,56597.226262299046,10.5,10500056597.226263,47.655,-122.3035,60.0,7.133333333333334
2026-01-20T23:07:09+00:00,SAT-56474,279.0493570109958,43.396083808747555,2669.8628597215284,-1.6004042454384455,56052.926378500415,10.5,10500056052.926378,47.655,-122.3035,60.0,7.15
2026-01-20T23:07:10+00:00,SAT-56474,279.2556771976045,43.4224270288193,2668.266723220744,-1.584833786037565,55507.58302730361,10.5,10500055507.583027,47.655,-122.3035,60.0,7.166666666666667
2026-01-20T23:07:11+00:00,SAT-56474,279.4624376007297,43.44826794706003,2666.6861156581363,-1.5692337526127909,54961.203868692064,10.5,10500054961.203869,47.655,-122.3035,60.0,7.183333333333334
2026-01-20T23:07:12+00:00,SAT-56474,279.6696330311712,43.473603964447406,2665.1210665288636,-1.5536043675961606,54413.796693176606,10.5,10500054413.796694,47.655,-122.3035,60.0,7.2
2026-01-20T23:07:13+00:00,SAT-56474,279.8772582277447,43.49843250672202,2663.5716051062477,-1.5379458505599592,53865.36919110744,10.5,10500053865.36919,47.655,-122.3035,60.0,7.216666666666667
2026-01-20T23:07:14+00:00,SAT-56474,280.0853078569758,43.52275102487599,2662.0377604446226,-1.522258431241376,53315.92940885273,10.5,10500053315.929409,47.655,-122.3035,60.0,7.233333333333333
2026-01-20T23:07:15+00:00,SAT-56474,280.293776514642,43.54655699584868,2660.519561369198,-1.50654233527779,52765.48524918794,10.5,10500052765.485249,47.655,-122.3035,60.0,7.25
2026-01-20T23:07:16+00:00,SAT-56474,280.50265872534993,43.56984792299395,2659.0170364801475,-1.4907977982951333,52214.0449647299,10.5,10500052214.044964,47.655,-122.3035,60.0,7.266666666666667
2026-01-20T23:07:17+00:00,SAT-56474,280.71194894415356,43.59262133676535,2657.5302141426478,-1.4750250455201437,51661.61644387168,10.5,10500051661.616444,47.655,-122.3035,60.0,7.283333333333333
2026-01-20T23:07:18+00:00,SAT-56474,280.9216415552375,43.614874795085996,2656.059122497249,-1.4592243184827416,51108.20814601276,10.5,10500051108.208145,47.655,-122.3035,60.0,7.3
2026-01-20T23:07:19+00:00,SAT-56474,281.1317308745223,43.63660588412555,2654.6037894436154,-1.4433958485006793,50553.828172879286,10.5,10500050553.828173,47.655,-122.3035,60.0,7.316666666666666
2026-01-20T23:07:20+00:00,SAT-56474,281.342211148402,43.657812218670955,2653.164242650711,-1.4275398839709423,49998.48522438444,10.5,10500049998.485224,47.655,-122.3035,60.0,7.333333333333333
2026-01-20T23:07:21+00:00,SAT-56474,281.55307655658294,43.678491442903834,2651.740509539764,-1.41165665844745,49442.187480574394,10.5,10500049442.18748,47.655,-122.3035,60.0,7.35
2026-01-20T23:07:22+00:00,SAT-56474,281.76432121013397,43.6986412307007,2650.3326172990724,-1.3957464200491918,48884.9436316257,10.5,10500048884.943632,47.655,-122.3035,60.0,7.366666666666666
2026-01-20T23:07:23+00:00,SAT-56474,281.9759391540375,43.7182592863666,2648.9405928694764,-1.379809418853328,48326.762436298326,10.5,10500048326.762436,47.655,-122.3035,60.0,7.383333333333334
2026-01-20T23:07:24+00:00,SAT-56474,282.18792436784236,43.737343345172285,2647.564462942407,-1.3638458979510304,47767.6524086734,10.5,10500047767.652409,47.655,-122.3035,60.0,7.4
2026-01-20T23:07:25+00:00,SAT-56474,282.4002707649728,43.75589117376971,2646.20425396685,-1.3478561108169078,47207.62242650391,10.5,10500047207.622427,47.655,-122.3035,60.0,7.416666666666667
2026-01-20T23:07:26+00:00,SAT-56474,282.6129721947141,43.773900570845065,2644.859992138996,-1.3318403075499745,46646.68124931526,10.5,10500046646.68125,47.655,-122.3035,60.0,7.433333333333334
2026-01-20T23:07:27+00:00,SAT-56474,282.82602244212876,43.791369367578454,2643.5317034055993,-1.3157987559911963,46084.83825803103,10.5,10500046084.838259,47.655,-122.3035,60.0,7.45
2026-01-20T23:07:28+00:00,SAT-56474,283.03941523141407,43.8082954283764,2642.21941344629,-1.2997316961707368,45522.10185952288,10.5,10500045522.10186,47.655,-122.3035,60.0,7.466666666666667
2026-01-20T23:07:29+00:00,SAT-56474,283.2531442217638,43.824676651005106,2640.9231477013095,-1.283639399219268,44958.481549933844,10.5,10500044958.48155,47.655,-122.3035,60.0,7.483333333333333
2026-01-20T23:07:30+00:00,SAT-56474,283.4672030130235,43.84051096748881,2639.6429313404883,-1.2675221282924787,44393.986546089254,10.5,10500044393.986546,47.655,-122.3035,60.0,7.5
2026-01-20T23:07:31+00:00,SAT-56474,283.6815851449475,43.855796344487636,2638.378789271205,-1.2513801423242743,43828.625916949786,10.5,10500043828.625917,47.655,-122.3035,60.0,7.516666666666667
2026-01-20T23:07:32+00:00,SAT-56474,283.89628409695354,43.87053078373062,2637.130746142593,-1.235213707927254,43262.40900041644,10.5,10500043262.409,47.655,-122.3035,60.0,7.533333333333333
2026-01-20T23:07:33+00:00,SAT-56474,284.1112932900405,43.88471232259024,2635.898826337887,-1.2190230999004201,42695.34542111267,10.5,10500042695.34542,47.655,-122.3035,60.0,7.55
2026-01-20T23:07:34+00:00,SAT-56474,284.3266060888281,43.898339034645424,2634.6830539662533,-1.2028085807342013,42127.444372563616,10.5,10500042127.444372,47.655,-122.3035,60.0,7.566666666666666
2026-01-20T23:07:35+00:00,SAT-56474,284.54221579997204,43.91140903000917,2633.4834528750675,-1.18657043334946,41558.71576385464,10.5,10500041558.715763,47.655,-122.3035,60.0,7.583333333333333
2026-01-20T23:07:36+00:00,SAT-56474,284.7581156765266,43.92392045601532,2632.3000466295402,-1.1703089177067063,40989.16869990244,10.5,10500040989.1687,47.655,-122.3035,60.0,7.6
2026-01-20T23:07:37+00:00,SAT-56474,284.9742989143027,43.93587149742766,2631.1328585356137,-1.1540243265989725,40418.81343555751,10.5,10500040418.813437,47.655,-122.3035,60.0,7.616666666666666
2026-01-20T23:07:38+00:00,SAT-56474,285.1907586587603,43.94726037723475,2629.9819116072194,-1.137716931081714,39847.65946432847,10.5,10500039847.659464,47.655,-122.3035,60.0,7.633333333333334
2026-01-20T23:07:39+00:00,SAT-56474,285.4074880015983,43.958085356862284,2628.847228587954,-1.1213870103683308,39275.716565449664,10.5,10500039275.716566,47.655,-122.3035,60.0,7.65
2026-01-20T23:07:40+00:00,SAT-56474,285.62447998296614,43.968344736697816,2627.7288319429467,-1.1050348540566766,38702.99488186292,10.5,10500038702.994883,47.655,-122.3035,60.0,7.666666666666667
2026-01-20T23:07:41+00:00,SAT-56474,285.8417275943367,43.978036856613414,2626.6267438485006,-1.088660741524815,38129.50419856979,10.5,10500038129.504198,47.655,-122.3035,60.0,7.683333333333334
2026-01-20T23:07:42+00:00,SAT-56474,286.0592237771712,43.987160096292996,2625.5409862022866,-1.0722649607503947,37555.25460176568,10.5,10500037555.254602,47.655,-122.3035,60.0,7.7
2026-01-20T23:07:43+00:00,SAT-56474,286.27696142547654,43.99571287572557,2624.4715806147647,-1.0558478033204426,36980.25630406168,10.5,10500036980.256304,47.655,-122.3035,60.0,7.716666666666667
2026-01-20T23:07:44+00:00,SAT-56474,286.4949333873333,44.003693655638614,2623.4185484055865,-1.0394095573996331,36404.51939820363,10.5,10500036404.519398,47.655,-122.3035,60.0,7.733333333333333
2026-01-20T23:07:45+00:00,SAT-56474,286.71313246503996,44.0111009378693,2622.381910607007,-1.022950514102856,35828.05408026638,10.5,10500035828.054081,47.655,-122.3035,60.0,7.75
2026-01-20T23:07:46+00:00,SAT-56474,286.93155141651243,44.01793326578248,2621.3616879609413,-1.006470976505954,35250.87096524796,10.5,10500035250.870966,47.655,-122.3035,60.0,7.766666666666667
2026-01-20T23:07:47+00:00,SAT-56474,287.1501829588569,44.02418922472945,2620.3579009070395,-0.9899712317713921,34672.980110792574,10.5,10500034672.98011,47.655,-122.3035,60.0,7.783333333333333
2026-01-20T23:07:48+00:00,SAT-56474,287.36901976564025,44.02986744231931,2619.3705695985527,-0.9734515800354696,34094.39202894301,10.5,10500034094.392029,47.655,-122.3035,60.0,7.8
2026-01-20T23:07:49+00:00,SAT-56474,287.58805447071603,44.03496658887141,2618.399713889398,-0.9569123239318779,33515.11731921127,10.5,10500033515.11732,47.655,-122.3035,60.0,7.816666666666666
2026-01-20T23:07:50+00:00,SAT-56474,287.8072796696873,44.039485377783535,2617.445353331663,-0.9403537676448859,32935.16663541717,10.5,10500032935.166636,47.655,-122.3035,60.0,7.833333333333333
2026-01-20T23:07:51+00:00,SAT-56474,288.02668792131595,44.0434225658792,2616.507507174065,-0.9237762086035073,32354.550394782866,10.5,10500032354.550394,47.655,-122.3035,60.0,7.85
2026-01-20T23:07:52+00:00,SAT-56474,288.24627174673736,44.046776953723494,2615.586194368684,-0.9071799547325083,31773.279382136217,10.5,10500031773.279383,47.655,-122.3035,60.0,7.866666666666666
2026-01-20T23:07:53+00:00,SAT-56474,288.4660236329765,44.04954738599872,2614.6814335604977,-0.8905653169068728,31191.364485634138,10.5,10500031191.364485,47.655,-122.3035,60.0,7.883333333333334
2026-01-20T23:07:54+00:00,SAT-56474,288.6859360347066,44.05173275182689,2613.7932430844357,-0.873932600194664,30608.816390050655,10.5,10500030608.816391,47.655,-122.3035,60.0,7.9
2026-01-20T23:07:55+00:00,SAT-56474,288.90600137377794,44.0533319850636,2612.9216409711753,-0.8572821131508422,30025.645902285654,10.5,10500030025.645903,47.655,-122.3035,60.0,7.916666666666667
2026-01-20T23:07:56+00:00,SAT-56474,289.12621204100543,44.05434406461651,2612.0666449436594,-0.8406141743214591,29441.86417916931,10.5,10500029441.86418,47.655,-122.3035,60.0,7.933333333333334
2026-01-20T23:07:57+00:00,SAT-56474,289.3465603999346,44.05476801474431,2611.228272407136,-0.8239290925836861,28857.482038886727,10.5,10500028857.482038,47.655,-122.3035,60.0,7.95
2026-01-20T23:07:58+00:00,SAT-56474,289.5670387852242,44.054602905326725,2610.4065404587996,-0.8072271847866294,28272.510578833866,10.5,10500028272.510578,47.655,-122.3035,60.0,7.966666666666667
2026-01-20T23:07:59+00:00,SAT-56474,289.7876395058527,44.053847852143974,2609.601465879839,-0.7905087666531803,27686.960856961894,10.5,10500027686.960857,47.655,-122.3035,60.0,7.983333333333333
2026-01-20T23:08:00+00:00,SAT-56474,290.00835484582365,44.052502017136824,2608.8130651365636,-0.7737741611956264,27100.844186527454,10.5,10500027100.844187,47.655,-122.3035,60.0,8.0
2026-01-20T23:08:01+00:00,SAT-56474,290.22917706742123,44.05056460863994,2608.041354373131,-0.7570236827204504,26514.171575873097,10.5,10500026514.171576,47.655,-122.3035,60.0,8.016666666666667
2026-01-20T23:08:02+00:00,SAT-56474,290.4500984096118,44.048034881644696,2607.286349420231,-0.7402576554022386,25926.95437896408,10.5,10500025926.954378,47.655,-122.3035,60.0,8.033333333333333
2026-01-20T23:08:03+00:00,SAT-56474,290.67111109209264,44.04491213800289,2606.548065785243,-0.723476402212621,25339.203907633062,10.5,10500025339.203907,47.655,-122.3035,60.0,8.05
2026-01-20T23:08:04+00:00,SAT-56474,290.8922073160461,44.04119572664412,2605.826518653437,-0.706680249894218,24750.931605788723,10.5,10500024750.931606,47.655,-122.3035,60.0,8.066666666666666
2026-01-20T23:08:05+00:00,SAT-56474,291.1133792664436,44.03688504375906,2605.121722884209,-0.6898695191692787,24162.14870648089,10.5,10500024162.148706,47.655,-122.3035,60.0,8.083333333333334
2026-01-20T23:08:06+00:00,SAT-56474,291.33461911108463,44.03197953303989,2604.4336930170907,-0.6730445423073139,23572.86684719332,10.5,10500023572.866848,47.655,-122.3035,60.0,8.1
2026-01-20T23:08:07+00:00,SAT-56474,291.55591900565594,44.026478685780695,2603.7624432602292,-0.6562056435896357,22983.09738562928,10.5,10500022983.097385,47.655,-122.3035,60.0,8.116666666666667
2026-01-20T23:08:08+00:00,SAT-56474,291.77727109196945,44.02038204111903,2603.107987498356,-0.6393531566609975,22392.85200743934,10.5,10500022392.852007,47.655,-122.3035,60.0,8.133333333333333
2026-01-20T23:08:09+00:00,SAT-56474,291.99866750246645,44.01368918610984,2602.4703392834463,-0.6224874101479905,21802.142222516817,10.5,10500021802.142223,47.655,-122.3035,60.0,8.15
2026-01-20T23:08:10+00:00,SAT-56474,292.22010035944714,44.00639975592848,2601.849511839725,-0.6056087384673537,21210.979743550502,10.5,10500021210.979744,47.655,-122.3035,60.0,8.166666666666666
2026-01-20T23:08:11+00:00,SAT-56474,292.44156177842683,43.99851343393962,2601.2455180578936,-0.588717473939928,20619.376209821945,10.5,10500020619.37621,47.655,-122.3035,60.0,8.183333333333334
2026-01-20T23:08:12+00:00,SAT-56474,292.6630438683112,43.99002995185872,2600.658370497217,-0.5718139518825097,20027.343365543747,10.5,10500020027.343365,47.655,-122.3035,60.0,8.2
2026-01-20T23:08:13+00:00,SAT-56474,292.8845387338172,43.98094908982019,2600.08808138254,-0.5548985084941647,19434.892985829312,10.5,10500019434.892986,47.655,-122.3035,60.0,8.216666666666667
2026-01-20T23:08:14+00:00,SAT-56474,293.1060384768145,43.971270676474774,2599.534662603402,-0.5379714808912952,18842.03687792106,10.5,10500018842.036879,47.655,-122.3035,60.0,8.233333333333333
2026-01-20T23:08:15+00:00,SAT-56474,293.3275351979619,43.960994589058416,2598.9981257131262,-0.5210332067574771,18248.786868926203,10.5,10500018248.78687,47.655,-122.3035,60.0,8.25
2026-01-20T23:08:16+00:00,SAT-56474,293.54902099786847,43.95012075347679,2598.4784819282536,-0.5040840281937325,17655.15494066963,10.5,10500017655.154942,47.655,-122.3035,60.0,8.266666666666667
2026-01-20T23:08:17+00:00,SAT-56474,293.7704879804719,43.93864914425896,2597.975742124135,-0.48712428215078435,17061.15289459095,10.5,10500017061.152895,47.655,-122.3035,60.0,8.283333333333333
2026-01-20T23:08:18+00:00,SAT-56474,293.991928251486,43.92657978475353,2597.48991684007,-0.47015431209574904,16466.792760361455,10.5,10500016466.79276,47.655,-122.3035,60.0,8.3
2026-01-20T23:08:19+00:00,SAT-56474,294.21333392273704,43.91391274700874,2597.0210162728067,-0.45317445978507576,15872.086507737617,10.5,10500015872.086508,47.655,-122.3035,60.0,8.316666666666666
2026-01-20T23:08:20+00:00,SAT-56474,294.43469711236577,43.90064815185352,2596.5690502782472,-0.4361850700407952,15277.046213845546,10.5,10500015277.046213,47.655,-122.3035,60.0,8.333333333333334
2026-01-20T23:08:21+00:00,SAT-56474,294.6560099475846,43.88678616882223,2596.1340283683935,-0.4191864851936446,14681.683868555721,10.5,10500014681.683868,47.655,-122.3035,60.0,8.35
2026-01-20T23:08:22+00:00,SAT-56474,294.87726456431744,43.87232701625601,2595.715959713827,-0.40217905145817673,14086.011597766264,10.5,10500014086.011599,47.655,-122.3035,60.0,8.366666666666667
2026-01-20T23:08:23+00:00,SAT-56474,295.0984531105285,43.85727096116344,2595.3148531398397,-0.38516311534879405,13490.041537877307,10.5,10500013490.041538,47.655,-122.3035,60.0,8.383333333333333
2026-01-20T23:08:24+00:00,SAT-56474,295.3195677473693,43.84161831920062,2594.9307171261316,-0.36813902393131753,12893.785844601982,10.5,10500012893.785845,47.655,-122.3035,60.0,8.4
2026-01-20T23:08:25+00:00,SAT-56474,295.54060065077283,43.82536945460748,2594.563559806264,-0.3511071233572806,12297.256641631213,10.5,10500012297.256641,47.655,-122.3035,60.0,8.416666666666666
2026-01-20T23:08:26+00:00,SAT-56474,295.76154401163,43.80852478024286,2594.2133889685692,-0.3340677639440944,11700.466198562577,10.5,10500011700.466198,47.655,-122.3035,60.0,8.433333333333334
2026-01-20T23:08:27+00:00,SAT-56474,295.9823900398698,43.791084757311616,2593.8802120519954,-0.31702129393105916,11103.426712209422,10.5,10500011103.426712,47.655,-122.3035,60.0,8.45
2026-01-20T23:08:28+00:00,SAT-56474,296.2031309638388,43.773049895431164,2593.5640361481815,-0.2999680631664991,10506.150435739917,10.5,10500010506.150436,47.655,-122.3035,60.0,8.466666666666667
2026-01-20T23:08:29+00:00,SAT-56474,296.42375903264366,43.754420752461606,2593.26486799985,-0.28290842289481805,9908.649671218845,10.5,10500009908.649672,47.655,-122.3035,60.0,8.483333333333333
2026-01-20T23:08:30+00:00,SAT-56474,296.64426651820526,43.73519793433583,2592.9827139994163,-0.2658427238298383,9310.936702127785,10.5,10500009310.936703,47.655,-122.3035,60.0,8.5
2026-01-20T23:08:31+00:00,SAT-56474,296.86464571582655,43.71538209500458,2592.717580189517,-0.24877131763067117,8713.023845056327,10.5,10500008713.023846,47.655,-122.3035,60.0,8.516666666666667
2026-01-20T23:08:32+00:00,SAT-56474,297.08488894586054,43.69497393627759,2592.469472262066,-0.23169455640061185,8114.923432151266,10.5,10500008114.923431,47.655,-122.3035,60.0,8.533333333333333
2026-01-20T23:08:33+00:00,SAT-56474,297.30498855521864,43.673974207662184,2592.238395557816,-0.21461279380878068,7516.6478504012175,10.5,10500007516.64785,47.655,-122.3035,60.0,8.55
2026-01-20T23:08:34+00:00,SAT-56474,297.5249369197629,43.65238370610398,2592.024355064791,-0.1975263828056753,6918.2094616255845,10.5,10500006918.209461,47.655,-122.3035,60.0,8.566666666666666
2026-01-20T23:08:35+00:00,SAT-56474,297.7447264448376,43.63020327588488,2591.8273554190064,-0.1804356769923146,6319.620650427781,10.5,10500006319.620651,47.655,-122.3035,60.0,8.583333333333334
2026-01-20T23:08:36+00:00,SAT-56474,297.9643495664853,43.6074338084528,2591.6474009038193,-0.16334103077677045,5720.89382967763,10.5,10500005720.89383,47.655,-122.3035,60.0,8.6
2026-01-20T23:08:37+00:00,SAT-56474,298.18379875366315,43.58407624213329,2591.4844954491246,-0.14624279851883398,5122.041410553953,10.5,10500005122.04141,47.655,-122.3035,60.0,8.616666666666667
