satellites_20260121_005943/SAT-54179.csv

timestamp,satellite,azimuth_deg,elevation_deg,distance_km,relative_velocity_kms,doppler_shift_hz,tx_freq_ghz,rx_freq_hz,ue_lat,ue_lon,ue_alt_m,time_minutes
2026-01-20T23:10:55+00:00,SAT-54179,200.88498024809755,30.054685655942677,1376.7669046572664,-6.396053370699683,224016.8443208357,10.5,10500224016.84432,47.655,-122.3035,60.0,10.916666666666666
2026-01-20T23:10:56+00:00,SAT-54179,200.74134566278119,30.139662323343472,1370.3879074288884,-6.390515018398549,223822.86779604296,10.5,10500223822.867796,47.655,-122.3035,60.0,10.933333333333334
2026-01-20T23:10:57+00:00,SAT-54179,200.5963678840007,30.22505755464029,1364.0144337838724,-6.384891357299832,223625.90339630304,10.5,10500223625.903397,47.655,-122.3035,60.0,10.95
2026-01-20T23:10:58+00:00,SAT-54179,200.45002617228397,30.3108744396135,1357.6465688035253,-6.379180921568377,223425.8997818683,10.5,10500223425.899782,47.655,-122.3035,60.0,10.966666666666667
2026-01-20T23:10:59+00:00,SAT-54179,200.30229938508094,30.39711605731535,1351.284399031081,-6.373382142473588,223222.80200915752,10.5,10500223222.80201,47.655,-122.3035,60.0,10.983333333333333
2026-01-20T23:11:00+00:00,SAT-54179,200.15316596936302,30.48378547295063,1344.9280125743207,-6.367493495365813,223016.55667849068,10.5,10500223016.556679,47.655,-122.3035,60.0,11.0
2026-01-20T23:11:01+00:00,SAT-54179,200.00260395073528,30.570885736691253,1338.5774990616092,-6.361513362385359,222807.10712557775,10.5,10500222807.107126,47.655,-122.3035,60.0,11.016666666666667
2026-01-20T23:11:02+00:00,SAT-54179,199.85059092537156,30.658419880474856,1332.232949734857,-6.3554401230775595,222594.39659524182,10.5,10500222594.396595,47.655,-122.3035,60.0,11.033333333333333
2026-01-20T23:11:03+00:00,SAT-54179,199.69710404967395,30.74639091593704,1325.8944574521074,-6.34927209639423,222378.36621006462,10.5,10500222378.36621,47.655,-122.3035,60.0,11.05
2026-01-20T23:11:04+00:00,SAT-54179,199.54212003104675,30.834801831438696,1319.5621167479703,-6.343007597167304,222158.95694833223,10.5,10500222158.95695,47.655,-122.3035,60.0,11.066666666666666
2026-01-20T23:11:05+00:00,SAT-54179,199.385615117069,30.92365558974185,1313.236023837729,-6.336644876875053,221936.10756941745,10.5,10500221936.107569,47.655,-122.3035,60.0,11.083333333333334
2026-01-20T23:11:06+00:00,SAT-54179,199.2275650858407,31.01295512472856,1306.9162766805255,-6.330182187095362,221709.75683618197,10.5,10500221709.756836,47.655,-122.3035,60.0,11.1
2026-01-20T23:11:07+00:00,SAT-54179,199.0679452345188,31.102703338885767,1300.6029749792624,-6.3236176657313266,221479.83953011563,10.5,10500221479.83953,47.655,-122.3035,60.0,11.116666666666667
2026-01-20T23:11:08+00:00,SAT-54179,198.9067303703796,31.1929030990056,1294.296220293973,-6.316949513326419,221246.29262663904,10.5,10500221246.292627,47.655,-122.3035,60.0,11.133333333333333
2026-01-20T23:11:09+00:00,SAT-54179,198.74389479730198,31.283557234286356,1287.9961159793488,-6.310175777337898,221009.04773944625,10.5,10500221009.047739,47.655,-122.3035,60.0,11.15
2026-01-20T23:11:10+00:00,SAT-54179,198.57941230726993,31.37466853113868,1281.702767337417,-6.3032945773968345,220768.0390100633,10.5,10500220768.039011,47.655,-122.3035,60.0,11.166666666666666
2026-01-20T23:11:11+00:00,SAT-54179,198.41325616604936,31.466239731131505,1275.41628154556,-6.296303915199364,220523.19644943613,10.5,10500220523.19645,47.655,-122.3035,60.0,11.183333333333334
2026-01-20T23:11:12+00:00,SAT-54179,198.24539910327377,31.558273525961813,1269.1367677741343,-6.2892017601381545,220274.44893710644,10.5,10500220274.448936,47.655,-122.3035,60.0,11.2
2026-01-20T23:11:13+00:00,SAT-54179,198.07581330013687,31.650772553504574,1262.86433721869,-6.281986075174862,220021.7251273748,10.5,10500220021.725128,47.655,-122.3035,60.0,11.216666666666667
2026-01-20T23:11:14+00:00,SAT-54179,197.9044703761234,31.743739394073764,1256.5991031063822,-6.274654712763073,219764.9498040817,10.5,10500219764.949804,47.655,-122.3035,60.0,11.233333333333333
2026-01-20T23:11:15+00:00,SAT-54179,197.73134137809416,31.83717656490048,1250.3411808061865,-6.267205550054079,219504.0486160857,10.5,10500219504.048616,47.655,-122.3035,60.0,11.25
2026-01-20T23:11:16+00:00,SAT-54179,197.55639676561742,31.931086516481024,1244.0906878042658,-6.259636378116903,219238.94419728022,10.5,10500219238.944197,47.655,-122.3035,60.0,11.266666666666667
2026-01-20T23:11:17+00:00,SAT-54179,197.37960639880467,32.025471626997806,1237.8477437898239,-6.25194494539948,218969.55768878796,10.5,10500218969.55769,47.655,-122.3035,60.0,11.283333333333333
2026-01-20T23:11:18+00:00,SAT-54179,197.20093952477728,32.12033419719639,1231.6124706976123,-6.244128917623769,218695.80733431783,10.5,10500218695.807335,47.655,-122.3035,60.0,11.3
2026-01-20T23:11:19+00:00,SAT-54179,197.0203647648663,32.215676444372264,1225.3849927904355,-6.236185991440706,218417.61246084253,10.5,10500218417.612461,47.655,-122.3035,60.0,11.316666666666666
2026-01-20T23:11:20+00:00,SAT-54179,196.837850098412,32.311500497932656,1219.1654366283053,-6.228113739996716,218134.88806968424,10.5,10500218134.88807,47.655,-122.3035,60.0,11.333333333333334
2026-01-20T23:11:21+00:00,SAT-54179,196.6533628504294,32.40780839223687,1212.9539311916153,-6.219909700289562,217847.54789608612,10.5,10500217847.547895,47.655,-122.3035,60.0,11.35
2026-01-20T23:11:22+00:00,SAT-54179,196.46686967661932,32.5046020605636,1206.750607917193,-6.211571359312756,217555.50392393107,10.5,10500217555.503923,47.655,-122.3035,60.0,11.366666666666667
2026-01-20T23:11:23+00:00,SAT-54179,196.27833654837332,32.60188332856087,1200.5556007481719,-6.203096164949001,217258.66676727575,10.5,10500217258.666767,47.655,-122.3035,60.0,11.383333333333333
2026-01-20T23:11:24+00:00,SAT-54179,196.08772873717416,32.69965390760222,1194.3690461729961,-6.194481479506951,216956.9440430119,10.5,10500216956.944042,47.655,-122.3035,60.0,11.4
2026-01-20T23:11:25+00:00,SAT-54179,195.89501079994207,32.79791538704491,1188.1910833107677,-6.1857246089268285,216650.24139377015,10.5,10500216650.241394,47.655,-122.3035,60.0,11.416666666666666
2026-01-20T23:11:26+00:00,SAT-54179,195.70014656332035,32.89666922668946,1182.0218539674647,-6.176822823742961,216338.46322211713,10.5,10500216338.463223,47.655,-122.3035,60.0,11.433333333333334
2026-01-20T23:11:27+00:00,SAT-54179,195.50309910687903,32.995916749188446,1175.8615026712519,-6.1677733126197944,216021.51106318974,10.5,10500216021.511063,47.655,-122.3035,60.0,11.45
2026-01-20T23:11:28+00:00,SAT-54179,195.30383074743105,33.09565913138392,1169.7101767541324,-6.158573212052759,215699.28462494534,10.5,10500215699.284624,47.655,-122.3035,60.0,11.466666666666667
2026-01-20T23:11:29+00:00,SAT-54179,195.10230302212426,33.19589739575467,1163.5680264039784,-6.149219577687398,215371.68078363626,10.5,10500215371.680784,47.655,-122.3035,60.0,11.483333333333333
2026-01-20T23:11:30+00:00,SAT-54179,194.8984766720467,33.29663240098672,1157.4352047451648,-6.139709415766481,215038.59468522068,10.5,10500215038.594685,47.655,-122.3035,60.0,11.5
2026-01-20T23:11:31+00:00,SAT-54179,194.69231162457712,33.39786483269114,1151.3118678878404,-6.130039648639418,214699.91853735654,10.5,10500214699.918537,47.655,-122.3035,60.0,11.516666666666667
2026-01-20T23:11:32+00:00,SAT-54179,194.48376697643678,33.49959519309732,1145.1981750115974,-6.12020718331462,214355.54401039504,10.5,10500214355.54401,47.655,-122.3035,60.0,11.533333333333333
2026-01-20T23:11:33+00:00,SAT-54179,194.27280097423977,33.60182379151863,1139.0942883807716,-6.110208749368403,214005.3565602649,10.5,10500214005.35656,47.655,-122.3035,60.0,11.55
2026-01-20T23:11:34+00:00,SAT-54179,194.05937099997715,33.704550731523334,1133.0003735214016,-6.100041105739605,213649.24267129446,10.5,10500213649.242672,47.655,-122.3035,60.0,11.566666666666666
2026-01-20T23:11:35+00:00,SAT-54179,193.84343354946205,33.8077759012433,1126.916599191944,-6.089700909397976,213287.08525642345,10.5,10500213287.085257,47.655,-122.3035,60.0,11.583333333333334
2026-01-20T23:11:36+00:00,SAT-54179,193.62494421468153,33.91149896088339,1120.843137484971,-6.079184706877492,212918.76336066358,10.5,10500212918.763361,47.655,-122.3035,60.0,11.6
2026-01-20T23:11:37+00:00,SAT-54179,193.4038576662943,34.01571932959539,1114.780163937312,-6.068489001978471,212544.154532313,10.5,10500212544.154531,47.655,-122.3035,60.0,11.616666666666667
2026-01-20T23:11:38+00:00,SAT-54179,193.18012763342352,34.120436172941346,1108.727857572672,-6.057610205783014,212163.1330722858,10.5,10500212163.133072,47.655,-122.3035,60.0,11.633333333333333
2026-01-20T23:11:39+00:00,SAT-54179,192.95370688499145,34.22564838898454,1102.6864009941044,-6.046544677851678,211775.57147699365,10.5,10500211775.571478,47.655,-122.3035,60.0,11.65
2026-01-20T23:11:40+00:00,SAT-54179,192.72454720919703,34.33135459446864,1096.6559804353935,-6.035288607455697,211381.33627859585,10.5,10500211381.336279,47.655,-122.3035,60.0,11.666666666666666
2026-01-20T23:11:41+00:00,SAT-54179,192.49259939716828,34.437553108277704,1090.6367859308912,-6.023838255097754,210980.2965040782,10.5,10500210980.296505,47.655,-122.3035,60.0,11.683333333333334
2026-01-20T23:11:42+00:00,SAT-54179,192.25781321746751,34.54424193863553,1084.6290112444735,-6.012189607516897,210572.3115920662,10.5,10500210572.311592,47.655,-122.3035,60.0,11.7
2026-01-20T23:11:43+00:00,SAT-54179,192.0201374031351,34.65141876334554,1078.6328541425767,-6.000338728964457,210157.24369599318,10.5,10500210157.243696,47.655,-122.3035,60.0,11.716666666666667
2026-01-20T23:11:44+00:00,SAT-54179,191.77951962546524,34.759080915776956,1072.6485163168895,-5.988281469761864,209734.9474765625,10.5,10500209734.947477,47.655,-122.3035,60.0,11.733333333333333
2026-01-20T23:11:45+00:00,SAT-54179,191.53590647859923,34.86722536478436,1066.6762035977138,-5.976013653669201,209305.27666418682,10.5,10500209305.276665,47.655,-122.3035,60.0,11.75
2026-01-20T23:11:46+00:00,SAT-54179,191.2892434568159,34.975848697298076,1060.7161259804543,-5.963531021464811,208868.08208290723,10.5,10500208868.082083,47.655,-122.3035,60.0,11.766666666666667
2026-01-20T23:11:47+00:00,SAT-54179,191.03947493386596,35.08494709916798,1054.76849770838,-5.950829165290415,208423.20935088152,10.5,10500208423.20935,47.655,-122.3035,60.0,11.783333333333333
2026-01-20T23:11:48+00:00,SAT-54179,190.78654414481156,35.19451633390343,1048.8335374208636,-5.9379035998562575,207970.50137428974,10.5,10500207970.501375,47.655,-122.3035,60.0,11.8
2026-01-20T23:11:49+00:00,SAT-54179,190.5303931650918,35.30455172193998,1042.9114682306072,-5.924749759255209,207509.79823575047,10.5,10500207509.798235,47.655,-122.3035,60.0,11.816666666666666
2026-01-20T23:11:50+00:00,SAT-54179,190.27096288958285,35.415048118972315,1037.0025178040432,-5.9113629598786,207040.9358954764,10.5,10500207040.935896,47.655,-122.3035,60.0,11.833333333333334
2026-01-20T23:11:51+00:00,SAT-54179,190.00819301328704,35.52599989269019,1031.1069184787243,-5.897738397653412,206563.74609450926,10.5,10500206563.746094,47.655,-122.3035,60.0,11.85
2026-01-20T23:11:52+00:00,SAT-54179,189.742022012239,35.637400898494214,1025.2249073834646,-5.883871202364365,206078.0582573089,10.5,10500206078.058258,47.655,-122.3035,60.0,11.866666666666667
2026-01-20T23:11:53+00:00,SAT-54179,189.47238712223046,35.74924445532491,1019.3567265043065,-5.86975632820676,205583.6956584511,10.5,10500205583.695658,47.655,-122.3035,60.0,11.883333333333333
2026-01-20T23:11:54+00:00,SAT-54179,189.19922432250485,35.86152331830472,1013.5026228596416,-5.855388719952991,205080.48124248144,10.5,10500205080.481243,47.655,-122.3035,60.0,11.9
2026-01-20T23:11:55+00:00,SAT-54179,188.9224683123853,35.97422965366736,1007.6628485096086,-5.840763071295577,204568.22916006632,10.5,10500204568.22916,47.655,-122.3035,60.0,11.916666666666666
2026-01-20T23:11:56+00:00,SAT-54179,188.64205249904674,36.08735500774257,1001.8376608065031,-5.825874112530675,204046.75484388633,10.5,10500204046.754845,47.655,-122.3035,60.0,11.933333333333334
2026-01-20T23:11:57+00:00,SAT-54179,188.35790897270934,36.200890280638994,996.0273223582725,-5.810716323849965,203515.86496690533,10.5,10500203515.864967,47.655,-122.3035,60.0,11.95
2026-01-20T23:11:58+00:00,SAT-54179,188.06996849541093,36.31482569295347,990.2321012779529,-5.795284146507619,202975.36483833092,10.5,10500202975.364838,47.655,-122.3035,60.0,11.966666666666667
2026-01-20T23:11:59+00:00,SAT-54179,187.77816048068524,36.4291507555939,984.4522712225025,-5.779571873304649,202425.05456791315,10.5,10500202425.054567,47.655,-122.3035,60.0,11.983333333333333
2026-01-20T23:12:00+00:00,SAT-54179,187.48241297894089,36.54385423612392,978.6881115408601,-5.763573662952475,201864.72956901736,10.5,10500201864.729568,47.655,-122.3035,60.0,12.0
2026-01-20T23:12:01+00:00,SAT-54179,187.1826526630793,36.658924124147,972.9399074076755,-5.747283551628321,201294.1809633429,10.5,10500201294.180964,47.655,-122.3035,60.0,12.016666666666667
2026-01-20T23:12:02+00:00,SAT-54179,186.87880481442957,36.77434759559363,967.2079499455182,-5.730695496370061,200713.19710079444,10.5,10500200713.197102,47.655,-122.3035,60.0,12.033333333333333
2026-01-20T23:12:03+00:00,SAT-54179,186.57079330745464,36.890110976617976,961.4925363038051,-5.713803193514836,200121.5572004342,10.5,10500200121.557201,47.655,-122.3035,60.0,12.05
2026-01-20T23:12:04+00:00,SAT-54179,186.25854060499515,37.00619970224303,955.7939699188063,-5.696600374832743,199519.04172233643,10.5,10500199519.041723,47.655,-122.3035,60.0,12.066666666666666
2026-01-20T23:12:05+00:00,SAT-54179,185.9419677395037,37.12259827988646,950.1125604783064,-5.679080506423647,198905.42182168,10.5,10500198905.421822,47.655,-122.3035,60.0,12.083333333333334
2026-01-20T23:12:06+00:00,SAT-54179,185.62099431135618,37.239290244995814,944.4486241865666,-5.661236982474444,198280.46613494746,10.5,10500198280.466135,47.655,-122.3035,60.0,12.1
2026-01-20T23:12:07+00:00,SAT-54179,185.295538478742,37.356258119385956,938.8024838360453,-5.643063006593934,197643.93662377025,10.5,10500197643.936625,47.655,-122.3035,60.0,12.116666666666667
2026-01-20T23:12:08+00:00,SAT-54179,184.96551695564335,37.473483365415895,933.174468997469,-5.624551705098823,196995.5925426838,10.5,10500196995.592543,47.655,-122.3035,60.0,12.133333333333333
2026-01-20T23:12:09+00:00,SAT-54179,184.63084500563164,37.59094634114069,927.5649160969172,-5.605696006107989,196335.18620449712,10.5,10500196335.186205,47.655,-122.3035,60.0,12.15
2026-01-20T23:12:10+00:00,SAT-54179,184.29143644455738,37.70862625119708,921.9741686134921,-5.586488717037852,195662.46569450875,10.5,10500195662.465694,47.655,-122.3035,60.0,12.166666666666666
2026-01-20T23:12:11+00:00,SAT-54179,183.94720364137885,37.82650109779265,916.4025771996997,-5.566922491769997,194977.17372057762,10.5,10500194977.173721,47.655,-122.3035,60.0,12.183333333333334
2026-01-20T23:12:12+00:00,SAT-54179,183.59805752345113,37.94454762929668,910.8504998345744,-5.546989835820897,194279.04779418904,10.5,10500194279.047794,47.655,-122.3035,60.0,12.2
2026-01-20T23:12:13+00:00,SAT-54179,183.24390758449516,38.06274128732763,905.318301971649,-5.526683107751599,193567.8202798277,10.5,10500193567.82028,47.655,-122.3035,60.0,12.216666666666667
2026-01-20T23:12:14+00:00,SAT-54179,182.8846618955824,38.18105615214879,899.8063566855182,-5.505994494970993,192843.21754750557,10.5,10500192843.217548,47.655,-122.3035,60.0,12.233333333333333
2026-01-20T23:12:15+00:00,SAT-54179,182.5202271211736,38.29946488585286,894.3150448425338,-5.48491606424473,192104.96174179827,10.5,10500192104.961742,47.655,-122.3035,60.0,12.25
2026-01-20T23:12:16+00:00,SAT-54179,182.15050853566683,38.417938674968475,888.844755221127,-5.46343968907963,191352.76823853957,10.5,10500191352.768238,47.655,-122.3035,60.0,12.266666666666667
2026-01-20T23:12:17+00:00,SAT-54179,181.77541004870304,38.53644716971709,883.3958847045516,-5.441557133513632,190586.34857950007,10.5,10500190586.34858,47.655,-122.3035,60.0,12.283333333333333
2026-01-20T23:12:18+00:00,SAT-54179,181.3948342293829,38.654958423461125,877.9688383900606,-5.419259929381983,189805.40617372977,10.5,10500189805.406174,47.655,-122.3035,60.0,12.3
2026-01-20T23:12:19+00:00,SAT-54179,181.00868234352535,38.77343882766478,872.5640298204903,-5.396539539247671,189009.64200407118,10.5,10500189009.642004,47.655,-122.3035,60.0,12.316666666666666
2026-01-20T23:12:20+00:00,SAT-54179,180.6168543850187,38.891853048897076,867.1818810533474,-5.37338721611358,188198.74971368554,10.5,10500188198.749714,47.655,-122.3035,60.0,12.333333333333334
2026-01-20T23:12:21+00:00,SAT-54179,180.2192491222645,39.010163961000934,861.82282286981,-5.349794061577447,187372.41764288544,10.5,10500187372.417643,47.655,-122.3035,60.0,12.35
2026-01-20T23:12:22+00:00,SAT-54179,179.8157641465994,39.12833257690194,856.4872949257301,-5.325750992234847,186530.32765242513,10.5,10500186530.327652,47.655,-122.3035,60.0,12.366666666666667
2026-01-20T23:12:23+00:00,SAT-54179,179.40629592974508,39.24631797816865,851.1757459361412,-5.301248846672928,185672.15887087377,10.5,10500185672.15887,47.655,-122.3035,60.0,12.383333333333333
2026-01-20T23:12:24+00:00,SAT-54179,178.99073987998676,39.36407724546557,845.8886337530595,-5.276278181540107,184797.58055211353,10.5,10500184797.580553,47.655,-122.3035,60.0,12.4
2026-01-20T23:12:25+00:00,SAT-54179,178.56899042113577,39.48156538285946,840.6264256466702,-5.250829532027379,183906.26119849714,10.5,10500183906.261198,47.655,-122.3035,60.0,12.416666666666666
2026-01-20T23:12:26+00:00,SAT-54179,178.14094105952248,39.5987352468555,835.3895983267281,-5.224893153186494,182997.85950071565,10.5,10500182997.8595,47.655,-122.3035,60.0,12.433333333333334
2026-01-20T23:12:27+00:00,SAT-54179,177.70648447934101,39.71553746810287,830.1786382219501,-5.198459238917914,182072.03200768345,10.5,10500182072.032007,47.655,-122.3035,60.0,12.45
2026-01-20T23:12:28+00:00,SAT-54179,177.2655126297838,39.8319203771188,824.9940415410027,-5.1715177529508845,181128.42720674543,10.5,10500181128.427206,47.655,-122.3035,60.0,12.466666666666667
2026-01-20T23:12:29+00:00,SAT-54179,176.81791683523872,39.94782992505158,819.8363145020597,-5.144058581460704,180166.69086897906,10.5,10500180166.690868,47.655,-122.3035,60.0,12.483333333333333
2026-01-20T23:12:30+00:00,SAT-54179,176.3635879029953,40.063209607152345,814.7059734101496,-5.116071372626779,179186.460429839,10.5,10500179186.46043,47.655,-122.3035,60.0,12.5
2026-01-20T23:12:31+00:00,SAT-54179,175.90241625523393,40.17800038183492,809.6035448945165,-5.08754572936583,178187.37173948926,10.5,10500178187.37174,47.655,-122.3035,60.0,12.516666666666667
2026-01-20T23:12:32+00:00,SAT-54179,175.43429205574833,40.2921405938293,804.5295659537622,-5.0584710137829,177169.05221385005,10.5,10500177169.052214,47.655,-122.3035,60.0,12.533333333333333
2026-01-20T23:12:33+00:00,SAT-54179,174.9591053656823,40.4055658924301,799.484584196016,-5.028836514155213,176131.12668307932,10.5,10500176131.126682,47.655,-122.3035,60.0,12.55
2026-01-20T23:12:34+00:00,SAT-54179,174.4767462971292,40.51820915373632,794.4691579125653,-4.998631357311029,175073.21432270922,10.5,10500175073.214323,47.655,-122.3035,60.0,12.566666666666666
2026-01-20T23:12:35+00:00,SAT-54179,173.98710518777477,40.63000040110578,789.4838562388738,-4.967844548267472,173994.93004193073,10.5,10500173994.930042,47.655,-122.3035,60.0,12.583333333333334
2026-01-20T23:12:36+00:00,SAT-54179,173.49007278580908,40.74086672713477,784.5292592760683,-4.936464950286091,172895.88378505487,10.5,10500172895.883785,47.655,-122.3035,60.0,12.6
2026-01-20T23:12:37+00:00,SAT-54179,172.98554045136427,40.85073221610628,779.6059582323163,-4.9044813336652515,171775.68224042896,10.5,10500171775.68224,47.655,-122.3035,60.0,12.616666666666667
2026-01-20T23:12:38+00:00,SAT-54179,172.4734003683642,40.959517868906254,774.7145555155408,-4.8718823404573675,170633.92760468432,10.5,10500170633.927605,47.655,-122.3035,60.0,12.633333333333333
2026-01-20T23:12:39+00:00,SAT-54179,171.95354577567275,41.06714152884,769.8556648613247,-4.838656516840848,169470.2187165392,10.5,10500169470.218716,47.655,-122.3035,60.0,12.65
2026-01-20T23:12:40+00:00,SAT-54179,171.42587121144172,41.173517810346986,765.0299114285287,-4.804792301218466,168284.15063995338,10.5,10500168284.15064,47.655,-122.3035,60.0,12.666666666666666
2026-01-20T23:12:41+00:00,SAT-54179,170.8902727758294,41.278558030105856,760.2379319067802,-4.770278062590642,167075.31600812235,10.5,10500167075.316008,47.655,-122.3035,60.0,12.683333333333334
2026-01-20T23:12:42+00:00,SAT-54179,170.34664840722107,41.382170142217284,755.4803745856899,-4.735102064775104,165843.30377029895,10.5,10500165843.30377,47.655,-122.3035,60.0,12.7
2026-01-20T23:12:43+00:00,SAT-54179,169.79489818059332,41.48425867625734,750.7578994597541,-4.699252567753915,164587.70274139487,10.5,10500164587.702742,47.655,-122.3035,60.0,12.716666666666667
2026-01-20T23:12:44+00:00,SAT-54179,169.23492461303525,41.58472468205082,746.0711782321808,-4.662717696559004,163308.09700979717,10.5,10500163308.09701,47.655,-122.3035,60.0,12.733333333333333
2026-01-20T23:12:45+00:00,SAT-54179,168.66663300333218,41.6834656763651,741.4208944494794,-4.625485596539407,162004.0713754839,10.5,10500162004.071375,47.655,-122.3035,60.0,12.75
2026-01-20T23:12:46+00:00,SAT-54179,168.08993177312132,41.780375598879466,736.8077434811973,-4.587544370250014,160675.20913960133,10.5,10500160675.209139,47.655,-122.3035,60.0,12.766666666666667
2026-01-20T23:12:47+00:00,SAT-54179,167.50473283487548,41.875344773104295,732.2324325626014,-4.548882080038804,159321.09219507928,10.5,10500159321.092196,47.655,-122.3035,60.0,12.783333333333333
2026-01-20T23:12:48+00:00,SAT-54179,166.91095197972234,41.96825987450276,727.695680834776,-4.509486845031429,157941.30442344217,10.5,10500157941.304424,47.655,-122.3035,60.0,12.8
2026-01-20T23:12:49+00:00,SAT-54179,166.30850927306236,42.05900390889003,723.1982192879981,-4.4693467602710415,156535.42886274323,10.5,10500156535.428864,47.655,-122.3035,60.0,12.816666666666666
2026-01-20T23:12:50+00:00,SAT-54179,165.69732948007334,42.147456197699086,718.7407907857544,-4.428449977941846,155103.0505523571,10.5,10500155103.050552,47.655,-122.3035,60.0,12.833333333333334
2026-01-20T23:12:51+00:00,SAT-54179,165.07734250077542,42.233492374991464,714.3241500077536,-4.386784726256207,153643.75719448607,10.5,10500153643.757195,47.655,-122.3035,60.0,12.85
2026-01-20T23:12:52+00:00,SAT-54179,164.4484838214184,42.316984395340874,709.9490633741009,-4.344339257272529,152157.13732652192,10.5,10500152157.137327,47.655,-122.3035,60.0,12.866666666666667
2026-01-20T23:12:53+00:00,SAT-54179,163.8106949922986,42.39780055239679,705.6163090215143,-4.301102006847034,150642.78592323314,10.5,10500150642.785923,47.655,-122.3035,60.0,12.883333333333333
2026-01-20T23:12:54+00:00,SAT-54179,163.1639241010799,42.47580551334386,701.3266766200189,-4.25706145695828,149100.29957478764,10.5,10500149100.299574,47.655,-122.3035,60.0,12.9
2026-01-20T23:12:55+00:00,SAT-54179,162.50812628301287,42.550860364151845,697.0809673269458,-4.212206272240663,147529.28126873347,10.5,10500147529.28127,47.655,-122.3035,60.0,12.916666666666666
2026-01-20T23:12:56+00:00,SAT-54179,161.84326422779898,42.62282267228082,692.8799936047644,-4.166525325469732,145929.3412826022,10.5,10500145929.341282,47.655,-122.3035,60.0,12.933333333333334
2026-01-20T23:12:57+00:00,SAT-54179,161.16930869682804,42.69154656557527,688.724579013496,-4.120007621789286,144300.0945300215,10.5,10500144300.09453,47.655,-122.3035,60.0,12.95
2026-01-20T23:12:58+00:00,SAT-54179,160.48623906563267,42.75688282634451,684.6155580786982,-4.072642455834889,142641.1660638452,10.5,10500142641.166063,47.655,-122.3035,60.0,12.966666666666667
2026-01-20T23:12:59+00:00,SAT-54179,159.79404385336395,42.818679006312486,680.5537760027455,-4.024419343011376,140952.18866920075,10.5,10500140952.18867,47.655,-122.3035,60.0,12.983333333333333
2026-01-20T23:13:00+00:00,SAT-54179,159.09272127244392,42.87677955893194,676.5400884446489,-3.975328133881938,139232.80686987913,10.5,10500139232.80687,47.655,-122.3035,60.0,13.0
2026-01-20T23:13:01+00:00,SAT-54179,158.3822797664857,42.931025993600684,672.5753611857906,-3.9253589504712925,137482.67469740205,10.5,10500137482.674698,47.655,-122.3035,60.0,13.016666666666667
2026-01-20T23:13:02+00:00,SAT-54179,157.66273856349702,42.98125704932481,668.6604698591873,-3.8745023324897807,135701.46081240874,10.5,10500135701.460812,47.655,-122.3035,60.0,13.033333333333333
2026-01-20T23:13:03+00:00,SAT-54179,156.93412820535178,43.02730889248843,664.7962995329175,-3.8227491525066615,133888.84553366565,10.5,10500133888.845533,47.655,-122.3035,60.0,13.05
2026-01-20T23:13:04+00:00,SAT-54179,156.1964910908313,43.06901533559686,660.9837443781508,-3.7700907580132954,132044.5258137201,10.5,10500132044.525814,47.655,-122.3035,60.0,13.066666666666666
2026-01-20T23:13:05+00:00,SAT-54179,155.4498819880721,43.106208081325704,657.2237071954921,-3.7165189573653987,130168.21474653871,10.5,10500130168.214746,47.655,-122.3035,60.0,13.083333333333334
2026-01-20T23:13:06+00:00,SAT-54179,154.69436854052998,43.13871698996086,653.5170989553463,-3.6620260567265603,128259.64286142543,10.5,10500128259.642862,47.655,-122.3035,60.0,13.1
2026-01-20T23:13:07+00:00,SAT-54179,153.930031753654,43.16637037163976,649.8648383014378,-3.606604894370147,126318.55932441952,10.5,10500126318.559324,47.655,-122.3035,60.0,13.116666666666667
2026-01-20T23:13:08+00:00,SAT-54179,153.15696645862715,43.1889953036477,646.2678510201192,-3.550248947980896,124344.73569645107,10.5,10500124344.735697,47.655,-122.3035,60.0,13.133333333333333
2026-01-20T23:13:09+00:00,SAT-54179,152.37528173299745,43.20641797367566,642.7270694026663,-3.4929522716176127,122337.96372550816,10.5,10500122337.963726,47.655,-122.3035,60.0,13.15
2026-01-20T23:13:10+00:00,SAT-54179,151.58510130912825,43.218464047176475,639.2434316704397,-3.4347096195518483,120298.05968399113,10.5,10500120298.059685,47.655,-122.3035,60.0,13.166666666666666
2026-01-20T23:13:11+00:00,SAT-54179,150.78656392696593,43.22495906080599,635.81788127654,-3.3755164677429836,118224.8651208608,10.5,10500118224.86512,47.655,-122.3035,60.0,13.183333333333334
2026-01-20T23:13:12+00:00,SAT-54179,149.97982364695864,43.22572884006349,632.4513661860443,-3.315369033438732,116118.24754813107,10.5,10500116118.24755,47.655,-122.3035,60.0,13.2
2026-01-20T23:13:13+00:00,SAT-54179,149.1650501198736,43.22059994103222,629.1448381366947,-3.254264368771188,113978.1037189984,10.5,10500113978.10372,47.655,-122.3035,60.0,13.216666666666667
2026-01-20T23:13:14+00:00,SAT-54179,148.34242879100015,43.20940011542576,625.8992518062403,-3.1922003339815164,111804.35869005724,10.5,10500111804.35869,47.655,-122.3035,60.0,13.233333333333333
2026-01-20T23:13:15+00:00,SAT-54179,147.51216106288604,43.19195879754632,622.7155640064827,-3.12917572712158,109596.97036399957,10.5,10500109596.970364,47.655,-122.3035,60.0,13.25
2026-01-20T23:13:16+00:00,SAT-54179,146.67446437370097,43.16810761197452,619.5947327479668,-3.0651902753731624,107355.92918557746,10.5,10500107355.929186,47.655,-122.3035,60.0,13.266666666666667
2026-01-20T23:13:17+00:00,SAT-54179,145.82957222064545,43.13768090021761,616.537716313328,-3.0002446712936948,105081.25941108164,10.5,10500105081.25941,47.655,-122.3035,60.0,13.283333333333333
2026-01-20T23:13:18+00:00,SAT-54179,144.97773411409884,43.10051626447408,613.5454722944911,-2.9343406534271526,102773.02193167615,10.5,10500102773.021933,47.655,-122.3035,60.0,13.3
2026-01-20T23:13:19+00:00,SAT-54179,144.1192154465893,43.056455126254995,610.6189565494731,-2.8674810383806015,100431.3153968547,10.5,10500100431.315397,47.655,-122.3035,60.0,13.316666666666666
2026-01-20T23:13:20+00:00,SAT-54179,143.25429728542255,43.00534329712739,607.7591221271948,-2.7996697291757715,98056.27650694802,10.5,10500098056.276506,47.655,-122.3035,60.0,13.333333333333334
2026-01-20T23:13:21+00:00,SAT-54179,142.38327609433958,42.94703155963768,604.9669181839635,-2.730911817829279,95648.08360591721,10.5,10500095648.083607,47.655,-122.3035,60.0,13.35
2026-01-20T23:13:22+00:00,SAT-54179,141.50646335370988,42.881376254014775,602.2432887976483,-2.6612135649855917,93206.9559680141,10.5,10500093206.955969,47.655,-122.3035,60.0,13.366666666666667
2026-01-20T23:13:23+00:00,SAT-54179,140.62418511423385,42.80823986904801,599.5891718021695,-2.590582462296943,90733.15598258947,10.5,10500090733.155983,47.655,-122.3035,60.0,13.383333333333333
2026-01-20T23:13:24+00:00,SAT-54179,139.7367814588503,42.72749163260628,597.005497559772,-2.5190272917309215,88226.99123129601,10.5,10500088226.991232,47.655,-122.3035,60.0,13.4
2026-01-20T23:13:25+00:00,SAT-54179,138.84460587194232,42.639008097732855,594.4931876741523,-2.4465580969418212,85688.81348539169,10.5,10500085688.813486,47.655,-122.3035,60.0,13.416666666666666
2026-01-20T23:13:26+00:00,SAT-54179,137.94802454631827,42.54267372273954,592.0531537321357,-2.3731862699324,83119.02174100124,10.5,10500083119.021742,47.655,-122.3035,60.0,13.433333333333334
2026-01-20T23:13:27+00:00,SAT-54179,137.04741559059198,42.43838143844442,589.6862959589232,-2.298924562174366,80518.06260860253,10.5,10500080518.062609,47.655,-122.3035,60.0,13.45
2026-01-20T23:13:28+00:00,SAT-54179,136.14316816352732,42.32603320007201,587.393501862248,-2.2237870937084323,77886.43063174904,10.5,10500077886.430632,47.655,-122.3035,60.0,13.466666666666667
2026-01-20T23:13:29+00:00,SAT-54179,135.235681540201,42.205540520145725,585.1756448674561,-2.1477893715754153,75224.6689326049,10.5,10500075224.668932,47.655,-122.3035,60.0,13.483333333333333
2026-01-20T23:13:30+00:00,SAT-54179,134.32536411057362,42.0768249779571,583.0335829342048,-2.070948332836911,72533.3707187109,10.5,10500072533.370718,47.655,-122.3035,60.0,13.5
2026-01-20T23:13:31+00:00,SAT-54179,133.41263230402996,41.93981870010332,580.9681571302555,-1.9932823274770042,69813.17868413002,10.5,10500069813.178684,47.655,-122.3035,60.0,13.516666666666667
2026-01-20T23:13:32+00:00,SAT-54179,132.49790946868995,41.79446481058782,578.9801902223184,-1.9148111394444702,67064.78574643441,10.5,10500067064.785746,47.655,-122.3035,60.0,13.533333333333333
2026-01-20T23:13:33+00:00,SAT-54179,131.58162469580662,41.640717844939346,577.0704852459124,-1.835555978330933,64288.93475523923,10.5,10500064288.934755,47.655,-122.3035,60.0,13.55
2026-01-20T23:13:34+00:00,SAT-54179,130.66421160736056,41.47854412573685,575.2398240835237,-1.7555394863646043,61486.41873715297,10.5,10500061486.418737,47.655,-122.3035,60.0,13.566666666666666
2026-01-20T23:13:35+00:00,SAT-54179,129.7461071064142,41.30792209528223,573.4889660357894,-1.6747857309414833,58658.08063418852,10.5,10500058658.080635,47.655,-122.3035,60.0,13.583333333333334
2026-01-20T23:13:36+00:00,SAT-54179,128.8277501022885,41.1288426023038,571.8186464001304,-1.5933201703848778,55804.81210451671,10.5,10500055804.812105,47.655,-122.3035,60.0,13.6
2026-01-20T23:13:37+00:00,SAT-54179,127.90958023195857,40.94130914233243,570.2295750835333,-1.5111696641326064,52927.55387926526,10.5,10500052927.553879,47.655,-122.3035,60.0,13.616666666666667
2026-01-20T23:13:38+00:00,SAT-54179,126.99203656044577,40.745338044573934,568.7224352051717,-1.4283624253354659,50027.29410231658,10.5,10500050027.294102,47.655,-122.3035,60.0,13.633333333333333
2026-01-20T23:13:39+00:00,SAT-54179,126.07555629710694,40.540958608106635,567.2978817463038,-1.344927999792285,47105.06759252427,10.5,10500047105.067593,47.655,-122.3035,60.0,13.65
2026-01-20T23:13:40+00:00,SAT-54179,125.16057352009295,40.328213182674105,565.9565402211776,-1.2608972228044808,44161.95433257714,10.5,10500044161.954332,47.655,-122.3035,60.0,13.666666666666666
2026-01-20T23:13:41+00:00,SAT-54179,124.24751792756672,40.107157194747394,564.6990053909673,-1.1763021832092815,41199.078209290565,10.5,10500041199.078209,47.655,-122.3035,60.0,13.683333333333334
2026-01-20T23:13:42+00:00,SAT-54179,123.33681361662346,39.87785911653343,563.5258400135799,-1.0911761746173099,38217.60530574039,10.5,10500038217.605307,47.655,-122.3035,60.0,13.7
2026-01-20T23:13:43+00:00,SAT-54179,122.42887790184798,39.640400378173204,562.4375736420949,-1.0055536326504286,35218.74170306679,10.5,10500035218.741703,47.655,-122.3035,60.0,13.716666666666667
2026-01-20T23:13:44+00:00,SAT-54179,121.52412018899317,39.39487522538969,561.4347014857982,-0.9194700855110778,32203.731749203365,10.5,10500032203.731749,47.655,-122.3035,60.0,13.733333333333333
2026-01-20T23:13:45+00:00,SAT-54179,120.62294089642143,39.14139051972102,560.5176833205151,-0.8329620844381806,29173.85562314879,10.5,10500029173.855623,47.655,-122.3035,60.0,13.75
2026-01-20T23:13:46+00:00,SAT-54179,119.72573044189221,38.8800654850648,559.686942468302,-0.7460671304344325,26130.426768646535,10.5,10500026130.42677,47.655,-122.3035,60.0,13.766666666666667
2026-01-20T23:13:47+00:00,SAT-54179,118.83286830109543,38.61103140255714,558.9428648502155,-0.6588236110151091,23074.789678860587,10.5,10500023074.789679,47.655,-122.3035,60.0,13.783333333333333
2026-01-20T23:13:48+00:00,SAT-54179,117.94472212601282,38.33443125103766,558.2857981021631,-0.5712707009396601,20008.316419575945,10.5,10500020008.31642,47.655,-122.3035,60.0,13.8
2026-01-20T23:13:49+00:00,SAT-54179,117.06164696289173,38.05041930554918,557.7160507897593,-0.4834482987158114,16932.404405303685,10.5,10500016932.404406,47.655,-122.3035,60.0,13.816666666666666
2026-01-20T23:13:50+00:00,SAT-54179,116.18398452713724,37.75916068378851,557.2338916865067,-0.39539692774001967,13848.472936801521,10.5,10500013848.472937,47.655,-122.3035,60.0,13.833333333333334
2026-01-20T23:13:51+00:00,SAT-54179,115.31206257267827,37.46083085341151,556.839549150574,-0.3071576461407473,10757.960043403917,10.5,10500010757.960043,47.655,-122.3035,60.0,13.85
2026-01-20T23:13:52+00:00,SAT-54179,114.44619434653654,37.15561510103036,556.5332105914897,-0.2187719545728484,7662.319253591457,10.5,10500007662.319254,47.655,-122.3035,60.0,13.866666666666667
2026-01-20T23:13:53+00:00,SAT-54179,113.58667812668237,36.843707965577025,556.3150220287956,-0.13028170299500724,4563.016329942416,10.5,10500004563.01633,47.655,-122.3035,60.0,13.883333333333333
2026-01-20T23:13:54+00:00,SAT-54179,112.73379683199926,36.52531263620159,556.1850877436754,-0.041728984736092024,1461.5255588883635,10.5,10500001461.525558,47.655,-122.3035,60.0,13.9
2026-01-20T23:13:55+00:00,SAT-54179,111.88781774104932,36.200640331551206,556.1434700362317,0.04684395549128886,-1640.673471040199,10.5,10499998359.326529,47.655,-122.3035,60.0,13.916666666666666
2026-01-20T23:13:56+00:00,SAT-54179,111.04899226456577,35.86990964645614,556.1901890745085,0.13539482595250948,-4742.099524402811,10.5,10499995257.900476,47.655,-122.3035,60.0,13.933333333333334
2026-01-20T23:13:57+00:00,SAT-54179,110.21755582067401,35.53334588811872,556.3252228475917,0.22388138836635565,-7841.273237923599,10.5,10499992158.726763,47.655,-122.3035,60.0,13.95
2026-01-20T23:13:58+00:00,SAT-54179,109.39372776113952,35.191180388515356,556.5485072189225,0.312261556023458,-10936.720557013843,10.5,10499989063.279444,47.655,-122.3035,60.0,13.966666666666667
2026-01-20T23:13:59+00:00,SAT-54179,108.57771139909143,34.84364981742975,556.8599360774632,0.4004934963173434,-14026.976326843103,10.5,10499985973.023674,47.655,-122.3035,60.0,13.983333333333333
2026-01-20T23:14:00+00:00,SAT-54179,107.76969407899858,34.490995479381645,557.2593615911237,0.48853572682725716,-17110.587657566088,10.5,10499982889.412342,47.655,-122.3035,60.0,14.0
2026-01-20T23:14:01+00:00,SAT-54179,106.96984732599552,34.13346261432889,557.7465945560127,0.576347212671535,-20186.117334049533,10.5,10499979813.882666,47.655,-122.3035,60.0,14.016666666666667
2026-01-20T23:14:02+00:00,SAT-54179,106.17832704872703,33.77129969805277,558.3214048427839,0.6638874584136847,-23252.147034811962,10.5,10499976747.852964,47.655,-122.3035,60.0,14.033333333333333
2026-01-20T23:14:03+00:00,SAT-54179,105.39527380047639,33.404757749744626,558.9835219346418,0.751116600044002,-26307.280553608933,10.5,10499973692.719446,47.655,-122.3035,60.0,14.05
2026-01-20T23:14:04+00:00,SAT-54179,104.6208130867772,33.034089647787496,559.7326355570856,0.8379954972835886,-29350.147032310197,10.5,10499970649.852968,47.655,-122.3035,60.0,14.066666666666666
2026-01-20T23:14:05+00:00,SAT-54179,103.85505571425803,32.65954945640303,560.5683963997099,0.9244858050180073,-32379.403462808514,10.5,10499967620.596537,47.655,-122.3035,60.0,14.083333333333334
2026-01-20T23:14:06+00:00,SAT-54179,103.09809819114035,32.28139177407672,561.4904169092478,1.010550065754401,-35393.73792525898,10.5,10499964606.262075,47.655,-122.3035,60.0,14.1
2026-01-20T23:14:07+00:00,SAT-54179,102.35002314887551,31.89987109439757,562.4982721748269,1.0961517731716437,-38391.87181387418,10.5,10499961608.128185,47.655,-122.3035,60.0,14.116666666666667
2026-01-20T23:14:08+00:00,SAT-54179,101.61089980367682,31.515241193358555,563.5915008766033,1.1812554584788209,-41372.56286156345,10.5,10499958627.437138,47.655,-122.3035,60.0,14.133333333333333
2026-01-20T23:14:09+00:00,SAT-54179,100.88078443100082,31.127754534514544,564.7696063205262,1.265826727417887,-44334.60643592246,10.5,10499955665.393564,47.655,-122.3035,60.0,14.15
2026-01-20T23:14:10+00:00,SAT-54179,100.15972087969185,30.737661709696177,566.0320575100044,1.3498323528029235,-47276.83878034949,10.5,10499952723.16122,47.655,-122.3035,60.0,14.166666666666666
2026-01-20T23:14:11+00:00,SAT-54179,99.44774107991482,30.345210896300575,567.3782903098664,1.433240303422726,-50198.13802633627,10.5,10499949801.861973,47.655,-122.3035,60.0,14.183333333333334
