satellites_20260121_005943/SAT-47391.csv

timestamp,satellite,azimuth_deg,elevation_deg,distance_km,relative_velocity_kms,doppler_shift_hz,tx_freq_ghz,rx_freq_hz,ue_lat,ue_lon,ue_alt_m,time_minutes
2026-01-20T23:01:37+00:00,SAT-47391,210.0686292529557,30.065913169588693,1598.3859413316675,-5.941929859950549,208111.51803385516,10.5,10500208111.518034,47.655,-122.3035,60.0,1.6166666666666667
2026-01-20T23:01:38+00:00,SAT-47391,210.0736589014117,30.21803948986576,1592.4598566180105,-5.934333824985173,207845.47275817164,10.5,10500207845.472757,47.655,-122.3035,60.0,1.6333333333333333
2026-01-20T23:01:39+00:00,SAT-47391,210.07895202397611,30.371103953706037,1586.541347683225,-5.926645859650484,207576.2076920897,10.5,10500207576.207691,47.655,-122.3035,60.0,1.65
2026-01-20T23:01:40+00:00,SAT-47391,210.0845128260155,30.52511576314495,1580.6305062125336,-5.918864748101329,207303.68025156908,10.5,10500207303.680252,47.655,-122.3035,60.0,1.6666666666666667
2026-01-20T23:01:41+00:00,SAT-47391,210.0903456031277,30.68008421846832,1574.7274251037607,-5.910989231046371,207027.84633090036,10.5,10500207027.84633,47.655,-122.3035,60.0,1.6833333333333333
2026-01-20T23:01:42+00:00,SAT-47391,210.0964547435309,30.836018718333843,1568.8321985106638,-5.903018034623614,206748.66131404796,10.5,10500206748.661314,47.655,-122.3035,60.0,1.7
2026-01-20T23:01:43+00:00,SAT-47391,210.10284473055825,30.992928760633877,1562.9449218574657,-5.894949876525209,206466.0802891669,10.5,10500206466.08029,47.655,-122.3035,60.0,1.7166666666666666
2026-01-20T23:01:44+00:00,SAT-47391,210.10952014527226,31.150823943513284,1557.065691847278,-5.8867834135608685,206180.0562120516,10.5,10500206180.056211,47.655,-122.3035,60.0,1.7333333333333334
2026-01-20T23:01:45+00:00,SAT-47391,210.116485669045,31.30971396499221,1551.1946065228199,-5.878517344853663,205890.54352048933,10.5,10500205890.54352,47.655,-122.3035,60.0,1.75
2026-01-20T23:01:46+00:00,SAT-47391,210.12374608642483,31.469608625319765,1545.3317652242192,-5.87015031233314,205597.49464910815,10.5,10500205597.49465,47.655,-122.3035,60.0,1.7666666666666666
2026-01-20T23:01:47+00:00,SAT-47391,210.1313062879085,31.63051782669081,1539.4772686460524,-5.861680938816222,205300.86136313117,10.5,10500205300.861362,47.655,-122.3035,60.0,1.7833333333333334
2026-01-20T23:01:48+00:00,SAT-47391,210.13917127289173,31.792451573942135,1533.6312188564061,-5.853107820681731,205000.5945018076,10.5,10500205000.594501,47.655,-122.3035,60.0,1.8
2026-01-20T23:01:49+00:00,SAT-47391,210.14734615268128,31.955419975048,1527.7937193232463,-5.844429559131497,204696.64507330843,10.5,10500204696.645073,47.655,-122.3035,60.0,1.8166666666666667
2026-01-20T23:01:50+00:00,SAT-47391,210.15583615368854,32.119433242464694,1521.964874909606,-5.835644708102149,204388.96243037764,10.5,10500204388.962431,47.655,-122.3035,60.0,1.8333333333333333
2026-01-20T23:01:51+00:00,SAT-47391,210.16464662061426,32.28450169303239,1516.1447919207253,-5.8267518317587434,204077.49628400194,10.5,10500204077.496284,47.655,-122.3035,60.0,1.85
2026-01-20T23:01:52+00:00,SAT-47391,210.1737830198735,32.45063574945478,1510.3335780938512,-5.817749425122788,203762.19392346847,10.5,10500203762.193924,47.655,-122.3035,60.0,1.8666666666666667
2026-01-20T23:01:53+00:00,SAT-47391,210.18325094296046,32.61784593954503,1504.5313426671955,-5.808635992779975,203443.00297304254,10.5,10500203443.002974,47.655,-122.3035,60.0,1.8833333333333333
2026-01-20T23:01:54+00:00,SAT-47391,210.19305611010674,32.78614289765163,1498.7381963703963,-5.799410026054765,203119.87059252517,10.5,10500203119.870592,47.655,-122.3035,60.0,1.9
2026-01-20T23:01:55+00:00,SAT-47391,210.20320437399835,32.95553736545391,1492.9542514377445,-5.790069959023458,202792.74193664442,10.5,10500202792.741936,47.655,-122.3035,60.0,1.9166666666666667
2026-01-20T23:01:56+00:00,SAT-47391,210.213701723555,33.12604019145075,1487.1796216652783,-5.780614237151558,202461.5625590266,10.5,10500202461.56256,47.655,-122.3035,60.0,1.9333333333333333
2026-01-20T23:01:57+00:00,SAT-47391,210.22455428796738,33.29766233242078,1481.4144223994256,-5.771041278365917,202126.27704877796,10.5,10500202126.277048,47.655,-122.3035,60.0,1.95
2026-01-20T23:01:58+00:00,SAT-47391,210.23576834080464,33.47041485373632,1475.6587705644688,-5.761349425989271,201786.82738205287,10.5,10500201786.827381,47.655,-122.3035,60.0,1.9666666666666666
2026-01-20T23:01:59+00:00,SAT-47391,210.24735030414988,33.644308928239106,1469.9127847369489,-5.7515370700507615,201443.15717086184,10.5,10500201443.157171,47.655,-122.3035,60.0,1.9833333333333334
2026-01-20T23:02:00+00:00,SAT-47391,210.2593067531795,33.81935583868881,1464.1765850990848,-5.741602550969665,201095.20828966776,10.5,10500201095.20829,47.655,-122.3035,60.0,2.0
2026-01-20T23:02:01+00:00,SAT-47391,210.27164442065916,33.995566977343216,1458.450293488251,-5.731544174930299,200742.92141388074,10.5,10500200742.921413,47.655,-122.3035,60.0,2.0166666666666666
2026-01-20T23:02:02+00:00,SAT-47391,210.2843702016655,34.17295384594124,1452.7340334311207,-5.721360202915155,200386.23563575148,10.5,10500200386.235636,47.655,-122.3035,60.0,2.033333333333333
2026-01-20T23:02:03+00:00,SAT-47391,210.29749115840966,34.351528055300655,1447.0279301887467,-5.7110489209685635,200025.09092530247,10.5,10500200025.090925,47.655,-122.3035,60.0,2.05
2026-01-20T23:02:04+00:00,SAT-47391,210.31101452546918,34.53130132704797,1441.3321107315674,-5.700608579217189,199659.4259945675,10.5,10500199659.425995,47.655,-122.3035,60.0,2.066666666666667
2026-01-20T23:02:05+00:00,SAT-47391,210.32494771501007,34.712285493464854,1435.646703775228,-5.690037337954765,199289.1764092512,10.5,10500199289.176409,47.655,-122.3035,60.0,2.0833333333333335
2026-01-20T23:02:06+00:00,SAT-47391,210.33929832207417,34.894492495548235,1429.9718398701743,-5.6793334348044775,198914.2804434627,10.5,10500198914.280443,47.655,-122.3035,60.0,2.1
2026-01-20T23:02:07+00:00,SAT-47391,210.35407413052732,35.07793438631828,1424.3076513245294,-5.668494992695999,198534.67235425912,10.5,10500198534.672354,47.655,-122.3035,60.0,2.1166666666666667
2026-01-20T23:02:08+00:00,SAT-47391,210.36928311867845,35.26262332799635,1418.6542723184805,-5.657520156520958,198150.2871678982,10.5,10500198150.287169,47.655,-122.3035,60.0,2.1333333333333333
2026-01-20T23:02:09+00:00,SAT-47391,210.38493346550158,35.44857159348132,1413.011838882377,-5.646407010438464,197761.05778352794,10.5,10500197761.057783,47.655,-122.3035,60.0,2.15
2026-01-20T23:02:10+00:00,SAT-47391,210.40103355686344,35.63579156510684,1407.3804889572998,-5.635153659658347,197366.91783758166,10.5,10500197366.917837,47.655,-122.3035,60.0,2.1666666666666665
2026-01-20T23:02:11+00:00,SAT-47391,210.41759199222324,35.82429573602862,1401.7603623740672,-5.623758138364435,196967.79847886154,10.5,10500196967.79848,47.655,-122.3035,60.0,2.183333333333333
2026-01-20T23:02:12+00:00,SAT-47391,210.43461759131725,36.01409670852231,1396.1516009240715,-5.612218457169322,196563.63003060565,10.5,10500196563.63003,47.655,-122.3035,60.0,2.2
2026-01-20T23:02:13+00:00,SAT-47391,210.45211940121916,36.205207193767514,1390.5543483827882,-5.600532623521938,196154.34270524693,10.5,10500196154.342705,47.655,-122.3035,60.0,2.216666666666667
2026-01-20T23:02:14+00:00,SAT-47391,210.47010670378828,36.397640012264986,1384.9687505129289,-5.588698596309285,195739.86501437434,10.5,10500195739.865015,47.655,-122.3035,60.0,2.2333333333333334
2026-01-20T23:02:15+00:00,SAT-47391,210.48858902321672,36.591408092663,1379.3949551128767,-5.576714311094892,195320.1246526901,10.5,10500195320.124653,47.655,-122.3035,60.0,2.25
2026-01-20T23:02:16+00:00,SAT-47391,210.50757613397695,36.78652447135244,1373.8331120399446,-5.564577683667201,194895.04862228927,10.5,10500194895.048622,47.655,-122.3035,60.0,2.2666666666666666
2026-01-20T23:02:17+00:00,SAT-47391,210.5270780690981,36.983002292121554,1368.2833732301003,-5.552286562571846,194464.56157013925,10.5,10500194464.56157,47.655,-122.3035,60.0,2.283333333333333
2026-01-20T23:02:18+00:00,SAT-47391,210.5471051285792,37.180854804052785,1362.7458927650289,-5.539838823563526,194028.5890961841,10.5,10500194028.589096,47.655,-122.3035,60.0,2.3
2026-01-20T23:02:19+00:00,SAT-47391,210.56766788851576,37.380095362661294,1357.2208268449947,-5.527232289716915,193587.05495529046,10.5,10500193587.054955,47.655,-122.3035,60.0,2.316666666666667
2026-01-20T23:02:20+00:00,SAT-47391,210.5887772102899,37.580737428144495,1351.7083338413836,-5.514464710126911,193139.88031124038,10.5,10500193139.880312,47.655,-122.3035,60.0,2.3333333333333335
2026-01-20T23:02:21+00:00,SAT-47391,210.61044424999545,37.78279456272097,1346.2085743704838,-5.501533871039028,192686.9876289876,10.5,10500192686.987629,47.655,-122.3035,60.0,2.35
2026-01-20T23:02:22+00:00,SAT-47391,210.6326804687763,37.986280431881475,1340.7217112564342,-5.48843750398968,192228.29745734177,10.5,10500192228.297457,47.655,-122.3035,60.0,2.3666666666666667
2026-01-20T23:02:23+00:00,SAT-47391,210.65549764315344,38.19120880224435,1335.2479095857886,-5.475173296021658,191763.72878675757,10.5,10500191763.728786,47.655,-122.3035,60.0,2.3833333333333333
2026-01-20T23:02:24+00:00,SAT-47391,210.67890787583448,38.39759353963374,1329.7873367518896,-5.461738902417829,191293.1994953229,10.5,10500191293.199495,47.655,-122.3035,60.0,2.4
2026-01-20T23:02:25+00:00,SAT-47391,210.70292360702697,38.60544860749795,1324.340162486545,-5.448131971887492,190816.6272308914,10.5,10500190816.627232,47.655,-122.3035,60.0,2.4166666666666665
2026-01-20T23:02:26+00:00,SAT-47391,210.72755762635285,38.81478806616551,1318.9065588665826,-5.434350102153813,190333.92785556678,10.5,10500190333.927856,47.655,-122.3035,60.0,2.433333333333333
2026-01-20T23:02:27+00:00,SAT-47391,210.75282308503256,39.02562607030496,1313.486700364701,-5.420390874149904,189845.01664339396,10.5,10500189845.016644,47.655,-122.3035,60.0,2.45
2026-01-20T23:02:28+00:00,SAT-47391,210.77873350878718,39.237976867542955,1308.0807638662154,-5.406251803507968,189349.80658130386,10.5,10500189349.806581,47.655,-122.3035,60.0,2.466666666666667
2026-01-20T23:02:29+00:00,SAT-47391,210.80530281099627,39.451854795054324,1302.6889287341835,-5.391930422257926,188848.21123054475,10.5,10500188848.211231,47.655,-122.3035,60.0,2.4833333333333334
2026-01-20T23:02:30+00:00,SAT-47391,210.83254530689854,39.667274279184134,1297.3113767930515,-5.3774241772756906,188340.14116991145,10.5,10500188340.14117,47.655,-122.3035,60.0,2.5
2026-01-20T23:02:31+00:00,SAT-47391,210.8604757278158,39.88424983093447,1291.948292413582,-5.362730559274693,187825.50851357402,10.5,10500187825.508514,47.655,-122.3035,60.0,2.5166666666666666
2026-01-20T23:02:32+00:00,SAT-47391,210.88910923676227,40.10279604640955,1286.599862469132,-5.3478469330083795,187304.22096405106,10.5,10500187304.220964,47.655,-122.3035,60.0,2.533333333333333
2026-01-20T23:02:33+00:00,SAT-47391,210.9184614437178,40.32292760028204,1281.2662764612783,-5.332770701196498,186776.1875536016,10.5,10500186776.187553,47.655,-122.3035,60.0,2.55
2026-01-20T23:02:34+00:00,SAT-47391,210.9485484225669,40.544659245666175,1275.9477264819518,-5.317499210185539,186241.31534005486,10.5,10500186241.31534,47.655,-122.3035,60.0,2.566666666666667
2026-01-20T23:02:35+00:00,SAT-47391,210.97938672821994,40.76800581001222,1270.6444072696602,-5.302029761404002,185699.509808022,10.5,10500185699.509808,47.655,-122.3035,60.0,2.5833333333333335
2026-01-20T23:02:36+00:00,SAT-47391,211.0109934145642,40.99298219122048,1265.3565162542866,-5.286359649736803,185150.67621293006,10.5,10500185150.676212,47.655,-122.3035,60.0,2.6
2026-01-20T23:02:37+00:00,SAT-47391,211.0433860534688,41.219603355170996,1260.0842535636157,-5.270486116502753,184594.7179340946,10.5,10500184594.717934,47.655,-122.3035,60.0,2.6166666666666667
2026-01-20T23:02:38+00:00,SAT-47391,211.07658275436003,41.44788433104929,1254.827822076757,-5.2544064054039525,184031.53843430412,10.5,10500184031.538435,47.655,-122.3035,60.0,2.6333333333333333
2026-01-20T23:02:39+00:00,SAT-47391,211.1106021850536,41.6778402088533,1249.5874274217672,-5.23811765199385,183461.0373885237,10.5,10500183461.037388,47.655,-122.3035,60.0,2.65
2026-01-20T23:02:40+00:00,SAT-47391,211.14546359278782,41.90948613184436,1244.3632780835121,-5.221617044366665,182883.11631191865,10.5,10500182883.116312,47.655,-122.3035,60.0,2.6666666666666665
2026-01-20T23:02:41+00:00,SAT-47391,211.18118682736423,42.142837295745146,1239.1555853512639,-5.204901690240648,182297.67390454767,10.5,10500182297.673904,47.655,-122.3035,60.0,2.683333333333333
2026-01-20T23:02:42+00:00,SAT-47391,211.21779236441617,42.3779089418844,1233.964563398864,-5.187968695329883,181704.60879627522,10.5,10500181704.608797,47.655,-122.3035,60.0,2.7
2026-01-20T23:02:43+00:00,SAT-47391,211.2553013303644,42.614716353526276,1228.7904292867213,-5.170815084287908,181103.81677788252,10.5,10500181103.816778,47.655,-122.3035,60.0,2.716666666666667
2026-01-20T23:02:44+00:00,SAT-47391,211.2937355279229,42.85327484833868,1223.6334030426583,-5.1534379138005955,180495.19476205853,10.5,10500180495.194761,47.655,-122.3035,60.0,2.7333333333333334
2026-01-20T23:02:45+00:00,SAT-47391,211.33311746374685,43.093599775699516,1218.4937076299611,-5.135834158695109,179878.63679445413,10.5,10500179878.636795,47.655,-122.3035,60.0,2.75
2026-01-20T23:02:46+00:00,SAT-47391,211.37347037646302,43.335706508504096,1213.3715690290228,-5.1180007900273665,179254.03678863513,10.5,10500179254.036789,47.655,-122.3035,60.0,2.7666666666666666
2026-01-20T23:02:47+00:00,SAT-47391,211.41481826673774,43.57961043821812,1208.267216241102,-5.099934725303191,178621.2867826165,10.5,10500178621.286783,47.655,-122.3035,60.0,2.783333333333333
2026-01-20T23:02:48+00:00,SAT-47391,211.45718592835917,43.82532696726637,1203.180881341733,-5.081632883093883,177980.27885173075,10.5,10500177980.278852,47.655,-122.3035,60.0,2.8
2026-01-20T23:02:49+00:00,SAT-47391,211.50059898135453,44.072871503660885,1198.1127994796607,-5.063092119737204,177330.90289162862,10.5,10500177330.902891,47.655,-122.3035,60.0,2.816666666666667
2026-01-20T23:02:50+00:00,SAT-47391,211.54508390617465,44.322259452231805,1193.0632089389094,-5.044309284801933,176673.0485608824,10.5,10500176673.048561,47.655,-122.3035,60.0,2.8333333333333335
2026-01-20T23:02:51+00:00,SAT-47391,211.59066808010462,44.57350620812592,1188.0323511455335,-5.0252811716055605,176006.60354790642,10.5,10500176006.603548,47.655,-122.3035,60.0,2.85
2026-01-20T23:02:52+00:00,SAT-47391,211.63737981501944,44.82662714748078,1183.0204707237192,-5.006004588835668,175331.4560794405,10.5,10500175331.45608,47.655,-122.3035,60.0,2.8666666666666667
2026-01-20T23:02:53+00:00,SAT-47391,211.68524839780343,45.081637621231465,1178.0278154804537,-4.986476272683814,174647.49184310713,10.5,10500174647.491842,47.655,-122.3035,60.0,2.8833333333333333
2026-01-20T23:02:54+00:00,SAT-47391,211.73430413191673,45.338552944089194,1173.0546364778302,-4.966692954096216,173954.59634281485,10.5,10500173954.596342,47.655,-122.3035,60.0,2.9
2026-01-20T23:02:55+00:00,SAT-47391,211.78457838183172,45.5973883864097,1168.1011880382785,-4.946651327829531,173252.65381496045,10.5,10500173252.653814,47.655,-122.3035,60.0,2.9166666666666665
2026-01-20T23:02:56+00:00,SAT-47391,211.83610361943258,45.85815916402081,1163.1677277806562,-4.92634808422601,172541.54834132988,10.5,10500172541.548342,47.655,-122.3035,60.0,2.933333333333333
2026-01-20T23:02:57+00:00,SAT-47391,211.888913473222,46.12088042920448,1158.2545166246548,-4.905779853391673,171821.16189398122,10.5,10500171821.161894,47.655,-122.3035,60.0,2.95
2026-01-20T23:02:58+00:00,SAT-47391,211.94304277949485,46.38556725821018,1153.3618188508724,-4.88494325001645,171091.37590503602,10.5,10500171091.375904,47.655,-122.3035,60.0,2.966666666666667
2026-01-20T23:02:59+00:00,SAT-47391,211.99852763674846,46.65223464053346,1148.4899021161893,-4.8638348940645795,170352.07199134436,10.5,10500170352.071991,47.655,-122.3035,60.0,2.9833333333333334
2026-01-20T23:03:00+00:00,SAT-47391,212.05540546327845,46.920897468800085,1143.6390374485086,-4.842451353699487,169603.12995547277,10.5,10500169603.129955,47.655,-122.3035,60.0,3.0
2026-01-20T23:03:01+00:00,SAT-47391,212.1137150572327,47.191570524951054,1138.809499298419,-4.820789195365805,168844.4295397883,10.5,10500168844.42954,47.655,-122.3035,60.0,3.0166666666666666
2026-01-20T23:03:02+00:00,SAT-47391,212.17349666054278,47.46426846852715,1134.0015655409077,-4.798844915581439,168075.84803752837,10.5,10500168075.848038,47.655,-122.3035,60.0,3.033333333333333
2026-01-20T23:03:03+00:00,SAT-47391,212.23479202551678,47.73900582045187,1129.215517545101,-4.776615070061613,167297.26481527073,10.5,10500167297.264814,47.655,-122.3035,60.0,3.05
2026-01-20T23:03:04+00:00,SAT-47391,212.29764448684753,48.015796953430744,1124.4516401152264,-4.754096138029133,166508.55656050527,10.5,10500166508.55656,47.655,-122.3035,60.0,3.066666666666667
2026-01-20T23:03:05+00:00,SAT-47391,212.36209903586044,48.294656073966706,1119.7102215668986,-4.731284581745611,165709.5993666689,10.5,10500165709.599367,47.655,-122.3035,60.0,3.0833333333333335
2026-01-20T23:03:06+00:00,SAT-47391,212.4282023997318,48.57559720692062,1114.9915537440377,-4.708176901865483,164900.2706718778,10.5,10500164900.270672,47.655,-122.3035,60.0,3.1
2026-01-20T23:03:07+00:00,SAT-47391,212.496003126104,48.85863418262371,1110.295931980577,-4.684769526605096,164080.44537715992,10.5,10500164080.445377,47.655,-122.3035,60.0,3.1166666666666667
2026-01-20T23:03:08+00:00,SAT-47391,212.56555167091705,49.14378061662798,1105.6236551727095,-4.661058876584058,163249.99811747303,10.5,10500163249.998117,47.655,-122.3035,60.0,3.1333333333333333
2026-01-20T23:03:09+00:00,SAT-47391,212.63690049231212,49.43104989234106,1100.9750257864632,-4.637041405614698,162408.80469032458,10.5,10500162408.80469,47.655,-122.3035,60.0,3.15
2026-01-20T23:03:10+00:00,SAT-47391,212.71010415072323,49.72045514533772,1096.3503498245966,-4.612713510237424,161556.738887317,10.5,10500161556.738888,47.655,-122.3035,60.0,3.1666666666666665
2026-01-20T23:03:11+00:00,SAT-47391,212.7852194134545,50.01200924118214,1091.7499368837198,-4.588071611339165,160693.675352771,10.5,10500160693.675352,47.655,-122.3035,60.0,3.183333333333333
2026-01-20T23:03:12+00:00,SAT-47391,212.8623053668373,50.30572475728107,1087.174100130011,-4.563112116586277,159819.48826796672,10.5,10500159819.488268,47.655,-122.3035,60.0,3.2
2026-01-20T23:03:13+00:00,SAT-47391,212.941423534571,50.60161396140236,1082.6231563124024,-4.537831402366983,158934.05071869193,10.5,10500158934.050718,47.655,-122.3035,60.0,3.216666666666667
2026-01-20T23:03:14+00:00,SAT-47391,213.0226380028846,50.89968878787333,1078.0974257937748,-4.51222589544082,158037.23755495079,10.5,10500158037.237555,47.655,-122.3035,60.0,3.2333333333333334
2026-01-20T23:03:15+00:00,SAT-47391,213.10601555495762,51.19996081795403,1073.597232500722,-4.486291983175719,157128.92224708683,10.5,10500157128.922247,47.655,-122.3035,60.0,3.25
2026-01-20T23:03:16+00:00,SAT-47391,213.19162581198705,51.50244125319704,1069.1229039628347,-4.460026068821349,156208.97882168923,10.5,10500156208.97882,47.655,-122.3035,60.0,3.2666666666666666
2026-01-20T23:03:17+00:00,SAT-47391,213.27954138416683,51.80714089112894,1064.6747712968636,-4.433424549322662,155277.2810845293,10.5,10500155277.281084,47.655,-122.3035,60.0,3.283333333333333
2026-01-20T23:03:18+00:00,SAT-47391,213.3698380307611,52.114070098133695,1060.2531692130058,-4.4064838608563806,154333.7042154409,10.5,10500154333.704216,47.655,-122.3035,60.0,3.3
2026-01-20T23:03:19+00:00,SAT-47391,213.4625948314269,52.42323878409117,1055.8584359757783,-4.379200422890103,153378.12280903372,10.5,10500153378.122808,47.655,-122.3035,60.0,3.316666666666667
2026-01-20T23:03:20+00:00,SAT-47391,213.55789436736518,52.73465637172591,1051.4909134206825,-4.351570676868504,152410.4122296475,10.5,10500152410.41223,47.655,-122.3035,60.0,3.3333333333333335
2026-01-20T23:03:21+00:00,SAT-47391,213.65582291516304,53.04833176706154,1047.1509469322857,-4.3235910799011155,151430.44839027175,10.5,10500151430.448391,47.655,-122.3035,60.0,3.35
2026-01-20T23:03:22+00:00,SAT-47391,213.75647065324011,53.36427332783972,1042.8388854285977,-4.29525811281926,150438.10803473328,10.5,10500150438.108034,47.655,-122.3035,60.0,3.3666666666666667
2026-01-20T23:03:23+00:00,SAT-47391,213.8599318822711,53.6824888308207,1038.5550813374127,-4.2665682636930935,149433.2681603934,10.5,10500149433.26816,47.655,-122.3035,60.0,3.3833333333333333
2026-01-20T23:03:24+00:00,SAT-47391,213.96630525997458,54.00298543605788,1034.2998905890893,-4.237518076294161,148415.80771551194,10.5,10500148415.807716,47.655,-122.3035,60.0,3.4
2026-01-20T23:03:25+00:00,SAT-47391,214.07569405313401,54.32576965288163,1030.0736725609986,-4.2081040898455715,147385.60548904302,10.5,10500147385.60549,47.655,-122.3035,60.0,3.4166666666666665
2026-01-20T23:03:26+00:00,SAT-47391,214.18820640531496,54.650847299370845,1025.8767900820594,-4.178322880627658,146342.54156784163,10.5,10500146342.541569,47.655,-122.3035,60.0,3.433333333333333
2026-01-20T23:03:27+00:00,SAT-47391,214.30395562423826,54.978223462746435,1021.70960939578,-4.148171100335106,145286.49868009225,10.5,10500145286.49868,47.655,-122.3035,60.0,3.45
2026-01-20T23:03:28+00:00,SAT-47391,214.42306049044342,55.307902460598974,1017.5725000850458,-4.117645393805442,144217.35931381283,10.5,10500144217.359314,47.655,-122.3035,60.0,3.466666666666667
2026-01-20T23:03:29+00:00,SAT-47391,214.54564558543018,55.639887793294,1013.4658350789573,-4.086742470947256,143135.0082360851,10.5,10500143135.008236,47.655,-122.3035,60.0,3.4833333333333334
2026-01-20T23:03:30+00:00,SAT-47391,214.67184164537392,55.97418209942684,1009.3899905879325,-4.055459089636066,142039.33189399543,10.5,10500142039.331894,47.655,-122.3035,60.0,3.5
2026-01-20T23:03:31+00:00,SAT-47391,214.801785939989,56.3107871072754,1005.3453460558687,-4.023792045001671,140930.21803943295,10.5,10500140930.218039,47.655,-122.3035,60.0,3.5166666666666666
2026-01-20T23:03:32+00:00,SAT-47391,214.93562267868134,56.64970358244694,1001.3322841229872,-3.9917382135154673,139807.55727321334,10.5,10500139807.557274,47.655,-122.3035,60.0,3.533333333333333
2026-01-20T23:03:33+00:00,SAT-47391,215.07350344827458,56.99093127612199,997.3511905447077,-3.9592945063226495,138671.24141057552,10.5,10500138671.241411,47.655,-122.3035,60.0,3.55
2026-01-20T23:03:34+00:00,SAT-47391,215.21558768179938,57.33446886610277,993.4024541570686,-3.9264579180616783,137521.16519104567,10.5,10500137521.165192,47.655,-122.3035,60.0,3.566666666666667
2026-01-20T23:03:35+00:00,SAT-47391,215.36204316448612,57.6803138984609,989.4864667934551,-3.893225494526385,136357.2251458275,10.5,10500136357.225145,47.655,-122.3035,60.0,3.5833333333333335
2026-01-20T23:03:36+00:00,SAT-47391,215.51304657716892,58.02846272262226,985.6036232335807,-3.85959437720368,135179.32115770117,10.5,10500135179.321157,47.655,-122.3035,60.0,3.6
2026-01-20T23:03:37+00:00,SAT-47391,215.66878408347034,58.378910426314896,981.7543211080496,-3.825561768360891,133987.355238234,10.5,10500133987.355238,47.655,-122.3035,60.0,3.6166666666666667
2026-01-20T23:03:38+00:00,SAT-47391,215.82945196139758,58.731650763060586,977.9389608377377,-3.7911249754235117,132781.23308207732,10.5,10500132781.233082,47.655,-122.3035,60.0,3.6333333333333333
2026-01-20T23:03:39+00:00,SAT-47391,215.9952572867837,59.08667607900027,974.1579455289153,-3.7562813608563497,131560.8623115918,10.5,10500131560.862312,47.655,-122.3035,60.0,3.65
2026-01-20T23:03:40+00:00,SAT-47391,216.16641866902046,59.443977229989756,970.4116809183546,-3.721028414905141,130326.15502456695,10.5,10500130326.155025,47.655,-122.3035,60.0,3.6666666666666665
2026-01-20T23:03:41+00:00,SAT-47391,216.34316704962643,59.80354349999518,966.7005752458891,-3.68536371359855,129077.0263232732,10.5,10500129077.026323,47.655,-122.3035,60.0,3.683333333333333
2026-01-20T23:03:42+00:00,SAT-47391,216.52574656410025,60.16536250966275,963.0250391688602,-3.6492849320087597,127813.39477890394,10.5,10500127813.39478,47.655,-122.3035,60.0,3.7
2026-01-20T23:03:43+00:00,SAT-47391,216.71441547560974,60.52942011963336,959.3854856633368,-3.612789861732962,126535.1830438513,10.5,10500126535.183044,47.655,-122.3035,60.0,3.716666666666667
2026-01-20T23:03:44+00:00,SAT-47391,216.9094471876185,60.89570032856361,955.7823299079018,-3.575876423005125,125242.31827591144,10.5,10500125242.318275,47.655,-122.3035,60.0,3.7333333333333334
2026-01-20T23:03:45+00:00,SAT-47391,217.11113134288252,61.2641851648055,952.2159891553581,-3.5385426206222856,123934.7305946369,10.5,10500123934.730595,47.655,-122.3035,60.0,3.75
2026-01-20T23:03:46+00:00,SAT-47391,217.3197750137723,61.63485456520573,948.6868826483907,-3.500786645116366,122612.35662480156,10.5,10500122612.356625,47.655,-122.3035,60.0,3.7666666666666666
2026-01-20T23:03:47+00:00,SAT-47391,217.53570400165887,62.00768625527068,945.1954314343279,-3.4626067562215432,121275.13541493496,10.5,10500121275.135414,47.655,-122.3035,60.0,3.783333333333333
2026-01-20T23:03:48+00:00,SAT-47391,217.7592642426629,62.38265560720135,941.7420582961231,-3.424001395667651,119923.01238782443,10.5,10500119923.012388,47.655,-122.3035,60.0,3.8
2026-01-20T23:03:49+00:00,SAT-47391,217.99082334493718,62.759735498815665,938.3271875708439,-3.3849691498262837,118555.93803222354,10.5,10500118555.938032,47.655,-122.3035,60.0,3.816666666666667
2026-01-20T23:03:50+00:00,SAT-47391,218.23077226114063,63.13889615665165,934.9512450054171,-3.3455087186871566,117173.86681627309,10.5,10500117173.866816,47.655,-122.3035,60.0,3.8333333333333335
2026-01-20T23:03:51+00:00,SAT-47391,218.47952710972697,63.520104982213944,931.6146576433132,-3.305619008768173,115776.76044160462,10.5,10500115776.76044,47.655,-122.3035,60.0,3.85
2026-01-20T23:03:52+00:00,SAT-47391,218.73753116969735,63.90332637399649,928.3178536185684,-3.2652990527043873,114364.5850270058,10.5,10500114364.585028,47.655,-122.3035,60.0,3.8666666666666667
2026-01-20T23:03:53+00:00,SAT-47391,219.00525705355693,64.28852152431115,925.0612620300045,-3.2245480782905465,112937.31352658223,10.5,10500112937.313526,47.655,-122.3035,60.0,3.8833333333333333
2026-01-20T23:03:54+00:00,SAT-47391,219.28320908875432,64.67564820607662,921.8453127465895,-3.183365469603679,111494.92436810612,10.5,10500111494.924368,47.655,-122.3035,60.0,3.9
2026-01-20T23:03:55+00:00,SAT-47391,219.57192592064618,65.0646605352147,918.6704362515712,-3.141750800944803,110037.40264179838,10.5,10500110037.402641,47.655,-122.3035,60.0,3.9166666666666665
2026-01-20T23:03:56+00:00,SAT-47391,219.87198336654797,65.45550871491774,915.5370634527624,-3.0997038430036357,108564.74031624295,10.5,10500108564.740316,47.655,-122.3035,60.0,3.933333333333333
2026-01-20T23:03:57+00:00,SAT-47391,220.18399754540556,65.84813875615623,912.4456254866734,-3.057224544284172,107076.93558783193,10.5,10500107076.935587,47.655,-122.3035,60.0,3.95
2026-01-20T23:03:58+00:00,SAT-47391,220.50862830971124,66.24249216836895,909.3965535411741,-3.0143130644289156,105573.99404792102,10.5,10500105573.994047,47.655,-122.3035,60.0,3.966666666666667
2026-01-20T23:03:59+00:00,SAT-47391,220.84658301754808,66.63850562360919,906.390278644917,-2.9709697667996267,104055.92842297613,10.5,10500104055.928423,47.655,-122.3035,60.0,3.9833333333333334
2026-01-20T23:04:00+00:00,SAT-47391,221.19862067706615,67.03611058542624,903.4272314641621,-2.927195227145901,102522.75887818351,10.5,10500102522.758879,47.655,-122.3035,60.0,4.0
2026-01-20T23:04:01+00:00,SAT-47391,221.56555650527326,67.43523290032232,900.5078420909553,-2.882990239214268,100974.51321390418,10.5,10500100974.513214,47.655,-122.3035,60.0,4.016666666666667
2026-01-20T23:04:02+00:00,SAT-47391,221.94826694542405,67.8357923466577,897.6325398257122,-2.8383558258864583,99411.2272557831,10.5,10500099411.227255,47.655,-122.3035,60.0,4.033333333333333
2026-01-20T23:04:03+00:00,SAT-47391,222.3476951931974,68.23770213641349,894.8017529486948,-2.7932932222913878,97832.94426325952,10.5,10500097832.944263,47.655,-122.3035,60.0,4.05
2026-01-20T23:04:04+00:00,SAT-47391,222.76485728195425,68.64086835966062,892.0159085083295,-2.74780392131891,96239.71652365102,10.5,10500096239.716524,47.655,-122.3035,60.0,4.066666666666666
2026-01-20T23:04:05+00:00,SAT-47391,223.20084879591903,69.04518937359136,889.2754320641341,-2.7018896413737745,94631.60422276078,10.5,10500094631.604223,47.655,-122.3035,60.0,4.083333333333333
2026-01-20T23:04:06+00:00,SAT-47391,223.6568522655045,69.45055511706514,886.580747461804,-2.655552356573543,93008.6765025363,10.5,10500093008.676502,47.655,-122.3035,60.0,4.1
2026-01-20T23:04:07+00:00,SAT-47391,224.13414532529913,69.85684635047008,883.9322765781814,-2.6087942867942107,91371.01111242503,10.5,10500091371.011112,47.655,-122.3035,60.0,4.116666666666666
2026-01-20T23:04:08+00:00,SAT-47391,224.63410970535602,70.26393380461447,881.330439076152,-2.561617905727398,89718.69469157119,10.5,10500089718.69469,47.655,-122.3035,60.0,4.133333333333334
2026-01-20T23:04:09+00:00,SAT-47391,225.1582411408773,70.67167722932096,878.7756521515064,-2.514025945245198,88051.8229216913,10.5,10500088051.822922,47.655,-122.3035,60.0,4.15
2026-01-20T23:04:10+00:00,SAT-47391,225.7081602865875,71.0799243275811,876.2683302754485,-2.46602140892644,86370.50100082111,10.5,10500086370.501001,47.655,-122.3035,60.0,4.166666666666667
2026-01-20T23:04:11+00:00,SAT-47391,226.28562472836813,71.48850956129989,873.8088849236126,-2.4176075770150147,84674.84381697705,10.5,10500084674.843817,47.655,-122.3035,60.0,4.183333333333334
2026-01-20T23:04:12+00:00,SAT-47391,226.89254218236957,71.89725280970572,871.3977243001362,-2.368787985528988,82964.97521646917,10.5,10500082964.975216,47.655,-122.3035,60.0,4.2
2026-01-20T23:04:13+00:00,SAT-47391,227.5309849640844,72.30595785588794,869.0352530825686,-2.319566439290596,81241.02846026653,10.5,10500081241.02846,47.655,-122.3035,60.0,4.216666666666667
2026-01-20T23:04:14+00:00,SAT-47391,228.20320581660638,72.7144106841634,866.7218721537829,-2.269947057083985,79503.14780561237,10.5,10500079503.147806,47.655,-122.3035,60.0,4.233333333333333
2026-01-20T23:04:15+00:00,SAT-47391,228.91165517799922,73.12237756872693,864.4579782888511,-2.2199342075714923,77751.4862615412,10.5,10500077751.486261,47.655,-122.3035,60.0,4.25
2026-01-20T23:04:16+00:00,SAT-47391,229.65899990016513,73.52960290548407,862.2439639058331,-2.169532566261781,75986.20758414375,10.5,10500075986.207584,47.655,-122.3035,60.0,4.266666666666667
2026-01-20T23:04:17+00:00,SAT-47391,230.44814346033408,73.93580677626052,860.080216759748,-2.118747072585342,74207.48477316962,10.5,10500074207.484774,47.655,-122.3035,60.0,4.283333333333333
2026-01-20T23:04:18+00:00,SAT-47391,231.28224758214066,74.34068219186852,857.9671196793562,-2.0675829814813467,72415.5018788169,10.5,10500072415.501879,47.655,-122.3035,60.0,4.3
2026-01-20T23:04:19+00:00,SAT-47391,232.1647551643263,74.7438919929061,855.9050502524922,-2.0160458190770627,70610.45244943806,10.5,10500070610.45245,47.655,-122.3035,60.0,4.316666666666666
2026-01-20T23:04:20+00:00,SAT-47391,233.0994142265858,75.14506534859693,853.8943805555994,-1.9641414020073282,68792.54020818944,10.5,10500068792.540209,47.655,-122.3035,60.0,4.333333333333333
2026-01-20T23:04:21+00:00,SAT-47391,234.09030247307902,75.54379382212939,851.9354768639975,-1.9118758620155618,66961.97991466282,10.5,10500066961.979914,47.655,-122.3035,60.0,4.35
2026-01-20T23:04:22+00:00,SAT-47391,235.1418518286229,75.93962696014574,850.0286993376138,-1.8592555906081216,65118.99542644691,10.5,10500065118.995426,47.655,-122.3035,60.0,4.366666666666666
2026-01-20T23:04:23+00:00,SAT-47391,236.25887194102637,76.33206734804344,848.174401761914,-1.8062872893871202,63263.82146199542,10.5,10500063263.821463,47.655,-122.3035,60.0,4.383333333333334
2026-01-20T23:04:24+00:00,SAT-47391,237.44657132066908,76.7205651165947,846.372931238632,-1.7529779515771453,61396.70295361475,10.5,10500061396.702953,47.655,-122.3035,60.0,4.4
2026-01-20T23:04:25+00:00,SAT-47391,238.71057415239764,77.10451186147527,844.6246278949257,-1.6993348471104073,59517.89452508267,10.5,10500059517.894526,47.655,-122.3035,60.0,4.416666666666667
2026-01-20T23:04:26+00:00,SAT-47391,240.05693013174795,77.48323397115635,842.9298246074076,-1.645365551160736,57627.66149102966,10.5,10500057627.661491,47.655,-122.3035,60.0,4.433333333333334
2026-01-20T23:04:27+00:00,SAT-47391,241.49211381050986,77.85598539923605,841.2888466977166,-1.5910779058268623,55726.278514925325,10.5,10500055726.278515,47.655,-122.3035,60.0,4.45
2026-01-20T23:04:28+00:00,SAT-47391,243.02300873355318,78.22193993971582,839.7020116663052,-1.5364800402100194,53814.03031228091,10.5,10500053814.030312,47.655,-122.3035,60.0,4.466666666666667
2026-01-20T23:04:29+00:00,SAT-47391,244.6568704031121,78.58018315979675,838.1696289062025,-1.4815803734552575,51891.21175716904,10.5,10500051891.211758,47.655,-122.3035,60.0,4.483333333333333
2026-01-20T23:04:30+00:00,SAT-47391,246.40126052271813,78.92970422364452,836.691999413743,-1.4263875795692955,49958.12664999598,10.5,10500049958.12665,47.655,-122.3035,60.0,4.5
2026-01-20T23:04:31+00:00,SAT-47391,248.2639432953997,79.26938796423981,835.269415534386,-1.3709106237084279,48015.088988457785,10.5,10500048015.08899,47.655,-122.3035,60.0,4.516666666666667
2026-01-20T23:04:32+00:00,SAT-47391,250.2527331246676,79.59800775557457,833.9021606723408,-1.315158713144466,46062.421250159976,10.5,10500046062.42125,47.655,-122.3035,60.0,4.533333333333333
2026-01-20T23:04:33+00:00,SAT-47391,252.37528174878196,79.9142199120089,832.590509049098,-1.2591413333295367,44100.455655759484,10.5,10500044100.455656,47.655,-122.3035,60.0,4.55
2026-01-20T23:04:34+00:00,SAT-47391,254.63879288426983,80.21656063402,831.3347254259907,-1.202868218473081,42129.53313844657,10.5,10500042129.533138,47.655,-122.3035,60.0,4.566666666666666
2026-01-20T23:04:35+00:00,SAT-47391,257.04965382568,80.50344676064441,830.1350648561003,-1.1463493361671888,40150.00280545911,10.5,10500040150.002806,47.655,-122.3035,60.0,4.583333333333333
2026-01-20T23:04:36+00:00,SAT-47391,259.61297786437694,80.77318187909393,828.9917724514961,-1.0895949136338627,38162.22285737275,10.5,10500038162.222857,47.655,-122.3035,60.0,4.6
2026-01-20T23:04:37+00:00,SAT-47391,262.3320597065508,81.02396955707694,827.9050831242986,-1.0326153960927997,36166.559129964495,10.5,10500036166.55913,47.655,-122.3035,60.0,4.616666666666666
2026-01-20T23:04:38+00:00,SAT-47391,265.20775894095755,81.25393549627464,826.8752213692621,-0.9754214513366372,34163.38525445724,10.5,10500034163.385254,47.655,-122.3035,60.0,4.633333333333334
2026-01-20T23:04:39+00:00,SAT-47391,268.23784510177813,81.4611602305587,825.9024010417957,-0.9180239725349306,32153.082755726868,10.5,10500032153.082756,47.655,-122.3035,60.0,4.65
2026-01-20T23:04:40+00:00,SAT-47391,271.416360074109,81.6437233908897,824.9868251331875,-0.8604340459327204,30136.039920969473,10.5,10500030136.03992,47.655,-122.3035,60.0,4.666666666666667
2026-01-20T23:04:41+00:00,SAT-47391,274.7330763251455,81.79975947718648,824.1286855780439,-0.8026629615626617,28112.65217488543,10.5,10500028112.652174,47.655,-122.3035,60.0,4.683333333333334
2026-01-20T23:04:42+00:00,SAT-47391,278.17314707728224,81.92752351791127,823.3281630510454,-0.7447221949230657,26083.321437966893,10.5,10500026083.321438,47.655,-122.3035,60.0,4.7
2026-01-20T23:04:43+00:00,SAT-47391,281.71704814504653,82.02546303864797,822.5854267819756,-0.6866233883751509,24048.45547495089,10.5,10500024048.455475,47.655,-122.3035,60.0,4.716666666666667
2026-01-20T23:04:44+00:00,SAT-47391,285.34089362281094,82.09229078676601,821.9006343893027,-0.6283783584926633,22008.468152234054,10.5,10500022008.468153,47.655,-122.3035,60.0,4.733333333333333
2026-01-20T23:04:45+00:00,SAT-47391,289.01716487013954,82.1270511431555,821.2739317064327,-0.5699990687171117,19963.778480143334,10.5,10500019963.77848,47.655,-122.3035,60.0,4.75
2026-01-20T23:04:46+00:00,SAT-47391,292.71582769787875,82.12917264278356,820.7054526352322,-0.5114976246858298,17914.810449304943,10.5,10500017914.81045,47.655,-122.3035,60.0,4.766666666666667
2026-01-20T23:04:47+00:00,SAT-47391,296.40574073421186,82.09849994923714,820.1953190042121,-0.4528862612041446,15861.992574354617,10.5,10500015861.992575,47.655,-122.3035,60.0,4.783333333333333
2026-01-20T23:04:48+00:00,SAT-47391,300.05619751633725,82.03530098606132,819.7436404397046,-0.3941773280562611,13805.757396974748,10.5,10500013805.757397,47.655,-122.3035,60.0,4.8
2026-01-20T23:04:49+00:00,SAT-47391,303.6384156371785,81.94024830478351,819.3505142511898,-0.3353832817339854,11746.541196199296,10.5,10500011746.541197,47.655,-122.3035,60.0,4.816666666666666
2026-01-20T23:04:50+00:00,SAT-47391,307.1267980245184,81.81437736113342,819.0160253248738,-0.27651666515481776,9684.783278055602,10.5,10500009684.783278,47.655,-122.3035,60.0,4.833333333333333
2026-01-20T23:04:51+00:00,SAT-47391,310.4998398914264,81.65902731201501,818.7402460374926,-0.21759010324082123,7620.925820717688,10.5,10500007620.925821,47.655,-122.3035,60.0,4.85
2026-01-20T23:04:52+00:00,SAT-47391,313.7406247372321,81.47577158609678,818.5232361745271,-0.15861628338100256,5555.413190216169,10.5,10500005555.41319,47.655,-122.3035,60.0,4.866666666666666
2026-01-20T23:04:53+00:00,SAT-47391,316.83692236591554,81.26634565867163,818.3650428679018,-0.09960794277193848,3488.691497053452,10.5,10500003488.691498,47.655,-122.3035,60.0,4.883333333333334
2026-01-20T23:04:54+00:00,SAT-47391,319.78095541981855,81.03257838850983,818.2657005463107,-0.040577857597523005,1421.2082172327082,10.5,10500001421.208218,47.655,-122.3035,60.0,4.9
2026-01-20T23:04:55+00:00,SAT-47391,322.5689295944958,80.77633146454492,818.2252308963333,0.018461174120019373,-646.5884083721793,10.5,10499999353.411592,47.655,-122.3035,60.0,4.916666666666667
2026-01-20T23:04:56+00:00,SAT-47391,325.2004271994518,80.4994495386646,818.2436428406558,0.07749634366882364,-2714.2497644909004,10.5,10499997285.750235,47.655,-122.3035,60.0,4.933333333333334
2026-01-20T23:04:57+00:00,SAT-47391,327.6777516055724,80.20372182939442,818.3209325274081,0.1365148475034599,-4781.327416803558,10.5,10499995218.672583,47.655,-122.3035,60.0,4.95
2026-01-20T23:04:58+00:00,SAT-47391,330.0052884786062,79.89085468824479,818.4570833353182,0.19550389860148534,-6847.3735096951505,10.5,10499993152.62649,47.655,-122.3035,60.0,4.966666666666667
2026-01-20T23:04:59+00:00,SAT-47391,332.1889266956163,79.56245380164125,818.6520658901901,0.2544507441130271,-8911.941384418633,10.5,10499991088.058615,47.655,-122.3035,60.0,4.983333333333333
2026-01-20T23:05:00+00:00,SAT-47391,334.2355616321809,79.22001430914987,818.9058380989854,0.31334267314493086,-10974.58585172871,10.5,10499989025.414148,47.655,-122.3035,60.0,5.0
2026-01-20T23:05:01+00:00,SAT-47391,336.15268791024965,78.86491708584069,819.2183451916687,0.37216703908723586,-13034.863973849457,10.5,10499986965.136026,47.655,-122.3035,60.0,5.016666666666667
2026-01-20T23:05:02+00:00,SAT-47391,337.9480786645682,78.49842954023633,819.5895197853184,0.43091126158735515,-15092.335133618437,10.5,10499984907.664865,47.655,-122.3035,60.0,5.033333333333333
2026-01-20T23:05:03+00:00,SAT-47391,339.62954221903243,78.12170956293633,820.0192819502081,0.4895628502502686,-17146.56186456772,10.5,10499982853.438135,47.655,-122.3035,60.0,5.05
2026-01-20T23:05:04+00:00,SAT-47391,341.2047446846127,77.73581148609033,820.5075392995244,0.5481094137242225,-19197.110169143536,10.5,10499980802.889832,47.655,-122.3035,60.0,5.066666666666666
2026-01-20T23:05:05+00:00,SAT-47391,342.6810862939484,77.34169321294792,821.0541870881455,0.6065386679350326,-21243.549807106363,10.5,10499978756.450193,47.655,-122.3035,60.0,5.083333333333333
2026-01-20T23:05:06+00:00,SAT-47391,344.06562018168904,76.94022388677165,821.6591083196325,0.6648384574055229,-23285.455042227884,10.5,10499976714.544958,47.655,-122.3035,60.0,5.1
2026-01-20T23:05:07+00:00,SAT-47391,345.36500375327057,76.53219164746284,822.3221738744851,0.7229967607257487,-25322.404833881315,10.5,10499974677.595165,47.655,-122.3035,60.0,5.116666666666666
2026-01-20T23:05:08+00:00,SAT-47391,346.58547434093043,76.11831119034373,823.0432426438489,0.7810017062671515,-27353.983387417607,10.5,10499972646.016613,47.655,-122.3035,60.0,5.133333333333334
2026-01-20T23:05:09+00:00,SAT-47391,347.7328425135955,75.69923093245983,823.8221616788993,0.8388415765222487,-29379.780306159708,10.5,10499970620.219694,47.655,-122.3035,60.0,5.15
2026-01-20T23:05:10+00:00,SAT-47391,348.81249779047346,75.27553968570727,824.6587663445507,0.8965048338265245,-31399.391492291998,10.5,10499968600.608507,47.655,-122.3035,60.0,5.166666666666667
2026-01-20T23:05:11+00:00,SAT-47391,349.8294227761403,74.84777277462233,825.5528804988204,0.953980113384257,-33412.41890259527,10.5,10499966587.581097,47.655,-122.3035,60.0,5.183333333333334
2026-01-20T23:05:12+00:00,SAT-47391,350.78821265635065,74.41641760290044,826.5043166652357,1.0112562509390532,-35418.47151758587,10.5,10499964581.528482,47.655,-122.3035,60.0,5.2
2026-01-20T23:05:13+00:00,SAT-47391,351.6930978755842,73.98191866388832,827.5128762328388,1.068322271055315,-37417.16493108312,10.5,10499962582.83507,47.655,-122.3035,60.0,5.216666666666667
2026-01-20T23:05:14+00:00,SAT-47391,352.5479683480583,73.54468204098146,828.5783496445047,1.1251674220384031,-39408.122573261106,10.5,10499960591.877426,47.655,-122.3035,60.0,5.233333333333333
2026-01-20T23:05:15+00:00,SAT-47391,353.35639811321147,73.1050794140894,829.7005166200844,1.1817811686322803,-41390.97545488934,10.5,10499958609.024546,47.655,-122.3035,60.0,5.25
2026-01-20T23:05:16+00:00,SAT-47391,354.12166961742537,72.66345163122705,830.879146372267,1.2381531995125756,-43365.36242977148,10.5,10499956634.63757,47.655,-122.3035,60.0,5.266666666666667
2026-01-20T23:05:17+00:00,SAT-47391,354.84679712486457,72.22011187957976,832.1139978299142,1.2942734472661035,-45330.93089451265,10.5,10499954669.069105,47.655,-122.3035,60.0,5.283333333333333
2026-01-20T23:05:18+00:00,SAT-47391,355.5345489411001,71.77534849269965,833.4048198813209,1.3501320717666114,-47287.336206267806,10.5,10499952712.663794,47.655,-122.3035,60.0,5.3
2026-01-20T23:05:19+00:00,SAT-47391,356.18746824634735,71.32942744488136,834.7513516008961,1.4057195107418863,-49234.24345381566,10.5,10499950765.756546,47.655,-122.3035,60.0,5.316666666666666
2026-01-20T23:05:20+00:00,SAT-47391,356.8078924882786,70.88259454592,836.153322526276,1.4610264322296673,-51171.325792363685,10.5,10499948828.674208,47.655,-122.3035,60.0,5.333333333333333
2026-01-20T23:05:21+00:00,SAT-47391,357.397971269726,70.43507740091384,837.6104528880197,1.5160437847316952,-53098.26620015504,10.5,10499946901.733799,47.655,-122.3035,60.0,5.35
2026-01-20T23:05:22+00:00,SAT-47391,357.95968280761366,69.98708713279157,839.1224538893255,1.5707627724922502,-55014.75661261841,10.5,10499944985.243387,47.655,-122.3035,60.0,5.366666666666666
2026-01-20T23:05:23+00:00,SAT-47391,358.49484898868883,69.53881991732601,840.6890279610911,1.6251748852414614,-56920.49896410451,10.5,10499943079.501036,47.655,-122.3035,60.0,5.383333333333334
2026-01-20T23:05:24+00:00,SAT-47391,359.0051491210763,69.09045833770838,842.3098690466386,1.6792718738393821,-58815.20433483858,10.5,10499941184.795666,47.655,-122.3035,60.0,5.4
2026-01-20T23:05:25+00:00,SAT-47391,359.49213244990773,68.64217259462531,843.9846628621478,1.733045783990016,-60698.59413172818,10.5,10499939301.405869,47.655,-122.3035,60.0,5.416666666666667
2026-01-20T23:05:26+00:00,SAT-47391,359.9572295471247,68.19412157400009,845.7130871907137,1.786488936480214,-62570.399396245804,10.5,10499937429.600603,47.655,-122.3035,60.0,5.433333333333334
2026-01-20T23:05:27+00:00,SAT-47391,0.4017626497931645,67.74645380303036,847.4948121566966,1.8395939510679014,-64430.3616410956,10.5,10499935569.63836,47.655,-122.3035,60.0,5.45
2026-01-20T23:05:28+00:00,SAT-47391,0.826955048351183,67.29930829707085,849.3295005238951,1.8923537066781857,-66278.23145611271,10.5,10499933721.768543,47.655,-122.3035,60.0,5.466666666666667
2026-01-20T23:05:29+00:00,SAT-47391,1.2339395939276123,66.85281532529945,851.2168079540222,1.9447614079933553,-68113.77084052672,10.5,10499931886.22916,47.655,-122.3035,60.0,5.483333333333333
2026-01-20T23:05:30+00:00,SAT-47391,1.6237664285270694,66.40709708047255,853.1563833315942,1.9968105295314271,-69936.75124435581,10.5,10499930063.248756,47.655,-122.3035,60.0,5.5
2026-01-20T23:05:31+00:00,SAT-47391,1.997409984022791,65.9622682915139,855.1478690330468,2.0484948443418873,-71746.95457345301,10.5,10499928253.045427,47.655,-122.3035,60.0,5.516666666666667
2026-01-20T23:05:32+00:00,SAT-47391,2.355775337240682,65.51843676703268,857.1909012244705,2.099808411830904,-73544.17276309364,10.5,10499926455.827236,47.655,-122.3035,60.0,5.533333333333333
2026-01-20T23:05:33+00:00,SAT-47391,2.699703974639776,65.07570388651456,859.2851101472032,2.150745588093816,-75328.20813986276,10.5,10499924671.79186,47.655,-122.3035,60.0,5.55
2026-01-20T23:05:34+00:00,SAT-47391,3.029979027664971,64.63416504059259,861.4301204137288,2.2013010179019075,-77098.87314099818,10.5,10499922901.12686,47.655,-122.3035,60.0,5.566666666666666
2026-01-20T23:05:35+00:00,SAT-47391,3.347330027036986,64.19391002990389,863.6255512955829,2.2514696361723034,-78855.99036587233,10.5,10499921144.009634,47.655,-122.3035,60.0,5.583333333333333
2026-01-20T23:05:36+00:00,SAT-47391,3.6524372243413104,63.755023425416965,865.8710170127255,2.301246664816501,-80599.39246561452,10.5,10499919400.607534,47.655,-122.3035,60.0,5.6
2026-01-20T23:05:37+00:00,SAT-47391,3.945935522587138,63.3175848953026,868.1661270197691,2.350627612121737,-82328.92212144389,10.5,10499917671.077879,47.655,-122.3035,60.0,5.616666666666666
2026-01-20T23:05:38+00:00,SAT-47391,4.228418053901047,62.881669501761294,870.5104862915917,2.3996082717257843,-84044.43200876232,10.5,10499915955.567991,47.655,-122.3035,60.0,5.633333333333334
2026-01-20T23:05:39+00:00,SAT-47391,4.500439438678208,62.4473479710951,872.9036956079264,2.448184711810545,-85745.78441866847,10.5,10499914254.215582,47.655,-122.3035,60.0,5.65
2026-01-20T23:05:40+00:00,SAT-47391,4.7625187559717945,62.0146869416896,875.3453518271721,2.496353281519979,-87432.85148274069,10.5,10499912567.148518,47.655,-122.3035,60.0,5.666666666666667
2026-01-20T23:05:41+00:00,SAT-47391,5.015142254850938,61.583749189276794,877.835048166608,2.544110609526414,-89105.51512282323,10.5,10499910894.484877,47.655,-122.3035,60.0,5.683333333333334
2026-01-20T23:05:42+00:00,SAT-47391,5.2587658304852924,61.154593833384936,880.3723744811757,2.5914535920326216,-90763.66663080806,10.5,10499909236.333368,47.655,-122.3035,60.0,5.7
2026-01-20T23:05:43+00:00,SAT-47391,5.493817286622141,60.72727652851253,882.9569175302962,2.6383793741143076,-92407.2060151701,10.5,10499907592.793985,47.655,-122.3035,60.0,5.716666666666667
2026-01-20T23:05:44+00:00,SAT-47391,5.720698404155132,60.301849642777185,885.5882612260796,2.684885403239338,-94036.04387543681,10.5,10499905963.956125,47.655,-122.3035,60.0,5.733333333333333
2026-01-20T23:05:45+00:00,SAT-47391,5.939786840147209,59.87836241396528,888.2659869349103,2.730969337084166,-95650.09817352958,10.5,10499904349.901827,47.655,-122.3035,60.0,5.75
2026-01-20T23:05:46+00:00,SAT-47391,6.151437860974123,59.45686110778135,890.9896736870955,2.77662912236927,-97249.29699491418,10.5,10499902750.703005,47.655,-122.3035,60.0,5.766666666666667
2026-01-20T23:05:47+00:00,SAT-47391,6.355985938934506,59.03738915209999,893.7588984651385,2.8218629303129505,-98833.57628791976,10.5,10499901166.423712,47.655,-122.3035,60.0,5.783333333333333
2026-01-20T23:05:48+00:00,SAT-47391,6.553746213574946,58.619987271006494,896.5732364276373,2.866669191825933,-100402.88109640269,10.5,10499899597.118904,47.655,-122.3035,60.0,5.8
2026-01-20T23:05:49+00:00,SAT-47391,6.74501583750436,58.20469360406559,899.4322611682849,2.911046568035382,-101957.16452737285,10.5,10499898042.835472,47.655,-122.3035,60.0,5.816666666666666
2026-01-20T23:05:50+00:00,SAT-47391,6.930075212627178,57.791543821483394,902.3355449454723,2.954993941063637,-103496.38742802592,10.5,10499896503.612572,47.655,-122.3035,60.0,5.833333333333333
2026-01-20T23:05:51+00:00,SAT-47391,7.109189128109276,57.38057123261901,905.2826589026931,2.9985104510609135,-105020.51968278532,10.5,10499894979.480318,47.655,-122.3035,60.0,5.85
2026-01-20T23:05:52+00:00,SAT-47391,7.282607811397899,56.971806882365634,908.2731733258845,3.041595408127135,-106529.53712843207,10.5,10499893470.462872,47.655,-122.3035,60.0,5.866666666666666
2026-01-20T23:05:53+00:00,SAT-47391,7.450567892888654,56.56527965295956,911.3066578129233,3.0842484010710876,-108023.42536331058,10.5,10499891976.574636,47.655,-122.3035,60.0,5.883333333333334
2026-01-20T23:05:54+00:00,SAT-47391,7.613293302590867,56.16101634520444,914.3826815515915,3.1264691547418284,-109502.17475047088,10.5,10499890497.825249,47.655,-122.3035,60.0,5.9
2026-01-20T23:05:55+00:00,SAT-47391,7.770996091335525,55.759041773015234,917.500813455254,3.16825766439487,-110965.78512374096,10.5,10499889034.214876,47.655,-122.3035,60.0,5.916666666666667
2026-01-20T23:05:56+00:00,SAT-47391,7.923877197203121,55.35937883532537,920.6606224325438,3.209614078204482,-112414.26167281053,10.5,10499887585.738327,47.655,-122.3035,60.0,5.933333333333334
2026-01-20T23:05:57+00:00,SAT-47391,8.072127149260249,54.96204859843436,923.8616775398732,3.2505387518079933,-113847.6168536032,10.5,10499886152.383146,47.655,-122.3035,60.0,5.95
2026-01-20T23:05:58+00:00,SAT-47391,8.215926722267929,54.56707036695693,927.103548188343,3.2910322211601213,-115265.86943752026,10.5,10499884734.130562,47.655,-122.3035,60.0,5.966666666666667
2026-01-20T23:05:59+00:00,SAT-47391,8.35544754258906,54.17446175404376,930.38580432358,3.331095198885864,-116669.04438370353,10.5,10499883330.955616,47.655,-122.3035,60.0,5.983333333333333
2026-01-20T23:06:00+00:00,SAT-47391,8.490852650328051,53.78423874828186,933.7080166019355,3.370728583413714,-118057.17315891913,10.5,10499881942.826841,47.655,-122.3035,60.0,6.0
2026-01-20T23:06:01+00:00,SAT-47391,8.622297021855148,53.396415775937314,937.0697565757933,3.409933419185226,-119430.29234392839,10.5,10499880569.707657,47.655,-122.3035,60.0,6.016666666666667
2026-01-20T23:06:02+00:00,SAT-47391,8.749928053983215,53.011005764483045,940.4705968391942,3.448710903305205,-120788.44386640526,10.5,10499879211.556133,47.655,-122.3035,60.0,6.033333333333333
2026-01-20T23:06:03+00:00,SAT-47391,8.873886014748692,52.62802020203095,943.9101111800906,3.4870624234543874,-122131.676328799,10.5,10499877868.323671,47.655,-122.3035,60.0,6.05
2026-01-20T23:06:04+00:00,SAT-47391,8.994304464343864,52.247469189750426,947.3878747704157,3.5249895022283257,-123460.04305884647,10.5,10499876539.956942,47.655,-122.3035,60.0,6.066666666666666
2026-01-20T23:06:05+00:00,SAT-47391,9.111310645379001,51.86936149770339,950.9034643006381,3.5624937588666574,-124773.60076916913,10.5,10499875226.399231,47.655,-122.3035,60.0,6.083333333333333
2026-01-20T23:06:06+00:00,SAT-47391,9.225025845594827,51.49370462193343,954.4564580761478,3.599577017635169,-126072.41335327146,10.5,10499873927.586647,47.655,-122.3035,60.0,6.1
2026-01-20T23:06:07+00:00,SAT-47391,9.335565739775992,51.12050482753501,958.0464362217359,3.636241184588596,-127356.54756925291,10.5,10499872643.45243,47.655,-122.3035,60.0,6.116666666666666
2026-01-20T23:06:08+00:00,SAT-47391,9.443040705128546,50.74976720244547,961.6729807631656,3.672488310216843,-128626.07523394351,10.5,10499871373.924767,47.655,-122.3035,60.0,6.133333333333334
2026-01-20T23:06:09+00:00,SAT-47391,9.547556117953837,50.38149570228277,965.3356757712219,3.7083205480977486,-129881.07177474878,10.5,10499870118.928225,47.655,-122.3035,60.0,6.15
2026-01-20T23:06:10+00:00,SAT-47391,9.649212629847295,50.0156931972877,969.0341074645247,3.743740183447218,-131121.6172295962,10.5,10499868878.38277,47.655,-122.3035,60.0,6.166666666666667
2026-01-20T23:06:11+00:00,SAT-47391,9.748106426925938,49.65236151434198,972.767864340816,3.778749592408662,-132347.79482107903,10.5,10499867652.20518,47.655,-122.3035,60.0,6.183333333333334
2026-01-20T23:06:12+00:00,SAT-47391,9.84432947149236,49.29150148100729,976.536537267645,3.8133512722376928,-133559.69201365224,10.5,10499866440.307987,47.655,-122.3035,60.0,6.2
2026-01-20T23:06:13+00:00,SAT-47391,9.937969729236192,48.93311296476386,980.3397196031567,3.847547787151307,-134757.39861704165,10.5,10499865242.601383,47.655,-122.3035,60.0,6.216666666666667
2026-01-20T23:06:14+00:00,SAT-47391,10.029111380929,48.57719491553111,984.1770072628756,3.881341814940277,-135941.0084188072,10.5,10499864058.991581,47.655,-122.3035,60.0,6.233333333333333
2026-01-20T23:06:15+00:00,SAT-47391,10.11783502216859,48.223745402031724,988.0479988329761,3.9147361097059736,-137110.61787922872,10.5,10499862889.38212,47.655,-122.3035,60.0,6.25
2026-01-20T23:06:16+00:00,SAT-47391,10.204217850021072,47.87276164997153,991.9522956463895,3.94773352359883,-138266.32689267892,10.5,10499861733.673107,47.655,-122.3035,60.0,6.266666666666667
2026-01-20T23:06:17+00:00,SAT-47391,10.288333838791171,47.52424007665249,995.8895018805921,3.9803369502370867,-139408.2368059086,10.5,10499860591.763195,47.655,-122.3035,60.0,6.283333333333333
2026-01-20T23:06:18+00:00,SAT-47391,10.370253904100858,47.17817632897911,999.8592245989618,4.0125493852050225,-140536.45253695053,10.5,10499859463.547462,47.655,-122.3035,60.0,6.3
2026-01-20T23:06:19+00:00,SAT-47391,10.450046058409946,46.83456531464191,1003.8610738524729,4.044373888176862,-141651.08124853845,10.5,10499858348.91875,47.655,-122.3035,60.0,6.316666666666666
2026-01-20T23:06:20+00:00,SAT-47391,10.527775556595243,46.49340123524085,1007.8946627436146,4.075813569392408,-142752.23187442654,10.5,10499857247.768126,47.655,-122.3035,60.0,6.333333333333333
2026-01-20T23:06:21+00:00,SAT-47391,10.603505032795791,46.154677619056486,1011.9596074768222,4.10687157986187,-143840.01477632113,10.5,10499856159.985224,47.655,-122.3035,60.0,6.35
2026-01-20T23:06:22+00:00,SAT-47391,10.67729462915651,45.818387353229774,1016.0555273991376,4.137551180204611,-144914.5441549047,10.5,10499855085.455845,47.655,-122.3035,60.0,6.366666666666666
2026-01-20T23:06:23+00:00,SAT-47391,10.749202118408345,45.484522709037705,1020.1820451095283,4.167855624251072,-145975.93397308298,10.5,10499854024.066027,47.655,-122.3035,60.0,6.383333333333334
2026-01-20T23:06:24+00:00,SAT-47391,10.819283017429177,45.15307537540937,1024.3387864521146,4.197788223475752,-147024.30021270044,10.5,10499852975.699787,47.655,-122.3035,60.0,6.4
2026-01-20T23:06:25+00:00,SAT-47391,10.887590695575078,44.824036485833645,1028.525380573661,4.227352358137524,-148059.76126472134,10.5,10499851940.238735,47.655,-122.3035,60.0,6.416666666666667
2026-01-20T23:06:26+00:00,SAT-47391,10.954176477047989,44.49739664340993,1032.7414599921772,4.256551418928504,-149082.43588552618,10.5,10499850917.564114,47.655,-122.3035,60.0,6.433333333333334
2026-01-20T23:06:27+00:00,SAT-47391,11.01908973672338,44.17314594920601,1036.9866606073217,4.285388850637753,-150092.44472619926,10.5,10499849907.555273,47.655,-122.3035,60.0,6.45
2026-01-20T23:06:28+00:00,SAT-47391,11.08237799134932,43.851274026198595,1041.2606217543578,4.313868081740604,-151089.9078664492,10.5,10499848910.092134,47.655,-122.3035,60.0,6.466666666666667
2026-01-20T23:06:29+00:00,SAT-47391,11.144086984816303,43.53177004729465,1045.5629861878804,4.341992640865734,-152074.94889377838,10.5,10499847925.051105,47.655,-122.3035,60.0,6.483333333333333
2026-01-20T23:06:30+00:00,SAT-47391,11.204260770399783,43.214622753787204,1049.893400181704,4.36976601861504,-153047.69006383052,10.5,10499846952.309937,47.655,-122.3035,60.0,6.5
2026-01-20T23:06:31+00:00,SAT-47391,11.262941786752,42.8998204829045,1054.251513490936,4.3971917645910485,-154008.25569870078,10.5,10499845991.7443,47.655,-122.3035,60.0,6.516666666666667
2026-01-20T23:06:32+00:00,SAT-47391,11.320170931132843,42.587351187327535,1058.6369794108214,4.424273424205888,-154956.76997371903,10.5,10499845043.230026,47.655,-122.3035,60.0,6.533333333333333
2026-01-20T23:06:33+00:00,SAT-47391,11.375987627965078,42.27720245828903,1063.0494547725627,4.451014555758359,-155893.3575155609,10.5,10499844106.642485,47.655,-122.3035,60.0,6.55
2026-01-20T23:06:34+00:00,SAT-47391,11.430429894050963,41.96936154649633,1067.4885999561725,4.477418757138857,-156818.144337567,10.5,10499843181.855663,47.655,-122.3035,60.0,6.566666666666666
2026-01-20T23:06:35+00:00,SAT-47391,11.483534400715794,41.66381538034673,1071.9540789299588,4.503489589480523,-157731.25516568363,10.5,10499842268.744835,47.655,-122.3035,60.0,6.583333333333333
2026-01-20T23:06:36+00:00,SAT-47391,11.535336531859247,41.36055058850076,1076.4455592138675,4.52923066991165,-158632.81668704393,10.5,10499841367.183313,47.655,-122.3035,60.0,6.6
2026-01-20T23:06:37+00:00,SAT-47391,11.585870440140647,41.05955351529414,1080.962711935326,4.554645589620097,-159522.95468023754,10.5,10499840477.04532,47.655,-122.3035,60.0,6.616666666666666
2026-01-20T23:06:38+00:00,SAT-47391,11.635169099361123,40.76081024091229,1085.5052118033739,4.579737956577308,-160401.79551168607,10.5,10499839598.204489,47.655,-122.3035,60.0,6.633333333333334
2026-01-20T23:06:39+00:00,SAT-47391,11.683264354721473,40.464306597876536,1090.0727371254002,4.604511350978606,-161269.46457497394,10.5,10499838730.535425,47.655,-122.3035,60.0,6.65
2026-01-20T23:06:40+00:00,SAT-47391,11.73018697010413,40.17002818966348,1094.664969779443,4.628969385803174,-162126.08841191506,10.5,10499837873.911589,47.655,-122.3035,60.0,6.666666666666667
2026-01-20T23:06:41+00:00,SAT-47391,11.775966673631986,39.877960404696346,1099.281595246884,4.653115653371445,-162971.79284076643,10.5,10499837028.207159,47.655,-122.3035,60.0,6.683333333333334
2026-01-20T23:06:42+00:00,SAT-47391,11.820632200481343,39.58808843305941,1103.9223025918463,4.676953732059314,-163806.70319138846,10.5,10499836193.296808,47.655,-122.3035,60.0,6.7
2026-01-20T23:06:43+00:00,SAT-47391,11.864211333634687,39.300397282062235,1108.586784447287,4.700487198968443,-164630.94474901253,10.5,10499835369.05525,47.655,-122.3035,60.0,6.716666666666667
2026-01-20T23:06:44+00:00,SAT-47391,11.90673094285556,39.01487179031998,1113.2747370137247,4.723719629020999,-165444.64272253469,10.5,10499834555.357277,47.655,-122.3035,60.0,6.733333333333333
2026-01-20T23:06:45+00:00,SAT-47391,11.948217021731685,38.73149664128351,1117.9858600570683,4.746654578258396,-166247.92165956745,10.5,10499833752.07834,47.655,-122.3035,60.0,6.75
2026-01-20T23:06:46+00:00,SAT-47391,11.9886947228184,38.45025637718032,1122.7198568897848,4.769295579290833,-167040.90528706278,10.5,10499832959.094713,47.655,-122.3035,60.0,6.766666666666667
2026-01-20T23:06:47+00:00,SAT-47391,12.028188391120109,38.17113541252634,1127.4764343475308,4.791646163583745,-167823.71729187836,10.5,10499832176.282707,47.655,-122.3035,60.0,6.783333333333333
2026-01-20T23:06:48+00:00,SAT-47391,12.066721596140004,37.89411804580758,1132.2553027880117,4.813709832585962,-168596.4803095634,10.5,10499831403.51969,47.655,-122.3035,60.0,6.8
2026-01-20T23:06:49+00:00,SAT-47391,12.104317162253112,37.619188472229084,1137.056176061044,4.835490108298469,-169359.31769549026,10.5,10499830640.682304,47.655,-122.3035,60.0,6.816666666666666
2026-01-20T23:06:50+00:00,SAT-47391,12.140997198035931,37.34633079309187,1141.878771529054,4.856990430265752,-170112.34991705624,10.5,10499829887.650084,47.655,-122.3035,60.0,6.833333333333333
2026-01-20T23:06:51+00:00,SAT-47391,12.176783123480199,37.07552903040706,1146.722809984839,4.878214255890122,-170855.6980671151,10.5,10499829144.301933,47.655,-122.3035,60.0,6.85
