satellites_20260121_005943/SAT-45581.csv

timestamp,satellite,azimuth_deg,elevation_deg,distance_km,relative_velocity_kms,doppler_shift_hz,tx_freq_ghz,rx_freq_hz,ue_lat,ue_lon,ue_alt_m,time_minutes
2026-01-20T23:10:12+00:00,SAT-45581,132.14767574135257,30.24163711065738,614.2251694238784,-3.038131692685071,106408.22316214921,10.5,10500106408.223162,47.655,-122.3035,60.0,10.2
2026-01-20T23:10:13+00:00,SAT-45581,131.64452901887148,30.6882363995927,611.1951394157071,-2.9726961528460234,104116.39376492669,10.5,10500104116.393764,47.655,-122.3035,60.0,10.216666666666667
2026-01-20T23:10:14+00:00,SAT-45581,131.13194558507124,31.137016663044296,608.2303704526021,-2.9062961416042747,101790.78449947159,10.5,10500101790.7845,47.655,-122.3035,60.0,10.233333333333333
2026-01-20T23:10:15+00:00,SAT-45581,130.60971939048255,31.58783557450993,605.331824434042,-2.8389348895312048,99431.5085140589,10.5,10500099431.508514,47.655,-122.3035,60.0,10.25
2026-01-20T23:10:16+00:00,SAT-45581,130.07764210893987,32.04054226899065,602.5004600375496,-2.7706167480099326,97038.71821253186,10.5,10500097038.718212,47.655,-122.3035,60.0,10.266666666666667
2026-01-20T23:10:17+00:00,SAT-45581,129.53550340314132,32.49497716430974,599.7372316008677,-2.7013472714135673,94612.60813253166,10.5,10500094612.608133,47.655,-122.3035,60.0,10.283333333333333
2026-01-20T23:10:18+00:00,SAT-45581,128.9830912166916,32.950971803547795,597.0430879221778,-2.631133231481217,92153.41544900632,10.5,10500092153.41545,47.655,-122.3035,60.0,10.3
2026-01-20T23:10:19+00:00,SAT-45581,128.42019210747753,33.408348710558485,594.4189710459806,-2.559982664865891,89661.42163953923,10.5,10500089661.42164,47.655,-122.3035,60.0,10.316666666666666
2026-01-20T23:10:20+00:00,SAT-45581,127.84659161844687,33.86692126587255,591.8658150015543,-2.487904928888873,87136.95443710317,10.5,10500087136.954437,47.655,-122.3035,60.0,10.333333333333334
2026-01-20T23:10:21+00:00,SAT-45581,127.26207468528241,34.32649360736559,589.3845444858092,-2.4149106792352257,84580.38704886255,10.5,10500084580.387049,47.655,-122.3035,60.0,10.35
2026-01-20T23:10:22+00:00,SAT-45581,126.66642610130152,34.78686054430917,586.9760735683852,-2.341011953662039,81992.14108799031,10.5,10500081992.141088,47.655,-122.3035,60.0,10.366666666666667
2026-01-20T23:10:23+00:00,SAT-45581,126.05943101768422,35.247807506166694,584.6413043132663,-2.266222164008446,79372.68629382491,10.5,10500079372.686295,47.655,-122.3035,60.0,10.383333333333333
2026-01-20T23:10:24+00:00,SAT-45581,125.44087550214628,35.7091105126185,582.3811254083619,-2.190556142672197,76722.54215967657,10.5,10500076722.54216,47.655,-122.3035,60.0,10.4
2026-01-20T23:10:25+00:00,SAT-45581,124.81054714468493,36.170536177806184,580.1964107487369,-2.114030142852209,74042.2779413223,10.5,10500074042.27794,47.655,-122.3035,60.0,10.416666666666666
2026-01-20T23:10:26+00:00,SAT-45581,124.1682357239984,36.63184174297561,578.088018019599,-2.036661855131265,71332.51323780228,10.5,10500071332.513237,47.655,-122.3035,60.0,10.433333333333334
2026-01-20T23:10:27+00:00,SAT-45581,123.51373393236699,37.09277514362118,576.056787262748,-1.958470426644161,68593.91866276933,10.5,10500068593.918663,47.655,-122.3035,60.0,10.45
2026-01-20T23:10:28+00:00,SAT-45581,122.84683815872872,37.55307511500951,574.1035394239083,-1.8794764579226744,65827.21573398648,10.5,10500065827.215734,47.655,-122.3035,60.0,10.466666666666667
2026-01-20T23:10:29+00:00,SAT-45581,122.16734933761474,38.01247133478659,572.2290749032067,-1.7997020034968556,63033.17689438666,10.5,10500063033.176895,47.655,-122.3035,60.0,10.483333333333333
2026-01-20T23:10:30+00:00,SAT-45581,121.47507386343598,38.47068460649101,570.4341721050524,-1.7191705751314943,60212.62562542748,10.5,10500060212.625626,47.655,-122.3035,60.0,10.5
2026-01-20T23:10:31+00:00,SAT-45581,120.76982456840683,38.92742708836449,568.719585984788,-1.637907107153337,57366.43523270369,10.5,10500057366.435232,47.655,-122.3035,60.0,10.516666666666667
2026-01-20T23:10:32+00:00,SAT-45581,120.05142177842417,39.382402561142015,567.0860466299204,-1.5559379767860393,54495.529558163245,10.5,10500054495.529558,47.655,-122.3035,60.0,10.533333333333333
2026-01-20T23:10:33+00:00,SAT-45581,119.31969442276419,39.835306752458294,565.5342578210724,-1.4732909478070788,51600.88100673409,10.5,10500051600.881006,47.655,-122.3035,60.0,10.55
2026-01-20T23:10:34+00:00,SAT-45581,118.57448122683297,40.28582770133635,564.0648956491261,-1.3899951514746494,48683.50987830327,10.5,10500048683.509878,47.655,-122.3035,60.0,10.566666666666666
2026-01-20T23:10:35+00:00,SAT-45581,117.81563197094394,40.73364617517105,562.6786071513887,-1.306081074384767,45744.483942421444,10.5,10500045744.483942,47.655,-122.3035,60.0,10.583333333333334
2026-01-20T23:10:36+00:00,SAT-45581,117.04300880362267,41.17843614554913,561.3760089598691,-1.2215804858914503,42784.91589625056,10.5,10500042784.915895,47.655,-122.3035,60.0,10.6
2026-01-20T23:10:37+00:00,SAT-45581,116.25648763640864,41.61986530783891,560.15768602194,-1.1365264144898752,39805.96253740209,10.5,10500039805.962538,47.655,-122.3035,60.0,10.616666666666667
2026-01-20T23:10:38+00:00,SAT-45581,115.4559595872944,42.05759566186059,559.0241903445554,-1.050953072188192,36808.822115118106,10.5,10500036808.822115,47.655,-122.3035,60.0,10.633333333333333
2026-01-20T23:10:39+00:00,SAT-45581,114.64133249692688,42.491284139034335,557.9760398138931,-0.9648958375024913,33794.733734683075,10.5,10500033794.733734,47.655,-122.3035,60.0,10.65
2026-01-20T23:10:40+00:00,SAT-45581,113.81253246557866,42.92058330024746,557.0137170319572,-0.8783911441548959,30764.973459160232,10.5,10500030764.97346,47.655,-122.3035,60.0,10.666666666666666
2026-01-20T23:10:41+00:00,SAT-45581,112.96950546864899,43.34514207075744,556.1376682641867,-0.7914764508539887,27720.853250974316,10.5,10500027720.85325,47.655,-122.3035,60.0,10.683333333333334
2026-01-20T23:10:42+00:00,SAT-45581,112.11221897559118,43.76460654557939,555.3483024172017,-0.7041901369388054,24663.717316922815,10.5,10500024663.717318,47.655,-122.3035,60.0,10.7
2026-01-20T23:10:43+00:00,SAT-45581,111.24066362062372,44.17862083531333,554.6459901206281,-0.6165714504686978,21594.940290063354,10.5,10500021594.94029,47.655,-122.3035,60.0,10.716666666666667
2026-01-20T23:10:44+00:00,SAT-45581,110.35485485761195,44.58682797768621,554.0310628606939,-0.5286604044175395,18515.923593995696,10.5,10500018515.923594,47.655,-122.3035,60.0,10.733333333333333
2026-01-20T23:10:45+00:00,SAT-45581,109.45483463481192,44.988870889614084,553.5038122173548,-0.4404976976451704,15428.092674947444,10.5,10500015428.092674,47.655,-122.3035,60.0,10.75
2026-01-20T23:10:46+00:00,SAT-45581,108.54067304472026,45.38439337113047,553.0644891802367,-0.3521246277701064,12332.893950207768,10.5,10500012332.89395,47.655,-122.3035,60.0,10.766666666666667
2026-01-20T23:10:47+00:00,SAT-45581,107.61246992820915,45.77304115898966,552.713303551474,-0.26358298509403494,9231.791092914575,10.5,10500009231.791094,47.655,-122.3035,60.0,10.783333333333333
2026-01-20T23:10:48+00:00,SAT-45581,106.67035644900709,46.15446301176966,552.4504234543402,-0.1749149666636326,6126.262022135801,10.5,10500006126.262022,47.655,-122.3035,60.0,10.8
2026-01-20T23:10:49+00:00,SAT-45581,105.71449656992611,46.52831184213914,552.2759749275876,-0.08616306938870669,3017.7951594146516,10.5,10500003017.79516,47.655,-122.3035,60.0,10.816666666666666
2026-01-20T23:10:50+00:00,SAT-45581,104.74508845499767,46.89424587265538,552.1900416263841,0.0026300063571840396,-92.11394754444561,10.5,10499999907.886053,47.655,-122.3035,60.0,10.833333333333334
2026-01-20T23:10:51+00:00,SAT-45581,103.76236573651138,47.25192982432362,552.1926646193909,0.09142146216463337,-3201.9663174069924,10.5,10499996798.033682,47.655,-122.3035,60.0,10.85
2026-01-20T23:10:52+00:00,SAT-45581,102.76659864788813,47.60103612179794,552.2838422909898,0.1801685028284972,-6310.263081065303,10.5,10499993689.73692,47.655,-122.3035,60.0,10.866666666666667
2026-01-20T23:10:53+00:00,SAT-45581,101.75809499833206,47.941246108781606,552.4635303444774,0.26882843899513653,-9415.509076779155,10.5,10499990584.490923,47.655,-122.3035,60.0,10.883333333333333
2026-01-20T23:10:54+00:00,SAT-45581,100.73720094689749,48.27225127188964,552.7316419076352,0.3573587920490675,-12516.216523749938,10.5,10499987483.783476,47.655,-122.3035,60.0,10.9
2026-01-20T23:10:55+00:00,SAT-45581,99.70430156231178,48.59375446067009,553.0880477429055,0.4457173894213838,-15610.908360224757,10.5,10499984389.09164,47.655,-122.3035,60.0,10.916666666666666
2026-01-20T23:10:56+00:00,SAT-45581,98.6598211647463,48.905471089381514,553.5325765526218,0.5338624724627057,-18698.122021663432,10.5,10499981301.87798,47.655,-122.3035,60.0,10.933333333333334
2026-01-20T23:10:57+00:00,SAT-45581,97.60422338352483,49.20713032440104,554.0650153918245,0.6217527830534216,-21776.412474195487,10.5,10499978223.587526,47.655,-122.3035,60.0,10.95
2026-01-20T23:10:58+00:00,SAT-45581,96.53801096600274,49.498476231247075,554.6851101674565,0.709347669156614,-24844.355911530125,10.5,10499975155.644089,47.655,-122.3035,60.0,10.966666666666667
2026-01-20T23:10:59+00:00,SAT-45581,95.46172526772801,49.77926888627305,555.3925662428287,0.7966071644233804,-27900.552543071295,10.5,10499972099.447456,47.655,-122.3035,60.0,10.983333333333333
2026-01-20T23:11:00+00:00,SAT-45581,94.37594545742776,50.049285429694756,556.1870491214803,0.8834920815684961,-30943.62986432837,10.5,10499969056.370136,47.655,-122.3035,60.0,11.0
2026-01-20T23:11:01+00:00,SAT-45581,93.28128739239412,50.308321059057114,557.0681852241646,0.9699641057862894,-33972.24592873527,10.5,10499966027.754072,47.655,-122.3035,60.0,11.016666666666667
2026-01-20T23:11:02+00:00,SAT-45581,92.17840216136155,50.5561899512426,558.0355627590021,1.0559858455184308,-36985.09112575315,10.5,10499963014.908875,47.655,-122.3035,60.0,11.033333333333333
2026-01-20T23:11:03+00:00,SAT-45581,91.06797433757552,50.79272609415156,559.0887326422659,1.1415209378117006,-39980.89187094512,10.5,10499960019.10813,47.655,-122.3035,60.0,11.05
2026-01-20T23:11:04+00:00,SAT-45581,89.95071987368374,51.01778403427644,560.2272095242433,1.2265340891697762,-42958.41203677862,10.5,10499957041.587963,47.655,-122.3035,60.0,11.066666666666666
2026-01-20T23:11:05+00:00,SAT-45581,88.82738371775865,51.231239516880244,561.450472855842,1.3109911656443953,-45916.45610799905,10.5,10499954083.543892,47.655,-122.3035,60.0,11.083333333333334
2026-01-20T23:11:06+00:00,SAT-45581,87.69873710646509,51.432990022511994,562.7579680450447,1.394859224936551,-48853.870305949415,10.5,10499951146.129694,47.655,-122.3035,60.0,11.1
2026-01-20T23:11:07+00:00,SAT-45581,86.56557460746492,51.62295518344587,564.1491076453815,1.478106587486145,-51769.54507843063,10.5,10499948230.454922,47.655,-122.3035,60.0,11.116666666666667
2026-01-20T23:11:08+00:00,SAT-45581,85.42871089392354,51.80107708199768,565.623272615301,1.5607028622150978,-54662.416001334255,10.5,10499945337.583998,47.655,-122.3035,60.0,11.133333333333333
2026-01-20T23:11:09+00:00,SAT-45581,84.28897731552942,51.96732042105602,567.1798136032168,1.6426190125317564,-57531.46609039592,10.5,10499942468.533909,47.655,-122.3035,60.0,11.15
2026-01-20T23:11:10+00:00,SAT-45581,83.14721826386115,52.1216725691163,568.8180522983818,1.7238273711662095,-60375.7263207909,10.5,10499939624.27368,47.655,-122.3035,60.0,11.166666666666666
2026-01-20T23:11:11+00:00,SAT-45581,82.00428740624557,52.26414347360572,570.5372827965582,1.804301668359143,-63194.27661442705,10.5,10499936805.723385,47.655,-122.3035,60.0,11.183333333333334
2026-01-20T23:11:12+00:00,SAT-45581,80.8610438129172,52.39476544523812,572.3367729938018,1.8840170590771979,-65986.24679314173,10.5,10499934013.753206,47.655,-122.3035,60.0,11.2
2026-01-20T23:11:13+00:00,SAT-45581,79.71834801855584,52.51359281554638,574.2157660073881,1.9629501395267461,-68750.81715708417,10.5,10499931249.182842,47.655,-122.3035,60.0,11.216666666666667
2026-01-20T23:11:14+00:00,SAT-45581,78.57705806712849,52.62070147047403,576.1734816132094,2.0410789618389016,-71487.21899904656,10.5,10499928512.781,47.655,-122.3035,60.0,11.233333333333333
2026-01-20T23:11:15+00:00,SAT-45581,77.43802558322032,52.716188265141824,578.2091176978169,2.118383018063391,-74194.73404386178,10.5,10499925805.265957,47.655,-122.3035,60.0,11.25
2026-01-20T23:11:16+00:00,SAT-45581,76.30209192839466,52.800170325322696,580.3218516944987,2.1948432863558227,-76872.69606607695,10.5,10499923127.303934,47.655,-122.3035,60.0,11.266666666666667
2026-01-20T23:11:17+00:00,SAT-45581,75.17008444862567,52.872784246034605,582.5108420654242,2.270442151033318,-79520.48808996334,10.5,10499920479.51191,47.655,-122.3035,60.0,11.283333333333333
2026-01-20T23:11:18+00:00,SAT-45581,74.04281291888424,52.9341851919316,584.7752297040548,2.3451634796600143,-82137.54508937696,10.5,10499917862.45491,47.655,-122.3035,60.0,11.3
2026-01-20T23:11:19+00:00,SAT-45581,72.92106613653971,52.984545914667464,587.1141394144357,2.4189925309887745,-84723.35076348763,10.5,10499915276.649237,47.655,-122.3035,60.0,11.316666666666666
2026-01-20T23:11:20+00:00,SAT-45581,71.80560878260557,53.02405569324127,589.5266812986752,2.4919160009412242,-87277.43914719447,10.5,10499912722.560852,47.655,-122.3035,60.0,11.333333333333334
2026-01-20T23:11:21+00:00,SAT-45581,70.69717850834401,53.05291921218136,592.0119521902806,2.563921945668108,-89799.39191637414,10.5,10499910200.608084,47.655,-122.3035,60.0,11.35
2026-01-20T23:11:22+00:00,SAT-45581,69.59648332864124,53.07135538708365,594.5690370107602,2.6349998012085,-92288.83907642952,10.5,10499907711.160923,47.655,-122.3035,60.0,11.366666666666667
2026-01-20T23:11:23+00:00,SAT-45581,68.50419929429704,53.07959615091347,597.1970101458321,2.7051403109296186,-94745.45642092501,10.5,10499905254.54358,47.655,-122.3035,60.0,11.383333333333333
2026-01-20T23:11:24+00:00,SAT-45581,67.42096849617789,53.07788521225148,599.8949367492659,2.774335527424767,-97168.9655980607,10.5,10499902831.034403,47.655,-122.3035,60.0,11.4
2026-01-20T23:11:25+00:00,SAT-45581,66.34739737555242,53.06647679769289,602.6618740486175,2.842578766385282,-99559.13249507251,10.5,10499900440.867504,47.655,-122.3035,60.0,11.416666666666666
2026-01-20T23:11:26+00:00,SAT-45581,65.28405536334542,53.04563438921519,605.4968726049592,2.909864574849625,-101915.7661261814,10.5,10499898084.233873,47.655,-122.3035,60.0,11.433333333333334
2026-01-20T23:11:27+00:00,SAT-45581,64.23147383895697,53.01562946772572,608.3989775409425,2.976188652716465,-104238.71588364935,10.5,10499895761.284117,47.655,-122.3035,60.0,11.45
2026-01-20T23:11:28+00:00,SAT-45581,63.19014541772315,52.97674027322564,611.3672296905851,3.0415478810847896,-106527.87253036996,10.5,10499893472.12747,47.655,-122.3035,60.0,11.466666666666667
2026-01-20T23:11:29+00:00,SAT-45581,62.16052351695779,52.92925058944422,614.4006667773203,3.1059402357402925,-108783.1651697958,10.5,10499891216.83483,47.655,-122.3035,60.0,11.483333333333333
2026-01-20T23:11:30+00:00,SAT-45581,61.14302222798154,52.87344856277267,617.4983245057653,3.169364715197294,-111004.55872566211,10.5,10499888995.441275,47.655,-122.3035,60.0,11.5
2026-01-20T23:11:31+00:00,SAT-45581,60.13801646824594,52.8096255631636,620.6592375817221,3.2318213843418646,-113192.0554705535,10.5,10499886807.944529,47.655,-122.3035,60.0,11.516666666666667
2026-01-20T23:11:32+00:00,SAT-45581,59.14584235670238,52.73807509071556,623.8824407757056,3.293311238695216,-115345.69027183388,10.5,10499884654.309729,47.655,-122.3035,60.0,11.533333333333333
2026-01-20T23:11:33+00:00,SAT-45581,58.166797848797096,52.659091737177754,627.1669698510976,3.353836205952461,-117465.53064554028,10.5,10499882534.469355,47.655,-122.3035,60.0,11.55
2026-01-20T23:11:34+00:00,SAT-45581,57.201143562956275,52.572970203911034,630.5118624938342,3.413399081592828,-119551.67450118007,10.5,10499880448.325499,47.655,-122.3035,60.0,11.566666666666666
2026-01-20T23:11:35+00:00,SAT-45581,56.24910379590962,52.480004381007035,633.9161591778762,3.47200351417965,-121604.2496268746,10.5,10499878395.750374,47.655,-122.3035,60.0,11.583333333333334
2026-01-20T23:11:36+00:00,SAT-45581,55.3108676884369,52.380486488829,637.378904016018,3.529653920882427,-123623.41073058444,10.5,10499876376.58927,47.655,-122.3035,60.0,11.6
2026-01-20T23:11:37+00:00,SAT-45581,54.386590537431935,52.27470628536413,640.8991455264447,3.5863554568797102,-125609.33836846877,10.5,10499874390.66163,47.655,-122.3035,60.0,11.616666666666667
2026-01-20T23:11:38+00:00,SAT-45581,53.47639521530164,52.162950338983656,644.4759373687729,3.64211396997406,-127562.23735530941,10.5,10499872437.762644,47.655,-122.3035,60.0,11.633333333333333
2026-01-20T23:11:39+00:00,SAT-45581,52.58037367901127,52.04550136662775,648.1083390348269,3.6969359700644215,-129482.33569530433,10.5,10499870517.664305,47.655,-122.3035,60.0,11.65
2026-01-20T23:11:40+00:00,SAT-45581,51.698588544004394,51.92263763664576,651.7954165089711,3.7508285726700854,-131369.88260403767,10.5,10499868630.117395,47.655,-122.3035,60.0,11.666666666666666
2026-01-20T23:11:41+00:00,SAT-45581,50.831074710035665,51.7946324356367,655.5362428721141,3.803799458425312,-133225.14708981029,10.5,10499866774.852911,47.655,-122.3035,60.0,11.683333333333334
2026-01-20T23:11:42+00:00,SAT-45581,49.977841016407815,51.661753597298414,659.329898865317,3.8558568092935595,-135048.41571959216,10.5,10499864951.58428,47.655,-122.3035,60.0,11.7
2026-01-20T23:11:43+00:00,SAT-45581,49.13887191529386,51.52426309189175,663.1754733897858,3.9070093370608263,-136839.99361697977,10.5,10499863160.006384,47.655,-122.3035,60.0,11.716666666666667
2026-01-20T23:11:44+00:00,SAT-45581,48.314129128255885,51.382416670405085,667.0720640352811,3.9572661565767437,-138600.200022563,10.5,10499861399.799978,47.655,-122.3035,60.0,11.733333333333333
2026-01-20T23:11:45+00:00,SAT-45581,47.5035533070088,51.23646356645936,671.0187774821069,4.006636794955773,-140329.36861618984,10.5,10499859670.631384,47.655,-122.3035,60.0,11.75
2026-01-20T23:11:46+00:00,SAT-45581,46.70706565671351,51.08664624805213,675.0147299122762,4.055131189627157,-142027.8474486678,10.5,10499857972.152552,47.655,-122.3035,60.0,11.766666666666667
2026-01-20T23:11:47+00:00,SAT-45581,45.924569516398144,50.93320021605245,679.059047418731,4.10275957266386,-143695.99489047364,10.5,10499856304.00511,47.655,-122.3035,60.0,11.783333333333333
2026-01-20T23:11:48+00:00,SAT-45581,45.15595191012638,50.77635385107152,683.1508662992012,4.1495324890113805,-145334.1802702038,10.5,10499854665.819729,47.655,-122.3035,60.0,11.8
2026-01-20T23:11:49+00:00,SAT-45581,44.4010850355101,50.616328300020754,687.2893333682418,4.195460760672754,-146942.78262018156,10.5,10499853057.21738,47.655,-122.3035,60.0,11.816666666666666
2026-01-20T23:11:50+00:00,SAT-45581,43.6598276953611,50.45333740132033,691.4736062335528,4.240555438726753,-148522.18899593168,10.5,10499851477.811005,47.655,-122.3035,60.0,11.833333333333334
2026-01-20T23:11:51+00:00,SAT-45581,42.93202667040159,50.287587646023454,695.7028535244428,4.2848278135133775,-150072.79483291894,10.5,10499849927.205168,47.655,-122.3035,60.0,11.85
2026-01-20T23:11:52+00:00,SAT-45581,42.21751801989592,50.11927816939847,699.9762551304536,4.3282893135691465,-151595.0004068349,10.5,10499848404.999594,47.655,-122.3035,60.0,11.866666666666667
2026-01-20T23:11:53+00:00,SAT-45581,41.51612832719505,49.94860077451851,704.2930023391865,4.370951551889323,-153089.21245389665,10.5,10499846910.787546,47.655,-122.3035,60.0,11.883333333333333
2026-01-20T23:11:54+00:00,SAT-45581,40.827675864186865,49.775739978878164,708.6522980202708,4.412826268538598,-154555.84216083007,10.5,10499845444.157839,47.655,-122.3035,60.0,11.9
2026-01-20T23:11:55+00:00,SAT-45581,40.151971692201315,49.60087308550435,713.0533567520934,4.453925286384003,-155995.30361444928,10.5,10499844004.696386,47.655,-122.3035,60.0,11.916666666666666
2026-01-20T23:11:56+00:00,SAT-45581,39.488820696819694,49.42417027548857,717.4954049043803,4.494260570063522,-157408.01586698683,10.5,10499842591.984133,47.655,-122.3035,60.0,11.933333333333334
2026-01-20T23:11:57+00:00,SAT-45581,38.83802254265206,49.245794715044774,721.9776807795903,4.533844069142741,-158794.39744277613,10.5,10499841205.602558,47.655,-122.3035,60.0,11.95
2026-01-20T23:11:58+00:00,SAT-45581,38.19937258122039,49.06590268390449,726.499434597882,4.57268783384385,-160154.87039157076,10.5,10499839845.129608,47.655,-122.3035,60.0,11.966666666666667
2026-01-20T23:11:59+00:00,SAT-45581,37.57266267408185,48.88464371139342,731.0599285975023,4.61080391837997,-161489.85690290344,10.5,10499838510.143097,47.655,-122.3035,60.0,11.983333333333333
2026-01-20T23:12:00+00:00,SAT-45581,36.95768196439853,48.70216072717653,735.6584370387666,4.648204371303157,-162799.77896803245,10.5,10499837200.221031,47.655,-122.3035,60.0,12.0
2026-01-20T23:12:01+00:00,SAT-45581,36.354217586542774,48.51859022107898,740.2942461984129,4.684901254209816,-164085.05903508444,10.5,10499835914.940966,47.655,-122.3035,60.0,12.016666666666667
2026-01-20T23:12:02+00:00,SAT-45581,35.762055313114324,48.33406240923905,744.9666543826115,4.720906587443394,-165346.11810733288,10.5,10499834653.881893,47.655,-122.3035,60.0,12.033333333333333
2026-01-20T23:12:03+00:00,SAT-45581,35.18098015177734,48.14870140798534,749.6749718858217,4.756232359226448,-166583.37606304194,10.5,10499833416.623938,47.655,-122.3035,60.0,12.05
2026-01-20T23:12:04+00:00,SAT-45581,34.6107768864713,47.96262541149224,754.4185209587569,4.7908904885437105,-167797.25035547413,10.5,10499832202.749645,47.655,-122.3035,60.0,12.066666666666666
2026-01-20T23:12:05+00:00,SAT-45581,34.05123057179445,47.775946873792314,759.1966357393311,4.824892856959563,-168988.15712727304,10.5,10499831011.842873,47.655,-122.3035,60.0,12.083333333333334
2026-01-20T23:12:06+00:00,SAT-45581,33.50212697527195,47.588772691290764,764.0086622153387,4.858251237655181,-170156.50872504406,10.5,10499829843.491276,47.655,-122.3035,60.0,12.1
2026-01-20T23:12:07+00:00,SAT-45581,32.96325298257849,47.40120438880569,768.8539581163602,4.890977353095991,-171302.71571911228,10.5,10499828697.28428,47.655,-122.3035,60.0,12.116666666666667
2026-01-20T23:12:08+00:00,SAT-45581,32.43439695369211,47.213338303229,773.7318928631813,4.9230827839540945,-172427.18371360094,10.5,10499827572.816286,47.655,-122.3035,60.0,12.133333333333333
2026-01-20T23:12:09+00:00,SAT-45581,31.9153490495282,47.0252657698125,778.6418474263781,4.954579038857509,-173530.31578934466,10.5,10499826469.68421,47.655,-122.3035,60.0,12.15
2026-01-20T23:12:10+00:00,SAT-45581,31.405901514070546,46.837073304063836,783.5832142544655,4.985477527263163,-174612.51155378702,10.5,10499825387.488445,47.655,-122.3035,60.0,12.166666666666666
2026-01-20T23:12:11+00:00,SAT-45581,30.905848925606644,46.64884278248348,788.5553971749893,5.015789490512321,-175674.16472624996,10.5,10499824325.835274,47.655,-122.3035,60.0,12.183333333333334
2026-01-20T23:12:12+00:00,SAT-45581,30.414988423040864,46.46065162330744,793.5578112268602,5.045526078390072,-176715.6658193708,10.5,10499823284.33418,47.655,-122.3035,60.0,12.2
2026-01-20T23:12:13+00:00,SAT-45581,29.93311989539283,46.272572960967636,798.5898825690413,5.074698299251314,-177737.4003923034,10.5,10499822262.599607,47.655,-122.3035,60.0,12.216666666666667
2026-01-20T23:12:14+00:00,SAT-45581,29.460046149386,46.08467581900515,803.6510483394945,5.103317033233958,-178739.7495135003,10.5,10499821260.250486,47.655,-122.3035,60.0,12.233333333333333
2026-01-20T23:12:15+00:00,SAT-45581,28.99557305118322,45.89702527856012,808.7407565273065,5.131392978639837,-179723.0878827455,10.5,10499820276.912117,47.655,-122.3035,60.0,12.25
2026-01-20T23:12:16+00:00,SAT-45581,28.539509650209233,45.709682644789304,813.8584657913366,5.158936758509027,-180687.78756383786,10.5,10499819312.212437,47.655,-122.3035,60.0,12.266666666666667
2026-01-20T23:12:17+00:00,SAT-45581,28.091668272969667,45.522705604889104,819.0036453851562,5.185958784244153,-181634.2132081375,10.5,10499818365.786793,47.655,-122.3035,60.0,12.283333333333333
2026-01-20T23:12:18+00:00,SAT-45581,27.651864610041706,45.336148386839724,824.1757749459758,5.212469346304369,-182562.72523105258,10.5,10499817437.274769,47.655,-122.3035,60.0,12.3
2026-01-20T23:12:19+00:00,SAT-45581,27.219917778013993,45.15006191006418,829.3743443740234,5.238478561770163,-183473.67797553702,10.5,10499816526.322025,47.655,-122.3035,60.0,12.316666666666666
2026-01-20T23:12:20+00:00,SAT-45581,26.79565037034672,44.96449393341006,834.5988536596287,5.263996396014738,-184367.42047111387,10.5,10499815632.579529,47.655,-122.3035,60.0,12.333333333333334
2026-01-20T23:12:21+00:00,SAT-45581,26.37888849239581,44.77948919753589,839.8488127319208,5.289032686151744,-185244.2972551141,10.5,10499814755.702745,47.655,-122.3035,60.0,12.35
2026-01-20T23:12:22+00:00,SAT-45581,25.969461782017788,44.59508956178963,845.1237413309095,5.3135970564257144,-186104.64540929178,10.5,10499813895.354591,47.655,-122.3035,60.0,12.366666666666667
2026-01-20T23:12:23+00:00,SAT-45581,25.567203425396595,44.41133413931521,850.4231687951848,5.337699000165166,-186948.79743016834,10.5,10499813051.20257,47.655,-122.3035,60.0,12.383333333333333
2026-01-20T23:12:24+00:00,SAT-45581,25.171950156171143,44.228259424549044,855.7466339313495,5.361347854955051,-187777.08035946666,10.5,10499812222.91964,47.655,-122.3035,60.0,12.4
2026-01-20T23:12:25+00:00,SAT-45581,24.783542247609503,44.04589941688574,861.0936848586913,5.384552781882833,-188589.8150572212,10.5,10499811410.184942,47.655,-122.3035,60.0,12.416666666666666
2026-01-20T23:12:26+00:00,SAT-45581,24.401823498057915,43.86428574051498,866.4638788331558,5.407322794459379,-189387.31721470953,10.5,10499810612.682785,47.655,-122.3035,60.0,12.433333333333334
2026-01-20T23:12:27+00:00,SAT-45581,24.02664120721626,43.68344775866276,871.8567821001633,5.429666710900164,-190169.89568313863,10.5,10499809830.104317,47.655,-122.3035,60.0,12.45
2026-01-20T23:12:28+00:00,SAT-45581,23.657846149269965,43.50341268507183,877.2719696998344,5.45159323114763,-190937.8551712936,10.5,10499809062.144829,47.655,-122.3035,60.0,12.466666666666667
2026-01-20T23:12:29+00:00,SAT-45581,23.29529253531854,43.32420568840411,882.7090253490322,5.473110869331071,-191691.49387999697,10.5,10499808308.50612,47.655,-122.3035,60.0,12.483333333333333
2026-01-20T23:12:30+00:00,SAT-45581,22.938837975473778,43.14584999481095,888.1675412560451,5.4942279902813285,-192431.10478100803,10.5,10499807568.89522,47.655,-122.3035,60.0,12.5
2026-01-20T23:12:31+00:00,SAT-45581,22.588343434401548,42.96836698502168,893.6471179716857,5.514952775436617,-193156.9744229005,10.5,10499806843.025578,47.655,-122.3035,60.0,12.516666666666667
2026-01-20T23:12:32+00:00,SAT-45581,22.243673185316247,42.79177628859323,899.1473642063879,5.535293296327538,-193869.38550481864,10.5,10499806130.614494,47.655,-122.3035,60.0,12.533333333333333
2026-01-20T23:12:33+00:00,SAT-45581,21.90469475646465,42.61609587178187,904.6678967205918,5.555257424701986,-194568.6137286711,10.5,10499805431.38627,47.655,-122.3035,60.0,12.55
2026-01-20T23:12:34+00:00,SAT-45581,21.571278880496088,42.44134212463715,910.2083401254946,5.574852877448332,-195254.92937253107,10.5,10499804745.070627,47.655,-122.3035,60.0,12.566666666666666
2026-01-20T23:12:35+00:00,SAT-45581,21.24329943891242,42.26752994288642,915.7683267286031,5.594087265887283,-195928.59901704558,10.5,10499804071.400984,47.655,-122.3035,60.0,12.583333333333334
2026-01-20T23:12:36+00:00,SAT-45581,20.920633402002533,42.09467280472394,921.347496428448,5.61296799192899,-196589.88190841812,10.5,10499803410.118092,47.655,-122.3035,60.0,12.6
2026-01-20T23:12:37+00:00,SAT-45581,20.603160773392293,41.92278284752289,926.9454965057319,5.631502321371802,-197239.0325256412,10.5,10499802760.967474,47.655,-122.3035,60.0,12.616666666666667
2026-01-20T23:12:38+00:00,SAT-45581,20.29076452923771,41.75187093886972,932.5619814875799,5.649697406438641,-197876.3013698154,10.5,10499802123.69863,47.655,-122.3035,60.0,12.633333333333333
2026-01-20T23:12:39+00:00,SAT-45581,19.98333055561054,41.58194674372666,938.1966130342681,5.667560218699485,-198501.93261481108,10.5,10499801498.067385,47.655,-122.3035,60.0,12.65
2026-01-20T23:12:40+00:00,SAT-45581,19.680747588987145,41.41301879067644,943.8490597590511,5.6850976003283815,-199116.1659025058,10.5,10499800883.834097,47.655,-122.3035,60.0,12.666666666666666
2026-01-20T23:12:41+00:00,SAT-45581,19.382907153742778,41.24509453359496,949.5189970991119,5.702316231837724,-199719.23521270204,10.5,10499800280.764788,47.655,-122.3035,60.0,12.683333333333334
2026-01-20T23:12:42+00:00,SAT-45581,19.089703501223703,41.0781804114969,955.2061071543314,5.719222688018372,-200311.3708223871,10.5,10499799688.629177,47.655,-122.3035,60.0,12.7
2026-01-20T23:12:43+00:00,SAT-45581,18.80103354617812,40.91228190397908,960.9100785818484,5.735823371125916,-200892.79696563317,10.5,10499799107.203033,47.655,-122.3035,60.0,12.716666666666667
2026-01-20T23:12:44+00:00,SAT-45581,18.516796806797046,40.74740358609646,966.6306064239847,5.75212456796772,-201463.73383302745,10.5,10499798536.266167,47.655,-122.3035,60.0,12.733333333333333
2026-01-20T23:12:45+00:00,SAT-45581,18.23689534240937,40.583549179004265,972.3673919931044,5.768132431387728,-202024.39692319123,10.5,10499797975.603077,47.655,-122.3035,60.0,12.75
2026-01-20T23:12:46+00:00,SAT-45581,17.96123369263903,40.4207215988098,978.1201427380086,5.783852963675745,-202574.99646170324,10.5,10499797425.003538,47.655,-122.3035,60.0,12.766666666666667
2026-01-20T23:12:47+00:00,SAT-45581,17.689718818034763,40.25892300358864,983.8885720937811,5.7992920623865025,-203115.7390058768,10.5,10499796884.260994,47.655,-122.3035,60.0,12.783333333333333
2026-01-20T23:12:48+00:00,SAT-45581,17.4222600393243,40.098154836916315,989.6723993773346,5.814455499762986,-203646.82672407775,10.5,10499796353.173275,47.655,-122.3035,60.0,12.8
2026-01-20T23:12:49+00:00,SAT-45581,17.15876897858518,39.938417869882834,995.4713496624315,5.8293489018028595,-204168.45666254227,10.5,10499795831.543337,47.655,-122.3035,60.0,12.816666666666666
2026-01-20T23:12:50+00:00,SAT-45581,16.899159502165336,39.77971224176871,1001.2851536338295,5.843977769317441,-204680.82148295117,10.5,10499795319.178516,47.655,-122.3035,60.0,12.833333333333334
2026-01-20T23:12:51+00:00,SAT-45581,16.64334766372488,39.622037498113826,1007.1135474624288,5.8583475266628655,-205184.1111692012,10.5,10499794815.88883,47.655,-122.3035,60.0,12.85
2026-01-20T23:12:52+00:00,SAT-45581,16.391251646187726,39.4653926257132,1012.9562727290206,5.87246344223812,-205678.5102429103,10.5,10499794321.489758,47.655,-122.3035,60.0,12.866666666666667
2026-01-20T23:12:53+00:00,SAT-45581,16.14279170829904,39.30977608802347,1018.813076268746,5.8863306524343955,-206164.19860222485,10.5,10499793835.801397,47.655,-122.3035,60.0,12.883333333333333
2026-01-20T23:12:54+00:00,SAT-45581,15.897890131086918,39.15518585827298,1024.6837100394407,5.8999542324673255,-206641.35400266448,10.5,10499793358.645998,47.655,-122.3035,60.0,12.9
2026-01-20T23:12:55+00:00,SAT-45581,15.656471162711544,39.00161944903204,1030.5679310606215,5.913339130668363,-207110.14975572802,10.5,10499792889.850245,47.655,-122.3035,60.0,12.916666666666666
2026-01-20T23:12:56+00:00,SAT-45581,15.418460967166695,38.84907394213277,1036.4655012869414,5.9264901570863,-207570.75432967077,10.5,10499792429.24567,47.655,-122.3035,60.0,12.933333333333334
2026-01-20T23:12:57+00:00,SAT-45581,15.183787574572499,38.697546017390714,1042.3761874702755,5.939412029930551,-208023.33297614442,10.5,10499791976.667025,47.655,-122.3035,60.0,12.95
2026-01-20T23:12:58+00:00,SAT-45581,14.95238083077357,38.54703197874091,1048.2997610681261,5.952109374135689,-208468.04767992106,10.5,10499791531.95232,47.655,-122.3035,60.0,12.966666666666667
2026-01-20T23:12:59+00:00,SAT-45581,14.724172348305862,38.39752777910874,1054.2359981505977,5.964586737760419,-208905.05773325491,10.5,10499791094.942266,47.655,-122.3035,60.0,12.983333333333333
2026-01-20T23:13:00+00:00,SAT-45581,14.499095457944788,38.24902904366133,1060.1846793237237,5.976848498123713,-209334.5164483724,10.5,10499790665.483551,47.655,-122.3035,60.0,13.0
2026-01-20T23:13:01+00:00,SAT-45581,14.277085164940699,38.101531094252536,1066.1455895591857,5.988898974474718,-209756.575103649,10.5,10499790243.424896,47.655,-122.3035,60.0,13.016666666666667
2026-01-20T23:13:02+00:00,SAT-45581,14.058078102182956,37.95502896987197,1072.1185181363953,6.000742437764297,-210171.38328585008,10.5,10499789828.616714,47.655,-122.3035,60.0,13.033333333333333
2026-01-20T23:13:03+00:00,SAT-45581,13.842012484433843,37.809517445802285,1078.1032585943256,6.0123829670991125,-210579.0838625456,10.5,10499789420.916138,47.655,-122.3035,60.0,13.05
2026-01-20T23:13:04+00:00,SAT-45581,13.628828068687792,37.664991055366364,1084.0996085401791,6.023824622441831,-210979.81903080174,10.5,10499789020.18097,47.655,-122.3035,60.0,13.066666666666666
2026-01-20T23:13:05+00:00,SAT-45581,13.418466109651993,37.52144410636796,1090.1073696302944,6.0350713635351925,-211373.7274775589,10.5,10499788626.272522,47.655,-122.3035,60.0,13.083333333333334
2026-01-20T23:13:06+00:00,SAT-45581,13.210869319243706,37.37887069867699,1096.1263474701937,6.046127036901372,-211760.94392429446,10.5,10499788239.056076,47.655,-122.3035,60.0,13.1
2026-01-20T23:13:07+00:00,SAT-45581,13.005981827623385,37.23726474122679,1102.1563515016633,6.0569954238643025,-212141.60080896755,10.5,10499787858.39919,47.655,-122.3035,60.0,13.116666666666667
2026-01-20T23:13:08+00:00,SAT-45581,12.80374914370393,37.09661996701897,1108.1971949377305,6.067680227750158,-212515.82783772584,10.5,10499787484.172163,47.655,-122.3035,60.0,13.133333333333333
2026-01-20T23:13:09+00:00,SAT-45581,12.604118117263608,36.956929947657756,1114.2486946848733,6.078185026849455,-212883.75033743936,10.5,10499787116.249662,47.655,-122.3035,60.0,13.15
2026-01-20T23:13:10+00:00,SAT-45581,12.407036903527416,36.818188108266156,1120.310671218318,6.088513383985295,-213245.49309324386,10.5,10499786754.506907,47.655,-122.3035,60.0,13.166666666666666
2026-01-20T23:13:11+00:00,SAT-45581,12.212454925444195,36.68038773905802,1126.3829485666126,6.09866875061509,-213601.17698977754,10.5,10499786398.82301,47.655,-122.3035,60.0,13.183333333333334
2026-01-20T23:13:12+00:00,SAT-45581,12.020322839951069,36.543522008567585,1132.4653542005592,6.10865446044618,-213950.91878757303,10.5,10499786049.081213,47.655,-122.3035,60.0,13.2
2026-01-20T23:13:13+00:00,SAT-45581,11.830592505412195,36.40758397630324,1138.5577189157777,6.118473888210801,-214294.83668402827,10.5,10499785705.163317,47.655,-122.3035,60.0,13.216666666666667
2026-01-20T23:13:14+00:00,SAT-45581,11.643216945293926,36.27256660117955,1144.6598768736199,6.128130193315713,-214633.0413349324,10.5,10499785366.958666,47.655,-122.3035,60.0,13.233333333333333
2026-01-20T23:13:15+00:00,SAT-45581,11.458150320462794,36.13846275523768,1150.77166538642,6.137626563082412,-214965.6443737665,10.5,10499785034.355627,47.655,-122.3035,60.0,13.25
2026-01-20T23:13:16+00:00,SAT-45581,11.275347895161762,36.005265231274564,1156.8929249453342,6.1469660740356575,-215292.75355344132,10.5,10499784707.246447,47.655,-122.3035,60.0,13.266666666666667
2026-01-20T23:13:17+00:00,SAT-45581,11.09476600807985,35.87296675308435,1163.0234991098391,6.156151759931608,-215614.4751289303,10.5,10499784385.524872,47.655,-122.3035,60.0,13.283333333333333
2026-01-20T23:13:18+00:00,SAT-45581,10.916362042281085,35.74155998371451,1169.1632344650775,6.165186562588193,-215930.91213514126,10.5,10499784069.087864,47.655,-122.3035,60.0,13.3
2026-01-20T23:13:19+00:00,SAT-45581,10.740094397472838,35.61103753430929,1175.3119805301656,6.174073352082534,-216242.16509431537,10.5,10499783757.834906,47.655,-122.3035,60.0,13.316666666666666
2026-01-20T23:13:20+00:00,SAT-45581,10.565922462454237,35.481391972086435,1181.4695896866426,6.1828149836911255,-216548.33401031327,10.5,10499783451.665989,47.655,-122.3035,60.0,13.333333333333334
2026-01-20T23:13:21+00:00,SAT-45581,10.393806586949578,35.352615826645824,1187.6359171637105,6.1914141968244785,-216849.5148288788,10.5,10499783150.48517,47.655,-122.3035,60.0,13.35
2026-01-20T23:13:22+00:00,SAT-45581,10.223708056935862,35.22470159808263,1193.8108209226766,6.19987370277458,-217145.80251092606,10.5,10499782854.197489,47.655,-122.3035,60.0,13.366666666666667
2026-01-20T23:13:23+00:00,SAT-45581,10.055589068429924,35.09764176281533,1199.9941616289107,6.208196120891126,-217437.28879716116,10.5,10499782562.711203,47.655,-122.3035,60.0,13.383333333333333
2026-01-20T23:13:24+00:00,SAT-45581,9.88941270368614,34.97142878043033,1206.185802560146,6.216384071892697,-217724.0654762346,10.5,10499782275.934525,47.655,-122.3035,60.0,13.4
2026-01-20T23:13:25+00:00,SAT-45581,9.725142905784784,34.84605509822195,1212.3856096078468,6.224440044976447,-218006.2197303599,10.5,10499781993.78027,47.655,-122.3035,60.0,13.416666666666666
2026-01-20T23:13:26+00:00,SAT-45581,9.562744457301786,34.72151315818696,1218.5934511460368,6.232366533056138,-218283.838871922,10.5,10499781716.161129,47.655,-122.3035,60.0,13.433333333333334
2026-01-20T23:13:27+00:00,SAT-45581,9.402182956279661,34.597795400904644,1224.8091980350048,6.240165953418621,-218557.0075645316,10.5,10499781442.992435,47.655,-122.3035,60.0,13.45
2026-01-20T23:13:28+00:00,SAT-45581,9.243424794861948,34.474894270782194,1231.032723545881,6.247840660427801,-218825.80826797156,10.5,10499781174.191732,47.655,-122.3035,60.0,13.466666666666667
2026-01-20T23:13:29+00:00,SAT-45581,9.08643713829813,34.35280222074351,1237.2639032978811,6.255392972569051,-219090.32218540678,10.5,10499780909.677814,47.655,-122.3035,60.0,13.483333333333333
2026-01-20T23:13:30+00:00,SAT-45581,8.931187903895694,34.2315117161302,1243.5026152225232,6.262825158752167,-219350.6287836559,10.5,10499780649.371216,47.655,-122.3035,60.0,13.5
2026-01-20T23:13:31+00:00,SAT-45581,8.777645740981171,34.11101523862591,1249.7487395141854,6.270139400118672,-219606.8044555212,10.5,10499780393.195545,47.655,-122.3035,60.0,13.516666666666667
2026-01-20T23:13:32+00:00,SAT-45581,8.625780012314594,33.9913052907131,1256.0021585425704,6.2773379287997715,-219858.92737967946,10.5,10499780141.07262,47.655,-122.3035,60.0,13.533333333333333
2026-01-20T23:13:33+00:00,SAT-45581,8.475560772935651,33.87237439716534,1262.26275690356,6.28442280909853,-220107.0698567559,10.5,10499779892.930143,47.655,-122.3035,60.0,13.55
2026-01-20T23:13:34+00:00,SAT-45581,8.32695875456584,33.75421511066022,1268.5304212518345,6.291396136957995,-220351.30529554197,10.5,10499779648.694704,47.655,-122.3035,60.0,13.566666666666666
2026-01-20T23:13:35+00:00,SAT-45581,8.1799453460497,33.63682001325226,1274.805040332427,6.298259925038479,-220591.70418791534,10.5,10499779408.295813,47.655,-122.3035,60.0,13.583333333333334
2026-01-20T23:13:36+00:00,SAT-45581,8.03449257689463,33.520181719923016,1281.0865048976655,6.305016164553676,-220828.33627460233,10.5,10499779171.663725,47.655,-122.3035,60.0,13.6
2026-01-20T23:13:37+00:00,SAT-45581,7.890573099999777,33.40429288075486,1287.3747076857803,6.311666830968814,-221061.27074475153,10.5,10499778938.729256,47.655,-122.3035,60.0,13.616666666666667
2026-01-20T23:13:38+00:00,SAT-45581,7.748160174755196,33.289146182861884,1293.6695434051999,6.318213782368659,-221290.57267635106,10.5,10499778709.427324,47.655,-122.3035,60.0,13.633333333333333
2026-01-20T23:13:39+00:00,SAT-45581,7.607227652853129,33.174734354051026,1299.9709086174823,6.3246588905222945,-221516.30762667183,10.5,10499778483.692373,47.655,-122.3035,60.0,13.65
2026-01-20T23:13:40+00:00,SAT-45581,7.467749961721206,33.061050163882,1306.2787017509631,6.331003981911092,-221738.53956681746,10.5,10499778261.460434,47.655,-122.3035,60.0,13.666666666666666
2026-01-20T23:13:41+00:00,SAT-45581,7.329702089697668,32.94808642570265,1312.5928230555892,6.337250855849278,-221957.3315163833,10.5,10499778042.668484,47.655,-122.3035,60.0,13.683333333333334
2026-01-20T23:13:42+00:00,SAT-45581,7.193059571320675,32.83583599821675,1318.913174575823,6.3434012238988045,-222172.74342150879,10.5,10499777827.256578,47.655,-122.3035,60.0,13.7
2026-01-20T23:13:43+00:00,SAT-45581,7.057798474232283,32.72429178803183,1325.2396600631246,6.349456821551154,-222384.83606644676,10.5,10499777615.163933,47.655,-122.3035,60.0,13.716666666666667
2026-01-20T23:13:44+00:00,SAT-45581,6.923895384272987,32.613446750054955,1331.5721849998183,6.355419309611101,-222593.66761960555,10.5,10499777406.33238,47.655,-122.3035,60.0,13.733333333333333
2026-01-20T23:13:45+00:00,SAT-45581,6.791327392962539,32.503293889573584,1337.9106565246036,6.361290302482952,-222799.29462425303,10.5,10499777200.705376,47.655,-122.3035,60.0,13.75
2026-01-20T23:13:46+00:00,SAT-45581,6.660072084797402,32.393826263707595,1344.25498338628,6.367071446298417,-223001.77473488468,10.5,10499776998.225266,47.655,-122.3035,60.0,13.766666666666667
2026-01-20T23:13:47+00:00,SAT-45581,6.530107523416801,32.28503698139066,1350.6050759753882,6.372764287887125,-223201.16212801728,10.5,10499776798.837872,47.655,-122.3035,60.0,13.783333333333333
2026-01-20T23:13:48+00:00,SAT-45581,6.401412240721718,32.176919205575906,1356.9608462251745,6.378370357167185,-223397.51038785453,10.5,10499776602.489613,47.655,-122.3035,60.0,13.8
2026-01-20T23:13:49+00:00,SAT-45581,6.273965224696825,32.06946615389627,1363.3222075947226,6.383891158147662,-223590.87219115582,10.5,10499776409.12781,47.655,-122.3035,60.0,13.816666666666666
2026-01-20T23:13:50+00:00,SAT-45581,6.147745907818673,31.962671099400982,1369.689075043115,6.38932817382553,-223781.29947874826,10.5,10499776218.700521,47.655,-122.3035,60.0,13.833333333333334
2026-01-20T23:13:51+00:00,SAT-45581,6.022734155665331,31.856527371146143,1376.0613650084772,6.394682852133393,-223968.8429633564,10.5,10499776031.157036,47.655,-122.3035,60.0,13.85
2026-01-20T23:13:52+00:00,SAT-45581,5.89891025618335,31.75102835494429,1382.438995373005,6.399956582310316,-224153.55130200877,10.5,10499775846.448698,47.655,-122.3035,60.0,13.866666666666667
2026-01-20T23:13:53+00:00,SAT-45581,5.776254909630535,31.646167494455455,1388.821885404429,6.405150753012691,-224335.47313132626,10.5,10499775664.526869,47.655,-122.3035,60.0,13.883333333333333
2026-01-20T23:13:54+00:00,SAT-45581,5.654749217823998,31.54193829121183,1395.2099557554336,6.4102667236760515,-224514.65606449157,10.5,10499775485.343935,47.655,-122.3035,60.0,13.9
2026-01-20T23:13:55+00:00,SAT-45581,5.534374674172742,31.4383343050908,1401.6031284345133,6.415305832055022,-224691.14695533045,10.5,10499775308.853045,47.655,-122.3035,60.0,13.916666666666666
2026-01-20T23:13:56+00:00,SAT-45581,5.415113153910742,31.335349154594624,1408.0013267843494,6.420269365946225,-224864.99090792792,10.5,10499775135.009092,47.655,-122.3035,60.0,13.933333333333334
2026-01-20T23:13:57+00:00,SAT-45581,5.2969469050681495,31.232976517554402,1414.4044754319864,6.425158587101285,-225036.2321141631,10.5,10499774963.767885,47.655,-122.3035,60.0,13.95
2026-01-20T23:13:58+00:00,SAT-45581,5.179858539327607,31.13121013137089,1420.8125002628556,6.429974758431086,-225204.91480651725,10.5,10499774795.085194,47.655,-122.3035,60.0,13.966666666666667
2026-01-20T23:13:59+00:00,SAT-45581,5.063831022636992,31.03004379278659,1427.2253284219307,6.434719101493418,-225371.08176911142,10.5,10499774628.91823,47.655,-122.3035,60.0,13.983333333333333
2026-01-20T23:14:00+00:00,SAT-45581,4.9488476668722825,30.929471358298095,1433.642888272487,6.439392795636399,-225534.77430770523,10.5,10499774465.225693,47.655,-122.3035,60.0,14.0
2026-01-20T23:14:01+00:00,SAT-45581,4.834892121692432,30.829486744542145,1440.0651093540014,6.443997035623211,-225696.03426795918,10.5,10499774303.965733,47.655,-122.3035,60.0,14.016666666666667
2026-01-20T23:14:02+00:00,SAT-45581,4.721948365728632,30.730083927717715,1446.4919223975296,6.4485329471641935,-225854.9010770112,10.5,10499774145.098923,47.655,-122.3035,60.0,14.033333333333333
2026-01-20T23:14:03+00:00,SAT-45581,4.61000069936954,30.631256944327976,1452.9232592568349,6.453001678757253,-226011.414960116,10.5,10499773988.58504,47.655,-122.3035,60.0,14.05
2026-01-20T23:14:04+00:00,SAT-45581,4.499033736294859,30.53299989042168,1459.3590529311155,6.457404309674403,-226165.6137179449,10.5,10499773834.386282,47.655,-122.3035,60.0,14.066666666666666
2026-01-20T23:14:05+00:00,SAT-45581,4.389032396698787,30.43530692227459,1465.799237495964,6.461741949480103,-226317.53621213874,10.5,10499773682.463787,47.655,-122.3035,60.0,14.083333333333334
2026-01-20T23:14:06+00:00,SAT-45581,4.279981899161004,30.338172255460783,1472.2437481335787,6.4660156172347785,-226467.21813450416,10.5,10499773532.781866,47.655,-122.3035,60.0,14.1
2026-01-20T23:14:07+00:00,SAT-45581,4.171867754602558,30.241590165796797,1478.692521042501,6.470226395965682,-226614.69741723678,10.5,10499773385.302584,47.655,-122.3035,60.0,14.116666666666667
2026-01-20T23:14:08+00:00,SAT-45581,4.064675758052921,30.145554987863253,1485.1454935014108,6.474375263554734,-226760.00830989785,10.5,10499773239.99169,47.655,-122.3035,60.0,14.133333333333333
2026-01-20T23:14:09+00:00,SAT-45581,3.958391983223192,30.050061116106978,1491.6026037642628,6.478463234012179,-226903.18632741546,10.5,10499773096.813673,47.655,-122.3035,60.0,14.15
