satellites_20260121_005943/SAT-56470.csv

timestamp,satellite,azimuth_deg,elevation_deg,distance_km,relative_velocity_kms,doppler_shift_hz,tx_freq_ghz,rx_freq_hz,ue_lat,ue_lon,ue_alt_m,time_minutes
2026-01-20T23:00:00+00:00,SAT-56470,247.41531139229738,30.043419203165243,3346.048294482137,-4.123817650744571,144433.53786044207,10.5,10500144433.53786,47.655,-122.3035,60.0,0.0
2026-01-20T23:00:01+00:00,SAT-56470,247.50020943036276,30.11538029250311,3341.935473678461,-4.116378437019961,144172.98512796342,10.5,10500144172.985128,47.655,-122.3035,60.0,0.016666666666666666
2026-01-20T23:00:02+00:00,SAT-56470,247.585505267626,30.18734722052571,3337.8300722506065,-4.1089072395149,143911.31218820202,10.5,10500143911.31219,47.655,-122.3035,60.0,0.03333333333333333
2026-01-20T23:00:03+00:00,SAT-56470,247.6712007186702,30.259319103642888,3333.732122097064,-4.101403945414763,143648.5150899127,10.5,10500143648.515089,47.655,-122.3035,60.0,0.05
2026-01-20T23:00:04+00:00,SAT-56470,247.75729760292938,30.33129504745527,3329.641655228837,-4.0938684507443925,143384.59019144543,10.5,10500143384.59019,47.655,-122.3035,60.0,0.06666666666666667
2026-01-20T23:00:05+00:00,SAT-56470,247.84379774477298,30.403274146808066,3325.558703760628,-4.086300696681923,143119.53543260985,10.5,10500143119.535433,47.655,-122.3035,60.0,0.08333333333333333
2026-01-20T23:00:06+00:00,SAT-56470,247.9307029744188,30.47525548649633,3321.4832998658035,-4.0787005470778235,142853.34604487332,10.5,10500142853.346045,47.655,-122.3035,60.0,0.1
2026-01-20T23:00:07+00:00,SAT-56470,248.01801512618783,30.547238139834967,3317.4154758535183,-4.071067957862829,142586.02048474384,10.5,10500142586.020485,47.655,-122.3035,60.0,0.11666666666666667
2026-01-20T23:00:08+00:00,SAT-56470,248.10573604040388,30.61922117017143,3313.355264076876,-4.063402772076316,142317.55325479642,10.5,10500142317.553255,47.655,-122.3035,60.0,0.13333333333333333
2026-01-20T23:00:09+00:00,SAT-56470,248.19386756086953,30.69120362883674,3309.3026970455253,-4.055704956477662,142047.94319080384,10.5,10500142047.943192,47.655,-122.3035,60.0,0.15
2026-01-20T23:00:10+00:00,SAT-56470,248.28241153746495,30.763184557211293,3305.257807302265,-4.047974393437366,141777.18617288346,10.5,10500141777.186172,47.655,-122.3035,60.0,0.16666666666666666
2026-01-20T23:00:11+00:00,SAT-56470,248.37136982423095,30.835162985168505,3301.22062750721,-4.040210972391712,141505.27832862618,10.5,10500141505.278328,47.655,-122.3035,60.0,0.18333333333333332
2026-01-20T23:00:12+00:00,SAT-56470,248.46074427941133,30.90713793111051,3297.1911904307444,-4.0324146360800865,141232.2176525232,10.5,10500141232.217653,47.655,-122.3035,60.0,0.2
2026-01-20T23:00:13+00:00,SAT-56470,248.5505367665503,30.97910840281038,3293.1695289003605,-4.024585256800075,140957.99967189564,10.5,10500140957.999672,47.655,-122.3035,60.0,0.21666666666666667
2026-01-20T23:00:14+00:00,SAT-56470,248.6407491528234,31.051073396093884,3289.155675870912,-4.016722781108812,140682.6225149484,10.5,10500140682.622515,47.655,-122.3035,60.0,0.23333333333333334
2026-01-20T23:00:15+00:00,SAT-56470,248.73138331061222,31.12303189605258,3285.149664350553,-4.008827078318091,140406.08160442766,10.5,10500140406.081604,47.655,-122.3035,60.0,0.25
2026-01-20T23:00:16+00:00,SAT-56470,248.82244111564324,31.194982875599578,3281.151527477777,-4.0008980850315625,140128.3747199251,10.5,10500140128.37472,47.655,-122.3035,60.0,0.26666666666666666
2026-01-20T23:00:17+00:00,SAT-56470,248.91392444842467,31.266925296562697,3277.161298454306,-3.9929356954475272,139849.49815581765,10.5,10500139849.498156,47.655,-122.3035,60.0,0.2833333333333333
2026-01-20T23:00:18+00:00,SAT-56470,249.00583519316058,31.33885810885337,3273.1790105873793,-3.9849398186622396,139569.44872827159,10.5,10500139569.448729,47.655,-122.3035,60.0,0.3
2026-01-20T23:00:19+00:00,SAT-56470,249.09817523798915,31.410780250635785,3269.2046972749,-3.97691037046724,139288.22348795054,10.5,10500139288.223488,47.655,-122.3035,60.0,0.31666666666666665
2026-01-20T23:00:20+00:00,SAT-56470,249.19094647501555,31.48269064836099,3265.238391998754,-3.9688472604558243,139005.81926842922,10.5,10500139005.81927,47.655,-122.3035,60.0,0.3333333333333333
2026-01-20T23:00:21+00:00,SAT-56470,249.28415080006158,31.554588216564905,3261.280128330993,-3.9607503907758654,138722.23264251227,10.5,10500138722.232643,47.655,-122.3035,60.0,0.35
2026-01-20T23:00:22+00:00,SAT-56470,249.3777901123696,31.626471857652366,3257.329939941259,-3.9526196788629977,138437.46071844635,10.5,10500138437.460718,47.655,-122.3035,60.0,0.36666666666666664
2026-01-20T23:00:23+00:00,SAT-56470,249.47186631482714,31.698340462072167,3253.3878605815394,-3.944455020836082,138151.49985787453,10.5,10500138151.499857,47.655,-122.3035,60.0,0.38333333333333336
2026-01-20T23:00:24+00:00,SAT-56470,249.56638131334236,31.770192907853907,3249.453924107426,-3.9362563445299443,137864.34753326722,10.5,10500137864.347534,47.655,-122.3035,60.0,0.4
2026-01-20T23:00:25+00:00,SAT-56470,249.661337017479,31.842028061083077,3245.5281644464817,-3.9280235605487284,137576.00061360333,10.5,10500137576.000614,47.655,-122.3035,60.0,0.4166666666666667
2026-01-20T23:00:26+00:00,SAT-56470,249.7567353399024,31.913844775505922,3241.6106156154274,-3.9197565597674853,137286.45527686554,10.5,10500137286.455276,47.655,-122.3035,60.0,0.43333333333333335
2026-01-20T23:00:27+00:00,SAT-56470,249.8525781957668,31.98564189208296,3237.701311739819,-3.911455277385145,136995.70925344634,10.5,10500136995.709253,47.655,-122.3035,60.0,0.45
2026-01-20T23:00:28+00:00,SAT-56470,249.94886750365302,32.057418239699075,3233.8002870098403,-3.9031196083384514,136703.75886358603,10.5,10500136703.758863,47.655,-122.3035,60.0,0.4666666666666667
2026-01-20T23:00:29+00:00,SAT-56470,250.04560518444504,32.129172634347405,3229.9075757204578,-3.8947494783277072,136410.6015049949,10.5,10500136410.601505,47.655,-122.3035,60.0,0.48333333333333334
2026-01-20T23:00:30+00:00,SAT-56470,250.1427931619389,32.20090387959698,3226.0232122407388,-3.8863447899825787,136116.23376735207,10.5,10500136116.233767,47.655,-122.3035,60.0,0.5
2026-01-20T23:00:31+00:00,SAT-56470,250.24043336211508,32.272610766084,3222.1472310368626,-3.8779054558562316,135820.6525878994,10.5,10500135820.652588,47.655,-122.3035,60.0,0.5166666666666667
2026-01-20T23:00:32+00:00,SAT-56470,250.33852771324388,32.3442920716069,3218.279666662222,-3.869431399642516,135523.85529407288,10.5,10500135523.855293,47.655,-122.3035,60.0,0.5333333333333333
2026-01-20T23:00:33+00:00,SAT-56470,250.4370781459966,32.41594656123493,3214.4205537463117,-3.8609225282899526,135225.83862681597,10.5,10500135225.838627,47.655,-122.3035,60.0,0.55
2026-01-20T23:00:34+00:00,SAT-56470,250.53608659287656,32.487572986917975,3210.5699270114305,-3.852378742227613,134926.59909873363,10.5,10500134926.599098,47.655,-122.3035,60.0,0.5666666666666667
2026-01-20T23:00:35+00:00,SAT-56470,250.63555498786315,32.55917008727826,3206.7278212791825,-3.843799990114121,134626.13491163368,10.5,10500134626.134912,47.655,-122.3035,60.0,0.5833333333333334
2026-01-20T23:00:36+00:00,SAT-56470,250.73548526750736,32.63073658839867,3202.8942714223754,-3.835186146180839,134324.44166056643,10.5,10500134324.44166,47.655,-122.3035,60.0,0.6
2026-01-20T23:00:37+00:00,SAT-56470,250.8358793688179,32.70227120238011,3199.069312439251,-3.8265371695333554,134021.5179132366,10.5,10500134021.517914,47.655,-122.3035,60.0,0.6166666666666667
2026-01-20T23:00:38+00:00,SAT-56470,250.93673923131067,32.773772628803215,3195.252979368837,-3.8178529291805647,133717.35908178161,10.5,10500133717.359081,47.655,-122.3035,60.0,0.6333333333333333
2026-01-20T23:00:39+00:00,SAT-56470,251.03806679444662,32.84523955298878,3191.4453073808,-3.8091333715906646,133411.96329129126,10.5,10500133411.963291,47.655,-122.3035,60.0,0.65
2026-01-20T23:00:40+00:00,SAT-56470,251.13986399950468,32.91667064733164,3187.646331698201,-3.8003784197393893,133105.32784404999,10.5,10500133105.327845,47.655,-122.3035,60.0,0.6666666666666666
2026-01-20T23:00:41+00:00,SAT-56470,251.24213278877573,32.988064570786335,3183.856087620914,-3.791587958447877,132797.44870600683,10.5,10500132797.448706,47.655,-122.3035,60.0,0.6833333333333333
2026-01-20T23:00:42+00:00,SAT-56470,251.3448751043265,33.059419968066884,3180.0746105636886,-3.7827619411733617,132488.32424703726,10.5,10500132488.324247,47.655,-122.3035,60.0,0.7
2026-01-20T23:00:43+00:00,SAT-56470,251.44809288967588,33.13073547083828,3176.301935987691,-3.7739002633150673,132177.9508035796,10.5,10500132177.950804,47.655,-122.3035,60.0,0.7166666666666667
2026-01-20T23:00:44+00:00,SAT-56470,251.55178808801185,33.2020096965493,3172.5380994584125,-3.7650028500101875,131866.32575362176,10.5,10500131866.325754,47.655,-122.3035,60.0,0.7333333333333333
2026-01-20T23:00:45+00:00,SAT-56470,251.65596264279316,33.27324124889958,3168.7831366160017,-3.7560696175371415,131553.44616487977,10.5,10500131553.446165,47.655,-122.3035,60.0,0.75
2026-01-20T23:00:46+00:00,SAT-56470,251.76061849729285,33.34442871758739,3165.0370831841115,-3.7471004920134767,131239.3094496777,10.5,10500131239.30945,47.655,-122.3035,60.0,0.7666666666666667
2026-01-20T23:00:47+00:00,SAT-56470,251.86575759466808,33.41557067841006,3161.2999749600767,-3.7380953905627825,130923.91270533303,10.5,10500130923.912704,47.655,-122.3035,60.0,0.7833333333333333
2026-01-20T23:00:48+00:00,SAT-56470,251.97138187748973,33.48666569301001,3157.571847823889,-3.7290542439152112,130607.25350572268,10.5,10500130607.253506,47.655,-122.3035,60.0,0.8
2026-01-20T23:00:49+00:00,SAT-56470,252.07749328789504,33.557712309045456,3153.852737724624,-3.719976941032367,130289.32796181233,10.5,10500130289.327961,47.655,-122.3035,60.0,0.8166666666666667
2026-01-20T23:00:50+00:00,SAT-56470,252.18409376617706,33.62870905932233,3150.142680722101,-3.710863445947028,129970.1348138778,10.5,10500129970.134813,47.655,-122.3035,60.0,0.8333333333333334
2026-01-20T23:00:51+00:00,SAT-56470,252.2911852526977,33.69965446312221,3146.44171291201,-3.7017136491647706,129649.67022696113,10.5,10500129649.670227,47.655,-122.3035,60.0,0.85
2026-01-20T23:00:52+00:00,SAT-56470,252.39876968553938,33.770547024734626,3142.749870499243,-3.692527499477371,129327.93240753375,10.5,10500129327.932407,47.655,-122.3035,60.0,0.8666666666666667
2026-01-20T23:00:53+00:00,SAT-56470,252.50684900194767,33.84138523447532,3139.067189739764,-3.6833049016231,129004.91801912691,10.5,10500129004.918018,47.655,-122.3035,60.0,0.8833333333333333
2026-01-20T23:00:54+00:00,SAT-56470,252.6154251368056,33.91216756777086,3135.3937069845456,-3.6740457799290476,128680.62441135527,10.5,10500128680.62441,47.655,-122.3035,60.0,0.9
2026-01-20T23:00:55+00:00,SAT-56470,252.72450002294454,33.98289248544977,3131.729458660029,-3.6647500820480725,128355.04975080049,10.5,10500128355.049751,47.655,-122.3035,60.0,0.9166666666666666
2026-01-20T23:00:56+00:00,SAT-56470,252.8340755915935,34.053558434102165,3128.0744812448665,-3.655417698328201,128028.19019698657,10.5,10500128028.190197,47.655,-122.3035,60.0,0.9333333333333333
2026-01-20T23:00:57+00:00,SAT-56470,252.94415377039942,34.1241638449164,3124.4288113270677,-3.6460485938140774,127700.04452562917,10.5,10500127700.044525,47.655,-122.3035,60.0,0.95
2026-01-20T23:00:58+00:00,SAT-56470,253.0547364854104,34.19470713501429,3120.7924855295037,-3.6366426633347033,127370.609053195,10.5,10500127370.609053,47.655,-122.3035,60.0,0.9666666666666667
2026-01-20T23:00:59+00:00,SAT-56470,253.1658256586756,34.26518670604369,3117.165540579938,-3.627199847886779,127039.88171313897,10.5,10500127039.881714,47.655,-122.3035,60.0,0.9833333333333333
2026-01-20T23:01:00+00:00,SAT-56470,253.27742320937233,34.335600944972946,3113.5480132649786,-3.6177200816426316,126707.86019989746,10.5,10500126707.860199,47.655,-122.3035,60.0,1.0
2026-01-20T23:01:01+00:00,SAT-56470,253.38953105332465,34.40594822389362,3109.939940436887,-3.608203281812244,126374.54161381393,10.5,10500126374.541615,47.655,-122.3035,60.0,1.0166666666666666
2026-01-20T23:01:02+00:00,SAT-56470,253.50215110218107,34.476226899611284,3106.341359030493,-3.5986493841327523,126039.923704131,10.5,10500126039.923704,47.655,-122.3035,60.0,1.0333333333333334
2026-01-20T23:01:03+00:00,SAT-56470,253.6152852637063,34.54643531393326,3102.752306044718,-3.5890583319401923,125704.004486237,10.5,10500125704.004486,47.655,-122.3035,60.0,1.05
2026-01-20T23:01:04+00:00,SAT-56470,253.72893544172592,34.61657179373795,3099.172818534996,-3.579430028419206,125366.78056924856,10.5,10500125366.78057,47.655,-122.3035,60.0,1.0666666666666667
2026-01-20T23:01:05+00:00,SAT-56470,253.84310353454197,34.68663465013024,3095.6029336533197,-3.569764427648581,125028.25034481054,10.5,10500125028.250345,47.655,-122.3035,60.0,1.0833333333333333
2026-01-20T23:01:06+00:00,SAT-56470,253.95779143625347,34.7566221793497,3092.042688597478,-3.5600614529476093,124688.41112724022,10.5,10500124688.411127,47.655,-122.3035,60.0,1.1
2026-01-20T23:01:07+00:00,SAT-56470,254.07300103544873,34.826532662109116,3088.492120641738,-3.550321050895279,124347.26104550778,10.5,10500124347.261045,47.655,-122.3035,60.0,1.1166666666666667
2026-01-20T23:01:08+00:00,SAT-56470,254.18873421564723,34.89636436397053,3084.9512671136454,-3.5405431400773235,124004.79724814124,10.5,10500124004.797249,47.655,-122.3035,60.0,1.1333333333333333
2026-01-20T23:01:09+00:00,SAT-56470,254.30499285405563,34.966115534740155,3081.420165421942,-3.5307276591861765,123661.01758789025,10.5,10500123661.017588,47.655,-122.3035,60.0,1.15
2026-01-20T23:01:10+00:00,SAT-56470,254.42177882189668,35.03578440878695,3077.898853036513,-3.520874556473885,123315.92025232266,10.5,10500123315.920252,47.655,-122.3035,60.0,1.1666666666666667
2026-01-20T23:01:11+00:00,SAT-56470,254.53909398438822,35.10536920516555,3074.387367478857,-3.510983747647625,122969.50228914719,10.5,10500122969.502289,47.655,-122.3035,60.0,1.1833333333333333
2026-01-20T23:01:12+00:00,SAT-56470,254.65694019931738,35.17486812691602,3070.885746354536,-3.5010551826518164,122621.76194520567,10.5,10500122621.761946,47.655,-122.3035,60.0,1.2
2026-01-20T23:01:13+00:00,SAT-56470,254.77531931783392,35.24427936166966,3067.394027319038,-3.49108881559523,122272.69761319317,10.5,10500122272.697613,47.655,-122.3035,60.0,1.2166666666666666
2026-01-20T23:01:14+00:00,SAT-56470,254.89423318425008,35.31360108166789,3063.912248073618,-3.4810845584501355,121922.3062100062,10.5,10500121922.30621,47.655,-122.3035,60.0,1.2333333333333334
2026-01-20T23:01:15+00:00,SAT-56470,255.0136836342412,35.38283144287972,3060.440446407323,-3.4710423641218418,121570.58608618945,10.5,10500121570.586086,47.655,-122.3035,60.0,1.25
2026-01-20T23:01:16+00:00,SAT-56470,255.13367249587435,35.451968585740865,3056.9786601561727,-3.460962182705199,121217.5354938535,10.5,10500121217.535494,47.655,-122.3035,60.0,1.2666666666666666
2026-01-20T23:01:17+00:00,SAT-56470,255.2542015891491,35.52101063504554,3053.5269272059545,-3.450843938769213,120863.15179108587,10.5,10500120863.15179,47.655,-122.3035,60.0,1.2833333333333334
2026-01-20T23:01:18+00:00,SAT-56470,255.37527272472772,35.5899556993851,3050.085285517689,-3.440687593324279,120507.43361230566,10.5,10500120507.433613,47.655,-122.3035,60.0,1.3
2026-01-20T23:01:19+00:00,SAT-56470,255.49688770482373,35.65880187181395,3046.65377309128,-3.430493066803003,120150.37817072614,10.5,10500120150.37817,47.655,-122.3035,60.0,1.3166666666666667
2026-01-20T23:01:20+00:00,SAT-56470,255.6190483213797,35.72754722899444,3043.232428005989,-3.4202603312161974,119791.98448604757,10.5,10500119791.984486,47.655,-122.3035,60.0,1.3333333333333333
2026-01-20T23:01:21+00:00,SAT-56470,255.74175635750436,35.796189832165254,3039.821288368989,-3.4099893177697083,119432.25014880774,10.5,10500119432.250149,47.655,-122.3035,60.0,1.35
2026-01-20T23:01:22+00:00,SAT-56470,255.8650135856136,35.86472772628634,3036.4203923560667,-3.3996799764836814,119071.17340850068,10.5,10500119071.173409,47.655,-122.3035,60.0,1.3666666666666667
2026-01-20T23:01:23+00:00,SAT-56470,255.98882176769504,35.933158940363285,3033.0297781928534,-3.389332258578673,118708.75255666395,10.5,10500118708.752556,47.655,-122.3035,60.0,1.3833333333333333
2026-01-20T23:01:24+00:00,SAT-56470,256.11318265494083,36.001481487425,3029.649484153631,-3.3789461042270537,118344.98549788087,10.5,10500118344.985498,47.655,-122.3035,60.0,1.4
2026-01-20T23:01:25+00:00,SAT-56470,256.238097986907,36.0696933642612,3026.2795485723486,-3.36852147550343,117979.87090384381,10.5,10500117979.870903,47.655,-122.3035,60.0,1.4166666666666667
2026-01-20T23:01:26+00:00,SAT-56470,256.3635694919127,36.13779255181556,3022.92000982078,-3.3580583089967146,117613.40655362817,10.5,10500117613.406553,47.655,-122.3035,60.0,1.4333333333333333
2026-01-20T23:01:27+00:00,SAT-56470,256.48959888563223,36.205777014638294,3019.5709063339405,-3.34755657155573,117245.59128613958,10.5,10500117245.591286,47.655,-122.3035,60.0,1.45
2026-01-20T23:01:28+00:00,SAT-56470,256.61618787181476,36.27364470145221,3016.232276579909,-3.3370162193541466,116876.42356639451,10.5,10500116876.423567,47.655,-122.3035,60.0,1.4666666666666666
2026-01-20T23:01:29+00:00,SAT-56470,256.7433381414224,36.341393544905785,3012.9041590704733,-3.326437183849379,116505.90099374174,10.5,10500116505.900993,47.655,-122.3035,60.0,1.4833333333333334
2026-01-20T23:01:30+00:00,SAT-56470,256.87105137123154,36.40902146104072,3009.5865923857805,-3.315819434974131,116134.02251509733,10.5,10500116134.022514,47.655,-122.3035,60.0,1.5
2026-01-20T23:01:31+00:00,SAT-56470,256.9993292248383,36.476526350034234,3006.279615135966,-3.305162943862026,115760.78711943873,10.5,10500115760.787119,47.655,-122.3035,60.0,1.5166666666666666
2026-01-20T23:01:32+00:00,SAT-56470,257.128173352266,36.54390609619435,3002.9832659599547,-3.2944676453084694,115386.19252302515,10.5,10500115386.192524,47.655,-122.3035,60.0,1.5333333333333334
2026-01-20T23:01:33+00:00,SAT-56470,257.2575853880504,36.61115856720178,2999.6975835617004,-3.283733506972388,115010.23759313542,10.5,10500115010.237593,47.655,-122.3035,60.0,1.55
2026-01-20T23:01:34+00:00,SAT-56470,257.3875669520614,36.67828161474664,2996.422606677413,-3.272960483209038,114632.92073109758,10.5,10500114632.92073,47.655,-122.3035,60.0,1.5666666666666667
2026-01-20T23:01:35+00:00,SAT-56470,257.51811964847116,36.7452730742387,2993.1583740888263,-3.262148549711286,114254.24108557295,10.5,10500114254.241085,47.655,-122.3035,60.0,1.5833333333333333
2026-01-20T23:01:36+00:00,SAT-56470,257.6492450661359,36.81213076521778,2989.904924601914,-3.2512976575019925,113874.19694117496,10.5,10500113874.196941,47.655,-122.3035,60.0,1.6
2026-01-20T23:01:37+00:00,SAT-56470,257.78094477708737,36.878852490839314,2986.662297071499,-3.240407773218054,113492.78712938658,10.5,10500113492.787128,47.655,-122.3035,60.0,1.6166666666666667
2026-01-20T23:01:38+00:00,SAT-56470,257.91322033666864,36.94543603817463,2983.430530385676,-3.229478861712008,113110.01041919501,10.5,10500113110.01042,47.655,-122.3035,60.0,1.6333333333333333
2026-01-20T23:01:39+00:00,SAT-56470,258.04607328293775,37.011879178163895,2980.209663467595,-3.218510889442366,112725.86563583545,10.5,10500112725.865635,47.655,-122.3035,60.0,1.65
2026-01-20T23:01:40+00:00,SAT-56470,258.1795051362129,37.07817966563684,2976.9997352738583,-3.2075038208017266,112340.35153218609,10.5,10500112340.351532,47.655,-122.3035,60.0,1.6666666666666667
2026-01-20T23:01:41+00:00,SAT-56470,258.3135173984647,37.14433523926828,2973.8007847965782,-3.1964576358195944,111953.46740879567,10.5,10500111953.46741,47.655,-122.3035,60.0,1.6833333333333333
2026-01-20T23:01:42+00:00,SAT-56470,258.44811155344087,37.210343621889706,2970.6128510477874,-3.185372287682321,111565.21162605223,10.5,10500111565.211626,47.655,-122.3035,60.0,1.7
2026-01-20T23:01:43+00:00,SAT-56470,258.5832890649794,37.27620251994262,2967.4359730862056,-3.174247758933575,111175.58357256117,10.5,10500111175.583572,47.655,-122.3035,60.0,1.7166666666666666
2026-01-20T23:01:44+00:00,SAT-56470,258.7190513777207,37.341909624079456,2964.2701899879626,-3.163084022053763,110784.58228446999,10.5,10500110784.582285,47.655,-122.3035,60.0,1.7333333333333334
2026-01-20T23:01:45+00:00,SAT-56470,258.85539991611364,37.4074626089629,2961.115540856634,-3.1518810402853825,110392.2064743754,10.5,10500110392.206474,47.655,-122.3035,60.0,1.75
2026-01-20T23:01:46+00:00,SAT-56470,258.9923360834599,37.472859133083745,2957.9720648324565,-3.14063880503647,109998.45584135053,10.5,10500109998.455841,47.655,-122.3035,60.0,1.7666666666666666
2026-01-20T23:01:47+00:00,SAT-56470,259.12986126257,37.53809683935263,2954.839801064233,-3.1293572795332594,109603.32909742254,10.5,10500109603.329098,47.655,-122.3035,60.0,1.7833333333333334
2026-01-20T23:01:48+00:00,SAT-56470,259.26797681396005,37.60317335453255,2951.7187887374457,-3.1180364552686606,109206.82594463714,10.5,10500109206.825945,47.655,-122.3035,60.0,1.8
2026-01-20T23:01:49+00:00,SAT-56470,259.40668407651594,37.668086289839735,2948.6090670460576,-3.106676292823623,108808.94500237242,10.5,10500108808.945002,47.655,-122.3035,60.0,1.8166666666666667
2026-01-20T23:01:50+00:00,SAT-56470,259.5459843655286,37.73283324032703,2945.5106752233482,-3.0952767890410855,108409.68616005476,10.5,10500108409.68616,47.655,-122.3035,60.0,1.8333333333333333
2026-01-20T23:01:51+00:00,SAT-56470,259.68587897372055,37.79741178565614,2942.423652505745,-3.0838379265124884,108009.04880796277,10.5,10500108009.048807,47.655,-122.3035,60.0,1.85
2026-01-20T23:01:52+00:00,SAT-56470,259.82636917001906,37.86181948982935,2939.348038147036,-3.07235967254812,107607.03180116446,10.5,10500107607.031801,47.655,-122.3035,60.0,1.8666666666666667
2026-01-20T23:01:53+00:00,SAT-56470,259.9674561982328,37.926053900908265,2936.283871433615,-3.0608420311852775,107203.63528106305,10.5,10500107203.63528,47.655,-122.3035,60.0,1.8833333333333333
2026-01-20T23:01:54+00:00,SAT-56470,260.1091412781412,37.99011255180458,2933.2311916478457,-3.049284978223044,106798.85840004009,10.5,10500106798.8584,47.655,-122.3035,60.0,1.9
2026-01-20T23:01:55+00:00,SAT-56470,260.2514256035565,38.053992959735865,2930.1900380962315,-3.037688507212619,106392.70093223127,10.5,10500106392.700932,47.655,-122.3035,60.0,1.9166666666666667
2026-01-20T23:01:56+00:00,SAT-56470,260.3943103425376,38.11769262663398,2927.1604500917047,-3.0260525996908862,105985.16223098018,10.5,10500105985.162231,47.655,-122.3035,60.0,1.9333333333333333
2026-01-20T23:01:57+00:00,SAT-56470,260.53779663618036,38.18120903894266,2924.142466965613,-3.014377254887386,105576.24226930202,10.5,10500105576.24227,47.655,-122.3035,60.0,1.95
2026-01-20T23:01:58+00:00,SAT-56470,260.68188559881787,38.24453966803205,2921.1361280500723,-3.002662457444731,105165.9405093162,10.5,10500105165.94051,47.655,-122.3035,60.0,1.9666666666666666
2026-01-20T23:01:59+00:00,SAT-56470,260.8265783166833,38.307681969950806,2918.1414726925136,-2.9909082223340606,104754.2574753753,10.5,10500104754.257475,47.655,-122.3035,60.0,1.9833333333333334
2026-01-20T23:02:00+00:00,SAT-56470,260.97187584873825,38.37063338611412,2915.158540225439,-2.9791145090309463,104341.19174814243,10.5,10500104341.191748,47.655,-122.3035,60.0,2.0
2026-01-20T23:02:01+00:00,SAT-56470,261.11777922328207,38.4333913422073,2912.1873700217657,-2.967281353697766,103926.74459417703,10.5,10500103926.744595,47.655,-122.3035,60.0,2.0166666666666666
2026-01-20T23:02:02+00:00,SAT-56470,261.26428944107795,38.495953249850444,2909.228001418345,-2.9554087241941938,103510.91488778892,10.5,10500103510.914888,47.655,-122.3035,60.0,2.033333333333333
2026-01-20T23:02:03+00:00,SAT-56470,261.41140747129054,38.55831650524313,2906.2804737840816,-2.9434966391622384,103093.70328190012,10.5,10500103093.703281,47.655,-122.3035,60.0,2.05
2026-01-20T23:02:04+00:00,SAT-56470,261.5591342533504,38.62047849029598,2903.3448264692906,-2.931545098049465,102675.109757162,10.5,10500102675.109756,47.655,-122.3035,60.0,2.066666666666667
2026-01-20T23:02:05+00:00,SAT-56470,261.707470695305,38.682436572309456,2900.421098824836,-2.919554097078784,102255.13418128494,10.5,10500102255.134182,47.655,-122.3035,60.0,2.0833333333333335
2026-01-20T23:02:06+00:00,SAT-56470,261.8564176729755,38.74418810398622,2897.509330205349,-2.907523654182731,101833.77718234216,10.5,10500101833.777182,47.655,-122.3035,60.0,2.1
2026-01-20T23:02:07+00:00,SAT-56470,262.0059760303692,38.80573042397341,2894.609559947578,-2.8954537639868803,101411.0385720986,10.5,10500101411.038572,47.655,-122.3035,60.0,2.1166666666666667
2026-01-20T23:02:08+00:00,SAT-56470,262.156146577786,38.867060856462686,2891.7218273936282,-2.883344432680334,100986.91856732267,10.5,10500100986.918568,47.655,-122.3035,60.0,2.1333333333333333
2026-01-20T23:02:09+00:00,SAT-56470,262.3069300916925,38.92817671152903,2888.846171879435,-2.871195690829461,100561.41823857803,10.5,10500100561.418238,47.655,-122.3035,60.0,2.15
2026-01-20T23:02:10+00:00,SAT-56470,262.4583273153249,38.98907528574041,2885.9826327104474,-2.8590075329764884,100134.53739471032,10.5,10500100134.537395,47.655,-122.3035,60.0,2.1666666666666665
2026-01-20T23:02:11+00:00,SAT-56470,262.61033895605806,39.0497538615074,2883.131249197559,-2.8467799781440832,99706.27670197384,10.5,10500099706.276703,47.655,-122.3035,60.0,2.183333333333333
2026-01-20T23:02:12+00:00,SAT-56470,262.7629656859941,39.11020970770346,2880.2920606326898,-2.834513041840064,99276.63670351797,10.5,10500099276.636703,47.655,-122.3035,60.0,2.2
2026-01-20T23:02:13+00:00,SAT-56470,262.9162081410407,39.170440079706054,2877.465106292295,-2.822206734260842,98845.61775646417,10.5,10500098845.617756,47.655,-122.3035,60.0,2.216666666666667
2026-01-20T23:02:14+00:00,SAT-56470,263.07006691990046,39.23044221940165,2874.6504254426586,-2.8098610988170267,98413.22138123562,10.5,10500098413.221382,47.655,-122.3035,60.0,2.2333333333333334
2026-01-20T23:02:15+00:00,SAT-56470,263.22454258516683,39.29021335600938,2871.848057306772,-2.797476127277999,97979.4472895612,10.5,10500097979.44729,47.655,-122.3035,60.0,2.25
2026-01-20T23:02:16+00:00,SAT-56470,263.37963565973246,39.349750705118296,2869.0580411158335,-2.785051856943024,97544.29678781895,10.5,10500097544.296787,47.655,-122.3035,60.0,2.2666666666666666
2026-01-20T23:02:17+00:00,SAT-56470,263.5353466285669,39.40905146978205,2866.280416063842,-2.772588307689084,97107.7705721849,10.5,10500097107.770573,47.655,-122.3035,60.0,2.283333333333333
2026-01-20T23:02:18+00:00,SAT-56470,263.691675937005,39.46811284028601,2863.5152213249735,-2.760085512793902,96669.86980818567,10.5,10500096669.869808,47.655,-122.3035,60.0,2.3
2026-01-20T23:02:19+00:00,SAT-56470,263.84862399075456,39.526931994575854,2860.762496040214,-2.7475434935310497,96230.5952409117,10.5,10500096230.595242,47.655,-122.3035,60.0,2.316666666666667
2026-01-20T23:02:20+00:00,SAT-56470,264.00619115446483,39.58550609814847,2858.022279329332,-2.7349622798849844,95789.94792054556,10.5,10500095789.94792,47.655,-122.3035,60.0,2.3333333333333335
2026-01-20T23:02:21+00:00,SAT-56470,264.16437775145,39.643832304389925,2855.2946102821934,-2.7223419109144293,95347.92921508888,10.5,10500095347.929214,47.655,-122.3035,60.0,2.35
2026-01-20T23:02:22+00:00,SAT-56470,264.3231840634803,39.701907754925124,2852.579527949708,-2.7096824156290755,94904.54014058383,10.5,10500094904.54014,47.655,-122.3035,60.0,2.3666666666666667
2026-01-20T23:02:23+00:00,SAT-56470,264.48261032941934,39.759729579567306,2849.8770713538543,-2.6969838206113588,94459.78162805972,10.5,10500094459.781628,47.655,-122.3035,60.0,2.3833333333333333
2026-01-20T23:02:24+00:00,SAT-56470,264.642656744298,39.81729489643537,2847.187279490098,-2.684246181976365,94013.65564290424,10.5,10500094013.655643,47.655,-122.3035,60.0,2.4
2026-01-20T23:02:25+00:00,SAT-56470,264.803323460321,39.87460081275225,2844.51019129794,-2.6714695277422496,93566.1631664317,10.5,10500093566.163166,47.655,-122.3035,60.0,2.4166666666666665
2026-01-20T23:02:26+00:00,SAT-56470,264.9646105844135,39.93164442442857,2841.845845688938,-2.6586539038983283,93117.30580938245,10.5,10500093117.305809,47.655,-122.3035,60.0,2.433333333333333
2026-01-20T23:02:27+00:00,SAT-56470,265.12651817851713,39.988422816627875,2839.1942815287834,-2.6457993516907004,92667.08501636941,10.5,10500092667.085016,47.655,-122.3035,60.0,2.45
2026-01-20T23:02:28+00:00,SAT-56470,265.2890462585401,40.044933063854785,2836.555537642031,-2.632905907300039,92215.50205459275,10.5,10500092215.502054,47.655,-122.3035,60.0,2.466666666666667
2026-01-20T23:02:29+00:00,SAT-56470,265.45219479323396,40.10117223004337,2833.9296528171503,-2.619973638866928,91762.55931062395,10.5,10500091762.55931,47.655,-122.3035,60.0,2.4833333333333334
2026-01-20T23:02:30+00:00,SAT-56470,265.6159637054283,40.15713736943428,2831.3166657746538,-2.6070025772946845,91308.25786682795,10.5,10500091308.257866,47.655,-122.3035,60.0,2.5
2026-01-20T23:02:31+00:00,SAT-56470,265.78035286890406,40.21282552599221,2828.716615204232,-2.5939927831768284,90852.59984544606,10.5,10500090852.599846,47.655,-122.3035,60.0,2.5166666666666666
2026-01-20T23:02:32+00:00,SAT-56470,265.94536210948615,40.26823373424651,2826.1295397351437,-2.580944309826629,90395.58711373454,10.5,10500090395.587114,47.655,-122.3035,60.0,2.533333333333333
2026-01-20T23:02:33+00:00,SAT-56470,266.11099120379475,40.32335901935389,2823.5554779434765,-2.567857208274941,89937.22145900976,10.5,10500089937.221458,47.655,-122.3035,60.0,2.55
2026-01-20T23:02:34+00:00,SAT-56470,266.2772398783095,40.3781983972727,2820.9944683544236,-2.5547315381018945,89477.50496801987,10.5,10500089477.504969,47.655,-122.3035,60.0,2.566666666666667
2026-01-20T23:02:35+00:00,SAT-56470,266.4441078091352,40.432748875173,2818.4465494337564,-2.5415673569075903,89016.43965816412,10.5,10500089016.439657,47.655,-122.3035,60.0,2.5833333333333335
2026-01-20T23:02:36+00:00,SAT-56470,266.6115946210835,40.48700745162834,2815.9117595898006,-2.5283647281620736,88554.0277524319,10.5,10500088554.027752,47.655,-122.3035,60.0,2.6
2026-01-20T23:02:37+00:00,SAT-56470,266.779699887271,40.54097111698095,2813.3901371675806,-2.515123724525524,88090.27179569007,10.5,10500088090.271795,47.655,-122.3035,60.0,2.6166666666666667
2026-01-20T23:02:38+00:00,SAT-56470,266.94842312896634,40.59463685378046,2810.8817204396532,-2.5018443919044153,87625.17339577756,10.5,10500087625.173395,47.655,-122.3035,60.0,2.6333333333333333
2026-01-20T23:02:39+00:00,SAT-56470,267.117763812976,40.648001636470426,2808.386547632794,-2.4885268136818577,87158.73547312355,10.5,10500087158.735474,47.655,-122.3035,60.0,2.65
2026-01-20T23:02:40+00:00,SAT-56470,267.2877213534064,40.701062432437254,2805.9046568906156,-2.475171055171207,86690.96031527809,10.5,10500086690.960316,47.655,-122.3035,60.0,2.6666666666666665
2026-01-20T23:02:41+00:00,SAT-56470,267.4582951096529,40.75381620189294,2803.4360862915914,-2.4617771909308432,86221.85053359099,10.5,10500086221.850534,47.655,-122.3035,60.0,2.683333333333333
2026-01-20T23:02:42+00:00,SAT-56470,267.62948438624466,40.806259898336705,2800.9808738398365,-2.448345290767801,85751.40857299989,10.5,10500085751.408573,47.655,-122.3035,60.0,2.7
2026-01-20T23:02:43+00:00,SAT-56470,267.80128843173793,40.85839046873121,2798.539057469844,-2.4348754310314287,85279.63710758195,10.5,10500085279.637108,47.655,-122.3035,60.0,2.716666666666667
2026-01-20T23:02:44+00:00,SAT-56470,267.9737064383802,40.91020485392095,2796.1106750399617,-2.421367696774845,84806.53911625713,10.5,10500084806.539116,47.655,-122.3035,60.0,2.7333333333333334
2026-01-20T23:02:45+00:00,SAT-56470,268.1467375419688,40.96169998910209,2793.695764323712,-2.407822160203374,84332.11712796133,10.5,10500084332.117128,47.655,-122.3035,60.0,2.75
2026-01-20T23:02:46+00:00,SAT-56470,268.32038082013673,41.012872803843095,2791.2943630226023,-2.3942389105822603,83856.374269141,10.5,10500083856.37427,47.655,-122.3035,60.0,2.7666666666666666
2026-01-20T23:02:47+00:00,SAT-56470,268.49463529282684,41.06372022274347,2788.906508749115,-2.3806180308306084,83379.31344397392,10.5,10500083379.313444,47.655,-122.3035,60.0,2.783333333333333
2026-01-20T23:02:48+00:00,SAT-56470,268.66949992105305,41.11423916560345,2786.532239033033,-2.366959608403892,82900.93771552073,10.5,10500082900.937716,47.655,-122.3035,60.0,2.8
2026-01-20T23:02:49+00:00,SAT-56470,268.84497360646685,41.1644265478289,2784.1715913169182,-2.3532637346444503,82421.25028297651,10.5,10500082421.250282,47.655,-122.3035,60.0,2.816666666666667
2026-01-20T23:02:50+00:00,SAT-56470,269.02105519089184,41.21427928082923,2781.824602952233,-2.339530493323673,81940.25408036972,10.5,10500081940.25408,47.655,-122.3035,60.0,2.8333333333333335
2026-01-20T23:02:51+00:00,SAT-56470,269.19774345498513,41.263794272179595,2779.4913112068916,-2.3257599924463914,81457.95289048637,10.5,10500081457.95289,47.655,-122.3035,60.0,2.85
2026-01-20T23:02:52+00:00,SAT-56470,269.37503711932357,41.312968426457566,2777.1717532410917,-2.3119523161966704,80974.3496618085,10.5,10500080974.34966,47.655,-122.3035,60.0,2.8666666666666667
2026-01-20T23:02:53+00:00,SAT-56470,269.55293484184847,41.361798645074906,2774.8659661310717,-2.2981075630339576,80489.44784280247,10.5,10500080489.447844,47.655,-122.3035,60.0,2.8833333333333333
2026-01-20T23:02:54+00:00,SAT-56470,269.7314352181867,41.41028182691692,2772.573986854872,-2.284225849540818,80003.25151668287,10.5,10500080003.251516,47.655,-122.3035,60.0,2.9
2026-01-20T23:02:55+00:00,SAT-56470,269.9105367823741,41.458414869067084,2770.295852274264,-2.270307252988003,79515.76338979826,10.5,10500079515.76339,47.655,-122.3035,60.0,2.9166666666666665
2026-01-20T23:02:56+00:00,SAT-56470,270.0902380029929,41.50619466633254,2768.03159917395,-2.2563518964759957,79026.98777364824,10.5,10500079026.987774,47.655,-122.3035,60.0,2.933333333333333
2026-01-20T23:02:57+00:00,SAT-56470,270.2705372860829,41.5536181125611,2765.7812642158647,-2.2423598854365117,78536.92836089751,10.5,10500078536.92836,47.655,-122.3035,60.0,2.95
2026-01-20T23:02:58+00:00,SAT-56470,270.4514329730327,41.600682100632355,2763.5448839567894,-2.2283313316326687,78045.58906596317,10.5,10500078045.589066,47.655,-122.3035,60.0,2.966666666666667
2026-01-20T23:02:59+00:00,SAT-56470,270.6329233403855,41.64738352295703,2761.322494842041,-2.214266339399445,77552.97354309751,10.5,10500077552.973543,47.655,-122.3035,60.0,2.9833333333333334
2026-01-20T23:03:00+00:00,SAT-56470,270.8150065985022,41.69371927169526,2759.11413321288,-2.200165025302125,77059.08587490987,10.5,10500077059.085875,47.655,-122.3035,60.0,3.0
2026-01-20T23:03:01+00:00,SAT-56470,270.997680891881,41.73968623938957,2756.919835294312,-2.1860275097293327,76563.93027791912,10.5,10500076563.930279,47.655,-122.3035,60.0,3.0166666666666666
2026-01-20T23:03:02+00:00,SAT-56470,271.1809442987841,41.785281319429345,2754.7396371912755,-2.171853909931435,76067.51085872905,10.5,10500076067.510859,47.655,-122.3035,60.0,3.033333333333333
2026-01-20T23:03:03+00:00,SAT-56470,271.36479483031417,41.830501406374204,2752.573574891771,-2.157644347259623,75569.83186757169,10.5,10500075569.831867,47.655,-122.3035,60.0,3.05
2026-01-20T23:03:04+00:00,SAT-56470,271.54923043007057,41.87534339643392,2750.42168426277,-2.143398943623622,75070.89757424129,10.5,10500075070.897573,47.655,-122.3035,60.0,3.066666666666667
2026-01-20T23:03:05+00:00,SAT-56470,271.73424897354954,41.919804187880274,2748.284001049663,-2.1291178341672006,74570.7127120443,10.5,10500074570.712711,47.655,-122.3035,60.0,3.0833333333333335
2026-01-20T23:03:06+00:00,SAT-56470,271.91984826864814,41.96388068172662,2746.1605608630534,-2.1148011291430455,74069.28114249618,10.5,10500074069.281143,47.655,-122.3035,60.0,3.1
2026-01-20T23:03:07+00:00,SAT-56470,272.1060260528195,42.00756978162351,2744.051399203588,-2.1004489810999285,73566.6082085002,10.5,10500073566.608208,47.655,-122.3035,60.0,3.1166666666666667
2026-01-20T23:03:08+00:00,SAT-56470,272.2927799962025,42.05086839514811,2741.956551419771,-2.0860614996684763,73062.69774978462,10.5,10500073062.69775,47.655,-122.3035,60.0,3.1333333333333333
2026-01-20T23:03:09+00:00,SAT-56470,272.48010769715904,42.09377343334087,2739.8760527507684,-2.071638843676006,72557.55532915397,10.5,10500072557.555328,47.655,-122.3035,60.0,3.15
2026-01-20T23:03:10+00:00,SAT-56470,272.66800668610364,42.13628181214276,2737.8099382773426,-2.057181140169329,72051.18539632493,10.5,10500072051.185396,47.655,-122.3035,60.0,3.1666666666666665
2026-01-20T23:03:11+00:00,SAT-56470,272.85647442204925,42.17839045217261,2735.758242953547,-2.0426885223116797,71543.5926152373,10.5,10500071543.592615,47.655,-122.3035,60.0,3.183333333333333
2026-01-20T23:03:12+00:00,SAT-56470,273.0455082925287,42.22009627929077,2733.721001600628,-2.0281611398723753,71034.78223144606,10.5,10500071034.782232,47.655,-122.3035,60.0,3.2
2026-01-20T23:03:13+00:00,SAT-56470,273.2351056145889,42.261396225377716,2731.698248890462,-2.013599144678006,70524.75956256065,10.5,10500070524.759563,47.655,-122.3035,60.0,3.216666666666667
2026-01-20T23:03:14+00:00,SAT-56470,273.4252636344472,42.30228722882004,2729.6900193435026,-1.999002675396843,70013.52946533049,10.5,10500070013.529465,47.655,-122.3035,60.0,3.2333333333333334
2026-01-20T23:03:15+00:00,SAT-56470,273.6159795256968,42.34276623469305,2727.6963473419073,-1.984371881688936,69501.09718148356,10.5,10500069501.097181,47.655,-122.3035,60.0,3.25
2026-01-20T23:03:16+00:00,SAT-56470,273.8072503898095,42.38283019543842,2725.7172671185695,-1.9697069124408237,68987.46792565625,10.5,10500068987.467926,47.655,-122.3035,60.0,3.2666666666666666
2026-01-20T23:03:17+00:00,SAT-56470,273.99907325553966,42.42247607130828,2723.7528127578953,-1.9550079389632253,68472.64769787459,10.5,10500068472.647697,47.655,-122.3035,60.0,3.283333333333333
2026-01-20T23:03:18+00:00,SAT-56470,274.1914450806482,42.46170083127783,2721.8030181734357,-1.9402750963241842,67956.6412287928,10.5,10500067956.64123,47.655,-122.3035,60.0,3.3
2026-01-20T23:03:19+00:00,SAT-56470,274.3843627478221,42.50050145278467,2719.867917144035,-1.9255085539113166,67439.4544510817,10.5,10500067439.45445,47.655,-122.3035,60.0,3.316666666666667
2026-01-20T23:03:20+00:00,SAT-56470,274.577823067595,42.53887492288917,2717.9475432796007,-1.9107084816499342,66921.0933162445,10.5,10500066921.093317,47.655,-122.3035,60.0,3.3333333333333335
2026-01-20T23:03:21+00:00,SAT-56470,274.7718227780158,42.57681823875793,2716.041930020569,-1.8958750287157533,66401.56304904578,10.5,10500066401.56305,47.655,-122.3035,60.0,3.35
2026-01-20T23:03:22+00:00,SAT-56470,274.9663585420455,42.614328407730426,2714.1511106585963,-1.8810083699007991,65880.86977144165,10.5,10500065880.869772,47.655,-122.3035,60.0,3.3666666666666667
2026-01-20T23:03:23+00:00,SAT-56470,275.16142694978595,42.65140244831027,2712.275118311015,-1.8661086723824387,65359.019338690654,10.5,10500065359.019339,47.655,-122.3035,60.0,3.3833333333333333
2026-01-20T23:03:24+00:00,SAT-56470,275.3570245172827,42.68803739049998,2710.4139859284255,-1.851176107479016,64836.01775108588,10.5,10500064836.017752,47.655,-122.3035,60.0,3.4
2026-01-20T23:03:25+00:00,SAT-56470,275.5531476865764,42.7242302763728,2708.567746290567,-1.836210850387606,64311.87114476997,10.5,10500064311.871145,47.655,-122.3035,60.0,3.4166666666666665
2026-01-20T23:03:26+00:00,SAT-56470,275.74979282574793,42.759978160640195,2706.7364320024467,-1.8212130709832088,63786.585469483995,10.5,10500063786.58547,47.655,-122.3035,60.0,3.433333333333333
2026-01-20T23:03:27+00:00,SAT-56470,275.94695622798275,42.79527811104548,2704.9200754996527,-1.8061829570520107,63260.167302294554,10.5,10500063260.167303,47.655,-122.3035,60.0,3.45
2026-01-20T23:03:28+00:00,SAT-56470,276.14463411319025,42.83012720921021,2703.118709030486,-1.7911206832640656,62732.62276088576,10.5,10500062732.62276,47.655,-122.3035,60.0,3.466666666666667
2026-01-20T23:03:29+00:00,SAT-56470,276.3428226262663,42.86452255088143,2701.3323646690446,-1.7760264358961475,62203.9583694582,10.5,10500062203.95837,47.655,-122.3035,60.0,3.4833333333333334
2026-01-20T23:03:30+00:00,SAT-56470,276.5415178380639,42.898461246659785,2699.5610743036436,-1.7609003946085187,61674.18042047424,10.5,10500061674.18042,47.655,-122.3035,60.0,3.5
2026-01-20T23:03:31+00:00,SAT-56470,276.74071574437767,42.93194042238104,2697.8048696434207,-1.7457427564222288,61143.29581444441,10.5,10500061143.295815,47.655,-122.3035,60.0,3.5166666666666666
2026-01-20T23:03:32+00:00,SAT-56470,276.9404122676659,42.96495721995575,2696.063782201016,-1.7305537043939725,60611.3109627885,10.5,10500060611.310963,47.655,-122.3035,60.0,3.533333333333333
2026-01-20T23:03:33+00:00,SAT-56470,277.14060325521064,42.99750879761471,2694.3378433065004,-1.7153334385377057,60078.232870841304,10.5,10500060078.23287,47.655,-122.3035,60.0,3.55
2026-01-20T23:03:34+00:00,SAT-56470,277.3412844808803,43.02959233074414,2692.6270840904654,-1.7000821425072814,59544.06797093759,10.5,10500059544.06797,47.655,-122.3035,60.0,3.566666666666667
2026-01-20T23:03:35+00:00,SAT-56470,277.5424516429882,43.061205012092586,2690.9315355003378,-1.6848000297102779,59008.8237375135,10.5,10500059008.823738,47.655,-122.3035,60.0,3.5833333333333335
2026-01-20T23:03:36+00:00,SAT-56470,277.74410036768006,43.09234405284505,2689.251228270707,-1.6694872843296067,58472.50662143365,10.5,10500058472.506622,47.655,-122.3035,60.0,3.6
2026-01-20T23:03:37+00:00,SAT-56470,277.94622620525956,43.12300668259698,2687.586192952469,-1.6541441214032149,57935.12415423659,10.5,10500057935.124155,47.655,-122.3035,60.0,3.6166666666666667
2026-01-20T23:03:38+00:00,SAT-56470,278.148824633802,43.15319015044543,2685.936459882056,-1.6387707344164677,57396.68311259822,10.5,10500057396.683113,47.655,-122.3035,60.0,3.6333333333333333
2026-01-20T23:03:39+00:00,SAT-56470,278.3518910564011,43.18289172511367,2684.3020592029316,-1.623367340134752,56857.191088559324,10.5,10500056857.191088,47.655,-122.3035,60.0,3.65
2026-01-20T23:03:40+00:00,SAT-56470,278.5554208039696,43.21210869589853,2682.6830208423708,-1.6079341437426515,56316.65526855195,10.5,10500056316.655268,47.655,-122.3035,60.0,3.6666666666666665
2026-01-20T23:03:41+00:00,SAT-56470,278.75940913374524,43.240838372981145,2681.079374523011,-1.5924713542196272,55775.082971920805,10.5,10500055775.082972,47.655,-122.3035,60.0,3.683333333333333
2026-01-20T23:03:42+00:00,SAT-56470,278.96385122968957,43.26907808802006,2679.4911497590697,-1.5769791871067638,55232.48174782642,10.5,10500055232.481749,47.655,-122.3035,60.0,3.7
2026-01-20T23:03:43+00:00,SAT-56470,279.1687422033217,43.296825194793236,2677.918375849795,-1.561457865411405,54688.85940692928,10.5,10500054688.859407,47.655,-122.3035,60.0,3.716666666666667
2026-01-20T23:03:44+00:00,SAT-56470,279.3740770947306,43.324077069851484,2676.3610818720244,-1.5459075998135143,54144.223328132895,10.5,10500054144.223328,47.655,-122.3035,60.0,3.7333333333333334
2026-01-20T23:03:45+00:00,SAT-56470,279.57985087095534,43.35083111282412,2674.819296692477,-1.5303286140385488,53598.581347249106,10.5,10500053598.581347,47.655,-122.3035,60.0,3.75
2026-01-20T23:03:46+00:00,SAT-56470,279.7860584277595,43.377084747174024,2673.293048954743,-1.5147211314241937,53051.9412865084,10.5,10500053051.941286,47.655,-122.3035,60.0,3.7666666666666666
2026-01-20T23:03:47+00:00,SAT-56470,279.99269458967285,43.40283542071068,2671.7823670796693,-1.4990853750738458,52504.31095993543,10.5,10500052504.31096,47.655,-122.3035,60.0,3.783333333333333
2026-01-20T23:03:48+00:00,SAT-56470,280.1997541100221,43.428080606110484,2670.2872792655958,-1.483421581770652,51955.6986606776,10.5,10500051955.69866,47.655,-122.3035,60.0,3.8
2026-01-20T23:03:49+00:00,SAT-56470,280.4072316730114,43.45281780166811,2668.8078134747097,-1.467729969072315,51406.112008525924,10.5,10500051406.11201,47.655,-122.3035,60.0,3.816666666666667
2026-01-20T23:03:50+00:00,SAT-56470,280.6151218911032,43.477044531493505,2667.343997452221,-1.4520107795948198,50855.55950091849,10.5,10500050855.559502,47.655,-122.3035,60.0,3.8333333333333335
2026-01-20T23:03:51+00:00,SAT-56470,280.8234193087809,43.500758346450525,2665.895858701372,-1.4362642442193583,50304.04922429123,10.5,10500050304.049225,47.655,-122.3035,60.0,3.85
2026-01-20T23:03:52+00:00,SAT-56470,281.0321184010509,43.523956824477665,2664.463424495137,-1.4204905975793085,49751.58939649756,10.5,10500049751.589397,47.655,-122.3035,60.0,3.8666666666666667
2026-01-20T23:03:53+00:00,SAT-56470,281.2412135741857,43.54663757116658,2663.046721872485,-1.404690081375861,49198.18848293555,10.5,10500049198.188482,47.655,-122.3035,60.0,3.8833333333333333
2026-01-20T23:03:54+00:00,SAT-56470,281.45069916699936,43.56879822039054,2661.645777631326,-1.3888629382626092,48643.85498236049,10.5,10500048643.854982,47.655,-122.3035,60.0,3.9
2026-01-20T23:03:55+00:00,SAT-56470,281.6605694512948,43.59043643482968,2660.2606183275657,-1.373009413001752,48088.59746737991,10.5,10500048088.597467,47.655,-122.3035,60.0,3.9166666666666665
2026-01-20T23:03:56+00:00,SAT-56470,281.87081863245487,43.61154990651085,2658.8912702729986,-1.3571297445485677,47532.42430721843,10.5,10500047532.424307,47.655,-122.3035,60.0,3.933333333333333
2026-01-20T23:03:57+00:00,SAT-56470,282.08144084883963,43.632136357226415,2657.537759541102,-1.341224187964328,46975.34443520072,10.5,10500046975.344435,47.655,-122.3035,60.0,3.95
2026-01-20T23:03:58+00:00,SAT-56470,282.29243017463864,43.652193539285896,2656.2001119509723,-1.325292992286884,46417.36657368572,10.5,10500046417.366573,47.655,-122.3035,60.0,3.966666666666667
2026-01-20T23:03:59+00:00,SAT-56470,282.5037806193082,43.6717192359206,2654.8783530733317,-1.3093364065942354,45858.49944643862,10.5,10500045858.499447,47.655,-122.3035,60.0,3.9833333333333334
2026-01-20T23:04:00+00:00,SAT-56470,282.71548612791986,43.69071126178388,2653.5725082304884,-1.293354691003933,45298.75216387631,10.5,10500045298.752163,47.655,-122.3035,60.0,4.0
2026-01-20T23:04:01+00:00,SAT-56470,282.92754058340216,43.70916746360657,2652.282602485327,-1.2773480945863531,44738.13344949695,10.5,10500044738.13345,47.655,-122.3035,60.0,4.016666666666667
2026-01-20T23:04:02+00:00,SAT-56470,283.13993780509566,43.7270857205252,2651.008660652326,-1.26131688169455,44176.6525620627,10.5,10500044176.652561,47.655,-122.3035,60.0,4.033333333333333
2026-01-20T23:04:03+00:00,SAT-56470,283.3526715517972,43.744463944788855,2649.750707282316,-1.2452613173742797,43614.318784597104,10.5,10500043614.318785,47.655,-122.3035,60.0,4.05
2026-01-20T23:04:04+00:00,SAT-56470,283.5657355223852,43.7613000822434,2648.508766661788,-1.2291816520970826,43051.14088967297,10.5,10500043051.14089,47.655,-122.3035,60.0,4.066666666666666
2026-01-20T23:04:05+00:00,SAT-56470,283.7791233537498,43.77759211261122,2647.28286282743,-1.2130781614928996,42487.12853101677,10.5,10500042487.12853,47.655,-122.3035,60.0,4.083333333333333
2026-01-20T23:04:06+00:00,SAT-56470,283.9928286257185,43.79333805030615,2646.0730195410347,-1.1969511096037542,41922.29095649705,10.5,10500041922.290956,47.655,-122.3035,60.0,4.1
2026-01-20T23:04:07+00:00,SAT-56470,284.2068448595934,43.808535944741266,2644.879260301056,-1.180800766642474,41356.63763011002,10.5,10500041356.63763,47.655,-122.3035,60.0,4.116666666666666
2026-01-20T23:04:08+00:00,SAT-56470,284.421165519805,43.82318388087192,2643.701608336458,-1.1646274018730398,40790.17798261929,10.5,10500040790.177982,47.655,-122.3035,60.0,4.133333333333334
2026-01-20T23:04:09+00:00,SAT-56470,284.6357840143314,43.83727997964079,2642.540086607657,-1.1484312886404382,40222.921587722536,10.5,10500040222.921587,47.655,-122.3035,60.0,4.15
2026-01-20T23:04:10+00:00,SAT-56470,284.8506936960432,43.85082239848048,2641.3947178024528,-1.1322127050943642,39654.87818739865,10.5,10500039654.878187,47.655,-122.3035,60.0,4.166666666666667
2026-01-20T23:04:11+00:00,SAT-56470,285.0658878642971,43.86380933181446,2640.265524331239,-1.1159719246479056,39086.05735773049,10.5,10500039086.057358,47.655,-122.3035,60.0,4.183333333333334
2026-01-20T23:04:12+00:00,SAT-56470,285.28135976463057,43.87623901144005,2639.1525283317233,-1.0997092293691328,38516.468977935045,10.5,10500038516.468979,47.655,-122.3035,60.0,4.2
2026-01-20T23:04:13+00:00,SAT-56470,285.49710259116875,43.88810970706181,2638.055751660299,-1.0834249003396608,37946.122892679436,10.5,10500037946.122892,47.655,-122.3035,60.0,4.216666666666667
2026-01-20T23:04:14+00:00,SAT-56470,285.71310948710993,43.899419726702995,2636.975215893027,-1.067119219671775,37375.028982729236,10.5,10500037375.028982,47.655,-122.3035,60.0,4.233333333333333
2026-01-20T23:04:15+00:00,SAT-56470,285.9293735456754,43.91016741713748,2635.9109423246077,-1.0507924688394361,36803.197106493186,10.5,10500036803.197107,47.655,-122.3035,60.0,4.25
2026-01-20T23:04:16+00:00,SAT-56470,286.1458878106351,43.920351164299056,2634.862951969018,-1.034444942633997,36230.63758881142,10.5,10500036230.637589,47.655,-122.3035,60.0,4.266666666666667
2026-01-20T23:04:17+00:00,SAT-56470,286.3626452799591,43.929969393816414,2633.831265546231,-1.0180769218687324,35657.36026495266,10.5,10500035657.360266,47.655,-122.3035,60.0,4.283333333333333
2026-01-20T23:04:18+00:00,SAT-56470,286.57963890353676,43.939020571275435,2632.815903496154,-1.0016887047664942,35083.37557994267,10.5,10500035083.37558,47.655,-122.3035,60.0,4.3
2026-01-20T23:04:19+00:00,SAT-56470,286.796861587822,43.94750320277092,2631.816885961267,-0.9852805744326295,34508.69344932823,10.5,10500034508.693449,47.655,-122.3035,60.0,4.316666666666666
2026-01-20T23:04:20+00:00,SAT-56470,287.01430619322684,43.95541583515756,2630.8342328016997,-0.9688528333636095,33933.324467815335,10.5,10500033933.324469,47.655,-122.3035,60.0,4.333333333333333
2026-01-20T23:04:21+00:00,SAT-56470,287.23196553936185,43.962757056587684,2629.8679635758917,-0.9524057740968324,33357.27888130108,10.5,10500033357.278881,47.655,-122.3035,60.0,4.35
2026-01-20T23:04:22+00:00,SAT-56470,287.4498324036163,43.96952549679332,2628.918097550526,-0.9359396935398765,32780.567088744785,10.5,10500032780.56709,47.655,-122.3035,60.0,4.366666666666666
2026-01-20T23:04:23+00:00,SAT-56470,287.6678995230259,43.97571982748161,2627.9846536961686,-0.9194548918961264,32203.199604538837,10.5,10500032203.199604,47.655,-122.3035,60.0,4.383333333333334
2026-01-20T23:04:24+00:00,SAT-56470,287.8861595959196,43.981338762707765,2627.067650683984,-0.9029516687875628,31625.18692271241,10.5,10500031625.186922,47.655,-122.3035,60.0,4.4
2026-01-20T23:04:25+00:00,SAT-56470,288.10460528269476,43.9863810592124,2626.1671068863134,-0.886430330753038,31046.539779552753,10.5,10500031046.53978,47.655,-122.3035,60.0,4.416666666666667
2026-01-20T23:04:26+00:00,SAT-56470,288.32322920844024,43.9908455167933,2625.283040369776,-0.869891181337989,30467.268806505082,10.5,10500030467.268806,47.655,-122.3035,60.0,4.433333333333334
2026-01-20T23:04:27+00:00,SAT-56470,288.5420239631802,43.99473097860671,2624.4154688982544,-0.853334520238597,29887.384500197364,10.5,10500029887.3845,47.655,-122.3035,60.0,4.45
2026-01-20T23:04:28+00:00,SAT-56470,288.7609821016878,43.99803633147349,2623.564409936737,-0.8367606637276473,29306.89793784038,10.5,10500029306.897938,47.655,-122.3035,60.0,4.466666666666667
2026-01-20T23:04:29+00:00,SAT-56470,288.9800961488867,44.00076050625159,2622.729880634779,-0.8201699174480002,28725.81982433995,10.5,10500028725.819824,47.655,-122.3035,60.0,4.483333333333333
2026-01-20T23:04:30+00:00,SAT-56470,289.1993585979958,44.0029024780835,2621.9118978371107,-0.8035625902559896,28144.160977151372,10.5,10500028144.160976,47.655,-122.3035,60.0,4.5
2026-01-20T23:04:31+00:00,SAT-56470,289.4187619123325,44.00446126670078,2621.1104780804285,-0.786938999837252,27561.93252296943,10.5,10500027561.932524,47.655,-122.3035,60.0,4.516666666666667
2026-01-20T23:04:32+00:00,SAT-56470,289.63829852881076,44.00543593671483,2620.3256375845913,-0.7702994522386823,26979.14518085096,10.5,10500026979.145182,47.655,-122.3035,60.0,4.533333333333333
2026-01-20T23:04:33+00:00,SAT-56470,289.85796085560474,44.00582559786724,2619.557392264225,-0.7536442717873324,26395.81031010123,10.5,10500026395.81031,47.655,-122.3035,60.0,4.55
2026-01-20T23:04:34+00:00,SAT-56470,290.0777412785277,44.005629405299416,2618.805757710496,-0.7369737689170508,25811.938783426747,10.5,10500025811.938784,47.655,-122.3035,60.0,4.566666666666666
2026-01-20T23:04:35+00:00,SAT-56470,290.29763215793923,44.00484655979159,2618.0707492049623,-0.7202882620371784,25227.541752869492,10.5,10500025227.541754,47.655,-122.3035,60.0,4.583333333333333
2026-01-20T23:04:36+00:00,SAT-56470,290.5176258321168,44.00347630800403,2617.3523817116243,-0.7035880760582037,24642.630598169148,10.5,10500024642.630598,47.655,-122.3035,60.0,4.6
2026-01-20T23:04:37+00:00,SAT-56470,290.73771462047284,44.00151794268004,2616.6506698704356,-0.6868735272640926,24057.216396928077,10.5,10500024057.216396,47.655,-122.3035,60.0,4.616666666666666
2026-01-20T23:04:38+00:00,SAT-56470,290.9578908217822,43.99897080288066,2615.9656280059107,-0.6701449380770893,23471.31044173712,10.5,10500023471.310442,47.655,-122.3035,60.0,4.633333333333334
2026-01-20T23:04:39+00:00,SAT-56470,291.1781467172557,43.99583427417544,2615.297270121002,-0.6534026328887897,22884.924094162143,10.5,10500022884.924093,47.655,-122.3035,60.0,4.65
2026-01-20T23:04:40+00:00,SAT-56470,291.39847457219577,43.99210778882801,2614.6456098951344,-0.636646938692367,22298.06880688724,10.5,10500022298.068808,47.655,-122.3035,60.0,4.666666666666667
2026-01-20T23:04:41+00:00,SAT-56470,291.6188666381527,43.98779082595302,2614.010660681612,-0.619878180094394,21710.755949007686,10.5,10500021710.755949,47.655,-122.3035,60.0,4.683333333333334
2026-01-20T23:04:42+00:00,SAT-56470,291.83931515306637,43.98288291170294,2613.3924355099975,-0.6030966831351315,21122.996939832563,10.5,10500021122.99694,47.655,-122.3035,60.0,4.7
2026-01-20T23:04:43+00:00,SAT-56470,292.0598123428301,43.97738361942536,2612.790947084684,-0.5863027794620292,20534.803395058414,10.5,10500020534.803394,47.655,-122.3035,60.0,4.716666666666667
2026-01-20T23:04:44+00:00,SAT-56470,292.280350424541,43.97129256975717,2612.2062077793003,-0.5694967973316942,19946.186811620155,10.5,10500019946.186811,47.655,-122.3035,60.0,4.733333333333333
2026-01-20T23:04:45+00:00,SAT-56470,292.5009216063486,43.96460943078879,2611.6382296400952,-0.5526790665309836,19357.15874004852,10.5,10500019357.158741,47.655,-122.3035,60.0,4.75
2026-01-20T23:04:46+00:00,SAT-56470,292.721518088968,43.957333918187736,2611.0870243844083,-0.5358499221764552,18767.730917542896,10.5,10500018767.730917,47.655,-122.3035,60.0,4.766666666666667
2026-01-20T23:04:47+00:00,SAT-56470,292.94213206920205,43.9494657952303,2610.552603395358,-0.5190096945072815,18177.91491047602,10.5,10500018177.914911,47.655,-122.3035,60.0,4.783333333333333
2026-01-20T23:04:48+00:00,SAT-56470,293.16275573875504,43.9410048729841,2610.034977726702,-0.5021587193967595,17587.722482551493,10.5,10500017587.722483,47.655,-122.3035,60.0,4.8
2026-01-20T23:04:49+00:00,SAT-56470,293.38338128797017,43.93195101030475,2609.534158097224,-0.48529733213983195,16997.165377216512,10.5,10500016997.165377,47.655,-122.3035,60.0,4.816666666666666
2026-01-20T23:04:50+00:00,SAT-56470,293.6040009065574,43.92230411392815,2609.0501548913035,-0.4684258678266292,16406.255330744865,10.5,10500016406.255331,47.655,-122.3035,60.0,4.833333333333333
2026-01-20T23:04:51+00:00,SAT-56470,293.8246067846311,43.912064138544046,2608.582978159124,-0.45154466486239897,15815.004195519787,10.5,10500015815.004196,47.655,-122.3035,60.0,4.85
2026-01-20T23:04:52+00:00,SAT-56470,294.04519111538764,43.90123108678326,2608.132637613368,-0.4346540607137075,15223.4237910479,10.5,10500015223.423792,47.655,-122.3035,60.0,4.866666666666666
2026-01-20T23:04:53+00:00,SAT-56470,294.2657460957201,43.88980500928629,2607.6991426301497,-0.4177543953846617,14631.526025711253,10.5,10500014631.526026,47.655,-122.3035,60.0,4.883333333333334
2026-01-20T23:04:54+00:00,SAT-56470,294.48626392874405,43.87778600466201,2607.282502246486,-0.4008460078431088,14039.322771597683,10.5,10500014039.322771,47.655,-122.3035,60.0,4.9
2026-01-20T23:04:55+00:00,SAT-56470,294.70673682417737,43.86517421954976,2606.88272516133,-0.38392923973064014,13446.825994440866,10.5,10500013446.825994,47.655,-122.3035,60.0,4.916666666666667
2026-01-20T23:04:56+00:00,SAT-56470,294.92715700106857,43.85196984853989,2606.499819732906,-0.3670044306696899,12854.047589255044,10.5,10500012854.047588,47.655,-122.3035,60.0,4.933333333333334
2026-01-20T23:04:57+00:00,SAT-56470,295.147516687398,43.838173134262924,2606.1337939807177,-0.3500719255397175,12260.999635177726,10.5,10500012260.999636,47.655,-122.3035,60.0,4.95
2026-01-20T23:04:58+00:00,SAT-56470,295.3678081247177,43.82378436716025,2605.784655580313,-0.33313206580240445,11667.69409164138,10.5,10500011667.694092,47.655,-122.3035,60.0,4.966666666666667
2026-01-20T23:04:59+00:00,SAT-56470,295.5880235667838,43.80880388561078,2605.452411866686,-0.3161851964546091,11074.14304189532,10.5,10500011074.143042,47.655,-122.3035,60.0,4.983333333333333
2026-01-20T23:05:00+00:00,SAT-56470,295.8081552832138,43.79323207572606,2605.137069830755,-0.29923166076371766,10480.358508615434,10.5,10500010480.35851,47.655,-122.3035,60.0,5.0
2026-01-20T23:05:01+00:00,SAT-56470,296.0281955590795,43.77706937140428,2604.838636121087,-0.282271804123508,9886.352588952836,10.5,10500009886.352589,47.655,-122.3035,60.0,5.016666666666667
2026-01-20T23:05:02+00:00,SAT-56470,296.24813669758265,43.76031625416272,2604.5571170417743,-0.2653059723694011,9292.137395526846,10.5,10500009292.137396,47.655,-122.3035,60.0,5.033333333333333
2026-01-20T23:05:03+00:00,SAT-56470,296.46797102134724,43.74297325304722,2604.292518551998,-0.248334512778129,8697.725091437605,10.5,10500008697.725092,47.655,-122.3035,60.0,5.05
2026-01-20T23:05:04+00:00,SAT-56470,296.68769087509327,43.72504094441902,2604.0448462645872,-0.23135777062810364,8103.127769795625,10.5,10500008103.12777,47.655,-122.3035,60.0,5.066666666666666
2026-01-20T23:05:05+00:00,SAT-56470,296.90728862421275,43.70651995206116,2603.8141054480143,-0.2143760940956062,7508.357625207053,10.5,10500007508.357626,47.655,-122.3035,60.0,5.083333333333333
2026-01-20T23:05:06+00:00,SAT-56470,297.1267566589638,43.687410946819135,2603.6003010235027,-0.1973898309086679,6913.426836578434,10.5,10500006913.426836,47.655,-122.3035,60.0,5.1
2026-01-20T23:05:07+00:00,SAT-56470,297.34608739474504,43.66771464654312,2603.4034375654765,-0.1803993292247657,6318.347597857314,10.5,10500006318.347597,47.655,-122.3035,60.0,5.116666666666666
2026-01-20T23:05:08+00:00,SAT-56470,297.565273273774,43.647431815904724,2603.2235193011297,-0.16340493783309376,5723.132125116651,10.5,10500005723.132126,47.655,-122.3035,60.0,5.133333333333334
2026-01-20T23:05:09+00:00,SAT-56470,297.7843067664895,43.62656326622201,2603.060550109797,-0.146407005702756,5127.792640730601,10.5,10500005127.79264,47.655,-122.3035,60.0,5.15
2026-01-20T23:05:10+00:00,SAT-56470,298.0031803729984,43.6051098552678,2602.9145335227763,-0.1294058822246788,4532.341381847329,10.5,10500004532.341381,47.655,-122.3035,60.0,5.166666666666667
2026-01-20T23:05:11+00:00,SAT-56470,298.2218866242768,43.583072487090206,2602.785472722904,-0.11240191732392744,3936.790604322802,10.5,10500003936.790604,47.655,-122.3035,60.0,5.183333333333334
2026-01-20T23:05:12+00:00,SAT-56470,298.44041808472406,43.560452111679446,2602.6733705440265,-0.09539546051492574,3341.152549630586,10.5,10500003341.15255,47.655,-122.3035,60.0,5.2
2026-01-20T23:05:13+00:00,SAT-56470,298.65876735065643,43.53724972504138,2602.5782294714063,-0.07838686234124242,2745.439495289256,10.5,10500002745.439495,47.655,-122.3035,60.0,5.216666666666667
2026-01-20T23:05:14+00:00,SAT-56470,298.8769270553288,43.51346636858179,2602.500051640698,-0.061376473211259816,2149.6637140825874,10.5,10500002149.663713,47.655,-122.3035,60.0,5.233333333333333
