satellites_20260121_005943/SAT-64163.csv

timestamp,satellite,azimuth_deg,elevation_deg,distance_km,relative_velocity_kms,doppler_shift_hz,tx_freq_ghz,rx_freq_hz,ue_lat,ue_lon,ue_alt_m,time_minutes
2026-01-20T23:04:35+00:00,SAT-64163,305.11268822897114,30.00322533929718,4153.404373727815,-1.7285747292345688,60541.99888164956,10.5,10500060541.998882,47.655,-122.3035,60.0,4.583333333333333
2026-01-20T23:04:36+00:00,SAT-64163,304.99627407883696,30.037089339380234,4151.6804085311915,-1.7178093195130626,60164.94869556444,10.5,10500060164.948696,47.655,-122.3035,60.0,4.6
2026-01-20T23:04:37+00:00,SAT-64163,304.879657485842,30.070777795535985,4149.96718003653,-1.70702830504892,59787.3519653842,10.5,10500059787.351965,47.655,-122.3035,60.0,4.616666666666666
2026-01-20T23:04:38+00:00,SAT-64163,304.7628391488088,30.10428989806745,4148.264703806962,-1.6962317548212855,59409.21110705025,10.5,10500059409.211107,47.655,-122.3035,60.0,4.633333333333334
2026-01-20T23:04:39+00:00,SAT-64163,304.645819776724,30.13762483876987,4146.57299533682,-1.6854197470487389,59030.52886010814,10.5,10500059030.52886,47.655,-122.3035,60.0,4.65
2026-01-20T23:04:40+00:00,SAT-64163,304.52860008818016,30.17078181115404,4144.8920700424305,-1.674592357169898,58651.307866737356,10.5,10500058651.307867,47.655,-122.3035,60.0,4.666666666666667
2026-01-20T23:04:41+00:00,SAT-64163,304.4111808116005,30.203760010440565,4143.22194326488,-1.6637496523622683,58271.5504797783,10.5,10500058271.55048,47.655,-122.3035,60.0,4.683333333333334
2026-01-20T23:04:42+00:00,SAT-64163,304.29356268588765,30.236558633431304,4141.5626302782575,-1.6528917160724863,57891.259621885176,10.5,10500057891.259623,47.655,-122.3035,60.0,4.7
2026-01-20T23:04:43+00:00,SAT-64163,304.1757464593366,30.269176878885848,4139.914146273427,-1.642018621842494,57510.43786880785,10.5,10500057510.437868,47.655,-122.3035,60.0,4.716666666666667
2026-01-20T23:04:44+00:00,SAT-64163,304.0577328903814,30.301613947363123,4138.27650636791,-1.6311304486069522,57129.08798517206,10.5,10500057129.087986,47.655,-122.3035,60.0,4.733333333333333
2026-01-20T23:04:45+00:00,SAT-64163,303.9395227472421,30.333869041380265,4136.6497256005,-1.6202272661459607,56747.21241497205,10.5,10500056747.212416,47.655,-122.3035,60.0,4.75
2026-01-20T23:04:46+00:00,SAT-64163,303.82111680868496,30.36594136526371,4135.033818940396,-1.6093091621508062,56364.81422952764,10.5,10500056364.81423,47.655,-122.3035,60.0,4.766666666666667
2026-01-20T23:04:47+00:00,SAT-64163,303.70251586272354,30.397830125566976,4133.428801269344,-1.59837620503397,55981.89582493328,10.5,10500055981.895824,47.655,-122.3035,60.0,4.783333333333333
2026-01-20T23:04:48+00:00,SAT-64163,303.58372070812106,30.429534530714896,4131.834687400858,-1.587428482139625,55598.460260351385,10.5,10500055598.46026,47.655,-122.3035,60.0,4.8
2026-01-20T23:04:49+00:00,SAT-64163,303.46473215300625,30.461053791443792,4130.251492061337,-1.5764660692941606,55214.51019154287,10.5,10500055214.510191,47.655,-122.3035,60.0,4.816666666666666
2026-01-20T23:04:50+00:00,SAT-64163,303.3455510158007,30.492387120604292,4128.679229901561,-1.5654890438074605,54830.04832622685,10.5,10500054830.048326,47.655,-122.3035,60.0,4.833333333333333
2026-01-20T23:04:51+00:00,SAT-64163,303.2261781251579,30.52353373324192,4127.117915495203,-1.5544974899159338,54445.07761471873,10.5,10500054445.077614,47.655,-122.3035,60.0,4.85
2026-01-20T23:04:52+00:00,SAT-64163,303.1066143194714,30.554492846783045,4125.567563331927,-1.543491488680126,54059.60089610168,10.5,10500054059.600897,47.655,-122.3035,60.0,4.866666666666666
2026-01-20T23:04:53+00:00,SAT-64163,302.9868604471827,30.585263681015046,4124.02818782055,-1.5324711177890522,53673.62089137362,10.5,10500053673.620892,47.655,-122.3035,60.0,4.883333333333334
2026-01-20T23:04:54+00:00,SAT-64163,302.8669173670623,30.615845458067174,4122.499803292409,-1.5214364654996486,53287.1406916658,10.5,10500053287.140692,47.655,-122.3035,60.0,4.9
2026-01-20T23:04:55+00:00,SAT-64163,302.74678594744466,30.646237402669737,4120.982423990817,-1.5103876071422826,52900.16293536633,10.5,10500052900.162935,47.655,-122.3035,60.0,4.916666666666667
2026-01-20T23:04:56+00:00,SAT-64163,302.62646706729737,30.676438741937126,4119.47606408396,-1.49932462956663,52512.69066431823,10.5,10500052512.690664,47.655,-122.3035,60.0,4.933333333333334
2026-01-20T23:04:57+00:00,SAT-64163,302.5059616153403,30.706448705650118,4117.980737653406,-1.4882476187060472,52124.726888271136,10.5,10500052124.726889,47.655,-122.3035,60.0,4.95
2026-01-20T23:04:58+00:00,SAT-64163,302.3852704901592,30.736266526285885,4116.496458695016,-1.477156655302933,51736.2744351654,10.5,10500051736.274435,47.655,-122.3035,60.0,4.966666666666667
2026-01-20T23:04:59+00:00,SAT-64163,302.2643946006701,30.76589143895561,4115.023241124128,-1.4660518263655282,51347.33635239765,10.5,10500051347.336353,47.655,-122.3035,60.0,4.983333333333333
2026-01-20T23:05:00+00:00,SAT-64163,302.14333486564306,30.795322681582913,4113.561098769299,-1.454933213622179,50957.915502440286,10.5,10500050957.915503,47.655,-122.3035,60.0,5.0
2026-01-20T23:05:01+00:00,SAT-64163,302.02209221418605,30.82455949484032,4112.11004537758,-1.4438009066501767,50568.015022668966,10.5,10500050568.015022,47.655,-122.3035,60.0,5.016666666666667
2026-01-20T23:05:02+00:00,SAT-64163,301.9006675851301,30.85360112235995,4110.670094606681,-1.4326549903003694,50177.6378849193,10.5,10500050177.637884,47.655,-122.3035,60.0,5.033333333333333
2026-01-20T23:05:03+00:00,SAT-64163,301.77906192745405,30.882446810681817,4109.241260029688,-1.4214955525445818,49786.78717033672,10.5,10500049786.78717,47.655,-122.3035,60.0,5.05
2026-01-20T23:05:04+00:00,SAT-64163,301.6572762000623,30.91109580936838,4107.82355513195,-1.4103226775455333,49395.46582665565,10.5,10500049395.465826,47.655,-122.3035,60.0,5.066666666666666
2026-01-20T23:05:05+00:00,SAT-64163,301.53531137215265,30.939547370969002,4106.416993314878,-1.3991364563807795,49003.67704379736,10.5,10500049003.677044,47.655,-122.3035,60.0,5.083333333333333
2026-01-20T23:05:06+00:00,SAT-64163,301.4131684226474,30.967800751215965,4105.021587889048,-1.3879369786321862,48611.423959297725,10.5,10500048611.42396,47.655,-122.3035,60.0,5.1
2026-01-20T23:05:07+00:00,SAT-64163,301.29084834035217,30.995855209037092,4103.6373520756915,-1.3767243275741043,48218.709489776746,10.5,10500048218.70949,47.655,-122.3035,60.0,5.116666666666666
2026-01-20T23:05:08+00:00,SAT-64163,301.1683521245524,31.02371000647564,4102.264299012991,-1.365498597166712,47825.536926117325,10.5,10500047825.536926,47.655,-122.3035,60.0,5.133333333333334
2026-01-20T23:05:09+00:00,SAT-64163,301.04568078410404,31.051364408957117,4100.902441745417,-1.354259876119262,47431.90937529272,10.5,10500047431.909376,47.655,-122.3035,60.0,5.15
2026-01-20T23:05:10+00:00,SAT-64163,300.9228353379168,31.078817685230984,4099.551793228967,-1.3430082560180383,47037.830045042036,10.5,10500047037.830046,47.655,-122.3035,60.0,5.166666666666667
2026-01-20T23:05:11+00:00,SAT-64163,300.7998168147368,31.106069107475886,4098.212366328298,-1.331743824527394,46643.30200574171,10.5,10500046643.302006,47.655,-122.3035,60.0,5.183333333333334
2026-01-20T23:05:12+00:00,SAT-64163,300.67662625353154,31.13311795126813,4096.8841738206365,-1.320466676391691,46248.32857574007,10.5,10500046248.328575,47.655,-122.3035,60.0,5.2
2026-01-20T23:05:13+00:00,SAT-64163,300.5532647028658,31.159963495775063,4095.567228388715,-1.3091769032912346,45852.91296606922,10.5,10500045852.912966,47.655,-122.3035,60.0,5.216666666666667
2026-01-20T23:05:14+00:00,SAT-64163,300.42973322119917,31.186605023743,4094.2615426238326,-1.2978745958263622,45457.05834993622,10.5,10500045457.05835,47.655,-122.3035,60.0,5.233333333333333
2026-01-20T23:05:15+00:00,SAT-64163,300.30603287703735,31.21304182151709,4092.9671290269284,-1.2865598468396782,45060.767979081786,10.5,10500045060.767979,47.655,-122.3035,60.0,5.25
2026-01-20T23:05:16+00:00,SAT-64163,300.1821647487367,31.239273179140753,4091.6840000063476,-1.2752327538295871,44664.045268312475,10.5,10500044664.045269,47.655,-122.3035,60.0,5.266666666666667
2026-01-20T23:05:17+00:00,SAT-64163,300.0581299240692,31.26529839049949,4090.4121678731944,-1.2638934026105222,44266.89322321271,10.5,10500044266.893223,47.655,-122.3035,60.0,5.283333333333333
2026-01-20T23:05:18+00:00,SAT-64163,299.9339295013922,31.291116753124292,4089.1516448529906,-1.2525418986792507,43869.31553872556,10.5,10500043869.315538,47.655,-122.3035,60.0,5.3
2026-01-20T23:05:19+00:00,SAT-64163,299.8095645877377,31.31672756865204,4087.9024430660415,-1.2411783267549914,43471.315182076425,10.5,10500043471.315182,47.655,-122.3035,60.0,5.316666666666666
2026-01-20T23:05:20+00:00,SAT-64163,299.68503630087525,31.34213014243953,4086.664574548158,-1.2298027874342574,43072.89567658071,10.5,10500043072.895676,47.655,-122.3035,60.0,5.333333333333333
2026-01-20T23:05:21+00:00,SAT-64163,299.5603457677773,31.367323783940364,4085.4380512348234,-1.2184153753231748,42674.060335745125,10.5,10500042674.060335,47.655,-122.3035,60.0,5.35
2026-01-20T23:05:22+00:00,SAT-64163,299.43549412520997,31.392307806632484,4084.222884967168,-1.2070161878932129,42274.81257343284,10.5,10500042274.812572,47.655,-122.3035,60.0,5.366666666666666
2026-01-20T23:05:23+00:00,SAT-64163,299.31048251947686,31.41708152812135,4083.019087489109,-1.195605318927183,41875.15567431459,10.5,10500041875.155674,47.655,-122.3035,60.0,5.383333333333334
2026-01-20T23:05:24+00:00,SAT-64163,299.18531210681107,31.44164427011395,4081.8266704510324,-1.1841828695638668,41475.09318069836,10.5,10500041475.093182,47.655,-122.3035,60.0,5.4
2026-01-20T23:05:25+00:00,SAT-64163,299.05998405261914,31.46599535861911,4080.6456454024537,-1.1727489356052323,41074.62844797429,10.5,10500041074.628448,47.655,-122.3035,60.0,5.416666666666667
2026-01-20T23:05:26+00:00,SAT-64163,298.93449953206584,31.49013412388347,4079.4760237973433,-1.1613036115705004,40673.764786605316,10.5,10500040673.764786,47.655,-122.3035,60.0,5.433333333333334
2026-01-20T23:05:27+00:00,SAT-64163,298.8088597302252,31.514059900411848,4078.3178169954035,-1.1498470052795111,40272.50597289832,10.5,10500040272.505974,47.655,-122.3035,60.0,5.45
2026-01-20T23:05:28+00:00,SAT-64163,298.68306584064703,31.53777202729658,4077.171036248805,-1.138379205850126,39870.85512813776,10.5,10500039870.855127,47.655,-122.3035,60.0,5.466666666666667
2026-01-20T23:05:29+00:00,SAT-64163,298.5571190674181,31.561269847867496,4076.0356927208372,-1.1269003209268493,39468.816022489525,10.5,10500039468.816023,47.655,-122.3035,60.0,5.483333333333333
2026-01-20T23:05:30+00:00,SAT-64163,298.4310206231248,31.584552710133664,4074.9117974674327,-1.115410445198647,39066.39197236174,10.5,10500039066.391972,47.655,-122.3035,60.0,5.5
2026-01-20T23:05:31+00:00,SAT-64163,298.30477173030187,31.60761996655395,4073.7993614500883,-1.103909679176143,38663.5864980616,10.5,10500038663.586498,47.655,-122.3035,60.0,5.516666666666667
2026-01-20T23:05:32+00:00,SAT-64163,298.17837362080826,31.63047097420832,4072.6983955300566,-1.0923981280928465,38260.40328531176,10.5,10500038260.403286,47.655,-122.3035,60.0,5.533333333333333
2026-01-20T23:05:33+00:00,SAT-64163,298.05182753525725,31.65310509494654,4071.6089104636385,-1.080875890664858,37856.845791567604,10.5,10500037856.84579,47.655,-122.3035,60.0,5.55
2026-01-20T23:05:34+00:00,SAT-64163,297.9251347237965,31.675521695294538,4070.5309169086822,-1.0693430679659077,37452.91755685872,10.5,10500037452.917557,47.655,-122.3035,60.0,5.566666666666666
2026-01-20T23:05:35+00:00,SAT-64163,297.7982964458437,31.697720146550086,4069.4644254222308,-1.0577997628957612,37048.622185170156,10.5,10500037048.622185,47.655,-122.3035,60.0,5.583333333333333
2026-01-20T23:05:36+00:00,SAT-64163,297.6713139698487,31.71969982487226,4068.409446458703,-1.046246076649105,36643.963220767895,10.5,10500036643.96322,47.655,-122.3035,60.0,5.6
2026-01-20T23:05:37+00:00,SAT-64163,297.54418857353886,31.74146011128654,4067.3659903715916,-1.0346821180032664,36238.94447349405,10.5,10500036238.944473,47.655,-122.3035,60.0,5.616666666666666
2026-01-20T23:05:38+00:00,SAT-64163,297.4169215429658,31.763000391896327,4066.3340674059027,-1.0231079822763867,35833.56928179314,10.5,10500035833.569283,47.655,-122.3035,60.0,5.633333333333334
2026-01-20T23:05:39+00:00,SAT-64163,297.2895141741627,31.78432005763945,4065.3136877115794,-1.0115237806542463,35427.8415398615,10.5,10500035427.84154,47.655,-122.3035,60.0,5.65
2026-01-20T23:05:40+00:00,SAT-64163,297.1619677711833,31.805418504675053,4064.3048613276733,-0.9999296112481632,35021.76468397251,10.5,10500035021.764685,47.655,-122.3035,60.0,5.666666666666667
2026-01-20T23:05:41+00:00,SAT-64163,297.034283647749,31.826295134145656,4063.3075981953884,-0.988325584980151,34615.34259908428,10.5,10500034615.3426,47.655,-122.3035,60.0,5.683333333333334
2026-01-20T23:05:42+00:00,SAT-64163,296.906463125593,31.846949352501895,4062.3219081453017,-0.9767118017194598,34208.57878304039,10.5,10500034208.578783,47.655,-122.3035,60.0,5.7
2026-01-20T23:05:43+00:00,SAT-64163,296.7785075359028,31.86738057130502,4061.3478009083865,-0.9650883700096352,33801.47703749495,10.5,10500033801.477037,47.655,-122.3035,60.0,5.716666666666667
2026-01-20T23:05:44+00:00,SAT-64163,296.65041821816567,31.88758820746383,4060.3852861073638,-0.9534553967465738,33394.04110639443,10.5,10500033394.041107,47.655,-122.3035,60.0,5.733333333333333
2026-01-20T23:05:45+00:00,SAT-64163,296.5221965203931,31.90757168323815,4059.434373258342,-0.9418129828840668,32986.27452556762,10.5,10500032986.274525,47.655,-122.3035,60.0,5.75
2026-01-20T23:05:46+00:00,SAT-64163,296.39384379989724,31.927330426160538,4058.4950717767456,-0.93016124281781,32578.1813016357,10.5,10500032578.181301,47.655,-122.3035,60.0,5.766666666666667
2026-01-20T23:05:47+00:00,SAT-64163,296.2653614214676,31.946863869366172,4057.5673909639086,-0.9185002785068537,32169.765005635876,10.5,10500032169.765005,47.655,-122.3035,60.0,5.783333333333333
2026-01-20T23:05:48+00:00,SAT-64163,296.13675075906906,31.96617145136967,4056.6513400194776,-0.9068302004132721,31761.02950641726,10.5,10500031761.029507,47.655,-122.3035,60.0,5.8
2026-01-20T23:05:49+00:00,SAT-64163,296.0080131946288,31.985252616292982,4055.7469280329324,-0.8951511114846035,31351.978409638097,10.5,10500031351.978409,47.655,-122.3035,60.0,5.816666666666666
2026-01-20T23:05:50+00:00,SAT-64163,295.8791501191213,32.004106813745565,4054.854163991078,-0.8834631258588754,30942.615712894923,10.5,10500030942.615713,47.655,-122.3035,60.0,5.833333333333333
2026-01-20T23:05:51+00:00,SAT-64163,295.7501629309358,32.02273349910889,4053.973056766888,-0.8717663499512093,30532.945143295423,10.5,10500030532.945143,47.655,-122.3035,60.0,5.85
2026-01-20T23:05:52+00:00,SAT-64163,295.62105303696103,32.04113213341444,4053.1036151272037,-0.8600608943405701,30122.970573782703,10.5,10500030122.970573,47.655,-122.3035,60.0,5.866666666666666
2026-01-20T23:05:53+00:00,SAT-64163,295.4918218519806,32.05930218347278,4052.2458477285813,-0.8483468656646795,29712.695739260842,10.5,10500029712.69574,47.655,-122.3035,60.0,5.883333333333334
2026-01-20T23:05:54+00:00,SAT-64163,295.36247079923135,32.07724312183279,4051.399763121225,-0.8366243751743692,29302.124536204563,10.5,10500029302.124537,47.655,-122.3035,60.0,5.9
2026-01-20T23:05:55+00:00,SAT-64163,295.2330013097061,32.09495442692242,4050.5653697443845,-0.8248935323777854,28891.260800052372,10.5,10500028891.2608,47.655,-122.3035,60.0,5.916666666666667
2026-01-20T23:05:56+00:00,SAT-64163,295.1034148223978,32.11243558305247,4049.742675928093,-0.8131544497897027,28480.108471547603,10.5,10500028480.10847,47.655,-122.3035,60.0,5.933333333333334
2026-01-20T23:05:57+00:00,SAT-64163,294.9737127837942,32.12968608052315,4048.9316898901698,-0.801407236223023,28068.671361778357,10.5,10500028068.671362,47.655,-122.3035,60.0,5.95
2026-01-20T23:05:58+00:00,SAT-64163,294.8438966484451,32.146705415585515,4048.1324197399094,-0.7896520031511783,27656.953375015764,10.5,10500027656.953375,47.655,-122.3035,60.0,5.966666666666667
2026-01-20T23:05:59+00:00,SAT-64163,294.71396787854576,32.16349309053595,4047.344873475434,-0.7778888638558469,27244.958478863377,10.5,10500027244.958479,47.655,-122.3035,60.0,5.983333333333333
2026-01-20T23:06:00+00:00,SAT-64163,294.583927943576,32.18004861380064,4046.5690589818814,-0.7661179278604217,26832.69050929369,10.5,10500026832.69051,47.655,-122.3035,60.0,6.0
2026-01-20T23:06:01+00:00,SAT-64163,294.4537783209189,32.19637149988953,4045.804984035162,-0.7543393103976365,26420.153502244488,10.5,10500026420.153502,47.655,-122.3035,60.0,6.016666666666667
2026-01-20T23:06:02+00:00,SAT-64163,294.3235204948684,32.212461269562304,4045.0526562962586,-0.7425531211047254,26007.35129767546,10.5,10500026007.351297,47.655,-122.3035,60.0,6.033333333333333
2026-01-20T23:06:03+00:00,SAT-64163,294.1931559575654,32.22831744974321,4044.3120833168105,-0.7307594739748745,25594.287888110186,10.5,10500025594.287888,47.655,-122.3035,60.0,6.05
2026-01-20T23:06:04+00:00,SAT-64163,294.06268620820595,32.24393957365776,4043.583272534766,-0.7189584812880605,25180.96720606839,10.5,10500025180.967207,47.655,-122.3035,60.0,6.066666666666666
2026-01-20T23:06:05+00:00,SAT-64163,293.93211275334767,32.259327180828805,4042.8662312760944,-0.7071502592710952,24767.39332230466,10.5,10500024767.393322,47.655,-122.3035,60.0,6.083333333333333
2026-01-20T23:06:06+00:00,SAT-64163,293.8014371061232,32.27447981720575,4042.1609667508483,-0.6953349196372907,24353.570149491727,10.5,10500024353.57015,47.655,-122.3035,60.0,6.1
2026-01-20T23:06:07+00:00,SAT-64163,293.6706607870608,32.28939703509847,4041.4674860576633,-0.6835125780655976,23939.50173919577,10.5,10500023939.50174,47.655,-122.3035,60.0,6.116666666666666
2026-01-20T23:06:08+00:00,SAT-64163,293.5397853232936,32.30407839330493,4040.785796179806,-0.6716833469584739,23525.192028226327,10.5,10500023525.192028,47.655,-122.3035,60.0,6.133333333333334
2026-01-20T23:06:09+00:00,SAT-64163,293.40881224917405,32.31852345707217,4040.115903988439,-0.6598473406094634,23110.64501962676,10.5,10500023110.64502,47.655,-122.3035,60.0,6.15
2026-01-20T23:06:10+00:00,SAT-64163,293.27774310589325,32.332731798175516,4039.4578162407383,-0.6480046787282076,22695.86490613509,10.5,10500022695.864906,47.655,-122.3035,60.0,6.166666666666667
2026-01-20T23:06:11+00:00,SAT-64163,293.14657944032786,32.34670299507446,4038.8115395744867,-0.636155471488621,22280.855546507843,10.5,10500022280.855547,47.655,-122.3035,60.0,6.183333333333334
2026-01-20T23:06:12+00:00,SAT-64163,293.01532280693965,32.36043663273521,4038.177080517589,-0.6242998371432793,21865.621082450423,10.5,10500021865.621082,47.655,-122.3035,60.0,6.2
2026-01-20T23:06:13+00:00,SAT-64163,292.88397476610874,32.37393230284476,4037.554445480011,-0.6124378905778022,21450.16553774319,10.5,10500021450.165537,47.655,-122.3035,60.0,6.216666666666667
2026-01-20T23:06:14+00:00,SAT-64163,292.7525368847796,32.38718960377052,4036.9436407571416,-0.6005697499360061,21034.493050282355,10.5,10500021034.49305,47.655,-122.3035,60.0,6.233333333333333
2026-01-20T23:06:15+00:00,SAT-64163,292.6210107357188,32.40020814066591,4036.3446725265385,-0.5886955292598665,20618.607614300283,10.5,10500020618.607615,47.655,-122.3035,60.0,6.25
2026-01-20T23:06:16+00:00,SAT-64163,292.48939789838147,32.41298752541247,4035.7575468520236,-0.5768153462378347,20202.513351744372,10.5,10500020202.513351,47.655,-122.3035,60.0,6.266666666666667
2026-01-20T23:06:17+00:00,SAT-64163,292.3576999580598,32.425527376733534,4035.1822696800423,-0.5649293174311313,19786.214345081615,10.5,10500019786.214346,47.655,-122.3035,60.0,6.283333333333333
2026-01-20T23:06:18+00:00,SAT-64163,292.2259185061158,32.43782732020122,4034.618846840791,-0.553037561445036,19369.714748370614,10.5,10500019369.714748,47.655,-122.3035,60.0,6.3
2026-01-20T23:06:19+00:00,SAT-64163,292.0940551394407,32.449886988313324,4034.067284046176,-0.5411401939635823,18953.018613355558,10.5,10500018953.018614,47.655,-122.3035,60.0,6.316666666666666
2026-01-20T23:06:20+00:00,SAT-64163,291.9621114611099,32.46170602045984,4033.52758689273,-0.5292373349515382,18536.130141710077,10.5,10500018536.130142,47.655,-122.3035,60.0,6.333333333333333
2026-01-20T23:06:21+00:00,SAT-64163,291.83008907931406,32.47328406304802,4032.9997608573385,-0.5173290997854638,18119.053374409337,10.5,10500018119.053375,47.655,-122.3035,60.0,6.35
2026-01-20T23:06:22+00:00,SAT-64163,291.6979896084317,32.48462076943099,4032.483811301819,-0.5054156088270465,17701.792527028778,10.5,10500017701.792526,47.655,-122.3035,60.0,6.366666666666666
2026-01-20T23:06:23+00:00,SAT-64163,291.5658146677454,32.4957158000481,4031.979743467949,-0.4934969784591219,17284.351675787584,10.5,10500017284.351675,47.655,-122.3035,60.0,6.383333333333334
2026-01-20T23:06:24+00:00,SAT-64163,291.43356588241494,32.5065688223652,4031.487562481432,-0.48157332945249426,16866.735050590196,10.5,10500016866.73505,47.655,-122.3035,60.0,6.4
2026-01-20T23:06:25+00:00,SAT-64163,291.30124488228864,32.51717951100016,4031.007273347525,-0.4696447808942363,16448.94682236963,10.5,10500016448.946823,47.655,-122.3035,60.0,6.416666666666667
2026-01-20T23:06:26+00:00,SAT-64163,291.1688533022451,32.527547547715706,4030.538880952713,-0.4577114494009645,16030.991075533084,10.5,10500016030.991076,47.655,-122.3035,60.0,6.433333333333334
2026-01-20T23:06:27+00:00,SAT-64163,291.0363927829026,32.537672621386974,4030.0823900671776,-0.4457734557429749,15612.872039967184,10.5,10500015612.87204,47.655,-122.3035,60.0,6.45
2026-01-20T23:06:28+00:00,SAT-64163,290.90386496937475,32.54755442812567,4029.6378053406497,-0.43383091989367567,15194.593917648172,10.5,10500015194.593918,47.655,-122.3035,60.0,6.466666666666667
2026-01-20T23:06:29+00:00,SAT-64163,290.7712715114547,32.557192671285186,4029.205131303209,-0.4218839617654881,14776.160908416265,10.5,10500014776.160908,47.655,-122.3035,60.0,6.483333333333333
2026-01-20T23:06:30+00:00,SAT-64163,290.63861406351964,32.56658706148805,4028.7843723653414,-0.4099326997166977,14357.577157679283,10.5,10500014357.577158,47.655,-122.3035,60.0,6.5
2026-01-20T23:06:31+00:00,SAT-64163,290.5058942850431,32.5757373166118,4028.3755328194907,-0.3979772548692889,13938.846907641464,10.5,10500013938.846909,47.655,-122.3035,60.0,6.516666666666667
2026-01-20T23:06:32+00:00,SAT-64163,290.3731138396471,32.58464316187873,4027.978616837301,-0.38601774786142096,13519.974383561443,10.5,10500013519.974384,47.655,-122.3035,60.0,6.533333333333333
2026-01-20T23:06:33+00:00,SAT-64163,290.2402743951839,32.59330432986754,4027.5936284701006,-0.3740542993851246,13100.963812584665,10.5,10500013100.963812,47.655,-122.3035,60.0,6.55
2026-01-20T23:06:34+00:00,SAT-64163,290.1073776236432,32.601720560539086,4027.2205716488475,-0.3620870289721645,12681.819381219148,10.5,10500012681.819382,47.655,-122.3035,60.0,6.566666666666666
2026-01-20T23:06:35+00:00,SAT-64163,289.97442520154334,32.60989160122962,4026.8594501852854,-0.35011605799304485,12262.545340373343,10.5,10500012262.54534,47.655,-122.3035,60.0,6.583333333333333
2026-01-20T23:06:36+00:00,SAT-64163,289.84141880920436,32.61781720671822,4026.510267770114,-0.33814150725973596,11843.145921393487,10.5,10500011843.145922,47.655,-122.3035,60.0,6.6
2026-01-20T23:06:37+00:00,SAT-64163,289.7083601309292,32.62549713923194,4026.1730279735402,-0.32616349842785314,11423.625385173826,10.5,10500011423.625385,47.655,-122.3035,60.0,6.616666666666666
2026-01-20T23:06:38+00:00,SAT-64163,289.5752508545794,32.63293116848844,4025.8477342444417,-0.3141821527926839,11003.987979988411,10.5,10500011003.98798,47.655,-122.3035,60.0,6.633333333333334
2026-01-20T23:06:39+00:00,SAT-64163,289.4420926716643,32.640119071706586,4025.534389910723,-0.3021975910599806,10584.237933463277,10.5,10500010584.237934,47.655,-122.3035,60.0,6.65
2026-01-20T23:06:40+00:00,SAT-64163,289.3088872775499,32.647060633612135,4025.2329981799057,-0.29020993603546,10164.379546774091,10.5,10500010164.379547,47.655,-122.3035,60.0,6.666666666666667
2026-01-20T23:06:41+00:00,SAT-64163,289.17563637047425,32.6537556465059,4024.943562137033,-0.2782193080874167,9744.41703572768,10.5,10500009744.417036,47.655,-122.3035,60.0,6.683333333333334
2026-01-20T23:06:42+00:00,SAT-64163,289.04234165261505,32.660203910223494,4024.6660847471007,-0.2662258297694901,9324.35469267091,10.5,10500009324.354692,47.655,-122.3035,60.0,6.7
2026-01-20T23:06:43+00:00,SAT-64163,288.9090048289965,32.66640523220612,4024.4005688528773,-0.25422962348691985,8904.196804753035,10.5,10500008904.196804,47.655,-122.3035,60.0,6.716666666666667
2026-01-20T23:06:44+00:00,SAT-64163,288.77562760749163,32.67235942751281,4024.147017175053,-0.2422308109578322,8483.947635057712,10.5,10500008483.947636,47.655,-122.3035,60.0,6.733333333333333
2026-01-20T23:06:45+00:00,SAT-64163,288.6422116991042,32.6780663188193,4023.905432312924,-0.23022951400250558,8063.611450246385,10.5,10500008063.61145,47.655,-122.3035,60.0,6.75
2026-01-20T23:06:46+00:00,SAT-64163,288.5087588178726,32.68352573643822,4023.675816744292,-0.21822585544088677,7643.192551993123,10.5,10500007643.192553,47.655,-122.3035,60.0,6.766666666666667
2026-01-20T23:06:47+00:00,SAT-64163,288.3752706803,32.68873751835514,4023.458172824466,-0.20621995799941004,7222.695238696783,10.5,10500007222.695238,47.655,-122.3035,60.0,6.783333333333333
2026-01-20T23:06:48+00:00,SAT-64163,288.24174900524383,32.693701510243145,4023.252502786355,-0.19421194417835203,6802.12380083523,10.5,10500006802.1238,47.655,-122.3035,60.0,6.8
2026-01-20T23:06:49+00:00,SAT-64163,288.1081955139996,32.69841756546934,4023.058808740694,-0.18220193557996478,6381.482497433708,10.5,10500006381.482498,47.655,-122.3035,60.0,6.816666666666666
2026-01-20T23:06:50+00:00,SAT-64163,287.9746119309302,32.702885545085344,4022.877092676942,-0.170190055918662,5960.7756614942955,10.5,10500005960.775661,47.655,-122.3035,60.0,6.833333333333333
2026-01-20T23:06:51+00:00,SAT-64163,287.84099998194165,32.70710531789168,4022.707356461173,-0.15817642783803806,5540.007588514451,10.5,10500005540.00759,47.655,-122.3035,60.0,6.85
2026-01-20T23:06:52+00:00,SAT-64163,287.7073613951258,32.71107676042366,4022.5496018371423,-0.14616117480297067,5119.182602756444,10.5,10500005119.182602,47.655,-122.3035,60.0,6.866666666666666
2026-01-20T23:06:53+00:00,SAT-64163,287.5736978999722,32.714799756982316,4022.403830425472,-0.13414441849855183,4698.304966146928,10.5,10500004698.304966,47.655,-122.3035,60.0,6.883333333333334
2026-01-20T23:06:54+00:00,SAT-64163,287.44001122897004,32.718274199598056,4022.270043725423,-0.12212628282266243,4277.3790181137765,10.5,10500004277.379019,47.655,-122.3035,60.0,6.9
2026-01-20T23:06:55+00:00,SAT-64163,287.30630311554864,32.721499988097975,4022.148243112688,-0.11010689108364843,3856.40907743686,10.5,10500003856.409077,47.655,-122.3035,60.0,6.916666666666667
2026-01-20T23:06:56+00:00,SAT-64163,287.17257529438416,32.72447703009981,4022.0384298399804,-0.09808636557748202,3435.3994274384354,10.5,10500003435.399427,47.655,-122.3035,60.0,6.933333333333334
2026-01-20T23:06:57+00:00,SAT-64163,287.0388295026565,32.72720524099145,4021.9406050380444,-0.08606483042464431,3014.354415342781,10.5,10500003014.354416,47.655,-122.3035,60.0,6.95
2026-01-20T23:06:58+00:00,SAT-64163,286.9050674776912,32.72968454398887,4021.8547697138342,-0.07404240827177913,2593.2783367541583,10.5,10500002593.278337,47.655,-122.3035,60.0,6.966666666666667
2026-01-20T23:06:59+00:00,SAT-64163,286.77129095884254,32.73191487010146,4021.7809247519845,-0.062019222743345155,2172.175521524041,10.5,10500002172.175522,47.655,-122.3035,60.0,6.983333333333333
2026-01-20T23:07:00+00:00,SAT-64163,286.63750168600126,32.733896158166054,4021.719070913835,-0.04999539698658265,1751.0502827896953,10.5,10500001751.050283,47.655,-122.3035,60.0,7.0
2026-01-20T23:07:01+00:00,SAT-64163,286.5037014003008,32.73562835483784,4021.6692088379073,-0.03797105442825279,1329.9069434783923,10.5,10500001329.906944,47.655,-122.3035,60.0,7.016666666666667
2026-01-20T23:07:02+00:00,SAT-64163,286.3698918435812,32.73711141460354,4021.631339039624,-0.025946318452934485,908.7498250400017,10.5,10500000908.749825,47.655,-122.3035,60.0,7.033333333333333
2026-01-20T23:07:03+00:00,SAT-64163,286.23607475834865,32.73834529978359,4021.605461911354,-0.013921312454862837,487.58324926259417,10.5,10500000487.58325,47.655,-122.3035,60.0,7.05
2026-01-20T23:07:04+00:00,SAT-64163,286.1022518876676,32.739329980536354,4021.5915777223986,-0.0018961598475852922,66.41153861063967,10.5,10500000066.41154,47.655,-122.3035,60.0,7.066666666666666
2026-01-20T23:07:05+00:00,SAT-64163,285.9684249750203,32.74006543486094,4021.5896866189773,0.010129015935530129,-354.76098375719096,10.5,10499999645.239016,47.655,-122.3035,60.0,7.083333333333333
2026-01-20T23:07:06+00:00,SAT-64163,285.83459576428527,32.74055164859875,4021.599788624204,0.02215409153531549,-775.9299972810278,10.5,10499999224.070004,47.655,-122.3035,60.0,7.1
2026-01-20T23:07:07+00:00,SAT-64163,285.7007659990889,32.74078861543679,4021.6218836381618,0.034178943453350645,-1197.0911765237997,10.5,10499998802.908823,47.655,-122.3035,60.0,7.116666666666666
2026-01-20T23:07:08+00:00,SAT-64163,285.56693742372556,32.74077633690495,4021.655971437766,0.046203448419914354,-1618.240204058438,10.5,10499998381.759796,47.655,-122.3035,60.0,7.133333333333334
2026-01-20T23:07:09+00:00,SAT-64163,285.43311178176793,32.740514822377804,4021.70205167699,0.0582274828044493,-2039.3727498198691,10.5,10499997960.62725,47.655,-122.3035,60.0,7.15
2026-01-20T23:07:10+00:00,SAT-64163,285.2992908173123,32.74000408907449,4021.760123886507,0.0702509235110454,-2460.484502468627,10.5,10499997539.515497,47.655,-122.3035,60.0,7.166666666666667
2026-01-20T23:07:11+00:00,SAT-64163,285.1654762733637,32.73924416205357,4021.830187474222,0.08227364696200026,-2881.5711337908397,10.5,10499997118.428865,47.655,-122.3035,60.0,7.183333333333334
2026-01-20T23:07:12+00:00,SAT-64163,285.0316698929853,32.73823507421404,4021.912241724792,0.09429553009647089,-3302.62833367524,10.5,10499996697.371666,47.655,-122.3035,60.0,7.2
2026-01-20T23:07:13+00:00,SAT-64163,284.8978734182168,32.73697686628703,4022.006285800141,0.10631644935047682,-3723.6517743885556,10.5,10499996276.348227,47.655,-122.3035,60.0,7.216666666666667
2026-01-20T23:07:14+00:00,SAT-64163,284.764088590789,32.73546958683756,4022.1123187389603,0.11833628192999052,-4144.637155164525,10.5,10499995855.362844,47.655,-122.3035,60.0,7.233333333333333
2026-01-20T23:07:15+00:00,SAT-64163,284.63031715104955,32.73371329224986,4022.230339457472,0.13035490421970125,-4565.5801464720735,10.5,10499995434.419853,47.655,-122.3035,60.0,7.25
2026-01-20T23:07:16+00:00,SAT-64163,284.49656083888726,32.73170804673329,4022.3603467486137,0.14237219313284688,-4986.476437292136,10.5,10499995013.523563,47.655,-122.3035,60.0,7.266666666666667
2026-01-20T23:07:17+00:00,SAT-64163,284.3628213929844,32.729453922309204,4022.5023392825647,0.15438802570362162,-5407.321720842047,10.5,10499994592.67828,47.655,-122.3035,60.0,7.283333333333333
2026-01-20T23:07:18+00:00,SAT-64163,284.2291005506664,32.72695099880204,4022.6563156068664,0.16640227934179402,-5828.111703493345,10.5,10499994171.888296,47.655,-122.3035,60.0,7.3
2026-01-20T23:07:19+00:00,SAT-64163,284.09540004758526,32.72419936382507,4022.8222741467966,0.17841483064398106,-6248.842063137562,10.5,10499993751.157936,47.655,-122.3035,60.0,7.316666666666666
2026-01-20T23:07:20+00:00,SAT-64163,283.96172161832135,32.7211991127859,4023.000213204559,0.1904255562433914,-6669.508478947825,10.5,10499993330.491522,47.655,-122.3035,60.0,7.333333333333333
2026-01-20T23:07:21+00:00,SAT-64163,283.8280669961622,32.717950348877864,4023.190130959319,0.2024343347319129,-7090.10669869849,10.5,10499992909.893301,47.655,-122.3035,60.0,7.35
2026-01-20T23:07:22+00:00,SAT-64163,283.6944379116871,32.71445318303616,4023.3920254691584,0.21444104236057304,-7510.63238817708,10.5,10499992489.36761,47.655,-122.3035,60.0,7.366666666666666
2026-01-20T23:07:23+00:00,SAT-64163,283.5608360943624,32.71070773396816,4023.6058946687394,0.22644555686694218,-7931.081265236142,10.5,10499992068.918736,47.655,-122.3035,60.0,7.383333333333334
2026-01-20T23:07:24+00:00,SAT-64163,283.42726327143464,32.70671412811701,4023.831736370788,0.2384477557182177,-8351.449038258614,10.5,10499991648.550962,47.655,-122.3035,60.0,7.4
2026-01-20T23:07:25+00:00,SAT-64163,283.2937211680459,32.70247249965396,4024.069548265824,0.250447516566589,-8771.731422106637,10.5,10499991228.268578,47.655,-122.3035,60.0,7.416666666666667
2026-01-20T23:07:26+00:00,SAT-64163,283.1602115070807,32.697982990463714,4024.3193279223465,0.26244471709473854,-9191.924132710354,10.5,10499990808.075867,47.655,-122.3035,60.0,7.433333333333334
2026-01-20T23:07:27+00:00,SAT-64163,283.0267360090695,32.693245750130046,4024.5810727868625,0.274439235178981,-9612.022892781713,10.5,10499990387.977108,47.655,-122.3035,60.0,7.45
2026-01-20T23:07:28+00:00,SAT-64163,282.89329639204254,32.688260935919466,4024.854780184081,0.28643094896142934,-10032.023434342062,10.5,10499989967.976566,47.655,-122.3035,60.0,7.466666666666667
2026-01-20T23:07:29+00:00,SAT-64163,282.7598943713158,32.68302871276094,4025.1404473171783,0.29841973611663475,-10451.921473036738,10.5,10499989548.078527,47.655,-122.3035,60.0,7.483333333333333
2026-01-20T23:07:30+00:00,SAT-64163,282.62653165967527,32.67754925324063,4025.4380712673324,0.31040547478721864,-10871.712740904894,10.5,10499989128.287258,47.655,-122.3035,60.0,7.5
2026-01-20T23:07:31+00:00,SAT-64163,282.49320996705677,32.67182273757685,4025.747648994187,0.32238804383594993,-11291.392995208285,10.5,10499988708.607004,47.655,-122.3035,60.0,7.516666666666667
2026-01-20T23:07:32+00:00,SAT-64163,282.35993100019107,32.66584935359085,4026.069177336572,0.33436732174189165,-11710.957979769666,10.5,10499988289.04202,47.655,-122.3035,60.0,7.533333333333333
2026-01-20T23:07:33+00:00,SAT-64163,282.22669646272124,32.659629296696046,4026.4026530121228,0.3463431869449738,-12130.403437041185,10.5,10499987869.596563,47.655,-122.3035,60.0,7.55
2026-01-20T23:07:34+00:00,SAT-64163,282.09350805516044,32.6531627698823,4026.748072617236,0.35831551733015043,-12549.725090037387,10.5,10499987450.27491,47.655,-122.3035,60.0,7.566666666666666
2026-01-20T23:07:35+00:00,SAT-64163,281.9603674750108,32.64644998370739,4027.10543262652,0.3702841935399761,-12968.918758355652,10.5,10499987031.081242,47.655,-122.3035,60.0,7.583333333333333
2026-01-20T23:07:36+00:00,SAT-64163,281.82727641566413,32.63949115622612,4027.474729395544,0.38224909356511455,-13387.980168712926,10.5,10499986612.01983,47.655,-122.3035,60.0,7.6
2026-01-20T23:07:37+00:00,SAT-64163,281.6942365673656,32.63228651302099,4027.855959158193,0.39421009759885406,-13806.905124971381,10.5,10499986193.094875,47.655,-122.3035,60.0,7.616666666666666
2026-01-20T23:07:38+00:00,SAT-64163,281.56124961633776,32.62483628713995,4028.249118028865,0.4061670828293793,-14225.689325741754,10.5,10499985774.310675,47.655,-122.3035,60.0,7.633333333333334
2026-01-20T23:07:39+00:00,SAT-64163,281.4283172457341,32.617140719133126,4028.6542019994736,0.41811993178372386,-14644.328656623846,10.5,10499985355.671343,47.655,-122.3035,60.0,7.65
2026-01-20T23:07:40+00:00,SAT-64163,281.2954411338154,32.6092000569291,4029.0712069447723,0.43006852299075615,-15062.818863184808,10.5,10499984937.181137,47.655,-122.3035,60.0,7.666666666666667
2026-01-20T23:07:41+00:00,SAT-64163,281.1626229552264,32.60101455588909,4029.5001286183683,0.44201273614825,-15481.155731931805,10.5,10499984518.844269,47.655,-122.3035,60.0,7.683333333333334
2026-01-20T23:07:42+00:00,SAT-64163,281.02986438054097,32.59258447876255,4029.940962653887,0.45395245170207915,-15899.33507557362,10.5,10499984100.664925,47.655,-122.3035,60.0,7.7
2026-01-20T23:07:43+00:00,SAT-64163,280.89716707596244,32.58391009564844,4030.393704565718,0.46588754975252755,-16317.352694715019,10.5,10499983682.647305,47.655,-122.3035,60.0,7.716666666666667
2026-01-20T23:07:44+00:00,SAT-64163,280.7645327033933,32.57499168397924,4030.858349748671,0.47781791193673556,-16735.20444378799,10.5,10499983264.795557,47.655,-122.3035,60.0,7.733333333333333
2026-01-20T23:07:45+00:00,SAT-64163,280.63196291992455,32.56582952846481,4031.3348934795094,0.4897434179961844,-17152.886110830503,10.5,10499982847.11389,47.655,-122.3035,60.0,7.75
2026-01-20T23:07:46+00:00,SAT-64163,280.4994593783406,32.55642392110577,4031.8233309150573,0.5016639492854444,-17570.393540377743,10.5,10499982429.60646,47.655,-122.3035,60.0,7.766666666666667
2026-01-20T23:07:47+00:00,SAT-64163,280.3670237265928,32.546775161135244,4032.323657093811,0.5135793871092803,-17987.722575220498,10.5,10499982012.277424,47.655,-122.3035,60.0,7.783333333333333
2026-01-20T23:07:48+00:00,SAT-64163,280.2346576077877,32.53688355499459,4032.835866935888,0.525489613257807,-18404.869075148556,10.5,10499981595.130924,47.655,-122.3035,60.0,7.8
2026-01-20T23:07:49+00:00,SAT-64163,280.102362659987,32.526749416295324,4033.3599552435107,0.5373945082668528,-18821.8288560213,10.5,10499981178.171144,47.655,-122.3035,60.0,7.816666666666666
2026-01-20T23:07:50+00:00,SAT-64163,279.9701405164961,32.51637306581834,4033.8959166997556,0.5492939552331655,-19238.597823392334,10.5,10499980761.402176,47.655,-122.3035,60.0,7.833333333333333
2026-01-20T23:07:51+00:00,SAT-64163,279.8379928051512,32.50575483143382,4034.443745871108,0.5611878363956179,-19655.17185276885,10.5,10499980344.828148,47.655,-122.3035,60.0,7.85
2026-01-20T23:07:52+00:00,SAT-64163,279.7059211485031,32.49489504809006,4035.003437206607,0.5730760337343991,-20071.54681059785,10.5,10499979928.45319,47.655,-122.3035,60.0,7.866666666666666
2026-01-20T23:07:53+00:00,SAT-64163,279.5739271638387,32.48379405778992,4035.574985037584,0.5849584280607922,-20487.718522386305,10.5,10499979512.281477,47.655,-122.3035,60.0,7.883333333333334
2026-01-20T23:07:54+00:00,SAT-64163,279.4420124633697,32.47245220958409,4036.158383576504,0.5968349064061829,-20903.683031495475,10.5,10499979096.316969,47.655,-122.3035,60.0,7.9
2026-01-20T23:07:55+00:00,SAT-64163,279.31017865278113,32.46086985941693,4036.7536269231596,0.6087053492469376,-21319.436151702143,10.5,10499978680.563848,47.655,-122.3035,60.0,7.916666666666667
2026-01-20T23:07:56+00:00,SAT-64163,279.1784273326906,32.449047370226765,4037.3607090581418,0.6205696399557675,-21734.973798225303,10.5,10499978265.026201,47.655,-122.3035,60.0,7.933333333333334
2026-01-20T23:07:57+00:00,SAT-64163,279.04676009792263,32.43698511185631,4037.9796238457243,0.6324276611923514,-22150.291861310565,10.5,10499977849.70814,47.655,-122.3035,60.0,7.95
2026-01-20T23:07:58+00:00,SAT-64163,278.91517853761343,32.42468346103536,4038.6103650331534,0.6442793009714797,-22565.386418762195,10.5,10499977434.61358,47.655,-122.3035,60.0,7.966666666666667
2026-01-20T23:07:59+00:00,SAT-64163,278.78368423406744,32.412142801242204,4039.252926255989,0.6561244405791132,-22980.253312712386,10.5,10499977019.746687,47.655,-122.3035,60.0,7.983333333333333
2026-01-20T23:08:00+00:00,SAT-64163,278.6522787641143,32.39936352280408,4039.9073010313937,0.6679629645085876,-23394.888497629145,10.5,10499976605.111502,47.655,-122.3035,60.0,8.0
2026-01-20T23:08:01+00:00,SAT-64163,278.5209636984001,32.38634602280043,4040.57348276133,0.679794758130934,-23809.28795872112,10.5,10499976190.712042,47.655,-122.3035,60.0,8.016666666666667
2026-01-20T23:08:02+00:00,SAT-64163,278.3897406011632,32.37309070501194,4041.251464733439,0.6916197054485481,-24223.447633261523,10.5,10499975776.552366,47.655,-122.3035,60.0,8.033333333333333
2026-01-20T23:08:03+00:00,SAT-64163,278.2586110304726,32.359597979912806,4041.9412401196732,0.7034376956974724,-24637.36364182804,10.5,10499975362.636358,47.655,-122.3035,60.0,8.05
2026-01-20T23:08:04+00:00,SAT-64163,278.1275765371796,32.34586826453119,4042.6428019815153,0.7152486091121607,-25051.031789724635,10.5,10499974948.96821,47.655,-122.3035,60.0,8.066666666666666
2026-01-20T23:08:05+00:00,SAT-64163,277.99663866660427,32.33190198259497,4043.356143261003,0.7270523368177088,-25464.44826369162,10.5,10499974535.551737,47.655,-122.3035,60.0,8.083333333333334
2026-01-20T23:08:06+00:00,SAT-64163,277.86579895645383,32.31769956427828,4044.081256791589,0.7388487604568476,-25877.60891835678,10.5,10499974122.39108,47.655,-122.3035,60.0,8.1
2026-01-20T23:08:07+00:00,SAT-64163,277.7350589385186,32.30326144635307,4044.818135288685,0.750637770850757,-26290.509929816006,10.5,10499973709.49007,47.655,-122.3035,60.0,8.116666666666667
2026-01-20T23:08:08+00:00,SAT-64163,277.6044201369948,32.288588071971596,4045.5667713588136,0.7624192531956409,-26703.14727715475,10.5,10499973296.852722,47.655,-122.3035,60.0,8.133333333333333
2026-01-20T23:08:09+00:00,SAT-64163,277.4738840694623,32.27367989073971,4046.3271574940004,0.7741930936121545,-27115.516971836638,10.5,10499972884.483028,47.655,-122.3035,60.0,8.15
2026-01-20T23:08:10+00:00,SAT-64163,277.34345224666845,32.25853735866266,4047.0992860726965,0.7859591820366674,-27527.615158967765,10.5,10499972472.384842,47.655,-122.3035,60.0,8.166666666666666
2026-01-20T23:08:11+00:00,SAT-64163,277.2131261718413,32.24316093802799,4047.883149363581,0.7977174041309123,-27939.43783393837,10.5,10499972060.562166,47.655,-122.3035,60.0,8.183333333333334
2026-01-20T23:08:12+00:00,SAT-64163,277.08290734140763,32.22755109745701,4048.678739521301,0.8094676498998686,-28350.98114425754,10.5,10499971649.018856,47.655,-122.3035,60.0,8.2
2026-01-20T23:08:13+00:00,SAT-64163,276.95279724420874,32.21170831177483,4049.486048590801,0.8212098075082517,-28762.241172980546,10.5,10499971237.758827,47.655,-122.3035,60.0,8.216666666666667
2026-01-20T23:08:14+00:00,SAT-64163,276.82279736181,32.195633062011524,4050.305068505489,0.832943767798078,-29173.21409693308,10.5,10499970826.785904,47.655,-122.3035,60.0,8.233333333333333
2026-01-20T23:08:15+00:00,SAT-64163,276.69290916801816,32.17932583530569,4051.135791089907,0.84466941498113,-29583.895860721972,10.5,10499970416.10414,47.655,-122.3035,60.0,8.25
2026-01-20T23:08:16+00:00,SAT-64163,276.5631341299302,32.16278712500141,4051.9782080531145,0.8563866418138888,-29994.282708225543,10.5,10499970005.71729,47.655,-122.3035,60.0,8.266666666666667
2026-01-20T23:08:17+00:00,SAT-64163,276.4334737065187,32.14601743043214,4052.832310997217,0.8680953412469747,-30404.370890121707,10.5,10499969595.62911,47.655,-122.3035,60.0,8.283333333333333
2026-01-20T23:08:18+00:00,SAT-64163,276.30392934863914,32.129017256879955,4053.6980914175538,0.8797954002584102,-30814.156447902726,10.5,10499969185.843552,47.655,-122.3035,60.0,8.3
2026-01-20T23:08:19+00:00,SAT-64163,276.1745024999061,32.11178711565189,4054.5755406967446,0.8914867089207674,-31223.635531445085,10.5,10499968776.364468,47.655,-122.3035,60.0,8.316666666666666
2026-01-20T23:08:20+00:00,SAT-64163,276.0451945961794,32.09432752397819,4055.4646501077755,0.9031691604779104,-31632.804401697318,10.5,10499968367.195599,47.655,-122.3035,60.0,8.333333333333334
2026-01-20T23:08:21+00:00,SAT-64163,275.91600706509706,32.07663900490589,4056.3654108171586,0.9148426457804957,-32041.65923578773,10.5,10499967958.340765,47.655,-122.3035,60.0,8.35
2026-01-20T23:08:22+00:00,SAT-64163,275.7869413263998,32.058722087305384,4057.27781388255,0.9265070573669778,-32450.196269958426,10.5,10499967549.80373,47.655,-122.3035,60.0,8.366666666666667
2026-01-20T23:08:23+00:00,SAT-64163,275.65799879166246,32.04057730579298,4058.201850254431,0.938162286189658,-32858.41168489772,10.5,10499967141.588316,47.655,-122.3035,60.0,8.383333333333333
2026-01-20T23:08:24+00:00,SAT-64163,275.5291808645229,32.022205200722,4059.1375107745243,0.9498082255828624,-33266.30174472253,10.5,10499966733.698256,47.655,-122.3035,60.0,8.4
2026-01-20T23:08:25+00:00,SAT-64163,275.4004889403144,32.0036063180907,4060.084786178172,0.9614447686573013,-33673.86270571778,10.5,10499966326.137295,47.655,-122.3035,60.0,8.416666666666666
2026-01-20T23:08:26+00:00,SAT-64163,275.2719244060839,31.984781209503964,4061.043667094113,0.9730718080332532,-34081.09080699141,10.5,10499965918.909193,47.655,-122.3035,60.0,8.433333333333334
2026-01-20T23:08:27+00:00,SAT-64163,275.1434886406481,31.965730432138823,4062.0141440439916,0.9846892400008505,-34487.982416185165,10.5,10499965512.017584,47.655,-122.3035,60.0,8.45
2026-01-20T23:08:28+00:00,SAT-64163,275.0151830140941,31.946454548628612,4062.996207446019,0.9962969571849455,-34894.53377256718,10.5,10499965105.466227,47.655,-122.3035,60.0,8.466666666666667
2026-01-20T23:08:29+00:00,SAT-64163,274.8870088882521,31.926954127090095,4063.9898476113185,1.0078948535083831,-35300.741160866775,10.5,10499964699.258839,47.655,-122.3035,60.0,8.483333333333333
2026-01-20T23:08:30+00:00,SAT-64163,274.7589676165055,31.907229741054785,4064.995054745217,1.0194828231999573,-35706.6008765289,10.5,10499964293.399124,47.655,-122.3035,60.0,8.5
2026-01-20T23:08:31+00:00,SAT-64163,274.6310605437475,31.88728196941761,4066.0118189475556,1.0310607650243235,-36112.10937386355,10.5,10499963887.890627,47.655,-122.3035,60.0,8.516666666666667
2026-01-20T23:08:32+00:00,SAT-64163,274.50328900579643,31.867111396301627,4067.0401302172063,1.0426285756497293,-36517.2630337557,10.5,10499963482.736967,47.655,-122.3035,60.0,8.533333333333333
2026-01-20T23:08:33+00:00,SAT-64163,274.37565432965323,31.846718611052857,4068.0799784499877,1.0541861458155317,-36922.05802943543,10.5,10499963077.94197,47.655,-122.3035,60.0,8.55
2026-01-20T23:08:34+00:00,SAT-64163,274.248157834249,31.826104208317133,4069.1313534327473,1.065733376226769,-37326.49088317317,10.5,10499962673.509117,47.655,-122.3035,60.0,8.566666666666666
2026-01-20T23:08:35+00:00,SAT-64163,274.120800829178,31.805268787791473,4070.194244853304,1.077270161605208,-37730.55790767987,10.5,10499962269.442093,47.655,-122.3035,60.0,8.583333333333334
2026-01-20T23:08:36+00:00,SAT-64163,273.99358461543795,31.784212954300326,4071.2686422944785,1.08879640465319,-38134.25569517994,10.5,10499961865.744305,47.655,-122.3035,60.0,8.6
2026-01-20T23:08:37+00:00,SAT-64163,273.86651048448425,31.762937317588186,4072.354535242053,1.1003119992437553,-38537.58052865836,10.5,10499961462.419472,47.655,-122.3035,60.0,8.616666666666667
2026-01-20T23:08:38+00:00,SAT-64163,273.7395797192711,31.741442492452272,4073.4519130759654,1.111816842873042,-38940.52881799628,10.5,10499961059.471182,47.655,-122.3035,60.0,8.633333333333333
2026-01-20T23:08:39+00:00,SAT-64163,273.61279359381433,31.7197290986213,4074.560765073924,1.123310837138014,-39343.09711670314,10.5,10499960656.902884,47.655,-122.3035,60.0,8.65
2026-01-20T23:08:40+00:00,SAT-64163,273.48615337272065,31.697797760628447,4075.681080415496,1.1347938804562123,-39745.28186693152,10.5,10499960254.718134,47.655,-122.3035,60.0,8.666666666666666
2026-01-20T23:08:41+00:00,SAT-64163,273.3596603115524,31.675649107826846,4076.812848178938,1.146265873747652,-40147.07959848124,10.5,10499959852.9204,47.655,-122.3035,60.0,8.683333333333334
2026-01-20T23:08:42+00:00,SAT-64163,273.233315656571,31.653283774295314,4077.956057343689,1.1577267142934946,-40548.48671370409,10.5,10499959451.513287,47.655,-122.3035,60.0,8.7
2026-01-20T23:08:43+00:00,SAT-64163,273.1071206451081,31.63070239885958,4079.110696786744,1.1691763057383207,-40949.4998378257,10.5,10499959050.500162,47.655,-122.3035,60.0,8.716666666666667
2026-01-20T23:08:44+00:00,SAT-64163,272.9810765048935,31.60790562492244,4080.2767552890004,1.1806145501349685,-41350.115540322135,10.5,10499958649.88446,47.655,-122.3035,60.0,8.733333333333333
2026-01-20T23:08:45+00:00,SAT-64163,272.8551844542389,31.58489410044522,4081.4542215336687,1.1920413426321086,-41750.330148856316,10.5,10499958249.669851,47.655,-122.3035,60.0,8.75
2026-01-20T23:08:46+00:00,SAT-64163,272.72944570277457,31.561668478040417,4082.6430840993867,1.203456594653134,-42150.14056110079,10.5,10499957849.85944,47.655,-122.3035,60.0,8.766666666666667
2026-01-20T23:08:47+00:00,SAT-64163,272.60386144972523,31.53822941459656,4083.8433314764543,1.2148602032469495,-42549.543171272744,10.5,10499957450.45683,47.655,-122.3035,60.0,8.783333333333333
2026-01-20T23:08:48+00:00,SAT-64163,272.47843288545323,31.514577571520512,4085.054952052493,1.2262520703103694,-42948.534543383605,10.5,10499957051.465456,47.655,-122.3035,60.0,8.8
2026-01-20T23:08:49+00:00,SAT-64163,272.3531611909393,31.49071361458955,4086.2779341172823,1.237632100285371,-43347.11133058723,10.5,10499956652.88867,47.655,-122.3035,60.0,8.816666666666666
2026-01-20T23:08:50+00:00,SAT-64163,272.2280475375409,31.466638213856434,4087.5122658653004,1.2490002033110765,-43745.27038557556,10.5,10499956254.729614,47.655,-122.3035,60.0,8.833333333333334
2026-01-20T23:08:51+00:00,SAT-64163,272.1030930864223,31.442352043484153,4088.7579354014024,1.2603562747760366,-44143.00804441313,10.5,10499955856.991955,47.655,-122.3035,60.0,8.85
2026-01-20T23:08:52+00:00,SAT-64163,271.9782989900755,31.417855781994948,4090.014930726112,1.2717002255974577,-44540.321187043686,10.5,10499955459.678812,47.655,-122.3035,60.0,8.866666666666667
2026-01-20T23:08:53+00:00,SAT-64163,271.85366639075966,31.39315011191071,4091.2832397511083,1.2830319583348715,-44937.20640068987,10.5,10499955062.7936,47.655,-122.3035,60.0,8.883333333333333
2026-01-20T23:08:54+00:00,SAT-64163,271.7291964213591,31.368235719873574,4092.5628502908876,1.2943513776127071,-45333.660344895754,10.5,10499954666.339655,47.655,-122.3035,60.0,8.9
2026-01-20T23:08:55+00:00,SAT-64163,271.604890205176,31.343113296552346,4093.8537500648267,1.305658397234351,-45729.680000691296,10.5,10499954270.32,47.655,-122.3035,60.0,8.916666666666666
2026-01-20T23:08:56+00:00,SAT-64163,271.4807488550838,31.317783536416677,4095.155926706335,1.3169529136922071,-46125.26174280267,10.5,10499953874.738256,47.655,-122.3035,60.0,8.933333333333334
2026-01-20T23:08:57+00:00,SAT-64163,271.35677347520584,31.292247138029506,4096.469367745591,1.3282348427183563,-46520.40261981087,10.5,10499953479.59738,47.655,-122.3035,60.0,8.95
2026-01-20T23:08:58+00:00,SAT-64163,271.2329651590909,31.266504803618076,4097.794060628728,1.3395040869079053,-46915.09922018454,10.5,10499953084.90078,47.655,-122.3035,60.0,8.966666666666667
2026-01-20T23:08:59+00:00,SAT-64163,271.10932499098146,31.240557239285405,4099.129992704738,1.3507605600662735,-47309.34852502484,10.5,10499952690.651476,47.655,-122.3035,60.0,8.983333333333333
2026-01-20T23:09:00+00:00,SAT-64163,270.98585404479763,31.214405154740977,4100.477151236644,1.362004165544291,-47703.14714926903,10.5,10499952296.85285,47.655,-122.3035,60.0,9.0
2026-01-20T23:09:01+00:00,SAT-64163,270.86255338511126,31.188049263456485,4101.83552339108,1.3732348129017093,-48096.49192531704,10.5,10499951903.508074,47.655,-122.3035,60.0,9.016666666666667
2026-01-20T23:09:02+00:00,SAT-64163,270.7394240666108,31.161490282499184,4103.205096244481,1.384452417350191,-48489.37988352264,10.5,10499951510.620117,47.655,-122.3035,60.0,9.033333333333333
2026-01-20T23:09:03+00:00,SAT-64163,270.6164671336138,31.134728932367306,4104.585856788718,1.3956568849991835,-48881.80773544152,10.5,10499951118.192265,47.655,-122.3035,60.0,9.05
2026-01-20T23:09:04+00:00,SAT-64163,270.4936836209107,31.107765937124462,4105.977791922024,1.4068481289014325,-49273.77243581306,10.5,10499950726.227564,47.655,-122.3035,60.0,9.066666666666666
2026-01-20T23:09:05+00:00,SAT-64163,270.37107455317914,31.080602024211906,4107.380888455915,1.4180260584093356,-49665.27080977475,10.5,10499950334.72919,47.655,-122.3035,60.0,9.083333333333334
2026-01-20T23:09:06+00:00,SAT-64163,270.2486409453365,31.053237924476637,4108.795133111502,1.429190586299166,-50056.29980238277,10.5,10499949943.700197,47.655,-122.3035,60.0,9.1
2026-01-20T23:09:07+00:00,SAT-64163,270.12638380225445,31.025674372050204,4110.220512522904,1.4403416252948522,-50446.856356859884,10.5,10499949553.143642,47.655,-122.3035,60.0,9.116666666666667
2026-01-20T23:09:08+00:00,SAT-64163,270.00430411882184,30.997912104307577,4111.657013237198,1.4514790870759293,-50836.93737984982,10.5,10499949163.06262,47.655,-122.3035,60.0,9.133333333333333
2026-01-20T23:09:09+00:00,SAT-64163,269.8824028800465,30.969951861835543,4113.104621713375,1.4626028886760287,-51226.53996551941,10.5,10499948773.460035,47.655,-122.3035,60.0,9.15
2026-01-20T23:09:10+00:00,SAT-64163,269.76068106063684,30.941794388280766,4114.563324327682,1.4737129417558814,-51615.6610198538,10.5,10499948384.33898,47.655,-122.3035,60.0,9.166666666666666
2026-01-20T23:09:11+00:00,SAT-64163,269.6391396254989,30.91344043040636,4116.03310736826,1.4848091585962477,-52004.29747055412,10.5,10499947995.70253,47.655,-122.3035,60.0,9.183333333333334
2026-01-20T23:09:12+00:00,SAT-64163,269.5177795297028,30.884890738033903,4117.513957035766,1.4958914588846823,-52392.44650473884,10.5,10499947607.553495,47.655,-122.3035,60.0,9.2
2026-01-20T23:09:13+00:00,SAT-64163,269.39660171791706,30.856146063847273,4119.00585945076,1.5069597523024008,-52780.104959062075,10.5,10499947219.89504,47.655,-122.3035,60.0,9.216666666666667
2026-01-20T23:09:14+00:00,SAT-64163,269.27560712525064,30.827207163543203,4120.508800643724,1.5180139645471644,-53167.27023114513,10.5,10499946832.729769,47.655,-122.3035,60.0,9.233333333333333
2026-01-20T23:09:15+00:00,SAT-64163,269.15479667601085,30.79807479546804,4122.022766571032,1.529054000363343,-53553.9389847329,10.5,10499946446.061016,47.655,-122.3035,60.0,9.25
2026-01-20T23:09:16+00:00,SAT-64163,269.0341712854217,30.76874972098391,4123.547743094061,1.5400797852840336,-53940.108611679454,10.5,10499946059.891388,47.655,-122.3035,60.0,9.266666666666667
2026-01-20T23:09:17+00:00,SAT-64163,268.91373185798324,30.739232704010046,4125.083715999917,1.551091234602724,-54325.77614520443,10.5,10499945674.223854,47.655,-122.3035,60.0,9.283333333333333
2026-01-20T23:09:18+00:00,SAT-64163,268.79347928834903,30.709524511177353,4126.630670991228,1.562088269217039,-54710.93881480804,10.5,10499945289.061186,47.655,-122.3035,60.0,9.3
2026-01-20T23:09:19+00:00,SAT-64163,268.67341446092007,30.679625911673543,4128.188593691727,1.5730708015251378,-55095.59355230327,10.5,10499944904.406448,47.655,-122.3035,60.0,9.316666666666666
2026-01-20T23:09:20+00:00,SAT-64163,268.5535382505384,30.64953767735853,4129.7574696377815,1.5840387560274167,-55479.73771337461,10.5,10499944520.262287,47.655,-122.3035,60.0,9.333333333333334
2026-01-20T23:09:21+00:00,SAT-64163,268.43385152160255,30.61926058248485,4131.337284290459,1.5949920512567544,-55863.36844469891,10.5,10499944136.631556,47.655,-122.3035,60.0,9.35
2026-01-20T23:09:22+00:00,SAT-64163,268.3143551285699,30.588795403764394,4132.928023029579,1.6059306077275792,-56246.482962355185,10.5,10499943753.517038,47.655,-122.3035,60.0,9.366666666666667
2026-01-20T23:09:23+00:00,SAT-64163,268.1950499158493,30.558142920285047,4134.529671155687,1.6168543463365008,-56629.07849580811,10.5,10499943370.921505,47.655,-122.3035,60.0,9.383333333333333
2026-01-20T23:09:24+00:00,SAT-64163,268.07593671781245,30.527303913455228,4136.142213890433,1.6277631886570771,-57011.15229823196,10.5,10499942988.847702,47.655,-122.3035,60.0,9.4
2026-01-20T23:09:25+00:00,SAT-64163,267.95701635879584,30.496279166945413,4137.765636377254,1.6386570594148457,-57392.701733196634,10.5,10499942607.298267,47.655,-122.3035,60.0,9.416666666666666
2026-01-20T23:09:26+00:00,SAT-64163,267.8382896529251,30.46506946658051,4139.39992368451,1.6495358733777936,-57773.72381551651,10.5,10499942226.276184,47.655,-122.3035,60.0,9.433333333333334
2026-01-20T23:09:27+00:00,SAT-64163,267.71975740486505,30.4336756004878,4141.045060795559,1.6603995627082384,-58154.21616922899,10.5,10499941845.78383,47.655,-122.3035,60.0,9.45
2026-01-20T23:09:28+00:00,SAT-64163,267.60142040861905,30.402098358710195,4142.7010326261,1.671248044850452,-58534.175902883275,10.5,10499941465.824097,47.655,-122.3035,60.0,9.466666666666667
2026-01-20T23:09:29+00:00,SAT-64163,267.48327944864906,30.37033853345223,4144.367824009497,1.6820812503866969,-58913.60058517655,10.5,10499941086.399414,47.655,-122.3035,60.0,9.483333333333333
2026-01-20T23:09:30+00:00,SAT-64163,267.3653352989667,30.33839691877228,4146.0454197098825,1.6928990951451064,-59292.487268054014,10.5,10499940707.512732,47.655,-122.3035,60.0,9.5
2026-01-20T23:09:31+00:00,SAT-64163,267.2475887242557,30.306274310831935,4147.733804407441,1.7037015149354906,-59670.83370330368,10.5,10499940329.166296,47.655,-122.3035,60.0,9.516666666666667
2026-01-20T23:09:32+00:00,SAT-64163,267.1300404784847,30.273971507454938,4149.432962718336,1.7144884264265796,-60048.63697231198,10.5,10499939951.363028,47.655,-122.3035,60.0,9.533333333333333
2026-01-20T23:09:33+00:00,SAT-64163,267.01269130632477,30.241489308459975,4151.142879175626,1.7252597614371337,-60425.8946870835,10.5,10499939574.105312,47.655,-122.3035,60.0,9.55
2026-01-20T23:09:34+00:00,SAT-64163,266.89554194213844,30.208828515318693,4152.863538244365,1.7360154457264083,-60802.60424739334,10.5,10499939197.395752,47.655,-122.3035,60.0,9.566666666666666
2026-01-20T23:09:35+00:00,SAT-64163,266.77859311045023,30.1759899312308,4154.59492431557,1.746755406853267,-61178.76311604645,10.5,10499938821.236883,47.655,-122.3035,60.0,9.583333333333334
2026-01-20T23:09:36+00:00,SAT-64163,266.6618455258889,30.14297436104389,4156.3370217080055,1.7574795758665172,-61554.368878080415,10.5,10499938445.631123,47.655,-122.3035,60.0,9.6
2026-01-20T23:09:37+00:00,SAT-64163,266.54529989299806,30.10978261114303,4158.08981467167,1.7681878730523954,-61929.418741582056,10.5,10499938070.581259,47.655,-122.3035,60.0,9.616666666666667
2026-01-20T23:09:38+00:00,SAT-64163,266.42895690701886,30.076415489614373,4159.85328737706,1.7788802374047097,-62303.910569856474,10.5,10499937696.08943,47.655,-122.3035,60.0,9.633333333333333
2026-01-20T23:09:39+00:00,SAT-64163,266.31281725268076,30.04287380583881,4161.627423933832,1.7895565932541109,-62677.84171264296,10.5,10499937322.158287,47.655,-122.3035,60.0,9.65
2026-01-20T23:09:40+00:00,SAT-64163,266.19688160526243,30.009158370735015,4163.412208376171,1.8002168738759168,-63051.20983296092,10.5,10499936948.790167,47.655,-122.3035,60.0,9.666666666666666
