satellites_20260121_005943/SAT-63368.csv

timestamp,satellite,azimuth_deg,elevation_deg,distance_km,relative_velocity_kms,doppler_shift_hz,tx_freq_ghz,rx_freq_hz,ue_lat,ue_lon,ue_alt_m,time_minutes
2026-01-20T23:08:52+00:00,SAT-63368,193.7370849177404,30.17182094590078,1053.9472022974746,-5.207901625899472,182402.74434103497,10.5,10500182402.74434,47.655,-122.3035,60.0,8.866666666666667
2026-01-20T23:08:53+00:00,SAT-63368,193.76828050497116,30.452511944524947,1048.753188409244,-5.186573618476721,181655.74730370822,10.5,10500181655.747303,47.655,-122.3035,60.0,8.883333333333333
2026-01-20T23:08:54+00:00,SAT-63368,193.80030976597624,30.735710824973093,1043.5804456537503,-5.164921129677701,180897.38555602977,10.5,10500180897.385555,47.655,-122.3035,60.0,8.9
2026-01-20T23:08:55+00:00,SAT-63368,193.83319268378207,31.021443695978483,1038.429297647085,-5.142939113374993,180127.48236127218,10.5,10500180127.48236,47.655,-122.3035,60.0,8.916666666666666
2026-01-20T23:08:56+00:00,SAT-63368,193.86694988573336,31.309736734286247,1033.3000730380122,-5.120622405407517,179345.85684867005,10.5,10500179345.856848,47.655,-122.3035,60.0,8.933333333333334
2026-01-20T23:08:57+00:00,SAT-63368,193.9016026691423,31.60061616851179,1028.1931056256858,-5.097965846535665,178552.32831982878,10.5,10500178552.32832,47.655,-122.3035,60.0,8.95
2026-01-20T23:08:58+00:00,SAT-63368,193.93717302895664,31.894108268952643,1023.1087343547409,-5.07496418323261,177746.7127740165,10.5,10500177746.712774,47.655,-122.3035,60.0,8.966666666666667
2026-01-20T23:08:59+00:00,SAT-63368,193.97368368613897,32.19023933109804,1018.0473034093303,-5.0516121291259175,176928.82506010923,10.5,10500176928.82506,47.655,-122.3035,60.0,8.983333333333333
2026-01-20T23:09:00+00:00,SAT-63368,194.01115811786462,32.48903566170023,1013.0091622458821,-5.027904329289518,176098.4776259446,10.5,10500176098.477627,47.655,-122.3035,60.0,9.0
2026-01-20T23:09:01+00:00,SAT-63368,194.0496205889259,32.79052356186872,1007.9946656614707,-5.003835388912631,175255.48152242915,10.5,10500175255.481522,47.655,-122.3035,60.0,9.016666666666667
2026-01-20T23:09:02+00:00,SAT-63368,194.0890961849635,33.09472931092304,1003.0041738335951,-4.979399869426755,174399.6462678889,10.5,10500174399.646267,47.655,-122.3035,60.0,9.033333333333333
2026-01-20T23:09:03+00:00,SAT-63368,194.12961084729818,33.40167914899326,998.0380523638202,-4.954592254088395,173530.77864263067,10.5,10500173530.778643,47.655,-122.3035,60.0,9.05
2026-01-20T23:09:04+00:00,SAT-63368,194.17119140926653,33.711399256534925,993.0966723557426,-4.929407023782693,172648.6853439064,10.5,10500172648.685345,47.655,-122.3035,60.0,9.066666666666666
2026-01-20T23:09:05+00:00,SAT-63368,194.2138656350205,34.02391573731677,988.1804104173567,-4.903838576725355,171753.1701735346,10.5,10500171753.170174,47.655,-122.3035,60.0,9.083333333333334
2026-01-20T23:09:06+00:00,SAT-63368,194.25766225967246,34.339254595437836,983.2896487435027,-4.8778813179975,170844.03717378955,10.5,10500170844.037174,47.655,-122.3035,60.0,9.1
2026-01-20T23:09:07+00:00,SAT-63368,194.30261103223998,34.65744171666753,978.4247751090198,-4.8515295404888255,169921.08645752748,10.5,10500169921.086458,47.655,-122.3035,60.0,9.116666666666667
2026-01-20T23:09:08+00:00,SAT-63368,194.3487427598714,34.97850284112928,973.5861829806389,-4.824777561731084,168984.11900067338,10.5,10500168984.119001,47.655,-122.3035,60.0,9.133333333333333
2026-01-20T23:09:09+00:00,SAT-63368,194.39608935552178,35.30246354328058,968.7742714924058,-4.797619677165744,168032.93500545737,10.5,10500168032.935005,47.655,-122.3035,60.0,9.15
2026-01-20T23:09:10+00:00,SAT-63368,194.4446838878215,35.62934920782268,963.9894454677125,-4.770050078435728,167067.33103864518,10.5,10500167067.33104,47.655,-122.3035,60.0,9.166666666666666
2026-01-20T23:09:11+00:00,SAT-63368,194.4945606328025,35.959184998684826,959.2321155228192,-4.742063000209328,166087.10517393315,10.5,10500166087.105173,47.655,-122.3035,60.0,9.183333333333334
2026-01-20T23:09:12+00:00,SAT-63368,194.54575512982584,36.29199583633909,954.5026980239438,-4.713652625524797,165092.05367671512,10.5,10500165092.053677,47.655,-122.3035,60.0,9.2
2026-01-20T23:09:13+00:00,SAT-63368,194.5983042396467,36.62780636735618,949.8016151387537,-4.684813125850633,164081.97240716324,10.5,10500164081.972406,47.655,-122.3035,60.0,9.216666666666667
2026-01-20T23:09:14+00:00,SAT-63368,194.65224620604604,36.96664093511995,945.1292948479054,-4.655538652989137,163056.65653665626,10.5,10500163056.656536,47.655,-122.3035,60.0,9.233333333333333
2026-01-20T23:09:15+00:00,SAT-63368,194.70762072082243,37.30852354839878,940.4861709646576,-4.625823331514993,162015.90028294647,10.5,10500162015.900284,47.655,-122.3035,60.0,9.25
2026-01-20T23:09:16+00:00,SAT-63368,194.76446899228384,37.65347784766333,935.8726831620265,-4.595661315473271,160959.49889596406,10.5,10500160959.498896,47.655,-122.3035,60.0,9.266666666666667
2026-01-20T23:09:17+00:00,SAT-63368,194.82283381825724,38.00152707379988,931.2892769433946,-4.565046724924901,159887.2464353705,10.5,10500159887.246435,47.655,-122.3035,60.0,9.283333333333333
2026-01-20T23:09:18+00:00,SAT-63368,194.882759662526,38.35269403046623,926.7364036764029,-4.533973702022234,158798.93773456253,10.5,10500158798.937735,47.655,-122.3035,60.0,9.3
2026-01-20T23:09:19+00:00,SAT-63368,194.94429273630303,38.70700104871913,922.2145205709194,-4.502436382654445,157694.3674075739,10.5,10500157694.367407,47.655,-122.3035,60.0,9.316666666666666
2026-01-20T23:09:20+00:00,SAT-63368,195.00748108404738,39.064469947580484,917.7240906852853,-4.470428926696019,156573.33090850536,10.5,10500156573.330908,47.655,-122.3035,60.0,9.333333333333334
2026-01-20T23:09:21+00:00,SAT-63368,195.07237467472004,39.425121994995365,913.2655829023938,-4.4379455146913696,155435.62441540603,10.5,10500155435.624416,47.655,-122.3035,60.0,9.35
2026-01-20T23:09:22+00:00,SAT-63368,195.13902549833352,39.78897786646561,908.839471909075,-4.404980336893817,154281.0444463719,10.5,10500154281.044447,47.655,-122.3035,60.0,9.366666666666667
2026-01-20T23:09:23+00:00,SAT-63368,195.20748766809768,40.15605760071659,904.4462381864129,-4.371527646701335,153109.38973109194,10.5,10500153109.38973,47.655,-122.3035,60.0,9.383333333333333
2026-01-20T23:09:24+00:00,SAT-63368,195.27781752945754,40.52638055747311,900.0863679467693,-4.337581701777131,151920.45914864165,10.5,10500151920.459148,47.655,-122.3035,60.0,9.4
2026-01-20T23:09:25+00:00,SAT-63368,195.3500737748719,40.89996536822833,895.7603531295304,-4.303136824688398,150714.0538513086,10.5,10500150714.053852,47.655,-122.3035,60.0,9.416666666666666
2026-01-20T23:09:26+00:00,SAT-63368,195.42431756652397,41.276829889620124,891.4686913363744,-4.2681873806514945,149489.97648513454,10.5,10500149489.976484,47.655,-122.3035,60.0,9.433333333333334
2026-01-20T23:09:27+00:00,SAT-63368,195.50061266621455,41.656991152562725,887.2118857887381,-4.232727817941519,148248.03260522967,10.5,10500148248.032606,47.655,-122.3035,60.0,9.45
2026-01-20T23:09:28+00:00,SAT-63368,195.57902557409017,42.040465312410696,882.9904452449778,-4.196752627048845,146988.02924526166,10.5,10500146988.029245,47.655,-122.3035,60.0,9.466666666666667
2026-01-20T23:09:29+00:00,SAT-63368,195.6596256753772,42.427267593051184,878.8048839582676,-4.160256395740159,145709.7768459261,10.5,10500145709.776846,47.655,-122.3035,60.0,9.483333333333333
2026-01-20T23:09:30+00:00,SAT-63368,195.74248539736718,42.8174122331053,874.6557215795827,-4.123233778041043,144413.08816858547,10.5,10500144413.08817,47.655,-122.3035,60.0,9.5
2026-01-20T23:09:31+00:00,SAT-63368,195.82768037598743,43.21091242674129,870.5434830916165,-4.085679553114257,143097.7803574355,10.5,10500143097.780357,47.655,-122.3035,60.0,9.516666666666667
2026-01-20T23:09:32+00:00,SAT-63368,195.91528963421908,43.607780267006625,866.4686986839772,-4.047588567851358,141763.67292882083,10.5,10500141763.67293,47.655,-122.3035,60.0,9.533333333333333
2026-01-20T23:09:33+00:00,SAT-63368,196.00539577113588,44.00802668100813,862.4319036856401,-4.008955815450207,140410.5905233519,10.5,10500140410.590523,47.655,-122.3035,60.0,9.55
2026-01-20T23:09:34+00:00,SAT-63368,196.09808516502463,44.41166136946231,858.4336384190311,-3.9697763746448476,139038.36077747794,10.5,10500139038.360777,47.655,-122.3035,60.0,9.566666666666666
2026-01-20T23:09:35+00:00,SAT-63368,196.19344818878065,44.81869273734049,854.4744481147187,-3.9300455240580066,137646.8183285954,10.5,10500137646.818329,47.655,-122.3035,60.0,9.583333333333334
2026-01-20T23:09:36+00:00,SAT-63368,196.29157944247603,45.229127832665746,850.5548827120581,-3.889758604693334,136235.79999894463,10.5,10500136235.8,47.655,-122.3035,60.0,9.6
2026-01-20T23:09:37+00:00,SAT-63368,196.392577998582,45.642972268287494,846.6754967969773,-3.8489111754957634,134805.15024399152,10.5,10500134805.150244,47.655,-122.3035,60.0,9.616666666666667
2026-01-20T23:09:38+00:00,SAT-63368,196.49654766783834,46.06023015592837,842.8368493846162,-3.8074989417026837,133354.7186429826,10.5,10500133354.718643,47.655,-122.3035,60.0,9.633333333333333
2026-01-20T23:09:39+00:00,SAT-63368,196.6035972819612,46.48090402962424,839.0395037734248,-3.7655177838577023,131884.36091512974,10.5,10500131884.360914,47.655,-122.3035,60.0,9.65
2026-01-20T23:09:40+00:00,SAT-63368,196.71384099705276,46.904994768490404,835.284027370324,-3.7229637763995425,130393.93957067191,10.5,10500130393.939571,47.655,-122.3035,60.0,9.666666666666666
2026-01-20T23:09:41+00:00,SAT-63368,196.82739861912611,47.332501517781225,831.5709914973281,-3.6798331873743915,128883.32390080043,10.5,10500128883.3239,47.655,-122.3035,60.0,9.683333333333334
2026-01-20T23:09:42+00:00,SAT-63368,196.94439595310803,47.76342160603119,827.9009711984535,-3.636122527972336,127352.39171263449,10.5,10500127352.391712,47.655,-122.3035,60.0,9.7
2026-01-20T23:09:43+00:00,SAT-63368,197.06496517886487,48.19775046391736,824.2745449972224,-3.5918285087423216,125801.02779568383,10.5,10500125801.027796,47.655,-122.3035,60.0,9.716666666666667
2026-01-20T23:09:44+00:00,SAT-63368,197.1892452536066,48.63548153400031,820.6922946978367,-3.5469480959341637,124229.12589518419,10.5,10500124229.125895,47.655,-122.3035,60.0,9.733333333333333
2026-01-20T23:09:45+00:00,SAT-63368,197.3173823461564,49.076606182690526,817.1548051301584,-3.5014784797270546,122636.58759932537,10.5,10500122636.587599,47.655,-122.3035,60.0,9.75
2026-01-20T23:09:46+00:00,SAT-63368,197.44953030289255,49.52111360385985,813.6626639263771,-3.455417171231695,121023.32573667612,10.5,10500121023.325737,47.655,-122.3035,60.0,9.766666666666667
2026-01-20T23:09:47+00:00,SAT-63368,197.5858511528374,49.96899072979775,810.2164612009356,-3.408761925316618,119389.2616732356,10.5,10500119389.261673,47.655,-122.3035,60.0,9.783333333333333
2026-01-20T23:09:48+00:00,SAT-63368,197.72651564903347,50.42022212792205,806.8167893074196,-3.3615107760492693,117734.32655372981,10.5,10500117734.326553,47.655,-122.3035,60.0,9.8
2026-01-20T23:09:49+00:00,SAT-63368,197.87170385350882,50.87478989657308,803.4642425601065,-3.3136621128174206,116058.46396770568,10.5,10500116058.463968,47.655,-122.3035,60.0,9.816666666666666
2026-01-20T23:09:50+00:00,SAT-63368,198.0216057717222,51.33267356549385,800.15941687959,-3.265214595228406,114361.62696894216,10.5,10500114361.626968,47.655,-122.3035,60.0,9.833333333333334
2026-01-20T23:09:51+00:00,SAT-63368,198.17642203444012,51.79384997970595,796.9029095232822,-3.2161672680402265,112643.78210082382,10.5,10500112643.7821,47.655,-122.3035,60.0,9.85
2026-01-20T23:09:52+00:00,SAT-63368,198.33636463987543,52.25829319279302,793.69531870129,-3.166519469633202,110904.9061906308,10.5,10500110904.90619,47.655,-122.3035,60.0,9.866666666666667
2026-01-20T23:09:53+00:00,SAT-63368,198.50165775275346,52.72597434159339,790.5372432835759,-3.1162709547829093,109144.99064956648,10.5,10500109144.99065,47.655,-122.3035,60.0,9.883333333333333
2026-01-20T23:09:54+00:00,SAT-63368,198.6725385757021,53.19686153139195,787.4292823846724,-3.0654218149544223,107364.03868112464,10.5,10500107364.038681,47.655,-122.3035,60.0,9.9
2026-01-20T23:09:55+00:00,SAT-63368,198.8492582901612,53.67091970298163,784.3720350278911,-3.013972545755781,105562.0676435953,10.5,10500105562.067644,47.655,-122.3035,60.0,9.916666666666666
2026-01-20T23:09:56+00:00,SAT-63368,199.0320830810062,54.14811050185097,781.3660997422575,-2.961924047856855,103739.10908224709,10.5,10500103739.109083,47.655,-122.3035,60.0,9.933333333333334
2026-01-20T23:09:57+00:00,SAT-63368,199.22129524987122,54.62839213977336,778.4120741585282,-2.9092776408891514,101895.20921615743,10.5,10500101895.209217,47.655,-122.3035,60.0,9.95
2026-01-20T23:09:58+00:00,SAT-63368,199.417194426714,55.11171924996442,775.5105545913481,-2.8560350555202554,100030.42866062588,10.5,10500100030.428661,47.655,-122.3035,60.0,9.966666666666667
2026-01-20T23:09:59+00:00,SAT-63368,199.6200988881553,55.59804273163458,772.6621356293092,-2.802198487417242,98144.84431720106,10.5,10500098144.844316,47.655,-122.3035,60.0,9.983333333333333
2026-01-20T23:10:00+00:00,SAT-63368,199.83034699764312,56.08730959319341,769.8674096711918,-2.747770575479748,96238.54861131082,10.5,10500096238.54861,47.655,-122.3035,60.0,10.0
2026-01-20T23:10:01+00:00,SAT-63368,200.0482987751158,56.579462781177796,767.1269664839133,-2.692754420258114,94311.65013734333,10.5,10500094311.650137,47.655,-122.3035,60.0,10.016666666666667
2026-01-20T23:10:02+00:00,SAT-63368,200.27433761228593,57.074441000141746,764.4413927421092,-2.637153610883437,92364.27460185168,10.5,10500092364.274601,47.655,-122.3035,60.0,10.033333333333333
2026-01-20T23:10:03+00:00,SAT-63368,200.50887214993782,57.572178524307716,761.8112715408548,-2.5809722090136735,90396.56426127828,10.5,10500090396.56426,47.655,-122.3035,60.0,10.05
2026-01-20T23:10:04+00:00,SAT-63368,200.7523383309498,58.07260499186924,759.2371819243986,-2.5242147857627937,88408.67921537017,10.5,10500088408.679214,47.655,-122.3035,60.0,10.066666666666666
2026-01-20T23:10:05+00:00,SAT-63368,201.00520165268614,58.57564519018744,756.7196983780644,-2.466886429181394,86400.79766918166,10.5,10500086400.797668,47.655,-122.3035,60.0,10.083333333333334
2026-01-20T23:10:06+00:00,SAT-63368,201.26795963811006,59.081218825022496,754.2593903126941,-2.408992715684583,84373.11493235806,10.5,10500084373.114933,47.655,-122.3035,60.0,10.1
2026-01-20T23:10:07+00:00,SAT-63368,201.5411445458983,59.58924026451875,751.8568215775847,-2.3505397776016284,82325.84578501004,10.5,10500082325.845785,47.655,-122.3035,60.0,10.116666666666667
2026-01-20T23:10:08+00:00,SAT-63368,201.82532635613015,60.09961827469701,749.5125499060567,-2.2915342560373055,80259.2228267187,10.5,10500080259.222826,47.655,-122.3035,60.0,10.133333333333333
2026-01-20T23:10:09+00:00,SAT-63368,202.12111605043287,60.612255721207255,747.2271264080355,-2.2319833581336535,78173.49848208443,10.5,10500078173.498482,47.655,-122.3035,60.0,10.15
2026-01-20T23:10:10+00:00,SAT-63368,202.42916923167047,61.1270492556713,745.0010950055236,-2.1718948051587543,76068.9431825764,10.5,10500076068.943182,47.655,-122.3035,60.0,10.166666666666666
2026-01-20T23:10:11+00:00,SAT-63368,202.75019010868837,61.64388896015456,742.8349919198453,-2.1112768822085966,73945.84710730202,10.5,10500073945.847107,47.655,-122.3035,60.0,10.183333333333334
2026-01-20T23:10:12+00:00,SAT-63368,203.08493590091297,62.1626579676118,740.7293451093225,-2.0501384322207516,71804.51997334068,10.5,10500071804.519974,47.655,-122.3035,60.0,10.2
2026-01-20T23:10:13+00:00,SAT-63368,203.43422170452493,62.683232042226116,738.6846737129209,-1.9884888499508286,69645.29082477352,10.5,10500069645.290825,47.655,-122.3035,60.0,10.216666666666667
2026-01-20T23:10:14+00:00,SAT-63368,203.79892587329698,63.205479113902875,736.7014874999035,-1.9263380771761476,67468.50786469602,10.5,10500067468.507864,47.655,-122.3035,60.0,10.233333333333333
2026-01-20T23:10:15+00:00,SAT-63368,204.17999597414953,63.729258761114,734.7802863242664,-1.8636966240431327,65274.53920289381,10.5,10500065274.539204,47.655,-122.3035,60.0,10.25
2026-01-20T23:10:16+00:00,SAT-63368,204.5784553890896,64.25442164166135,732.9215595578873,-1.800575552070916,63063.77226055706,10.5,10500063063.77226,47.655,-122.3035,60.0,10.266666666666667
2026-01-20T23:10:17+00:00,SAT-63368,204.99541063266574,64.78080885414127,731.1257855406219,-1.7369864808393831,60836.61400452417,10.5,10500060836.614004,47.655,-122.3035,60.0,10.283333333333333
2026-01-20T23:10:18+00:00,SAT-63368,205.43205947252142,65.3082512266911,729.3934310237315,-1.672941562735735,58593.49006279943,10.5,10500058593.490063,47.655,-122.3035,60.0,10.3
2026-01-20T23:10:19+00:00,SAT-63368,205.88969993879584,65.83656851329303,727.7249506384964,-1.6084535179146686,56334.84594900656,10.5,10500056334.84595,47.655,-122.3035,60.0,10.316666666666666
2026-01-20T23:10:20+00:00,SAT-63368,206.36974033958614,66.36556850297755,726.1207863299628,-1.5435355932859325,54061.14562595931,10.5,10500054061.145626,47.655,-122.3035,60.0,10.333333333333334
2026-01-20T23:10:21+00:00,SAT-63368,206.87371037789393,66.89504600565391,724.5813668315923,-1.4782015629696927,51772.871521610374,10.5,10500051772.871521,47.655,-122.3035,60.0,10.35
2026-01-20T23:10:22+00:00,SAT-63368,207.40327350223365,67.42478170952113,723.1071071394573,-1.4124657252595363,49470.52442268289,10.5,10500049470.524424,47.655,-122.3035,60.0,10.366666666666667
2026-01-20T23:10:23+00:00,SAT-63368,207.96024062497125,67.95454089073948,721.6984079894651,-1.3463428956521124,47154.62323053898,10.5,10500047154.62323,47.655,-122.3035,60.0,10.383333333333333
2026-01-20T23:10:24+00:00,SAT-63368,208.5465853508601,68.48407195238929,720.3556553415347,-1.2798483806426835,44825.70404338916,10.5,10500044825.704044,47.655,-122.3035,60.0,10.4
2026-01-20T23:10:25+00:00,SAT-63368,209.1644608583878,69.01310476035607,719.079219889907,-1.2129979740719161,42484.32002834147,10.5,10500042484.320028,47.655,-122.3035,60.0,10.416666666666666
2026-01-20T23:10:26+00:00,SAT-63368,209.81621859528605,69.54134875482751,717.8694565770993,-1.145807942619256,40131.040913318066,10.5,10500040131.040913,47.655,-122.3035,60.0,10.433333333333334
2026-01-20T23:10:27+00:00,SAT-63368,210.50442893689933,70.0684908005618,716.7267041223271,-1.0782950056877152,37766.452282535436,10.5,10500037766.452282,47.655,-122.3035,60.0,10.45
2026-01-20T23:10:28+00:00,SAT-63368,211.23190394490103,70.5941927351585,715.6512845699878,-1.0104763251318634,35391.155216735184,10.5,10500035391.155216,47.655,-122.3035,60.0,10.466666666666667
2026-01-20T23:10:29+00:00,SAT-63368,212.00172234948352,71.11808857646182,714.6435028483896,-0.9423694701400924,33005.7650632124,10.5,10500033005.765062,47.655,-122.3035,60.0,10.483333333333333
2026-01-20T23:10:30+00:00,SAT-63368,212.817256812241,71.63978132801537,713.7036463635031,-0.8739924182345441,30610.911470837313,10.5,10500030610.91147,47.655,-122.3035,60.0,10.5
2026-01-20T23:10:31+00:00,SAT-63368,213.68220349781794,72.15883934502689,712.8319845917174,-0.8053635186992291,28207.23710915338,10.5,10500028207.237108,47.655,-122.3035,60.0,10.516666666666667
2026-01-20T23:10:32+00:00,SAT-63368,214.60061382304684,72.67479218171746,712.028768709068,-0.7365014780276651,25795.397158691972,10.5,10500025795.39716,47.655,-122.3035,60.0,10.533333333333333
2026-01-20T23:10:33+00:00,SAT-63368,215.5769281311321,73.18712586494394,711.2942312349817,-0.6674253306616148,23376.05828611924,10.5,10500023376.058287,47.655,-122.3035,60.0,10.55
2026-01-20T23:10:34+00:00,SAT-63368,216.61601077071498,73.6952775153299,710.6285857052019,-0.5981544181792323,20949.89791531693,10.5,10500020949.897915,47.655,-122.3035,60.0,10.566666666666666
2026-01-20T23:10:35+00:00,SAT-63368,217.72318574309952,74.19862924901298,710.0320263654711,-0.5287083641869732,18517.60334799089,10.5,10500018517.603348,47.655,-122.3035,60.0,10.583333333333334
2026-01-20T23:10:36+00:00,SAT-63368,218.90427159291337,74.6965012876477,709.5047278902553,-0.4591070425660242,16079.87065152671,10.5,10500016079.870651,47.655,-122.3035,60.0,10.6
2026-01-20T23:10:37+00:00,SAT-63368,220.16561355567006,75.18814421114503,709.0468451331361,-0.38937055270090865,13637.403791390712,10.5,10500013637.403791,47.655,-122.3035,60.0,10.616666666666667
2026-01-20T23:10:38+00:00,SAT-63368,221.5141101034418,75.67273031474727,708.658512901909,-0.3195191950737574,11190.913776338073,10.5,10500011190.913776,47.655,-122.3035,60.0,10.633333333333333
2026-01-20T23:10:39+00:00,SAT-63368,222.95722985533368,76.14934406598925,708.3398457580222,-0.24957343558588294,8741.11740880343,10.5,10500008741.117409,47.655,-122.3035,60.0,10.65
2026-01-20T23:10:40+00:00,SAT-63368,224.50301323848208,76.61697169735915,708.0909378515978,-0.17955388088485333,6288.736420750652,10.5,10500006288.736422,47.655,-122.3035,60.0,10.666666666666666
2026-01-20T23:10:41+00:00,SAT-63368,226.16005140601203,77.07449008154109,707.911862781062,-0.10948124500621724,3834.4963053249357,10.5,10500003834.496305,47.655,-122.3035,60.0,10.683333333333334
2026-01-20T23:10:42+00:00,SAT-63368,227.93743247649428,77.52065514087238,707.8026734860425,-0.039376322406981835,1379.1253723711397,10.5,10500001379.125372,47.655,-122.3035,60.0,10.7
2026-01-20T23:10:43+00:00,SAT-63368,229.8446424838427,77.95409024966062,707.7634021671619,0.03074004579720525,-1076.6464340829252,10.5,10499998923.353565,47.655,-122.3035,60.0,10.716666666666667
2026-01-20T23:10:44+00:00,SAT-63368,231.8914053888307,78.37327531385856,707.7940602395037,0.10084700108493166,-3532.08856038594,10.5,10499996467.91144,47.655,-122.3035,60.0,10.733333333333333
2026-01-20T23:10:45+00:00,SAT-63368,234.0874438720145,78.77653757094576,707.8946383152523,0.1709236983111293,-5986.470921382745,10.5,10499994013.52908,47.655,-122.3035,60.0,10.75
2026-01-20T23:10:46+00:00,SAT-63368,236.44214077984762,79.16204554679005,708.0651062170347,0.24094933801663795,-8439.065032031922,10.5,10499991560.934967,47.655,-122.3035,60.0,10.766666666666667
2026-01-20T23:10:47+00:00,SAT-63368,238.96408165273118,79.5278081168922,708.3054130234832,0.3109031951078092,-10889.145011886845,10.5,10499989110.854988,47.655,-122.3035,60.0,10.783333333333333
2026-01-20T23:10:48+00:00,SAT-63368,241.66046300981748,79.87168110357742,708.615487143404,0.3807646500815287,-13335.98867872804,10.5,10499986664.011322,47.655,-122.3035,60.0,10.8
2026-01-20T23:10:49+00:00,SAT-63368,244.53636185705022,80.19138432170256,708.9952364210855,0.4505132204662326,-15778.87864976057,10.5,10499984221.12135,47.655,-122.3035,60.0,10.816666666666666
2026-01-20T23:10:50+00:00,SAT-63368,247.59388089605,80.48453219381732,709.4445482729637,0.5201285892973337,-18217.103338943918,10.5,10499981782.896662,47.655,-122.3035,60.0,10.833333333333334
2026-01-20T23:10:51+00:00,SAT-63368,250.8312129648622,80.74868084809171,709.9632898526896,0.5895906324246322,-20649.95791341301,10.5,10499979350.042086,47.655,-122.3035,60.0,10.85
2026-01-20T23:10:52+00:00,SAT-63368,254.2417062012719,80.98139369640438,710.5513082434278,0.6588794493644315,-23076.745374049846,10.5,10499976923.254625,47.655,-122.3035,60.0,10.866666666666667
2026-01-20T23:10:53+00:00,SAT-63368,257.8130528619688,81.18032562971203,711.2084306809272,0.7279753901087679,-25496.777494456055,10.5,10499974503.222506,47.655,-122.3035,60.0,10.883333333333333
2026-01-20T23:10:54+00:00,SAT-63368,261.52675842640326,81.34332308927186,711.9344648033291,0.7968590839830154,-27909.375831668392,10.5,10499972090.624168,47.655,-122.3035,60.0,10.9
2026-01-20T23:10:55+00:00,SAT-63368,265.3580576186862,81.46853364143634,712.7291989297548,0.8655114614654154,-30313.87249037086,10.5,10499969686.12751,47.655,-122.3035,60.0,10.916666666666666
2026-01-20T23:10:56+00:00,SAT-63368,269.27641372067416,81.5545149846462,713.5924023606563,0.9339137784592692,-32709.61097300962,10.5,10499967290.389027,47.655,-122.3035,60.0,10.933333333333334
2026-01-20T23:10:57+00:00,SAT-63368,273.246659063947,81.60033065634505,714.5238257023731,1.0020476491027184,-35095.94732893028,10.5,10499964904.052671,47.655,-122.3035,60.0,10.95
2026-01-20T23:10:58+00:00,SAT-63368,277.2307168647113,81.60561925674767,715.5232012244115,1.0698950553996354,-37472.25049169239,10.5,10499962527.749508,47.655,-122.3035,60.0,10.966666666666667
2026-01-20T23:10:59+00:00,SAT-63368,281.1897169934831,81.57062651636637,716.59024322633,1.1374383831317039,-39837.90353686246,10.5,10499960162.096462,47.655,-122.3035,60.0,10.983333333333333
2026-01-20T23:11:00+00:00,SAT-63368,285.0862229944386,81.49619481999034,717.7246484404401,1.2046604261880691,-42192.303833656566,10.5,10499957807.696167,47.655,-122.3035,60.0,11.0
2026-01-20T23:11:01+00:00,SAT-63368,288.8862592708467,81.3837116026557,718.9260964388249,1.2715444171980315,-44534.86411782691,10.5,10499955465.135881,47.655,-122.3035,60.0,11.016666666666667
2026-01-20T23:11:02+00:00,SAT-63368,292.5608777991256,81.23502447078363,720.1942500709105,1.3380740426618907,-46865.01302160794,10.5,10499953134.986979,47.655,-122.3035,60.0,11.033333333333333
2026-01-20T23:11:03+00:00,SAT-63368,296.08711267013695,81.05233523190894,721.5287559161253,1.4042334574100543,-49182.19558013554,10.5,10499950817.80442,47.655,-122.3035,60.0,11.05
2026-01-20T23:11:04+00:00,SAT-63368,299.44829947909665,80.83808635176815,722.9292447509822,1.4700073002957197,-51485.873781071095,10.5,10499948514.126219,47.655,-122.3035,60.0,11.066666666666666
2026-01-20T23:11:05+00:00,SAT-63368,302.63384511131835,80.59485189159685,724.3953320318104,1.5353807116855112,-53775.52717719759,10.5,10499946224.472822,47.655,-122.3035,60.0,11.083333333333334
2026-01-20T23:11:06+00:00,SAT-63368,305.6385979990928,80.32524169758558,725.9266183949314,1.6003393288947778,-56050.65272654446,10.5,10499943949.347273,47.655,-122.3035,60.0,11.1
2026-01-20T23:11:07+00:00,SAT-63368,308.46198601271004,80.03182374670648,727.5226901522826,1.6648693260691227,-58310.76618920743,10.5,10499941689.23381,47.655,-122.3035,60.0,11.116666666666667
2026-01-20T23:11:08+00:00,SAT-63368,311.1070705976607,79.7170660649889,729.1831198268154,1.7289573939094844,-60555.40141723507,10.5,10499939444.598583,47.655,-122.3035,60.0,11.133333333333333
2026-01-20T23:11:09+00:00,SAT-63368,313.57962808550985,79.38329711024198,730.9074666676745,1.792590773370664,-62784.111534893826,10.5,10499937215.888466,47.655,-122.3035,60.0,11.15
2026-01-20T23:11:10+00:00,SAT-63368,315.8873280400941,79.03268199388636,732.6952771989829,1.8557572365729724,-64996.46827011309,10.5,10499935003.53173,47.655,-122.3035,60.0,11.166666666666666
2026-01-20T23:11:11+00:00,SAT-63368,318.03904262764524,78.66721132809771,734.5460857495917,1.918445108730643,-67192.06272251102,10.5,10499932807.937277,47.655,-122.3035,60.0,11.183333333333334
2026-01-20T23:11:12+00:00,SAT-63368,320.044295035149,78.28869947744816,736.459415004699,1.9806432761172856,-69370.50564237844,10.5,10499930629.494358,47.655,-122.3035,60.0,11.2
2026-01-20T23:11:13+00:00,SAT-63368,321.91283842666763,77.89878937251603,738.4347765654134,2.0423411677483796,-71531.42678912218,10.5,10499928468.573212,47.655,-122.3035,60.0,11.216666666666667
2026-01-20T23:11:14+00:00,SAT-63368,323.6543483682232,77.49896156530744,740.4716714900477,2.1035287842918575,-73674.47594383614,10.5,10499926325.524055,47.655,-122.3035,60.0,11.233333333333333
2026-01-20T23:11:15+00:00,SAT-63368,325.27820868301507,77.09054572995434,742.5695908642481,2.1641966680393097,-75799.32185756572,10.5,10499924200.678143,47.655,-122.3035,60.0,11.25
2026-01-20T23:11:16+00:00,SAT-63368,326.7933709479397,76.67473331785585,744.7280163411726,2.2243359231440554,-77905.65296013078,10.5,10499922094.34704,47.655,-122.3035,60.0,11.266666666666667
2026-01-20T23:11:17+00:00,SAT-63368,328.2082700865819,76.25259045463946,746.946420701855,2.2839382109324364,-79993.17719590725,10.5,10499920006.822803,47.655,-122.3035,60.0,11.283333333333333
2026-01-20T23:11:18+00:00,SAT-63368,329.530781293302,75.82507049223527,749.2242684108917,2.342995734863939,-82061.62149706701,10.5,10499917938.378504,47.655,-122.3035,60.0,11.3
2026-01-20T23:11:19+00:00,SAT-63368,330.7682064627886,75.39302585691352,751.5610161571292,2.4015012494275845,-84110.7320951671,10.5,10499915889.267904,47.655,-122.3035,60.0,11.316666666666666
2026-01-20T23:11:20+00:00,SAT-63368,331.9272809731767,74.95721899169155,753.9561134032251,2.4594480447179645,-86140.27398093726,10.5,10499913859.726019,47.655,-122.3035,60.0,11.333333333333334
2026-01-20T23:11:21+00:00,SAT-63368,333.01419388953025,74.51833231337672,756.4090029198237,2.5168299569170225,-88150.03127139622,10.5,10499911849.968729,47.655,-122.3035,60.0,11.35
2026-01-20T23:11:22+00:00,SAT-63368,334.0346165059116,74.07697716877828,758.9191213301889,2.5736413231618487,-90139.80562913098,10.5,10499909860.19437,47.655,-122.3035,60.0,11.366666666666667
2026-01-20T23:11:23+00:00,SAT-63368,334.9937355320034,73.63370183562046,761.4858996098225,2.6298770170985937,-92109.41750754528,10.5,10499907890.582493,47.655,-122.3035,60.0,11.383333333333333
2026-01-20T23:11:24+00:00,SAT-63368,335.8962883807421,73.18899861559866,764.108763621542,2.6855324260689897,-94058.70535183507,10.5,10499905941.294647,47.655,-122.3035,60.0,11.4
2026-01-20T23:11:25+00:00,SAT-63368,336.7465987632024,72.74331010583569,766.7871346278082,2.7406034176207013,-95987.52442603931,10.5,10499904012.475574,47.655,-122.3035,60.0,11.416666666666666
2026-01-20T23:11:26+00:00,SAT-63368,337.5486114241251,72.29703473031114,769.5204297696486,2.7950863657216822,-97895.74773117763,10.5,10499902104.25227,47.655,-122.3035,60.0,11.433333333333334
2026-01-20T23:11:27+00:00,SAT-63368,338.3059253013859,71.85053160090764,772.3080625717283,2.8489781069210123,-99783.26446981741,10.5,10499900216.73553,47.655,-122.3035,60.0,11.45
2026-01-20T23:11:28+00:00,SAT-63368,339.0218246576215,71.40412479539698,775.1494434036975,2.9022759735277677,-101649.98120813821,10.5,10499898350.018791,47.655,-122.3035,60.0,11.466666666666667
2026-01-20T23:11:29+00:00,SAT-63368,339.6993079908432,70.9581071098275,778.0439799746292,2.954977717282006,-103495.81920256668,10.5,10499896504.180798,47.655,-122.3035,60.0,11.483333333333333
2026-01-20T23:11:30+00:00,SAT-63368,340.3411146249513,70.51274336628634,780.9910777513319,3.0070815520182883,-105320.7158940337,10.5,10499894679.284105,47.655,-122.3035,60.0,11.5
2026-01-20T23:11:31+00:00,SAT-63368,340.9497490385732,70.0682733138646,783.9901404192115,3.0585861169220276,-107124.62362105616,10.5,10499892875.376379,47.655,-122.3035,60.0,11.516666666666667
2026-01-20T23:11:32+00:00,SAT-63368,341.52750299903647,69.62491418592863,787.0405703064883,3.109490489971517,-108907.51009053379,10.5,10499891092.48991,47.655,-122.3035,60.0,11.533333333333333
2026-01-20T23:11:33+00:00,SAT-63368,342.0764756381059,69.18286295035485,790.1417688218199,3.159794111896693,-110669.35571446322,10.5,10499889330.644285,47.655,-122.3035,60.0,11.55
2026-01-20T23:11:34+00:00,SAT-63368,342.5985915967979,68.74229830462762,793.2931368160848,3.2094968564937556,-112410.15607265355,10.5,10499887589.843927,47.655,-122.3035,60.0,11.566666666666666
2026-01-20T23:11:35+00:00,SAT-63368,343.09561741962364,68.30338242835046,796.4940750142947,3.2585989401742443,-114129.9187447523,10.5,10499885870.081255,47.655,-122.3035,60.0,11.583333333333334
2026-01-20T23:11:36+00:00,SAT-63368,343.5691763209151,67.86626254590634,799.7439843572951,3.3071009763665344,-115828.66521561597,10.5,10499884171.334784,47.655,-122.3035,60.0,11.6
2026-01-20T23:11:37+00:00,SAT-63368,344.0207614966145,67.43107230423684,803.0422663977246,3.355003897767741,-117506.42815224285,10.5,10499882493.571848,47.655,-122.3035,60.0,11.616666666666667
2026-01-20T23:11:38+00:00,SAT-63368,344.45174809969984,66.99793300638416,806.3883236184317,3.402308993527622,-119163.25270611054,10.5,10499880836.747293,47.655,-122.3035,60.0,11.633333333333333
2026-01-20T23:11:39+00:00,SAT-63368,344.8634040279221,66.56695470419739,809.7815597879766,3.449017869159435,-120799.19510908467,10.5,10499879200.804892,47.655,-122.3035,60.0,11.65
2026-01-20T23:11:40+00:00,SAT-63368,345.2568996318766,66.13823717750628,813.2213802761515,3.4951324485523636,-122414.32274390245,10.5,10499877585.677256,47.655,-122.3035,60.0,11.666666666666666
2026-01-20T23:11:41+00:00,SAT-63368,345.6333164595382,65.71187080854165,816.7071923715077,3.540654912031854,-124008.7119747838,10.5,10499875991.288025,47.655,-122.3035,60.0,11.683333333333334
2026-01-20T23:11:42+00:00,SAT-63368,345.9936551292818,65.28793737211285,820.2384055371076,3.585587792932038,-125582.45152980599,10.5,10499874417.54847,47.655,-122.3035,60.0,11.7
2026-01-20T23:11:43+00:00,SAT-63368,346.3388424388212,64.86651073302505,823.8144317625918,3.629933824394412,-127135.63713514543,10.5,10499872864.362865,47.655,-122.3035,60.0,11.716666666666667
2026-01-20T23:11:44+00:00,SAT-63368,346.66973776358793,64.44765749072457,827.4346857634546,3.673696024595151,-128668.37450009862,10.5,10499871331.6255,47.655,-122.3035,60.0,11.733333333333333
2026-01-20T23:11:45+00:00,SAT-63368,346.987138843248,64.03143755022462,831.0985852653173,3.7168776529976726,-130180.77778486196,10.5,10499869819.222216,47.655,-122.3035,60.0,11.75
2026-01-20T23:11:46+00:00,SAT-63368,347.2917870068492,63.617904642380424,834.8055512445737,3.7594821989349754,-131672.96920063693,10.5,10499868327.0308,47.655,-122.3035,60.0,11.766666666666667
2026-01-20T23:11:47+00:00,SAT-63368,347.58437189854016,63.207106795662085,838.5550081576449,3.8015133615757426,-133145.0783079583,10.5,10499866854.921692,47.655,-122.3035,60.0,11.783333333333333
2026-01-20T23:11:48+00:00,SAT-63368,347.86553575474346,62.799086765906736,842.3463841502564,3.842975040809417,-134597.24169745084,10.5,10499865402.758303,47.655,-122.3035,60.0,11.8
2026-01-20T23:11:49+00:00,SAT-63368,348.1358772801454,62.39388242752052,846.1791112576236,3.8838713508018268,-136029.60346460476,10.5,10499863970.396536,47.655,-122.3035,60.0,11.816666666666666
2026-01-20T23:11:50+00:00,SAT-63368,348.39595516502806,61.99152712802948,850.0526256181568,3.924206546892463,-137442.31264940917,10.5,10499862557.687351,47.655,-122.3035,60.0,11.833333333333334
2026-01-20T23:11:51+00:00,SAT-63368,348.6462912746196,61.592050018755856,853.9663676142575,3.9639851085524755,-138835.52614189178,10.5,10499861164.473858,47.655,-122.3035,60.0,11.85
2026-01-20T23:11:52+00:00,SAT-63368,348.8873735541664,61.19547634849093,857.9197820958539,4.003211596048768,-140209.40366188952,10.5,10499859790.596338,47.655,-122.3035,60.0,11.866666666666667
2026-01-20T23:11:53+00:00,SAT-63368,349.1196586636456,60.80182774636812,861.9123184609797,4.041890799076824,-141564.11296479864,10.5,10499858435.887035,47.655,-122.3035,60.0,11.883333333333333
2026-01-20T23:11:54+00:00,SAT-63368,349.3435743873051,60.41112246666351,865.9434308845923,4.080027582794499,-142899.8244490268,10.5,10499857100.17555,47.655,-122.3035,60.0,11.9
2026-01-20T23:11:55+00:00,SAT-63368,349.5595218219699,60.02337562831942,870.0125783938328,4.117626957016405,-144216.7135794732,10.5,10499855783.28642,47.655,-122.3035,60.0,11.916666666666666
2026-01-20T23:11:56+00:00,SAT-63368,349.7678773790049,59.63859942866535,874.1192250122972,4.154694057556012,-145514.96023405006,10.5,10499854485.039766,47.655,-122.3035,60.0,11.933333333333334
2026-01-20T23:11:57+00:00,SAT-63368,349.96899461285926,59.256803342020305,878.2628398856997,4.191234090154402,-146794.74673983033,10.5,10499853205.25326,47.655,-122.3035,60.0,11.95
2026-01-20T23:11:58+00:00,SAT-63368,350.1632058911139,58.87799430799871,882.4428973516136,4.227252416781953,-148056.26089569775,10.5,10499851943.739105,47.655,-122.3035,60.0,11.966666666666667
2026-01-20T23:11:59+00:00,SAT-63368,350.35082392819027,58.502176897739055,886.6588770952842,4.262754433255974,-149299.69168599875,10.5,10499850700.308313,47.655,-122.3035,60.0,11.983333333333333
2026-01-20T23:12:00+00:00,SAT-63368,350.5321431854887,58.12935347850269,890.9102641833848,4.297745620552091,-150525.2310776843,10.5,10499849474.768923,47.655,-122.3035,60.0,12.0
2026-01-20T23:12:01+00:00,SAT-63368,350.7074411588384,57.7595243616304,895.1965491489487,4.332231558130413,-151733.07448704843,10.5,10499848266.925512,47.655,-122.3035,60.0,12.016666666666667
2026-01-20T23:12:02+00:00,SAT-63368,350.8769795615571,57.39268793867554,899.5172280895908,4.3662178586482145,-152923.4184930905,10.5,10499847076.581507,47.655,-122.3035,60.0,12.033333333333333
2026-01-20T23:12:03+00:00,SAT-63368,351.04100540957484,57.028840813298274,903.871802700616,4.399710206884238,-154096.46220080863,10.5,10499845903.5378,47.655,-122.3035,60.0,12.05
2026-01-20T23:12:04+00:00,SAT-63368,351.1997520217389,56.667977920652156,908.2597803469486,4.432714323662081,-155252.4059776442,10.5,10499844747.594023,47.655,-122.3035,60.0,12.066666666666666
2026-01-20T23:12:05+00:00,SAT-63368,351.3534399399969,56.31009264142903,912.6806740990809,4.465235964707202,-156391.45141344957,10.5,10499843608.548586,47.655,-122.3035,60.0,12.083333333333334
2026-01-20T23:12:06+00:00,SAT-63368,351.50227777786694,55.95517690818755,917.1340027678822,4.497280949980993,-157513.8023478911,10.5,10499842486.197653,47.655,-122.3035,60.0,12.1
2026-01-20T23:12:07+00:00,SAT-63368,351.64646300463534,55.603221302181524,921.6192909686632,4.528855063987873,-158619.66137878184,10.5,10499841380.338621,47.655,-122.3035,60.0,12.116666666666667
2026-01-20T23:12:08+00:00,SAT-63368,351.7861826663703,55.254215151485674,926.1360690858137,4.559964192141716,-159709.234638211,10.5,10499840290.765362,47.655,-122.3035,60.0,12.133333333333333
2026-01-20T23:12:09+00:00,SAT-63368,351.92161405717854,54.90814661217871,930.6838733734431,4.590614165131411,-160782.72634156735,10.5,10499839217.273659,47.655,-122.3035,60.0,12.15
2026-01-20T23:12:10+00:00,SAT-63368,352.0529253353754,54.56500275601851,935.2622459008008,4.620810861133656,-161840.34236746337,10.5,10499838159.657633,47.655,-122.3035,60.0,12.166666666666666
2026-01-20T23:12:11+00:00,SAT-63368,352.1802760974812,54.224769644799316,939.8707345996381,4.650560145718369,-162882.28815296906,10.5,10499837117.711847,47.655,-122.3035,60.0,12.183333333333334
2026-01-20T23:12:12+00:00,SAT-63368,352.30381790848924,53.88743240439666,944.5088932516345,4.67986787942486,-163908.76895896104,10.5,10499836091.231041,47.655,-122.3035,60.0,12.2
2026-01-20T23:12:13+00:00,SAT-63368,352.42369479415595,53.55297529353499,949.176281483381,4.708739947702955,-164919.99091878763,10.5,10499835080.00908,47.655,-122.3035,60.0,12.216666666666667
2026-01-20T23:12:14+00:00,SAT-63368,352.54004369887383,53.22138176613207,953.8724647912234,4.737182165911225,-165916.15771090498,10.5,10499834083.842289,47.655,-122.3035,60.0,12.233333333333333
2026-01-20T23:12:15+00:00,SAT-63368,352.6529949087559,52.89263453638873,958.5970144713589,4.765200410052964,-166897.47513780388,10.5,10499833102.524862,47.655,-122.3035,60.0,12.25
2026-01-20T23:12:16+00:00,SAT-63368,352.7626724484357,52.566715630819196,963.3495076803183,4.7928004528308366,-167864.14538395018,10.5,10499832135.854616,47.655,-122.3035,60.0,12.266666666666667
2026-01-20T23:12:17+00:00,SAT-63368,352.86919444637505,52.24360644824053,968.1295273319416,4.819988136608819,-168816.37307364348,10.5,10499831183.626926,47.655,-122.3035,60.0,12.283333333333333
2026-01-20T23:12:18+00:00,SAT-63368,352.9726734792712,51.92328780448248,972.9366621668529,4.846769188654349,-169754.3588000158,10.5,10499830245.6412,47.655,-122.3035,60.0,12.3
2026-01-20T23:12:19+00:00,SAT-63368,353.07321688883553,51.605739986600845,977.7705066376708,4.873149375278472,-170678.30452367134,10.5,10499829321.695477,47.655,-122.3035,60.0,12.316666666666666
2026-01-20T23:12:20+00:00,SAT-63368,353.17092708079446,51.290942793732334,982.6306609479485,4.899134373373119,-171588.40907337886,10.5,10499828411.590927,47.655,-122.3035,60.0,12.333333333333334
2026-01-20T23:12:21+00:00,SAT-63368,353.26590180123617,50.978875583746515,987.5167309629926,4.9247298931481005,-172484.87244484003,10.5,10499827515.127556,47.655,-122.3035,60.0,12.35
2026-01-20T23:12:22+00:00,SAT-63368,353.35823439730245,50.66951730933175,992.4283282430923,4.9499415207661785,-173367.8902891042,10.5,10499826632.10971,47.655,-122.3035,60.0,12.366666666666667
2026-01-20T23:12:23+00:00,SAT-63368,353.4480140577823,50.36284656171587,997.3650699198031,4.974774870675721,-174237.65924790234,10.5,10499825762.340752,47.655,-122.3035,60.0,12.383333333333333
2026-01-20T23:12:24+00:00,SAT-63368,353.53532604114423,50.0588416023894,1002.3265787241571,4.999235485980065,-175094.3734641606,10.5,10499824905.626535,47.655,-122.3035,60.0,12.4
2026-01-20T23:12:25+00:00,SAT-63368,353.6202518871176,49.7574803989967,1007.3124829155079,5.023328872216845,-175938.22576509535,10.5,10499824061.774235,47.655,-122.3035,60.0,12.416666666666666
2026-01-20T23:12:26+00:00,SAT-63368,353.70286961548425,49.45874065705537,1012.3224162440654,5.0470604752151145,-176769.40688667592,10.5,10499823230.593113,47.655,-122.3035,60.0,12.433333333333334
2026-01-20T23:12:27+00:00,SAT-63368,353.7832539120746,49.16259985108167,1017.3560178913466,5.070435708080549,-177588.1064187604,10.5,10499822411.893581,47.655,-122.3035,60.0,12.45
2026-01-20T23:12:28+00:00,SAT-63368,353.8614763036437,48.869035252290985,1022.412932437539,5.0934599211752785,-178394.51175366266,10.5,10499821605.488247,47.655,-122.3035,60.0,12.466666666666667
2026-01-20T23:12:29+00:00,SAT-63368,353.93760532152317,48.57802395636296,1027.4928097989246,5.116138406674464,-179188.80824574272,10.5,10499820811.191753,47.655,-122.3035,60.0,12.483333333333333
2026-01-20T23:12:30+00:00,SAT-63368,354.0117066553663,48.289542909294376,1032.5953051698477,5.138476429961953,-179971.1803110154,10.5,10499820028.819689,47.655,-122.3035,60.0,12.5
2026-01-20T23:12:31+00:00,SAT-63368,354.08384329813026,48.003568929937146,1037.7200789959966,5.160479179360611,-180741.80966649405,10.5,10499819258.190334,47.655,-122.3035,60.0,12.516666666666667
2026-01-20T23:12:32+00:00,SAT-63368,354.15407568157417,47.72007873397557,1042.8667968975456,5.182151782766733,-181500.87591279796,10.5,10499818499.124086,47.655,-122.3035,60.0,12.533333333333333
2026-01-20T23:12:33+00:00,SAT-63368,354.2224618040468,47.439048955536215,1048.0351296088916,5.203499305878523,-182248.55647210608,10.5,10499817751.443527,47.655,-122.3035,60.0,12.55
2026-01-20T23:12:34+00:00,SAT-63368,354.289057350706,47.160456167584684,1053.2247529166211,5.224526814044526,-182985.02875435087,10.5,10499817014.971245,47.655,-122.3035,60.0,12.566666666666666
2026-01-20T23:12:35+00:00,SAT-63368,354.353915807623,46.88427689782094,1058.4353476591614,5.245239225371857,-183710.46501244704,10.5,10499816289.534988,47.655,-122.3035,60.0,12.583333333333334
2026-01-20T23:12:36+00:00,SAT-63368,354.4170885672782,46.610487651297596,1063.6665995799322,5.265641478050064,-184425.03820268108,10.5,10499815574.961798,47.655,-122.3035,60.0,12.6
2026-01-20T23:12:37+00:00,SAT-63368,354.4786250302881,46.33906492298827,1068.9181993473742,5.285738369774259,-185128.91636063013,10.5,10499814871.08364,47.655,-122.3035,60.0,12.616666666666667
2026-01-20T23:12:38+00:00,SAT-63368,354.538572699278,46.06998521779067,1074.1898424148292,5.305534731789685,-185822.2686969386,10.5,10499814177.731302,47.655,-122.3035,60.0,12.633333333333333
2026-01-20T23:12:39+00:00,SAT-63368,354.59697726967863,45.803225060509654,1079.4812290540008,5.3250352533842396,-186505.2594503045,10.5,10499813494.74055,47.655,-122.3035,60.0,12.65
2026-01-20T23:12:40+00:00,SAT-63368,354.6538827132823,45.53876101396752,1084.7920642133759,5.3442446165288535,-187178.05260315444,10.5,10499812821.947397,47.655,-122.3035,60.0,12.666666666666666
2026-01-20T23:12:41+00:00,SAT-63368,354.70933135884707,45.276569689344534,1090.1220575109273,5.363167382851577,-187840.80792299836,10.5,10499812159.192078,47.655,-122.3035,60.0,12.683333333333334
2026-01-20T23:12:42+00:00,SAT-63368,354.76336396694234,45.01662776135277,1095.4709231140914,5.381808120054444,-188493.68539008297,10.5,10499811506.31461,47.655,-122.3035,60.0,12.7
2026-01-20T23:12:43+00:00,SAT-63368,354.81601980218755,44.75891197637915,1100.8383797458257,5.400171297559317,-189136.84154246745,10.5,10499810863.158457,47.655,-122.3035,60.0,12.716666666666667
2026-01-20T23:12:44+00:00,SAT-63368,354.8673367004032,44.50339916505114,1106.2241505865913,5.418261332465944,-189770.43108566932,10.5,10499810229.568914,47.655,-122.3035,60.0,12.733333333333333
2026-01-20T23:12:45+00:00,SAT-63368,354.9173511327238,44.250066251823945,1111.6279632221708,5.436082542581526,-190394.60524756106,10.5,10499809605.394753,47.655,-122.3035,60.0,12.75
2026-01-20T23:12:46+00:00,SAT-63368,354.96609826580874,43.998890266108035,1117.0495495446387,5.45363924411491,-191009.515200034,10.5,10499808990.4848,47.655,-122.3035,60.0,12.766666666666667
2026-01-20T23:12:47+00:00,SAT-63368,355.0136120198891,43.749848348191286,1122.4886457507694,5.470935677416666,-191615.30945810178,10.5,10499808384.690542,47.655,-122.3035,60.0,12.783333333333333
2026-01-20T23:12:48+00:00,SAT-63368,355.05992512302345,43.502917758111685,1127.9449922663796,5.487975976133952,-192212.13279957327,10.5,10499807787.8672,47.655,-122.3035,60.0,12.8
2026-01-20T23:12:49+00:00,SAT-63368,355.1050691623048,43.25807588528605,1133.4183336399105,5.504764257164276,-192800.12941561357,10.5,10499807199.870584,47.655,-122.3035,60.0,12.816666666666666
2026-01-20T23:12:50+00:00,SAT-63368,355.14907463324596,43.015300253521424,1138.9084185257223,5.521304564528083,-193379.44094492486,10.5,10499806620.559055,47.655,-122.3035,60.0,12.833333333333334
2026-01-20T23:12:51+00:00,SAT-63368,355.19197098617894,42.774568528092196,1144.4149996114118,5.5376008890233885,-193950.20716213476,10.5,10499806049.792837,47.655,-122.3035,60.0,12.85
2026-01-20T23:12:52+00:00,SAT-63368,355.23378667043306,42.535858521473074,1149.9378335647311,5.553657139460674,-194512.5649703205,10.5,10499805487.43503,47.655,-122.3035,60.0,12.866666666666667
2026-01-20T23:12:53+00:00,SAT-63368,355.2745491761166,42.29914819985997,1155.4766809518198,5.569477172700831,-195066.64945306504,10.5,10499804933.350548,47.655,-122.3035,60.0,12.883333333333333
2026-01-20T23:12:54+00:00,SAT-63368,355.3142850740336,42.06441568794904,1161.0313061853933,5.585064801306409,-195612.59414243602,10.5,10499804387.405857,47.655,-122.3035,60.0,12.9
2026-01-20T23:12:55+00:00,SAT-63368,355.35302005371824,41.831639273021274,1166.601477480563,5.6004237874436145,-196150.5308054079,10.5,10499803849.469194,47.655,-122.3035,60.0,12.916666666666666
2026-01-20T23:12:56+00:00,SAT-63368,355.3907789595295,41.60079740894591,1172.1869668045736,5.615557783374098,-196680.58735963274,10.5,10499803319.41264,47.655,-122.3035,60.0,12.933333333333334
2026-01-20T23:12:57+00:00,SAT-63368,355.4275858245711,41.37186872226682,1177.7875497671919,5.630470425249196,-197202.89115851125,10.5,10499802797.10884,47.655,-122.3035,60.0,12.95
2026-01-20T23:12:58+00:00,SAT-63368,355.46346390365926,41.14483201404976,1183.4030056046404,5.645165297213353,-197717.56773394282,10.5,10499802282.432266,47.655,-122.3035,60.0,12.966666666666667
2026-01-20T23:12:59+00:00,SAT-63368,355.4984357044718,40.919666262952816,1189.033117127728,5.659645901889009,-198224.73976258133,10.5,10499801775.260237,47.655,-122.3035,60.0,12.983333333333333
2026-01-20T23:13:00+00:00,SAT-63368,355.5325230169682,40.69635062917557,1194.677670640545,5.673915700939643,-198724.52848652468,10.5,10499801275.471514,47.655,-122.3035,60.0,13.0
2026-01-20T23:13:01+00:00,SAT-63368,355.56574694176004,40.47486445648571,1200.3364558996154,5.687978070047863,-199217.05213645688,10.5,10499800782.947863,47.655,-122.3035,60.0,13.016666666666667
2026-01-20T23:13:02+00:00,SAT-63368,355.5981279168026,40.25518727575884,1206.0092660281434,5.701836392929452,-199702.42922441778,10.5,10499800297.570776,47.655,-122.3035,60.0,13.033333333333333
2026-01-20T23:13:03+00:00,SAT-63368,355.6296857435062,40.037298804614004,1211.695897524025,5.715493931314234,-200180.77398998296,10.5,10499799819.22601,47.655,-122.3035,60.0,13.05
2026-01-20T23:13:04+00:00,SAT-63368,355.6604396107699,39.82117895187113,1217.3961501381891,5.728953926713019,-200652.19996457247,10.5,10499799347.800035,47.655,-122.3035,60.0,13.066666666666666
2026-01-20T23:13:05+00:00,SAT-63368,355.69040811858633,39.6068078178333,1223.1098268544308,5.742219576724902,-201116.81914163256,10.5,10499798883.180859,47.655,-122.3035,60.0,13.083333333333334
2026-01-20T23:13:06+00:00,SAT-63368,355.71960930040865,39.3941656953232,1228.8367338456178,5.755294007341326,-201574.74100660637,10.5,10499798425.258993,47.655,-122.3035,60.0,13.1
2026-01-20T23:13:07+00:00,SAT-63368,355.7480606443516,39.18323307155443,1234.5766804022728,5.768180287262112,-202026.07303834232,10.5,10499797973.926962,47.655,-122.3035,60.0,13.116666666666667
2026-01-20T23:13:08+00:00,SAT-63368,355.77577911351676,38.97399062926752,1240.3294788754356,5.780881439143394,-202470.921103044,10.5,10499797529.078897,47.655,-122.3035,60.0,13.133333333333333
2026-01-20T23:13:09+00:00,SAT-63368,355.80278116550795,38.76641924728042,1246.0949446307413,5.793400448549389,-202909.38976779924,10.5,10499797090.610231,47.655,-122.3035,60.0,13.15
2026-01-20T23:13:10+00:00,SAT-63368,355.8290827710899,38.56050000058024,1251.8728960114279,5.805740267595069,-203341.58242816178,10.5,10499796658.417572,47.655,-122.3035,60.0,13.166666666666666
2026-01-20T23:13:11+00:00,SAT-63368,355.8546994320814,38.35621416016792,1257.6631543049762,5.817903713692521,-203767.59776182054,10.5,10499796232.402239,47.655,-122.3035,60.0,13.183333333333334
2026-01-20T23:13:12+00:00,SAT-63368,355.8796461979178,38.15354319631463,1263.4655436087653,5.8298936797996825,-204187.53709239964,10.5,10499795812.462908,47.655,-122.3035,60.0,13.2
2026-01-20T23:13:13+00:00,SAT-63368,355.90393768258946,37.95246877428776,1269.2798909054188,5.841712892216269,-204601.49590644747,10.5,10499795398.504093,47.655,-122.3035,60.0,13.216666666666667
2026-01-20T23:13:14+00:00,SAT-63368,355.92758807962707,37.75297275845388,1275.1060258965892,5.8533641291495275,-205009.57150853355,10.5,10499794990.428492,47.655,-122.3035,60.0,13.233333333333333
2026-01-20T23:13:15+00:00,SAT-63368,355.9506111775313,37.55503720866955,1280.9437810547277,5.864850056932549,-205411.8572849213,10.5,10499794588.142715,47.655,-122.3035,60.0,13.25
2026-01-20T23:13:16+00:00,SAT-63368,355.97302037373555,37.35864438222742,1286.7929915115085,5.8761732970566625,-205808.445051326,10.5,10499794191.554949,47.655,-122.3035,60.0,13.266666666666667
2026-01-20T23:13:17+00:00,SAT-63368,355.9948286883445,37.16377673336718,1292.6534950131063,5.887336484517363,-206199.42709643586,10.5,10499793800.572903,47.655,-122.3035,60.0,13.283333333333333
2026-01-20T23:13:18+00:00,SAT-63368,356.0160487775064,36.970416910791364,1298.5251319336649,5.898342141144592,-206584.8917454028,10.5,10499793415.108255,47.655,-122.3035,60.0,13.3
2026-01-20T23:13:19+00:00,SAT-63368,356.0366929457131,36.778547759314485,1304.4077451624332,5.90919278366526,-206964.92714464894,10.5,10499793035.072855,47.655,-122.3035,60.0,13.316666666666666
2026-01-20T23:13:20+00:00,SAT-63368,356.0567731580248,36.588152317842855,1310.3011800986753,5.919890876336395,-207339.61960287922,10.5,10499792660.380398,47.655,-122.3035,60.0,13.333333333333334
2026-01-20T23:13:21+00:00,SAT-63368,356.07630105162633,36.39921381886106,1316.2052845993414,5.930438855630396,-207709.05445566334,10.5,10499792290.945545,47.655,-122.3035,60.0,13.35
2026-01-20T23:13:22+00:00,SAT-63368,356.09528794697866,36.21171568706293,1322.119908951357,5.940839066298959,-208073.3138261239,10.5,10499791926.686174,47.655,-122.3035,60.0,13.366666666666667
2026-01-20T23:13:23+00:00,SAT-63368,356.113744858299,36.02564153994167,1328.0449057801457,5.951093866767171,-208432.48031628368,10.5,10499791567.519684,47.655,-122.3035,60.0,13.383333333333333
2026-01-20T23:13:24+00:00,SAT-63368,356.1316825040002,35.840975184987265,1333.9801300632682,5.961205565155005,-208786.63476626738,10.5,10499791213.365234,47.655,-122.3035,60.0,13.4
2026-01-20T23:13:25+00:00,SAT-63368,356.14911131649467,35.65770061888698,1339.9254390802496,5.971176414778559,-209135.85609673633,10.5,10499790864.143904,47.655,-122.3035,60.0,13.416666666666666
2026-01-20T23:13:26+00:00,SAT-63368,356.1660414515596,35.475802026804345,1345.880692357922,5.981008614276338,-209480.2213133112,10.5,10499790519.778687,47.655,-122.3035,60.0,13.433333333333334
2026-01-20T23:13:27+00:00,SAT-63368,356.18248279737736,35.29526378158749,1351.8457516158935,5.9907043691554405,-209819.80766217987,10.5,10499790180.192337,47.655,-122.3035,60.0,13.45
2026-01-20T23:13:28+00:00,SAT-63368,356.19844498339273,35.11607044108584,1357.820480773398,6.000265812018844,-210154.68983611942,10.5,10499789845.310163,47.655,-122.3035,60.0,13.466666666666667
2026-01-20T23:13:29+00:00,SAT-63368,356.2139373885886,34.93820674786569,1363.8047458765848,6.0096950426120905,-210484.94137710077,10.5,10499789515.058622,47.655,-122.3035,60.0,13.483333333333333
2026-01-20T23:13:30+00:00,SAT-63368,356.22896914954674,34.7616576276671,1369.7984150657499,6.01899413989124,-210810.6350989591,10.5,10499789189.3649,47.655,-122.3035,60.0,13.5
2026-01-20T23:13:31+00:00,SAT-63368,356.2435491682559,34.586408187497554,1375.8013585546014,6.028165120482751,-211131.84163248327,10.5,10499788868.158367,47.655,-122.3035,60.0,13.516666666666667
2026-01-20T23:13:32+00:00,SAT-63368,356.2576861194798,34.4124437149214,1381.8134485680962,6.0372100026708955,-211448.6316665258,10.5,10499788551.368334,47.655,-122.3035,60.0,13.533333333333333
2026-01-20T23:13:33+00:00,SAT-63368,356.27138845805194,34.23974967547051,1387.8345593440933,6.046130742558495,-211761.07371208185,10.5,10499788238.926289,47.655,-122.3035,60.0,13.55
2026-01-20T23:13:34+00:00,SAT-63368,356.28466442567907,34.06831171189526,1393.8645670713381,6.054929242817703,-212069.2344087785,10.5,10499787930.76559,47.655,-122.3035,60.0,13.566666666666666
2026-01-20T23:13:35+00:00,SAT-63368,356.297522057557,33.898115643120875,1399.903349836175,6.063607438634284,-212373.18153500705,10.5,10499787626.818464,47.655,-122.3035,60.0,13.583333333333334
2026-01-20T23:13:36+00:00,SAT-63368,356.3099691889357,33.729147460780865,1405.950787654973,6.072167165702361,-212672.97938454073,10.5,10499787327.020615,47.655,-122.3035,60.0,13.6
2026-01-20T23:13:37+00:00,SAT-63368,356.3220134611158,33.561393329469446,1412.0067623749003,6.080610252354241,-212968.69199331067,10.5,10499787031.308006,47.655,-122.3035,60.0,13.616666666666667
2026-01-20T23:13:38+00:00,SAT-63368,356.33366232744055,33.39483958438032,1418.0711576665815,6.08893849554601,-213260.3822983202,10.5,10499786739.617702,47.655,-122.3035,60.0,13.633333333333333
2026-01-20T23:13:39+00:00,SAT-63368,356.34492305903086,33.229472729630515,1424.143858992806,6.097153681325582,-213548.11285452225,10.5,10499786451.887146,47.655,-122.3035,60.0,13.65
2026-01-20T23:13:40+00:00,SAT-63368,356.35580275034994,33.06527943603381,1430.224753597648,6.105257528572767,-213831.9438643585,10.5,10499786168.056135,47.655,-122.3035,60.0,13.666666666666666
2026-01-20T23:13:41+00:00,SAT-63368,356.3663083244135,32.902246540397435,1436.3137304394781,6.11325171065731,-214111.93393631588,10.5,10499785888.066063,47.655,-122.3035,60.0,13.683333333333334
2026-01-20T23:13:42+00:00,SAT-63368,356.3764465379059,32.74036104420159,1442.4106801455737,6.1211379745112255,-214388.14425534304,10.5,10499785611.855745,47.655,-122.3035,60.0,13.7
2026-01-20T23:13:43+00:00,SAT-63368,356.3862239863406,32.57961010915489,1448.515495085486,6.128917898207718,-214660.6300922388,10.5,10499785339.369907,47.655,-122.3035,60.0,13.716666666666667
2026-01-20T23:13:44+00:00,SAT-63368,356.3956471085256,32.419981059168876,1454.6280692026319,6.136593139968534,-214929.44952494305,10.5,10499785070.550474,47.655,-122.3035,60.0,13.733333333333333
2026-01-20T23:13:45+00:00,SAT-63368,356.40472219139684,32.26146137576138,1460.7482980942273,6.144165256878162,-215194.65708914102,10.5,10499784805.34291,47.655,-122.3035,60.0,13.75
2026-01-20T23:13:46+00:00,SAT-63368,356.4134553743055,32.104038698228294,1466.8760789104203,6.151635835814713,-215456.3083640166,10.5,10499784543.691635,47.655,-122.3035,60.0,13.766666666666667
2026-01-20T23:13:47+00:00,SAT-63368,356.4218526534225,31.947700820423755,1473.0113103840063,6.159006400204043,-215714.45670638734,10.5,10499784285.543293,47.655,-122.3035,60.0,13.783333333333333
2026-01-20T23:13:48+00:00,SAT-63368,356.4299198858047,31.792435689959355,1479.153892767143,6.166278440991934,-215969.15433548132,10.5,10499784030.845665,47.655,-122.3035,60.0,13.8
2026-01-20T23:13:49+00:00,SAT-63368,356.43766279336927,31.638231406600628,1485.303727798959,6.173453481129821,-216220.45459149982,10.5,10499783779.545408,47.655,-122.3035,60.0,13.816666666666666
2026-01-20T23:13:50+00:00,SAT-63368,356.4450869668792,31.48507621908143,1491.4607187374725,6.180532928110243,-216468.40677078525,10.5,10499783531.59323,47.655,-122.3035,60.0,13.833333333333334
2026-01-20T23:13:51+00:00,SAT-63368,356.45219786948314,31.332958525605118,1497.624770244441,6.1875182489624185,-216713.06225490634,10.5,10499783286.937744,47.655,-122.3035,60.0,13.85
2026-01-20T23:13:52+00:00,SAT-63368,356.45900084049237,31.18186687001222,1503.7957884447396,6.194410821821062,-216954.46931197034,10.5,10499783045.530687,47.655,-122.3035,60.0,13.866666666666667
2026-01-20T23:13:53+00:00,SAT-63368,356.465501098726,31.03178994163219,1509.9736808377024,6.201212038223413,-217192.67667949747,10.5,10499782807.32332,47.655,-122.3035,60.0,13.883333333333333
2026-01-20T23:13:54+00:00,SAT-63368,356.4717037459615,30.88271657263683,1516.1583563104907,6.207923259824397,-217427.7320484032,10.5,10499782572.267952,47.655,-122.3035,60.0,13.9
2026-01-20T23:13:55+00:00,SAT-63368,356.47761377015837,30.73463573647736,1522.349725108289,6.214545814899833,-217659.68194052516,10.5,10499782340.31806,47.655,-122.3035,60.0,13.916666666666666
2026-01-20T23:13:56+00:00,SAT-63368,356.48323604859945,30.587536546416597,1528.5476988010155,6.221081002769718,-217888.5718635458,10.5,10499782111.428137,47.655,-122.3035,60.0,13.933333333333334
2026-01-20T23:13:57+00:00,SAT-63368,356.4885753509098,30.441408253961953,1534.7521902544447,6.22753013244097,-218114.44766442452,10.5,10499781885.552336,47.655,-122.3035,60.0,13.95
2026-01-20T23:13:58+00:00,SAT-63368,356.49363634206435,30.29624024641959,1540.9631136398657,6.233894447821622,-218337.35291008232,10.5,10499781662.647089,47.655,-122.3035,60.0,13.966666666666667
2026-01-20T23:13:59+00:00,SAT-63368,356.4984235851507,30.152022046216697,1547.1803843691598,6.240175229878583,-218557.33246539882,10.5,10499781442.667534,47.655,-122.3035,60.0,13.983333333333333
2026-01-20T23:14:00+00:00,SAT-63368,356.5029415442238,30.008743307871313,1553.4039191317588,6.24637364213578,-218774.42708190373,10.5,10499781225.572918,47.655,-122.3035,60.0,14.0
