satellites_20260121_005943/SAT-65669.csv

timestamp,satellite,azimuth_deg,elevation_deg,distance_km,relative_velocity_kms,doppler_shift_hz,tx_freq_ghz,rx_freq_hz,ue_lat,ue_lon,ue_alt_m,time_minutes
2026-01-20T23:04:41+00:00,SAT-65669,308.65832478265725,30.00087498652494,4038.102520201042,-1.1946558636798903,41841.90173536269,10.5,10500041841.901735,47.655,-122.3035,60.0,4.683333333333334
2026-01-20T23:04:42+00:00,SAT-65669,308.5373009299248,30.036666011233113,4036.9110500863317,-1.1830727130176057,41436.21080249077,10.5,10500041436.210802,47.655,-122.3035,60.0,4.7
2026-01-20T23:04:43+00:00,SAT-65669,308.41608645086194,30.072264137943165,4035.7311322338824,-1.171477749860166,41030.10614607171,10.5,10500041030.106146,47.655,-122.3035,60.0,4.716666666666667
2026-01-20T23:04:44+00:00,SAT-65669,308.29468225793323,30.107668557720764,4034.562778424688,-1.159871075618761,40623.59131795433,10.5,10500040623.591318,47.655,-122.3035,60.0,4.733333333333333
2026-01-20T23:04:45+00:00,SAT-65669,308.1730892739535,30.14287846457235,4033.406000338605,-1.148252795485225,40216.670002401675,10.5,10500040216.670002,47.655,-122.3035,60.0,4.75
2026-01-20T23:04:46+00:00,SAT-65669,308.0513084317877,30.177893055597057,4032.260809550574,-1.136623008265105,39809.3456600019,10.5,10500039809.34566,47.655,-122.3035,60.0,4.766666666666667
2026-01-20T23:04:47+00:00,SAT-65669,307.929340675037,30.212711530842824,4031.1272175369977,-1.1249818218036522,39401.622067951925,10.5,10500039401.622068,47.655,-122.3035,60.0,4.783333333333333
2026-01-20T23:04:48+00:00,SAT-65669,307.8071869571421,30.247333093628807,4030.005235666719,-1.1133293341456085,38993.5026601933,10.5,10500038993.50266,47.655,-122.3035,60.0,4.8
2026-01-20T23:04:49+00:00,SAT-65669,307.6848482424717,30.281756950290646,4028.8948752107976,-1.1016656539890166,38584.99124379131,10.5,10500038584.991243,47.655,-122.3035,60.0,4.816666666666666
2026-01-20T23:04:50+00:00,SAT-65669,307.56232550521844,30.31598231055684,4027.796147331886,-1.0899908831658727,38176.09138533319,10.5,10500038176.091385,47.655,-122.3035,60.0,4.833333333333333
2026-01-20T23:04:51+00:00,SAT-65669,307.4396197301956,30.35000838738238,4026.709063091075,-1.078305125996415,37766.806738554966,10.5,10500037766.806738,47.655,-122.3035,60.0,4.85
2026-01-20T23:04:52+00:00,SAT-65669,307.316731912611,30.38383439706939,4025.6336334454145,-1.0666084929620312,37357.14117298217,10.5,10500037357.141172,47.655,-122.3035,60.0,4.866666666666666
2026-01-20T23:04:53+00:00,SAT-65669,307.1936630573878,30.41745955952017,4024.5698692417673,-1.0549010848691287,36947.09821928159,10.5,10500036947.098219,47.655,-122.3035,60.0,4.883333333333334
2026-01-20T23:04:54+00:00,SAT-65669,307.0704141803197,30.450883097966944,4023.5177812264574,-1.0431830106957805,36536.68169432633,10.5,10500036536.681694,47.655,-122.3035,60.0,4.9
2026-01-20T23:04:55+00:00,SAT-65669,306.94698630717147,30.484104239283063,4022.477380037124,-1.0314543740989985,36125.89522862342,10.5,10500036125.89523,47.655,-122.3035,60.0,4.916666666666667
2026-01-20T23:04:56+00:00,SAT-65669,306.8233804743685,30.517122213853682,4021.4486762080223,-1.0197152879142448,35714.742774148006,10.5,10500035714.742775,47.655,-122.3035,60.0,4.933333333333334
2026-01-20T23:04:57+00:00,SAT-65669,306.6995977278759,30.549936255933627,4020.431680160876,-1.0079658543521375,35303.22791074832,10.5,10500035303.227911,47.655,-122.3035,60.0,4.95
2026-01-20T23:04:58+00:00,SAT-65669,306.57563912458284,30.582545603332214,4019.426402215469,-0.9962061855366299,34891.35456547947,10.5,10500034891.354565,47.655,-122.3035,60.0,4.966666666666667
2026-01-20T23:04:59+00:00,SAT-65669,306.4515057310847,30.614949497796825,4018.43285257976,-0.9844363862433263,34479.126408026335,10.5,10500034479.126408,47.655,-122.3035,60.0,4.983333333333333
2026-01-20T23:05:00+00:00,SAT-65669,306.3271986246601,30.647147184808514,4017.451041357214,-0.9726565707525564,34066.54744096945,10.5,10500034066.547441,47.655,-122.3035,60.0,5.0
2026-01-20T23:05:01+00:00,SAT-65669,306.2027188920571,30.679137913958225,4016.4809785373163,-0.960866844047278,33653.62134125608,10.5,10500033653.621342,47.655,-122.3035,60.0,5.016666666666667
2026-01-20T23:05:02+00:00,SAT-65669,306.07806763076746,30.710920938668277,4015.5226740048533,-0.9490673176273505,33240.352014082964,10.5,10500033240.352015,47.655,-122.3035,60.0,5.033333333333333
2026-01-20T23:05:03+00:00,SAT-65669,305.9532459481946,30.742495516463237,4014.5761375334064,-0.9372581009551808,32826.74329328658,10.5,10500032826.743294,47.655,-122.3035,60.0,5.05
2026-01-20T23:05:04+00:00,SAT-65669,305.8282549619481,30.773860908951864,4013.6413787873867,-0.9254393070705342,32412.799137997692,10.5,10500032412.799137,47.655,-122.3035,60.0,5.066666666666666
2026-01-20T23:05:05+00:00,SAT-65669,305.70309579939516,30.805016381991944,4012.718407318468,-0.9136110461742607,31998.523407916207,10.5,10500031998.523407,47.655,-122.3035,60.0,5.083333333333333
2026-01-20T23:05:06+00:00,SAT-65669,305.57776959805483,30.835961205645713,4011.807232568417,-0.9017734266050926,31583.919897522814,10.5,10500031583.919897,47.655,-122.3035,60.0,5.1
2026-01-20T23:05:07+00:00,SAT-65669,305.4522775059479,30.866694654144986,4010.9078638709498,-0.8899265642396789,31168.99266530791,10.5,10500031168.992666,47.655,-122.3035,60.0,5.116666666666666
2026-01-20T23:05:08+00:00,SAT-65669,305.32662068048785,30.897216006224227,4010.020310444215,-0.8780705709082215,30753.745628038203,10.5,10500030753.745628,47.655,-122.3035,60.0,5.133333333333334
2026-01-20T23:05:09+00:00,SAT-65669,305.2008002891315,30.927524545007806,4009.144581394829,-0.8662055579022103,30338.18268361244,10.5,10500030338.182684,47.655,-122.3035,60.0,5.15
2026-01-20T23:05:10+00:00,SAT-65669,305.07481750945726,30.95761955804393,4008.2806857184146,-0.8543316391528281,29922.30782238256,10.5,10500029922.307823,47.655,-122.3035,60.0,5.166666666666667
2026-01-20T23:05:11+00:00,SAT-65669,304.9486735288239,30.987500337441407,4007.428632296966,-0.8424489280774478,29506.125016704726,10.5,10500029506.125017,47.655,-122.3035,60.0,5.183333333333334
2026-01-20T23:05:12+00:00,SAT-65669,304.82236954444534,31.01716617990231,4006.5884298993633,-0.8305575387602265,29089.638262288703,10.5,10500029089.638262,47.655,-122.3035,60.0,5.2
2026-01-20T23:05:13+00:00,SAT-65669,304.6959067633357,31.04661638678462,4005.7600871807067,-0.8186575857986234,28672.851572822237,10.5,10500028672.851572,47.655,-122.3035,60.0,5.216666666666667
2026-01-20T23:05:14+00:00,SAT-65669,304.56928640219365,31.075850264181213,4004.943612681803,-0.8067491823630164,28255.7689120107,10.5,10500028255.768911,47.655,-122.3035,60.0,5.233333333333333
2026-01-20T23:05:15+00:00,SAT-65669,304.442509687741,31.104867122890234,4004.1390148305936,-0.7948324445618021,27838.394346461253,10.5,10500027838.394346,47.655,-122.3035,60.0,5.25
2026-01-20T23:05:16+00:00,SAT-65669,304.3155778562012,31.133666278588553,4003.346301939217,-0.7829074890141379,27420.7319606701,10.5,10500027420.73196,47.655,-122.3035,60.0,5.266666666666667
2026-01-20T23:05:17+00:00,SAT-65669,304.18849215323735,31.162247051891416,4002.5654822035067,-0.7709744307555683,27002.7857836686,10.5,10500027002.785784,47.655,-122.3035,60.0,5.283333333333333
2026-01-20T23:05:18+00:00,SAT-65669,304.0612538342217,31.19060876833893,4001.7965637045672,-0.7590333837818202,26584.559808069327,10.5,10500026584.559809,47.655,-122.3035,60.0,5.3
2026-01-20T23:05:19+00:00,SAT-65669,303.93386416449096,31.21875075838991,4001.0395544098083,-0.747084466594497,26166.058184299683,10.5,10500026166.058184,47.655,-122.3035,60.0,5.316666666666666
2026-01-20T23:05:20+00:00,SAT-65669,303.80632441849696,31.246672357659765,4000.2944621684583,-0.7351277963087787,25747.285014228662,10.5,10500025747.285015,47.655,-122.3035,60.0,5.333333333333333
2026-01-20T23:05:21+00:00,SAT-65669,303.6786358801454,31.27437290689109,3999.56129471294,-0.7231634881406276,25328.24433320664,10.5,10500025328.244333,47.655,-122.3035,60.0,5.35
2026-01-20T23:05:22+00:00,SAT-65669,303.55079984307696,31.301851751939058,3998.840059660767,-0.7111916614769661,24908.94032266864,10.5,10500024908.940323,47.655,-122.3035,60.0,5.366666666666666
2026-01-20T23:05:23+00:00,SAT-65669,303.4228176099802,31.32910824396852,3998.1307645103875,-0.6992124333918083,24489.377083041854,10.5,10500024489.377083,47.655,-122.3035,60.0,5.383333333333334
2026-01-20T23:05:24+00:00,SAT-65669,303.2946904929712,31.356141739417136,3997.433416643485,-0.6872259231455297,24069.558791329106,10.5,10500024069.558792,47.655,-122.3035,60.0,5.4
2026-01-20T23:05:25+00:00,SAT-65669,303.16641981321027,31.38295160012045,3996.748023322801,-0.6752322461766929,23649.489490677166,10.5,10500023649.48949,47.655,-122.3035,60.0,5.416666666666667
2026-01-20T23:05:26+00:00,SAT-65669,303.03800690168595,31.409537193194392,3996.0745916959477,-0.6632315242654274,23229.173446341298,10.5,10500023229.173447,47.655,-122.3035,60.0,5.433333333333334
2026-01-20T23:05:27+00:00,SAT-65669,302.9094530979175,31.43589789135148,3995.4131287890805,-0.6512238759666992,22808.61481061789,10.5,10500022808.61481,47.655,-122.3035,60.0,5.45
2026-01-20T23:05:28+00:00,SAT-65669,302.78075975061824,31.46203307280394,3994.763641510116,-0.6392094202608553,22387.81775070199,10.5,10500022387.81775,47.655,-122.3035,60.0,5.466666666666667
2026-01-20T23:05:29+00:00,SAT-65669,302.65192821763424,31.487942121320916,3994.126136648309,-0.6271882758538029,21966.78642417659,10.5,10500021966.786425,47.655,-122.3035,60.0,5.483333333333333
2026-01-20T23:05:30+00:00,SAT-65669,302.52295986599574,31.513624426262304,3993.500620874524,-0.6151605642593642,21545.525086969745,10.5,10500021545.525087,47.655,-122.3035,60.0,5.5
2026-01-20T23:05:31+00:00,SAT-65669,302.3938560713241,31.53907938273963,3992.8871007384364,-0.6031264052496919,21124.037934008884,10.5,10500021124.037933,47.655,-122.3035,60.0,5.516666666666667
2026-01-20T23:05:32+00:00,SAT-65669,302.26461821820146,31.564306391585063,3992.285582670267,-0.5910859197978623,20702.329202282846,10.5,10500020702.329203,47.655,-122.3035,60.0,5.533333333333333
2026-01-20T23:05:33+00:00,SAT-65669,302.13524769987924,31.589304859446734,3991.696072979589,-0.5790392279255638,20280.403095458863,10.5,10500020280.403095,47.655,-122.3035,60.0,5.55
2026-01-20T23:05:34+00:00,SAT-65669,302.0057459185403,31.614074198782056,3991.1185778562713,-0.5669864509611185,19858.263862967975,10.5,10500019858.263863,47.655,-122.3035,60.0,5.566666666666666
2026-01-20T23:05:35+00:00,SAT-65669,301.8761142850098,31.63861382795333,3990.553103369179,-0.5549277116802579,19435.91580493565,10.5,10500019435.915806,47.655,-122.3035,60.0,5.583333333333333
2026-01-20T23:05:36+00:00,SAT-65669,301.74635421828464,31.662923171355654,3989.99965546473,-0.5428631295776467,19013.363106570516,10.5,10500019013.363106,47.655,-122.3035,60.0,5.6
2026-01-20T23:05:37+00:00,SAT-65669,301.616467146488,31.687001659275705,3989.458239970165,-0.5307928281273105,18590.610092455234,10.5,10500018590.610092,47.655,-122.3035,60.0,5.616666666666666
2026-01-20T23:05:38+00:00,SAT-65669,301.48645450577527,31.710848728138238,3988.9288625895792,-0.5187169287617565,18167.661015669855,10.5,10500018167.661016,47.655,-122.3035,60.0,5.633333333333334
2026-01-20T23:05:39+00:00,SAT-65669,301.3563177408664,31.734463820441064,3988.411528905961,-0.5066355556624517,17744.520225574663,10.5,10500017744.520226,47.655,-122.3035,60.0,5.65
2026-01-20T23:05:40+00:00,SAT-65669,301.22605830426556,31.757846384938706,3987.9062443784464,-0.49454882847957626,17321.191912825074,10.5,10500017321.191914,47.655,-122.3035,60.0,5.666666666666667
2026-01-20T23:05:41+00:00,SAT-65669,301.0956776576166,31.780995876430104,3987.4130143468433,-0.48245687279016936,16897.680475660192,10.5,10500016897.680475,47.655,-122.3035,60.0,5.683333333333334
2026-01-20T23:05:42+00:00,SAT-65669,300.96517726988526,31.80391175612632,3986.9318440257134,-0.4703598102544202,16473.990175134466,10.5,10500016473.990175,47.655,-122.3035,60.0,5.7
2026-01-20T23:05:43+00:00,SAT-65669,300.83455861860716,31.8265934914603,3986.4627385082863,-0.4582577657185477,16050.125383890581,10.5,10500016050.125383,47.655,-122.3035,60.0,5.716666666666667
2026-01-20T23:05:44+00:00,SAT-65669,300.7038231887915,31.84904055631646,3986.0057027632765,-0.44615086109278523,15626.090371740589,10.5,10500015626.090372,47.655,-122.3035,60.0,5.733333333333333
2026-01-20T23:05:45+00:00,SAT-65669,300.5729724739664,31.871252430882887,3985.5607416378134,-0.43403922126502587,15201.889512786782,10.5,10500015201.889513,47.655,-122.3035,60.0,5.75
2026-01-20T23:05:46+00:00,SAT-65669,300.4420079750734,31.893228601876647,3985.127859854472,-0.4219229701468724,14777.527146937633,10.5,10500014777.527147,47.655,-122.3035,60.0,5.766666666666667
2026-01-20T23:05:47+00:00,SAT-65669,300.3109312008846,31.914968562504868,3984.7070620122454,-0.40980223201432114,14353.007626864222,10.5,10500014353.007627,47.655,-122.3035,60.0,5.783333333333333
2026-01-20T23:05:48+00:00,SAT-65669,300.17974366783557,31.936471812527767,3984.298352586183,-0.39767713156722384,13928.335320082837,10.5,10500013928.33532,47.655,-122.3035,60.0,5.8
2026-01-20T23:05:49+00:00,SAT-65669,300.0484468998141,31.957737858322368,3983.9017359269665,-0.3855477920742853,13503.514543984946,10.5,10500013503.514544,47.655,-122.3035,60.0,5.816666666666666
2026-01-20T23:05:50+00:00,SAT-65669,299.91704242873175,31.978766212824667,3983.5172162623376,-0.37341434150473496,13078.54978059427,10.5,10500013078.54978,47.655,-122.3035,60.0,5.833333333333333
2026-01-20T23:05:51+00:00,SAT-65669,299.7855317927002,31.999556395853947,3983.14479769241,-0.361276901458284,12653.445288847066,10.5,10500012653.44529,47.655,-122.3035,60.0,5.85
2026-01-20T23:05:52+00:00,SAT-65669,299.6539165384336,32.020107933755874,3982.7844841960227,-0.3491355989817429,12228.205518460041,10.5,10500012228.205519,47.655,-122.3035,60.0,5.866666666666666
2026-01-20T23:05:53+00:00,SAT-65669,299.52219821920966,32.04042035976154,3982.436279625305,-0.3369905590900596,11802.834847985489,10.5,10500011802.834848,47.655,-122.3035,60.0,5.883333333333334
2026-01-20T23:05:54+00:00,SAT-65669,299.3903783955349,32.06049321390815,3982.100187707706,-0.32484190765554877,11377.337686004303,10.5,10500011377.337687,47.655,-122.3035,60.0,5.9
2026-01-20T23:05:55+00:00,SAT-65669,299.25845863483426,32.08032604311675,3981.7762120451375,-0.31268976969722423,10951.71841121118,10.5,10500010951.71841,47.655,-122.3035,60.0,5.916666666666667
2026-01-20T23:05:56+00:00,SAT-65669,299.12644051178785,32.09991840116954,3981.4643561148255,-0.30053427202963995,10525.981465188226,10.5,10500010525.981464,47.655,-122.3035,60.0,5.933333333333334
2026-01-20T23:05:57+00:00,SAT-65669,298.9943256074816,32.11926984886439,3981.1646232675216,-0.2883755397124673,10100.131228054133,10.5,10500010100.131227,47.655,-122.3035,60.0,5.95
2026-01-20T23:05:58+00:00,SAT-65669,298.8621155101765,32.138379953927426,3980.877016729248,-0.2762137001645337,9674.172162555218,10.5,10500009674.172163,47.655,-122.3035,60.0,5.966666666666667
2026-01-20T23:05:59+00:00,SAT-65669,298.72981181423427,32.157248291197966,3980.601539598951,-0.26404887823155004,9248.108641316372,10.5,10500009248.10864,47.655,-122.3035,60.0,5.983333333333333
2026-01-20T23:06:00+00:00,SAT-65669,298.59741612131324,32.17587444247974,3980.3381948510614,-0.2518812017318043,8821.945141074713,10.5,10500008821.94514,47.655,-122.3035,60.0,6.0
2026-01-20T23:06:01+00:00,SAT-65669,298.46493003876384,32.194257996796495,3980.0869853325344,-0.23971079634652057,8395.68606371834,10.5,10500008395.686064,47.655,-122.3035,60.0,6.016666666666667
2026-01-20T23:06:02+00:00,SAT-65669,298.33235518081824,32.21239855024752,3979.847913764978,-0.22753778966122243,7969.335877831975,10.5,10500007969.335878,47.655,-122.3035,60.0,6.033333333333333
2026-01-20T23:06:03+00:00,SAT-65669,298.1996931674114,32.23029570619587,3979.6209827427556,-0.21536230745267923,7542.898988650114,10.5,10500007542.898989,47.655,-122.3035,60.0,6.05
2026-01-20T23:06:04+00:00,SAT-65669,298.0669456252597,32.247949075142394,3979.40619473479,-0.20318447749699695,7116.379871432483,10.5,10500007116.379871,47.655,-122.3035,60.0,6.066666666666666
2026-01-20T23:06:05+00:00,SAT-65669,297.93411418667574,32.26535827491156,3979.203552082566,-0.19100442659043376,6689.782967120388,10.5,10500006689.782967,47.655,-122.3035,60.0,6.083333333333333
2026-01-20T23:06:06+00:00,SAT-65669,297.8012004899132,32.282522930624644,3979.013057001113,-0.17882228185806615,6263.112728171748,10.5,10500006263.112728,47.655,-122.3035,60.0,6.1
2026-01-20T23:06:07+00:00,SAT-65669,297.66820617924407,32.29944267471154,3978.8347115786733,-0.1666381704890061,5836.373609287276,10.5,10500005836.37361,47.655,-122.3035,60.0,6.116666666666666
2026-01-20T23:06:08+00:00,SAT-65669,297.5351329045612,32.31611714698372,3978.6685177766394,-0.1544522199828881,5409.57007604349,10.5,10500005409.570076,47.655,-122.3035,60.0,6.133333333333334
2026-01-20T23:06:09+00:00,SAT-65669,297.4019823213486,32.3325459946576,3978.514477429243,-0.1422645577742944,4982.7065917385125,10.5,10500004982.706593,47.655,-122.3035,60.0,6.15
2026-01-20T23:06:10+00:00,SAT-65669,297.26875609048886,32.348728872398205,3978.3725922436224,-0.1300753111336522,4555.787613921055,10.5,10500004555.787615,47.655,-122.3035,60.0,6.166666666666667
2026-01-20T23:06:11+00:00,SAT-65669,297.13545587856294,32.36466544230023,3978.242863799985,-0.11788460785587168,4128.817618509444,10.5,10500004128.81762,47.655,-122.3035,60.0,6.183333333333334
2026-01-20T23:06:12+00:00,SAT-65669,297.00208335710704,32.38035537399853,3978.125293551084,-0.10569257555747766,3701.801075174197,10.5,10500003701.801075,47.655,-122.3035,60.0,6.2
2026-01-20T23:06:13+00:00,SAT-65669,296.8686402029217,32.39579834464669,3978.0198828223943,-0.09349934190835822,3274.7424554548375,10.5,10500003274.742455,47.655,-122.3035,60.0,6.216666666666667
2026-01-20T23:06:14+00:00,SAT-65669,296.73512809775417,32.41099403897181,3977.9266328120643,-0.08130503461702604,2847.646232243686,10.5,10500002847.646233,47.655,-122.3035,60.0,6.233333333333333
2026-01-20T23:06:15+00:00,SAT-65669,296.601548728594,32.425942149256386,3977.845544590873,-0.06910978157952694,2420.516885001266,10.5,10500002420.516886,47.655,-122.3035,60.0,6.25
2026-01-20T23:06:16+00:00,SAT-65669,296.46790378683306,32.44064237545147,3977.7766191020446,-0.05691371052927638,1993.3588874920995,10.5,10500001993.358887,47.655,-122.3035,60.0,6.266666666666667
2026-01-20T23:06:17+00:00,SAT-65669,296.3341949688748,32.455094425119846,3977.71985716141,-0.04471694940704352,1566.1767207431114,10.5,10500001566.176722,47.655,-122.3035,60.0,6.283333333333333
2026-01-20T23:06:18+00:00,SAT-65669,296.200423975504,32.469298013523236,3977.6752594572013,-0.032519626150548195,1138.974865674426,10.5,10500001138.974865,47.655,-122.3035,60.0,6.3
2026-01-20T23:06:19+00:00,SAT-65669,296.0665925122817,32.483252863592014,3977.642826550054,-0.020321868649737545,711.7578015329666,10.5,10500000711.757801,47.655,-122.3035,60.0,6.316666666666666
2026-01-20T23:06:20+00:00,SAT-65669,295.93270228891544,32.496958706006296,3977.6225588730535,-0.008123804880956119,284.5300105916582,10.5,10500000284.53001,47.655,-122.3035,60.0,6.333333333333333
2026-01-20T23:06:21+00:00,SAT-65669,295.7987550190114,32.51041527923258,3977.6144567316524,0.00407443721045297,-142.7040259623749,10.5,10499999857.295975,47.655,-122.3035,60.0,6.35
2026-01-20T23:06:22+00:00,SAT-65669,295.6647524208295,32.52362232945761,3977.6185203036966,0.016272729517024492,-569.9398212638063,10.5,10499999430.060179,47.655,-122.3035,60.0,6.366666666666666
2026-01-20T23:06:23+00:00,SAT-65669,295.5306962164998,32.53657961068116,3977.6347496392686,0.02847094437700195,-997.1729040579148,10.5,10499999002.827095,47.655,-122.3035,60.0,6.383333333333334
2026-01-20T23:06:24+00:00,SAT-65669,295.396588131712,32.549286884755524,3977.6631446611273,0.04066895354468434,-1424.3987826377727,10.5,10499998575.601217,47.655,-122.3035,60.0,6.4
2026-01-20T23:06:25+00:00,SAT-65669,295.26242989610074,32.56174392135743,3977.7037051641296,0.05286662890904891,-1851.6129700134536,10.5,10499998148.38703,47.655,-122.3035,60.0,6.416666666666667
2026-01-20T23:06:26+00:00,SAT-65669,295.1282232433646,32.573950497988676,3977.756430815361,0.06506384315342037,-2278.8110070164403,10.5,10499997721.188993,47.655,-122.3035,60.0,6.433333333333334
2026-01-20T23:06:27+00:00,SAT-65669,294.99396990961617,32.58590640013608,3977.821321154933,0.07726046769870555,-2705.988390263001,10.5,10499997294.01161,47.655,-122.3035,60.0,6.45
2026-01-20T23:06:28+00:00,SAT-65669,294.8596716354262,32.59761142109188,3977.8983755947174,0.08945637502290842,-3133.1406533934164,10.5,10499996866.859346,47.655,-122.3035,60.0,6.466666666666667
2026-01-20T23:06:29+00:00,SAT-65669,294.7253301639624,32.609065362131076,3977.987593419407,0.10165143702974455,-3560.2633099339605,10.5,10499996439.73669,47.655,-122.3035,60.0,6.483333333333333
2026-01-20T23:06:30+00:00,SAT-65669,294.5909472419516,32.62026803243061,3978.0889737859384,0.1138455262195796,-3987.351894308114,10.5,10499996012.648106,47.655,-122.3035,60.0,6.5
2026-01-20T23:06:31+00:00,SAT-65669,294.45652461868525,32.631219249162676,3978.202515724088,0.1260385145286552,-4414.401921181351,10.5,10499995585.59808,47.655,-122.3035,60.0,6.516666666666667
2026-01-20T23:06:32+00:00,SAT-65669,294.32206404665436,32.641918837445814,3978.328218135911,0.13823027430131346,-4841.40891951255,10.5,10499995158.59108,47.655,-122.3035,60.0,6.533333333333333
2026-01-20T23:06:33+00:00,SAT-65669,294.18756728097685,32.65236663039702,3978.4660797961474,0.15042067795101452,-5268.368420681391,10.5,10499994731.631578,47.655,-122.3035,60.0,6.55
2026-01-20T23:06:34+00:00,SAT-65669,294.05303607940044,32.66256246913588,3978.616099352291,0.16260959779109904,-5695.2759525609545,10.5,10499994304.724047,47.655,-122.3035,60.0,6.566666666666666
2026-01-20T23:06:35+00:00,SAT-65669,293.9184722021486,32.67250620279953,3978.7782753244874,0.17479690641290402,-6122.127052760921,10.5,10499993877.872948,47.655,-122.3035,60.0,6.583333333333333
2026-01-20T23:06:36+00:00,SAT-65669,293.7838774118179,32.682197688553686,3978.952606105817,0.18698247643622662,-6548.917259887771,10.5,10499993451.08274,47.655,-122.3035,60.0,6.6
2026-01-20T23:06:37+00:00,SAT-65669,293.64925347312,32.69163679161365,3979.1390899623157,0.19916617999907194,-6975.642095673586,10.5,10499993024.357904,47.655,-122.3035,60.0,6.616666666666666
2026-01-20T23:06:38+00:00,SAT-65669,293.5146021531948,32.700823385223885,3979.337725032502,0.2113478901090088,-7402.297112306249,10.5,10499992597.702888,47.655,-122.3035,60.0,6.633333333333334
2026-01-20T23:06:39+00:00,SAT-65669,293.3799252209371,32.70975735070743,3979.5485093282373,0.2235274805023932,-7828.877887498854,10.5,10499992171.122112,47.655,-122.3035,60.0,6.65
2026-01-20T23:06:40+00:00,SAT-65669,293.24522444666,32.718438577485784,3979.771440735458,0.2357048223780402,-8255.379910089072,10.5,10499991744.62009,47.655,-122.3035,60.0,6.666666666666667
2026-01-20T23:06:41+00:00,SAT-65669,293.1105016032391,32.726866963004525,3980.0065170116427,0.2478797897503018,-8681.798767526596,10.5,10499991318.201233,47.655,-122.3035,60.0,6.683333333333334
2026-01-20T23:06:42+00:00,SAT-65669,292.97575846460217,32.73504241283268,3980.2537357886204,0.2600522556104842,-9108.130011429721,10.5,10499990891.86999,47.655,-122.3035,60.0,6.7
2026-01-20T23:06:43+00:00,SAT-65669,292.84099680622705,32.74296484062551,3980.5130945715496,0.27222209342406206,-9534.369210024128,10.5,10499990465.63079,47.655,-122.3035,60.0,6.716666666666667
2026-01-20T23:06:44+00:00,SAT-65669,292.706218404812,32.750634168145126,3980.784590739391,0.28438917572087796,-9960.511898765708,10.5,10499990039.488102,47.655,-122.3035,60.0,6.733333333333333
2026-01-20T23:06:45+00:00,SAT-65669,292.5714250385523,32.758050325240866,3981.068221543977,0.29655337685985717,-10386.55367717256,10.5,10499989613.446323,47.655,-122.3035,60.0,6.75
2026-01-20T23:06:46+00:00,SAT-65669,292.43661848638897,32.765213249888895,3981.3639841118315,0.30871457037508426,-10812.490115873376,10.5,10499989187.509884,47.655,-122.3035,60.0,6.766666666666667
2026-01-20T23:06:47+00:00,SAT-65669,292.30180052817684,32.77212288817814,3981.6718754433523,0.3208726295663545,-11238.31677729105,10.5,10499988761.683222,47.655,-122.3035,60.0,6.783333333333333
2026-01-20T23:06:48+00:00,SAT-65669,292.1669729447818,32.778779194300355,3981.991892412573,0.3330274285613533,-11664.029252844677,10.5,10499988335.970747,47.655,-122.3035,60.0,6.8
2026-01-20T23:06:49+00:00,SAT-65669,292.03213751761746,32.78518213057011,3982.324031767992,0.34517884142677957,-12089.623131817363,10.5,10499987910.376867,47.655,-122.3035,60.0,6.816666666666666
2026-01-20T23:06:50+00:00,SAT-65669,291.8972960286301,32.791331667418895,3982.668290132508,0.35732674234520634,-12515.094007550606,10.5,10499987484.905993,47.655,-122.3035,60.0,6.833333333333333
2026-01-20T23:06:51+00:00,SAT-65669,291.7624502601492,32.79722778339535,3983.0246640035402,0.36947100539654626,-12940.437469790304,10.5,10499987059.56253,47.655,-122.3035,60.0,6.85
2026-01-20T23:06:52+00:00,SAT-65669,291.6276019948852,32.802870465159536,3983.393149752923,0.3816115060745795,-13365.649157801976,10.5,10499986634.350842,47.655,-122.3035,60.0,6.866666666666666
2026-01-20T23:06:53+00:00,SAT-65669,291.4927530153426,32.80825970749872,3983.773743628314,0.3937481184714158,-13790.72466175872,10.5,10499986209.27534,47.655,-122.3035,60.0,6.883333333333334
2026-01-20T23:06:54+00:00,SAT-65669,291.3579051042456,32.81339551330226,3984.166441751803,0.40588071712233276,-14215.659587355243,10.5,10499985784.340412,47.655,-122.3035,60.0,6.9
2026-01-20T23:06:55+00:00,SAT-65669,291.22306004428526,32.818277893562836,3984.571240120347,0.41800917743268035,-14640.44957075986,10.5,10499985359.550428,47.655,-122.3035,60.0,6.916666666666667
2026-01-20T23:06:56+00:00,SAT-65669,291.0882196177762,32.82290686738069,3984.9881346066395,0.43013337427011167,-15065.09022930848,10.5,10499984934.909771,47.655,-122.3035,60.0,6.933333333333334
2026-01-20T23:06:57+00:00,SAT-65669,290.95338560673633,32.82728246195087,3985.417120958578,0.44225318425462196,-15489.577241711431,10.5,10499984510.422758,47.655,-122.3035,60.0,6.95
2026-01-20T23:06:58+00:00,SAT-65669,290.81855979233274,32.831404712569594,3985.858194801008,0.45436848228740684,-15913.906226479425,10.5,10499984086.093773,47.655,-122.3035,60.0,6.966666666666667
2026-01-20T23:06:59+00:00,SAT-65669,290.68374395526996,32.83527366261048,3986.3113516340095,0.46647914342314467,-16338.072807498775,10.5,10499983661.927193,47.655,-122.3035,60.0,6.983333333333333
2026-01-20T23:07:00+00:00,SAT-65669,290.54893987567874,32.8388893635181,3986.77658683305,0.4785850449557296,-16762.07268708261,10.5,10499983237.927313,47.655,-122.3035,60.0,7.0
2026-01-20T23:07:01+00:00,SAT-65669,290.41414933242737,32.84225187481361,3987.253895651219,0.49068606275045074,-17185.901517508264,10.5,10499982814.098482,47.655,-122.3035,60.0,7.016666666666667
2026-01-20T23:07:02+00:00,SAT-65669,290.27937410343617,32.845361264073624,3987.743273217802,0.5027820737820403,-17609.554989910463,10.5,10499982390.44501,47.655,-122.3035,60.0,7.033333333333333
2026-01-20T23:07:03+00:00,SAT-65669,290.14461596531237,32.848217606924365,3988.2447145393876,0.5148729534512742,-18033.028740297326,10.5,10499981966.97126,47.655,-122.3035,60.0,7.05
2026-01-20T23:07:04+00:00,SAT-65669,290.0098766936676,32.8508209870219,3988.758214498296,0.5269585805335074,-18456.318522869005,10.5,10499981543.681477,47.655,-122.3035,60.0,7.066666666666666
2026-01-20T23:07:05+00:00,SAT-65669,289.8751580622219,32.85317149605483,3989.283767855948,0.5390388313626074,-18879.420006314427,10.5,10499981120.579994,47.655,-122.3035,60.0,7.083333333333333
2026-01-20T23:07:06+00:00,SAT-65669,289.7404618433169,32.85526923371833,3989.8213692504273,0.5511135824523512,-19302.328865623727,10.5,10499980697.671135,47.655,-122.3035,60.0,7.1
2026-01-20T23:07:07+00:00,SAT-65669,289.6057898077979,32.85711430770229,3990.3710131966595,0.5631827124154638,-19725.04084930105,10.5,10499980274.95915,47.655,-122.3035,60.0,7.116666666666666
2026-01-20T23:07:08+00:00,SAT-65669,289.4711437244346,32.85870683368311,3990.932694088509,0.5752461002021274,-20147.551717669754,10.5,10499979852.448282,47.655,-122.3035,60.0,7.133333333333334
2026-01-20T23:07:09+00:00,SAT-65669,289.33652535981037,32.86004693530588,3991.5064061991106,0.5873036230970891,-20569.857172722586,10.5,10499979430.142828,47.655,-122.3035,60.0,7.15
2026-01-20T23:07:10+00:00,SAT-65669,289.20193647860697,32.86113474416398,3992.0921436792128,0.599355159074241,-20991.952940589086,10.5,10499979008.04706,47.655,-122.3035,60.0,7.166666666666667
2026-01-20T23:07:11+00:00,SAT-65669,289.06737884337605,32.861970399783374,3992.6899005578625,0.6114005868545588,-21413.83477356481,10.5,10499978586.165226,47.655,-122.3035,60.0,7.183333333333334
2026-01-20T23:07:12+00:00,SAT-65669,288.93285421429846,32.86255404960711,3993.2996707431525,0.6234397870368903,-21835.498489716334,10.5,10499978164.50151,47.655,-122.3035,60.0,7.2
2026-01-20T23:07:13+00:00,SAT-65669,288.798364348741,32.86288584897579,3993.9214480240903,0.6354726379457994,-22256.93982745521,10.5,10499977743.060173,47.655,-122.3035,60.0,7.216666666666667
2026-01-20T23:07:14+00:00,SAT-65669,288.66391100165293,32.862965961105814,3994.5552260683353,0.6474990174764047,-22678.154510151984,10.5,10499977321.84549,47.655,-122.3035,60.0,7.233333333333333
2026-01-20T23:07:15+00:00,SAT-65669,288.52949592555984,32.86279455707202,3995.200998421765,0.6595188082533178,-23099.138426824054,10.5,10499976900.861572,47.655,-122.3035,60.0,7.25
2026-01-20T23:07:16+00:00,SAT-65669,288.3951208695619,32.862371815784265,3995.858758513196,0.6715318905338625,-23519.887383576395,10.5,10499976480.112616,47.655,-122.3035,60.0,7.266666666666667
2026-01-20T23:07:17+00:00,SAT-65669,288.260787579765,32.861697923964364,3996.528499652022,0.683538142542992,-23940.397115331758,10.5,10499976059.602884,47.655,-122.3035,60.0,7.283333333333333
2026-01-20T23:07:18+00:00,SAT-65669,288.1264977995591,32.86077307612746,3997.210215026185,0.6955374456002097,-24360.663465397127,10.5,10499975639.336535,47.655,-122.3035,60.0,7.3
2026-01-20T23:07:19+00:00,SAT-65669,287.99225326898005,32.8595974745563,3997.9038977052633,0.7075296825669576,-24780.68233108471,10.5,10499975219.317669,47.655,-122.3035,60.0,7.316666666666666
2026-01-20T23:07:20+00:00,SAT-65669,287.8580557243532,32.858171329273375,3998.60954064201,0.7195147331216971,-25200.449498225265,10.5,10499974799.5505,47.655,-122.3035,60.0,7.333333333333333
2026-01-20T23:07:21+00:00,SAT-65669,287.7239068988224,32.85649485802172,3999.327136669177,0.731492479549041,-25619.960843928002,10.5,10499974380.039156,47.655,-122.3035,60.0,7.35
2026-01-20T23:07:22+00:00,SAT-65669,287.58980852178956,32.85456828623572,4000.0566785021138,0.7434628039608068,-26039.2122392501,10.5,10499973960.787762,47.655,-122.3035,60.0,7.366666666666666
2026-01-20T23:07:23+00:00,SAT-65669,287.4557623189128,32.85239184701451,4000.7981587385975,0.7554255880734179,-26458.199541400365,10.5,10499973541.800459,47.655,-122.3035,60.0,7.383333333333334
2026-01-20T23:07:24+00:00,SAT-65669,287.3217700120685,32.84996578109758,4001.551569858436,0.7673807172025093,-26876.91873364722,10.5,10499973123.081266,47.655,-122.3035,60.0,7.4
2026-01-20T23:07:25+00:00,SAT-65669,287.1878333187241,32.84729033682476,4002.3169042270592,0.7793280705513572,-27295.365585178435,10.5,10499972704.634415,47.655,-122.3035,60.0,7.416666666666667
2026-01-20T23:07:26+00:00,SAT-65669,287.0539539528561,32.84436577012998,4003.0941540894223,0.791267534795085,-27713.536126877458,10.5,10499972286.463873,47.655,-122.3035,60.0,7.433333333333334
2026-01-20T23:07:27+00:00,SAT-65669,286.9201336236827,32.841192344486245,4003.883311577458,0.8031989903495808,-28131.42617040285,10.5,10499971868.57383,47.655,-122.3035,60.0,7.45
2026-01-20T23:07:28+00:00,SAT-65669,286.78637403659025,32.83777033090078,4004.684368703833,0.8151223267370151,-28549.031846353715,10.5,10499971450.968153,47.655,-122.3035,60.0,7.466666666666667
2026-01-20T23:07:29+00:00,SAT-65669,286.65267689164205,32.83410000784654,4005.4973173710328,0.8270374216451529,-28966.34887083819,10.5,10499971033.651129,47.655,-122.3035,60.0,7.483333333333333
2026-01-20T23:07:30+00:00,SAT-65669,286.51904388536985,32.83018166128444,4006.322149359553,0.8389441653666252,-29383.373401440153,10.5,10499970616.626598,47.655,-122.3035,60.0,7.5
2026-01-20T23:07:31+00:00,SAT-65669,286.38547670875164,32.82601558457522,4007.1588563404785,0.850842440366463,-29800.10132158782,10.5,10499970199.898678,47.655,-122.3035,60.0,7.516666666666667
2026-01-20T23:07:32+00:00,SAT-65669,286.25197704835455,32.821602078484204,4008.007429867671,0.8627321336328528,-30216.528673129447,10.5,10499969783.471327,47.655,-122.3035,60.0,7.533333333333333
2026-01-20T23:07:33+00:00,SAT-65669,286.1185465856063,32.81694145112707,4008.867861382281,0.8746131289450815,-30632.651385524034,10.5,10499969367.348614,47.655,-122.3035,60.0,7.55
2026-01-20T23:07:34+00:00,SAT-65669,285.9851869971851,32.812034017954375,4009.7401422095486,0.8864853155391915,-31048.46557934927,10.5,10499968951.53442,47.655,-122.3035,60.0,7.566666666666666
2026-01-20T23:07:35+00:00,SAT-65669,285.8518999541884,32.8068801016883,4010.6242635642466,0.8983485779496847,-31463.96721051498,10.5,10499968536.03279,47.655,-122.3035,60.0,7.583333333333333
2026-01-20T23:07:36+00:00,SAT-65669,285.7186871227413,32.80148003231471,4011.520216545988,0.9102028040094087,-31879.15235045303,10.5,10499968120.847649,47.655,-122.3035,60.0,7.6
2026-01-20T23:07:37+00:00,SAT-65669,285.5855501634792,32.79583414703058,4012.4279921425205,0.9220478804438001,-32294.01703180906,10.5,10499967705.982967,47.655,-122.3035,60.0,7.616666666666666
2026-01-20T23:07:38+00:00,SAT-65669,285.45249073163615,32.78994279021514,4013.347581228616,0.9338836974585853,-32708.55740912317,10.5,10499967291.44259,47.655,-122.3035,60.0,7.633333333333334
2026-01-20T23:07:39+00:00,SAT-65669,285.31951047652,32.783806313372416,4014.2789745695486,0.9457101410671853,-33122.7694901032,10.5,10499966877.23051,47.655,-122.3035,60.0,7.65
2026-01-20T23:07:40+00:00,SAT-65669,285.1866110420323,32.777425075122125,4015.222162816906,0.9575270999227143,-33536.64937491022,10.5,10499966463.350626,47.655,-122.3035,60.0,7.666666666666667
2026-01-20T23:07:41+00:00,SAT-65669,285.05379406625383,32.770799441145826,4016.177136511229,0.9693344655487124,-33950.19326423976,10.5,10499966049.806736,47.655,-122.3035,60.0,7.683333333333334
2026-01-20T23:07:42+00:00,SAT-65669,284.9210611810018,32.76392978413044,4017.1438860848693,0.9811321259030491,-34363.39723390245,10.5,10499965636.602766,47.655,-122.3035,60.0,7.7
2026-01-20T23:07:43+00:00,SAT-65669,284.78841401227953,32.75681648375426,4018.1224018584367,0.9929199701196152,-34776.25740089819,10.5,10499965223.7426,47.655,-122.3035,60.0,7.716666666666667
2026-01-20T23:07:44+00:00,SAT-65669,284.6558541800379,32.74945992664153,4019.112674041969,1.0046978893595893,-35188.76995323107,10.5,10499964811.230047,47.655,-122.3035,60.0,7.733333333333333
2026-01-20T23:07:45+00:00,SAT-65669,284.5233832978864,32.74186050630914,4020.1146927369573,1.016465773585769,-35600.9310369328,10.5,10499964399.068964,47.655,-122.3035,60.0,7.75
2026-01-20T23:07:46+00:00,SAT-65669,284.39100297318447,32.734018623136336,4021.1284479351466,1.0282235165543026,-36012.736930894294,10.5,10499963987.26307,47.655,-122.3035,60.0,7.766666666666667
2026-01-20T23:07:47+00:00,SAT-65669,284.2587148065251,32.72593468429553,4022.153929522324,1.0399710082762683,-36424.18378283825,10.5,10499963575.816217,47.655,-122.3035,60.0,7.783333333333333
2026-01-20T23:07:48+00:00,SAT-65669,284.1265203921588,32.71760910374068,4023.191127274578,1.0517081390991854,-36835.267752270964,10.5,10499963164.732248,47.655,-122.3035,60.0,7.8
2026-01-20T23:07:49+00:00,SAT-65669,283.9944213179059,32.709042302165535,4024.24003085864,1.0634348041580033,-37245.98516637478,10.5,10499962754.014833,47.655,-122.3035,60.0,7.816666666666666
2026-01-20T23:07:50+00:00,SAT-65669,283.8624191645097,32.70023470692357,4025.3006298366536,1.0751508964628045,-37656.33227791023,10.5,10499962343.667723,47.655,-122.3035,60.0,7.833333333333333
2026-01-20T23:07:51+00:00,SAT-65669,283.73051550588343,32.69118675200297,4026.3729136640586,1.0868563076987425,-38066.305293233214,10.5,10499961933.694706,47.655,-122.3035,60.0,7.85
2026-01-20T23:07:52+00:00,SAT-65669,283.59871190919955,32.681898877996154,4027.4568716882704,1.0985509308032249,-38475.90046255887,10.5,10499961524.099537,47.655,-122.3035,60.0,7.866666666666666
2026-01-20T23:07:53+00:00,SAT-65669,283.46700993471177,32.67237153204759,4028.5524931499244,1.1102346655822488,-38885.1142766694,10.5,10499961114.885723,47.655,-122.3035,60.0,7.883333333333334
2026-01-20T23:07:54+00:00,SAT-65669,283.3354111349063,32.662605167750854,4029.6597671897316,1.1219074023355604,-39293.942893397885,10.5,10499960706.057106,47.655,-122.3035,60.0,7.9
2026-01-20T23:07:55+00:00,SAT-65669,283.20391705558615,32.65260024518754,4030.7786828389944,1.133569034434587,-39702.382578160665,10.5,10499960297.617422,47.655,-122.3035,60.0,7.916666666666667
2026-01-20T23:07:56+00:00,SAT-65669,283.0725292354475,32.64235723085808,4031.909229022671,1.1452194631855905,-40110.42987428556,10.5,10499959889.570126,47.655,-122.3035,60.0,7.933333333333334
2026-01-20T23:07:57+00:00,SAT-65669,282.94124920516174,32.63187659756621,4033.051394567288,1.1568585810828105,-40518.0810164661,10.5,10499959481.918983,47.655,-122.3035,60.0,7.95
2026-01-20T23:07:58+00:00,SAT-65669,282.81007848833065,32.62115882445325,4034.2051681921544,1.1684862867145498,-40925.33245283567,10.5,10499959074.667547,47.655,-122.3035,60.0,7.966666666666667
2026-01-20T23:07:59+00:00,SAT-65669,282.6790186007781,32.61020439689804,4035.370538515438,1.1801024743609319,-41332.18048063699,10.5,10499958667.819519,47.655,-122.3035,60.0,7.983333333333333
2026-01-20T23:08:00+00:00,SAT-65669,282.54807105097234,32.59901380651186,4036.547494049867,1.1917070455060959,-41738.621649427914,10.5,10499958261.378351,47.655,-122.3035,60.0,8.0
2026-01-20T23:08:01+00:00,SAT-65669,282.4172373392318,32.58758755102451,4037.736023209918,1.2032998953973086,-42144.65229032459,10.5,10499957855.34771,47.655,-122.3035,60.0,8.016666666666667
2026-01-20T23:08:02+00:00,SAT-65669,282.2865189583496,32.57592613429798,4038.936114305595,1.2148809236118672,-42550.26888609921,10.5,10499957449.731113,47.655,-122.3035,60.0,8.033333333333333
2026-01-20T23:08:03+00:00,SAT-65669,282.1559173931141,32.56403006623844,4040.1477555467436,1.226450029220884,-42955.46790179519,10.5,10499957044.532099,47.655,-122.3035,60.0,8.05
2026-01-20T23:08:04+00:00,SAT-65669,282.0254341203221,32.55189986275387,4041.370935042553,1.2380071118606109,-43360.24582224952,10.5,10499956639.754177,47.655,-122.3035,60.0,8.066666666666666
2026-01-20T23:08:05+00:00,SAT-65669,281.8950706087008,32.539536045702604,4042.605640802116,1.2495520716353699,-43764.599148693,10.5,10499956235.400852,47.655,-122.3035,60.0,8.083333333333334
2026-01-20T23:08:06+00:00,SAT-65669,281.76482831882817,32.52693914284002,4043.8518607348933,1.2610848090875688,-44168.524397700065,10.5,10499955831.475603,47.655,-122.3035,60.0,8.1
2026-01-20T23:08:07+00:00,SAT-65669,281.6347087030682,32.51410968776719,4045.1095826511564,1.27260522642556,-44572.018144193535,10.5,10499955427.981855,47.655,-122.3035,60.0,8.116666666666667
2026-01-20T23:08:08+00:00,SAT-65669,281.50471320537014,32.50104821986566,4046.378794263645,1.284113222076032,-44975.076830646416,10.5,10499955024.92317,47.655,-122.3035,60.0,8.133333333333333
2026-01-20T23:08:09+00:00,SAT-65669,281.374843261634,32.487755284287886,4047.6594831837956,1.295608703444393,-45377.69721400439,10.5,10499954622.302786,47.655,-122.3035,60.0,8.15
2026-01-20T23:08:10+00:00,SAT-65669,281.2451002987855,32.47423143181648,4048.9516369306975,1.3070915667435261,-45779.87565920362,10.5,10499954220.12434,47.655,-122.3035,60.0,8.166666666666666
2026-01-20T23:08:11+00:00,SAT-65669,281.11548573586845,32.460477218930585,4050.25524291993,1.3185617172661694,-46181.60884919519,10.5,10499953818.391151,47.655,-122.3035,60.0,8.183333333333334
2026-01-20T23:08:12+00:00,SAT-65669,280.98600098311783,32.44649320766395,4051.5702884726165,1.3300190639982936,-46582.89359628281,10.5,10499953417.106403,47.655,-122.3035,60.0,8.2
2026-01-20T23:08:13+00:00,SAT-65669,280.85664744161215,32.432279965513835,4052.8967608191106,1.3414635058371995,-46983.726359422275,10.5,10499953016.27364,47.655,-122.3035,60.0,8.216666666666667
2026-01-20T23:08:14+00:00,SAT-65669,280.7274265042142,32.4178380654993,4054.2346470889324,1.352894947358527,-47384.10379644885,10.5,10499952615.896204,47.655,-122.3035,60.0,8.233333333333333
2026-01-20T23:08:15+00:00,SAT-65669,280.5983395550048,32.403168086051295,4055.583934316431,1.3643132938326517,-47784.022589530396,10.5,10499952215.977411,47.655,-122.3035,60.0,8.25
2026-01-20T23:08:16+00:00,SAT-65669,280.4693879692061,32.388270610955125,4056.94460944148,1.3757184531401674,-48183.47951225563,10.5,10499951816.520487,47.655,-122.3035,60.0,8.266666666666667
2026-01-20T23:08:17+00:00,SAT-65669,280.3405731129284,32.37314622927105,4058.3166593120786,1.3871103327982892,-48582.471325486236,10.5,10499951417.528675,47.655,-122.3035,60.0,8.283333333333333
2026-01-20T23:08:18+00:00,SAT-65669,280.2118963431907,32.35779553528731,4059.7000706839895,1.398488832770055,-48980.99452550463,10.5,10499951019.005474,47.655,-122.3035,60.0,8.3
2026-01-20T23:08:19+00:00,SAT-65669,280.0833590086022,32.34221912855354,4061.0948302132056,1.4098538672069814,-49379.046105533795,10.5,10499950620.953894,47.655,-122.3035,60.0,8.316666666666666
2026-01-20T23:08:20+00:00,SAT-65669,279.9549624480482,32.326417613672234,4062.5009244701,1.4212053440704684,-49776.62284199263,10.5,10499950223.377157,47.655,-122.3035,60.0,8.333333333333334
2026-01-20T23:08:21+00:00,SAT-65669,279.82670799127027,32.31039160031572,4063.918339933253,1.432543165988657,-50173.72132450676,10.5,10499949826.278675,47.655,-122.3035,60.0,8.35
2026-01-20T23:08:22+00:00,SAT-65669,279.6985969593047,32.29414170323541,4065.347062984132,1.443867247673123,-50570.33856591479,10.5,10499949429.661434,47.655,-122.3035,60.0,8.366666666666667
2026-01-20T23:08:23+00:00,SAT-65669,279.5706306634157,32.27766854207402,4066.787079919145,1.4551774939978306,-50966.471234500576,10.5,10499949033.528765,47.655,-122.3035,60.0,8.383333333333333
2026-01-20T23:08:24+00:00,SAT-65669,279.4428104059528,32.26097274142524,4068.2383769398257,1.4664738197145049,-51362.11634450891,10.5,10499948637.883656,47.655,-122.3035,60.0,8.4
2026-01-20T23:08:25+00:00,SAT-65669,279.31513747949316,32.244054930669066,4069.7009401626874,1.477756131883471,-51757.27064079927,10.5,10499948242.729359,47.655,-122.3035,60.0,8.416666666666666
2026-01-20T23:08:26+00:00,SAT-65669,279.1876131674891,32.2269157440081,4071.1747556115524,1.4890243415860913,-52151.93100906481,10.5,10499947848.06899,47.655,-122.3035,60.0,8.433333333333334
2026-01-20T23:08:27+00:00,SAT-65669,279.06023874393253,32.209555820369395,4072.659809221561,1.5002783630160643,-52546.09444400591,10.5,10499947453.905556,47.655,-122.3035,60.0,8.45
2026-01-20T23:08:28+00:00,SAT-65669,278.933015473081,32.191975803315884,4074.1560868422757,1.5115181096037424,-52939.757913587324,10.5,10499947060.242086,47.655,-122.3035,60.0,8.466666666666667
2026-01-20T23:08:29+00:00,SAT-65669,278.80594460953967,32.17417634100171,4075.663574236921,1.5227434880730109,-53332.91815088495,10.5,10499946667.08185,47.655,-122.3035,60.0,8.483333333333333
2026-01-20T23:08:30+00:00,SAT-65669,278.6790273987974,32.156158086200556,4077.182257075692,1.5339544166726542,-53725.57229262542,10.5,10499946274.427708,47.655,-122.3035,60.0,8.5
2026-01-20T23:08:31+00:00,SAT-65669,278.5522650762932,32.137921696115534,4078.7121209472534,1.5451508081626832,-54117.71728329528,10.5,10499945882.282717,47.655,-122.3035,60.0,8.516666666666667
2026-01-20T23:08:32+00:00,SAT-65669,278.4256588678642,32.11946783239276,4080.253151353261,1.556332578200978,-54509.35016887673,10.5,10499945490.649832,47.655,-122.3035,60.0,8.533333333333333
2026-01-20T23:08:33+00:00,SAT-65669,278.29920998951366,32.10079716103259,4081.8053337112533,1.5674996381626511,-54900.46784535132,10.5,10499945099.532154,47.655,-122.3035,60.0,8.55
2026-01-20T23:08:34+00:00,SAT-65669,278.1729196477646,32.081910352389755,4083.368653350381,1.578651908649036,-55291.0675318419,10.5,10499944708.932468,47.655,-122.3035,60.0,8.566666666666666
2026-01-20T23:08:35+00:00,SAT-65669,278.0467890389304,32.062808081008285,4084.943095520607,1.5897893033720392,-55681.14620617444,10.5,10499944318.853794,47.655,-122.3035,60.0,8.583333333333334
2026-01-20T23:08:36+00:00,SAT-65669,277.9208193496628,32.04349102565203,4086.5286453858366,1.6009117364542091,-56070.70086055733,10.5,10499943929.299139,47.655,-122.3035,60.0,8.6
2026-01-20T23:08:37+00:00,SAT-65669,277.79501175693724,32.02395986924732,4088.1252880243273,1.6120191291255475,-56459.728736132005,10.5,10499943540.271263,47.655,-122.3035,60.0,8.616666666666667
2026-01-20T23:08:38+00:00,SAT-65669,277.6693674274944,32.00421529874315,4089.733008435775,1.6231113979597462,-56848.2269109563,10.5,10499943151.773088,47.655,-122.3035,60.0,8.633333333333333
2026-01-20T23:08:39+00:00,SAT-65669,277.5438875182308,31.984258005114683,4091.3517915366733,1.634188462785137,-57236.19257707924,10.5,10499942763.807423,47.655,-122.3035,60.0,8.65
2026-01-20T23:08:40+00:00,SAT-65669,277.41857317595066,31.964088683270088,4092.981622163558,1.6452502386131447,-57623.62275784142,10.5,10499942376.377243,47.655,-122.3035,60.0,8.666666666666666
2026-01-20T23:08:41+00:00,SAT-65669,277.2934255377438,31.94370803205794,4094.6224850682015,1.656296650505239,-58010.51482857854,10.5,10499941989.485172,47.655,-122.3035,60.0,8.683333333333334
2026-01-20T23:08:42+00:00,SAT-65669,277.1684457302515,31.92311675408858,4096.274364927639,1.6673276131186163,-58396.8658002246,10.5,10499941603.1342,47.655,-122.3035,60.0,8.7
2026-01-20T23:08:43+00:00,SAT-65669,277.0436348704508,31.902315555810727,4097.9372463337895,1.6783430527690328,-58782.67309204571,10.5,10499941217.326908,47.655,-122.3035,60.0,8.716666666666667
2026-01-20T23:08:44+00:00,SAT-65669,276.91899406480894,31.88130514731324,4099.611113805084,1.689342886678669,-59167.93380481247,10.5,10499940832.066195,47.655,-122.3035,60.0,8.733333333333333
2026-01-20T23:08:45+00:00,SAT-65669,276.79452440998057,31.860086242385478,4101.295951777398,1.700327036792084,-59552.64520469318,10.5,10499940447.354795,47.655,-122.3035,60.0,8.75
2026-01-20T23:08:46+00:00,SAT-65669,276.6702269924617,31.83865955840589,4102.991744608759,1.711295429723868,-59936.804721420354,10.5,10499940063.195278,47.655,-122.3035,60.0,8.766666666666667
2026-01-20T23:08:47+00:00,SAT-65669,276.54610288829343,31.81702581622873,4104.698476584003,1.7222479859015427,-60320.40956802922,10.5,10499939679.590431,47.655,-122.3035,60.0,8.783333333333333
2026-01-20T23:08:48+00:00,SAT-65669,276.4221531635139,31.795185740210467,4106.416131908609,1.7331846275070069,-60703.45701900069,10.5,10499939296.54298,47.655,-122.3035,60.0,8.8
2026-01-20T23:08:49+00:00,SAT-65669,276.2983788740614,31.773140058134185,4108.144694710443,1.7441052788556632,-61085.94442354005,10.5,10499938914.055576,47.655,-122.3035,60.0,8.816666666666666
2026-01-20T23:08:50+00:00,SAT-65669,276.17478106563965,31.750889501130334,4109.884149041888,1.7550098704215231,-61467.869346553045,10.5,10499938532.130653,47.655,-122.3035,60.0,8.833333333333334
2026-01-20T23:08:51+00:00,SAT-65669,276.0513607733168,31.72843480354418,4111.634478885989,1.765898319166559,-61849.228879696726,10.5,10499938150.77112,47.655,-122.3035,60.0,8.85
2026-01-20T23:08:52+00:00,SAT-65669,275.9281190224889,31.705776703057364,4113.395668142971,1.776770555313212,-62230.02057906582,10.5,10499937769.979422,47.655,-122.3035,60.0,8.866666666666667
2026-01-20T23:08:53+00:00,SAT-65669,275.80505682798844,31.682915940464543,4115.16770064347,1.787626508476603,-62610.241979484126,10.5,10499937389.75802,47.655,-122.3035,60.0,8.883333333333333
2026-01-20T23:08:54+00:00,SAT-65669,275.6821751941542,31.65985325962873,4116.950560147924,1.7984661028415228,-62989.890425582314,10.5,10499937010.109575,47.655,-122.3035,60.0,8.9
2026-01-20T23:08:55+00:00,SAT-65669,275.55947511523516,31.636589407498036,4118.744230341158,1.809289264868571,-63368.96334169953,10.5,10499936631.03666,47.655,-122.3035,60.0,8.916666666666666
2026-01-20T23:08:56+00:00,SAT-65669,275.4369575752558,31.61312513402569,4120.548694834653,1.820095922835233,-63747.4582158099,10.5,10499936252.541784,47.655,-122.3035,60.0,8.933333333333334
2026-01-20T23:08:57+00:00,SAT-65669,275.3146235479309,31.589461192093474,4122.363937168361,1.8308860087213745,-64125.37266556063,10.5,10499935874.627335,47.655,-122.3035,60.0,8.95
2026-01-20T23:08:58+00:00,SAT-65669,275.192473996447,31.56559833741169,4124.189940814393,1.8416594520567349,-64502.70422278507,10.5,10499935497.295776,47.655,-122.3035,60.0,8.966666666666667
2026-01-20T23:08:59+00:00,SAT-65669,275.0705098736596,31.541537328498183,4126.026689174577,1.8524161786163245,-64879.45028781013,10.5,10499935120.549713,47.655,-122.3035,60.0,8.983333333333333
2026-01-20T23:09:00+00:00,SAT-65669,274.94873212237314,31.517278926677424,4127.874165576717,1.863156123458297,-65255.608586097645,10.5,10499934744.391415,47.655,-122.3035,60.0,9.0
2026-01-20T23:09:01+00:00,SAT-65669,274.82714167476433,31.49282389590525,4129.732353283846,1.8738792181422208,-65631.1767205742,10.5,10499934368.82328,47.655,-122.3035,60.0,9.016666666666667
2026-01-20T23:09:02+00:00,SAT-65669,274.7057394526513,31.468173002764974,4131.60123549074,1.8845853930186096,-66006.15225182017,10.5,10499933993.847748,47.655,-122.3035,60.0,9.033333333333333
2026-01-20T23:09:03+00:00,SAT-65669,274.5845263676115,31.44332701643068,4133.480795322711,1.8952745775750202,-66380.5327101915,10.5,10499933619.467289,47.655,-122.3035,60.0,9.05
2026-01-20T23:09:04+00:00,SAT-65669,274.4635033210538,31.41828670862877,4135.371015834746,1.9059467110090549,-66754.31596613106,10.5,10499933245.684034,47.655,-122.3035,60.0,9.066666666666666
2026-01-20T23:09:05+00:00,SAT-65669,274.3426712036629,31.39305285345705,4137.2718800211915,1.9166017225587355,-67127.49954125505,10.5,10499932872.50046,47.655,-122.3035,60.0,9.083333333333334
2026-01-20T23:09:06+00:00,SAT-65669,274.22203089605176,31.367626227467408,4139.183370805824,1.9272395478626014,-67500.08118135286,10.5,10499932499.91882,47.655,-122.3035,60.0,9.1
2026-01-20T23:09:07+00:00,SAT-65669,274.10158326840343,31.34200760952828,4141.105471048225,1.9378601204673611,-67872.05855894911,10.5,10499932127.94144,47.655,-122.3035,60.0,9.116666666666667
2026-01-20T23:09:08+00:00,SAT-65669,273.98132918064437,31.316197780804444,4143.038163541705,1.9484633804706748,-68243.4295760105,10.5,10499931756.570423,47.655,-122.3035,60.0,9.133333333333333
2026-01-20T23:09:09+00:00,SAT-65669,273.8612694820853,31.290197524616886,4144.981431019827,1.9590492609313588,-68614.1918879736,10.5,10499931385.808111,47.655,-122.3035,60.0,9.15
2026-01-20T23:09:10+00:00,SAT-65669,273.7414050118871,31.264007626488205,4146.935256149396,1.9696176952909203,-68984.34316367847,10.5,10499931015.656836,47.655,-122.3035,60.0,9.166666666666666
2026-01-20T23:09:11+00:00,SAT-65669,273.6217365990886,31.23762887408773,4148.899621530833,1.9801686240408893,-69353.88131888675,10.5,10499930646.118681,47.655,-122.3035,60.0,9.183333333333334
2026-01-20T23:09:12+00:00,SAT-65669,273.50226506220923,31.211062057086643,4150.87450970521,1.9907019882567418,-69722.80428981235,10.5,10499930277.195711,47.655,-122.3035,60.0,9.2
2026-01-20T23:09:13+00:00,SAT-65669,273.3829912092834,31.184307967100622,4152.859903154831,2.0012177248612897,-70091.10986722534,10.5,10499929908.890133,47.655,-122.3035,60.0,9.216666666666667
2026-01-20T23:09:14+00:00,SAT-65669,273.2639158381345,31.15736739769651,4154.855784299093,2.0117157648326964,-70458.79563368906,10.5,10499929541.204367,47.655,-122.3035,60.0,9.233333333333333
2026-01-20T23:09:15+00:00,SAT-65669,273.1450397367829,31.13024114442482,4156.862135488553,2.022196057568538,-70825.85981689257,10.5,10499929174.140182,47.655,-122.3035,60.0,9.25
2026-01-20T23:09:16+00:00,SAT-65669,273.0263636824032,31.10293000452054,4158.878939023301,2.0326585417373604,-71192.30026874888,10.5,10499928807.699732,47.655,-122.3035,60.0,9.266666666666667
2026-01-20T23:09:17+00:00,SAT-65669,272.90788844200233,31.075434777000076,4160.90617714226,2.0431031565342255,-71558.11485961187,10.5,10499928441.88514,47.655,-122.3035,60.0,9.283333333333333
2026-01-20T23:09:18+00:00,SAT-65669,272.7896147724473,31.047756262606093,4162.9438320237105,2.0535298401967097,-71923.30142630024,10.5,10499928076.698574,47.655,-122.3035,60.0,9.3
2026-01-20T23:09:19+00:00,SAT-65669,272.67154342055125,31.01989526377323,4164.991885784333,2.0639385395487624,-72287.85810636371,10.5,10499927712.141893,47.655,-122.3035,60.0,9.316666666666666
2026-01-20T23:09:20+00:00,SAT-65669,272.55367512264513,30.99185258446182,4167.050320487777,2.0743291974481854,-72651.78289844084,10.5,10499927348.217102,47.655,-122.3035,60.0,9.333333333333334
2026-01-20T23:09:21+00:00,SAT-65669,272.4360106048521,30.963629030165915,4169.119118140698,2.084701751984155,-73015.07363415268,10.5,10499926984.926365,47.655,-122.3035,60.0,9.35
2026-01-20T23:09:22+00:00,SAT-65669,272.3185505834102,30.935225407930503,4171.198260688011,2.0950561537912513,-73377.72858451343,10.5,10499926622.271416,47.655,-122.3035,60.0,9.366666666666667
2026-01-20T23:09:23+00:00,SAT-65669,272.2012957640191,30.906642526133133,4173.287730025392,2.105392340467712,-73739.74556394937,10.5,10499926260.254436,47.655,-122.3035,60.0,9.383333333333333
2026-01-20T23:09:24+00:00,SAT-65669,272.0842468426173,30.877881194615735,4175.387507986285,2.115710265555642,-74101.12294530851,10.5,10499925898.877054,47.655,-122.3035,60.0,9.4
2026-01-20T23:09:25+00:00,SAT-65669,271.96740450456,30.8489422244189,4177.4975763577995,2.1260098627730195,-74461.85840711411,10.5,10499925538.141592,47.655,-122.3035,60.0,9.416666666666666
2026-01-20T23:09:26+00:00,SAT-65669,271.8507694257643,30.81982642800981,4179.617916860938,2.136291090222206,-74821.95048193361,10.5,10499925178.049519,47.655,-122.3035,60.0,9.433333333333334
2026-01-20T23:09:27+00:00,SAT-65669,271.73434227141786,30.79053461889872,4181.748511174919,2.1465538877782633,-75181.39706393736,10.5,10499924818.602936,47.655,-122.3035,60.0,9.45
2026-01-20T23:09:28+00:00,SAT-65669,271.6181236970443,30.761067611845412,4183.889340918998,2.156798206468625,-75540.19643789894,10.5,10499924459.803562,47.655,-122.3035,60.0,9.466666666666667
2026-01-20T23:09:29+00:00,SAT-65669,271.50211434794835,30.731426222661014,4186.040387663582,2.167023990559371,-75898.34665178067,10.5,10499924101.653349,47.655,-122.3035,60.0,9.483333333333333
2026-01-20T23:09:30+00:00,SAT-65669,271.3863148596351,30.70161126825475,4188.201632923499,2.177231187043687,-76255.84584905974,10.5,10499923744.15415,47.655,-122.3035,60.0,9.5
2026-01-20T23:09:31+00:00,SAT-65669,271.27072585772396,30.67162356655377,4190.3730581607115,2.187419755420016,-76612.69261120027,10.5,10499923387.307388,47.655,-122.3035,60.0,9.516666666666667
2026-01-20T23:09:32+00:00,SAT-65669,271.15534795734425,30.64146393628257,4192.554644796784,2.197589634979981,-76968.88481193813,10.5,10499923031.115189,47.655,-122.3035,60.0,9.533333333333333
2026-01-20T23:09:33+00:00,SAT-65669,271.04018176426194,30.611133197201667,4194.746374192737,2.2077407795192903,-77324.42083300356,10.5,10499922675.579166,47.655,-122.3035,60.0,9.55
2026-01-20T23:09:34+00:00,SAT-65669,270.92522787417954,30.580632169861676,4196.948227663511,2.217873139963735,-77679.29895561021,10.5,10499922320.701044,47.655,-122.3035,60.0,9.566666666666666
2026-01-20T23:09:35+00:00,SAT-65669,270.8104868729364,30.549961675599704,4199.160186475101,2.227986669563195,-78033.51754237109,10.5,10499921966.482458,47.655,-122.3035,60.0,9.583333333333334
2026-01-20T23:09:36+00:00,SAT-65669,270.6959593364678,30.519122536463794,4201.382231846879,2.2380813150877485,-78387.07472894918,10.5,10499921612.925272,47.655,-122.3035,60.0,9.6
2026-01-20T23:09:37+00:00,SAT-65669,270.5816458311789,30.48811557526164,4203.6143449451265,2.2481570362924876,-78739.96910579759,10.5,10499921260.030893,47.655,-122.3035,60.0,9.616666666666667
2026-01-20T23:09:38+00:00,SAT-65669,270.4675469133626,30.456941615334788,4205.856506895989,2.258213779172456,-79092.19878143427,10.5,10499920907.801218,47.655,-122.3035,60.0,9.633333333333333
2026-01-20T23:09:39+00:00,SAT-65669,270.35366312993756,30.42560148071064,4208.108698771751,2.2682515048325778,-79443.76239358919,10.5,10499920556.237606,47.655,-122.3035,60.0,9.65
2026-01-20T23:09:40+00:00,SAT-65669,270.23999501777615,30.394095995848204,4210.370901605903,2.2782701604256204,-79794.65809132869,10.5,10499920205.34191,47.655,-122.3035,60.0,9.666666666666666
2026-01-20T23:09:41+00:00,SAT-65669,270.1265431044483,30.362425985793507,4212.6430963792345,2.2882697060817434,-80144.88447824231,10.5,10499919855.115522,47.655,-122.3035,60.0,9.683333333333334
2026-01-20T23:09:42+00:00,SAT-65669,270.013307907643,30.330592275954874,4214.925264032766,2.298250098104211,-80494.4400238855,10.5,10499919505.559977,47.655,-122.3035,60.0,9.7
2026-01-20T23:09:43+00:00,SAT-65669,269.900289935429,30.298595692116773,4217.217385463943,2.3082112901169527,-80843.32310397216,10.5,10499919156.676895,47.655,-122.3035,60.0,9.716666666666667
2026-01-20T23:09:44+00:00,SAT-65669,269.7874896864498,30.266437060436793,4219.519441523952,2.318153235366799,-81191.5320810085,10.5,10499918808.467918,47.655,-122.3035,60.0,9.733333333333333
2026-01-20T23:09:45+00:00,SAT-65669,269.6749076499955,30.234117207411938,4221.8314130173585,2.3280758984232093,-81539.0657140671,10.5,10499918460.934286,47.655,-122.3035,60.0,9.75
2026-01-20T23:09:46+00:00,SAT-65669,269.5625443055337,30.201636959677344,4224.153280713386,2.337979227892459,-81885.92220312232,10.5,10499918114.077797,47.655,-122.3035,60.0,9.766666666666667
2026-01-20T23:09:47+00:00,SAT-65669,269.45040012353115,30.16899714419445,4226.485025330005,2.347863197200245,-82232.1006174297,10.5,10499917767.899382,47.655,-122.3035,60.0,9.783333333333333
2026-01-20T23:09:48+00:00,SAT-65669,269.3384755643525,30.13619858785989,4228.826627558678,2.3577277465641675,-82577.59886315672,10.5,10499917422.401136,47.655,-122.3035,60.0,9.8
2026-01-20T23:09:49+00:00,SAT-65669,269.2267710798901,30.103242117937658,4231.178068031251,2.367572850444658,-82922.41604579962,10.5,10499917077.583954,47.655,-122.3035,60.0,9.816666666666666
2026-01-20T23:09:50+00:00,SAT-65669,269.11528711201,30.070128561534094,4233.539327354095,2.3773984636086336,-83266.55058110452,10.5,10499916733.449419,47.655,-122.3035,60.0,9.833333333333334
2026-01-20T23:09:51+00:00,SAT-65669,269.0040240935654,30.036858745842313,4235.910386088467,2.387204542566711,-83610.00094588926,10.5,10499916389.999054,47.655,-122.3035,60.0,9.85
2026-01-20T23:09:52+00:00,SAT-65669,268.89298244835953,30.00343349807604,4238.291224752254,2.396991052630351,-83952.76592521447,10.5,10499916047.234076,47.655,-122.3035,60.0,9.866666666666667
