satellites_20260121_005943/SAT-61010.csv

timestamp,satellite,azimuth_deg,elevation_deg,distance_km,relative_velocity_kms,doppler_shift_hz,tx_freq_ghz,rx_freq_hz,ue_lat,ue_lon,ue_alt_m,time_minutes
2026-01-20T23:11:13+00:00,SAT-61010,155.10972875318893,30.482520675349257,630.0157891992233,-4.252509858849372,148940.88335577276,10.5,10500148940.883356,47.655,-122.3035,60.0,11.216666666666667
2026-01-20T23:11:14+00:00,SAT-61010,154.82959965487632,30.974122583391395,625.7746193666642,-4.20119758657546,147143.71053004387,10.5,10500147143.71053,47.655,-122.3035,60.0,11.233333333333333
2026-01-20T23:11:15+00:00,SAT-61010,154.54315650844907,31.471472055089173,621.584624973653,-4.148836229043772,145309.79430096137,10.5,10500145309.7943,47.655,-122.3035,60.0,11.25
2026-01-20T23:11:16+00:00,SAT-61010,154.25017654646507,31.974578281036898,617.4468523078866,-4.09541075685863,143438.60827551445,10.5,10500143438.608276,47.655,-122.3035,60.0,11.266666666666667
2026-01-20T23:11:17+00:00,SAT-61010,153.9504270401782,32.4834449677485,613.3623626463797,-4.040906570509036,141529.641117072,10.5,10500141529.641117,47.655,-122.3035,60.0,11.283333333333333
2026-01-20T23:11:18+00:00,SAT-61010,153.64366477846878,32.99806995140948,609.3322318267253,-3.9853095392312237,139582.39790651388,10.5,10500139582.397907,47.655,-122.3035,60.0,11.3
2026-01-20T23:11:19+00:00,SAT-61010,153.32963551865774,33.518444793343626,605.3575497795987,-3.9286060261656552,137596.40102333523,10.5,10500137596.401024,47.655,-122.3035,60.0,11.316666666666666
2026-01-20T23:11:20+00:00,SAT-61010,153.00807340929506,34.04455435440545,601.4394200361695,-3.8707830089142568,135571.19436807078,10.5,10500135571.194368,47.655,-122.3035,60.0,11.333333333333334
2026-01-20T23:11:21+00:00,SAT-61010,152.67870037600144,34.576376360178465,597.5789591152791,-3.8118281087633004,133506.3443858039,10.5,10500133506.344385,47.655,-122.3035,60.0,11.35
2026-01-20T23:11:22+00:00,SAT-61010,152.34122547588277,35.11388094508076,593.7772958814724,-3.751729648364323,131401.44208639627,10.5,10500131401.442087,47.655,-122.3035,60.0,11.366666666666667
2026-01-20T23:11:23+00:00,SAT-61010,151.99534421728836,35.657030178494054,590.0355708455037,-3.690476718191986,129256.1053721233,10.5,10500129256.105371,47.655,-122.3035,60.0,11.383333333333333
2026-01-20T23:11:24+00:00,SAT-61010,151.64073784279063,36.20577757352534,586.3549353985602,-3.628059292198254,127069.98308837264,10.5,10500127069.983088,47.655,-122.3035,60.0,11.4
2026-01-20T23:11:25+00:00,SAT-61010,151.27707256905165,36.760067585745894,582.7365509311411,-3.5644682378818766,124842.75537632006,10.5,10500124842.755377,47.655,-122.3035,60.0,11.416666666666666
2026-01-20T23:11:26+00:00,SAT-61010,150.90399879214894,37.31983508637263,579.1815879418936,-3.4996954402506937,122574.1380146137,10.5,10500122574.138014,47.655,-122.3035,60.0,11.433333333333334
2026-01-20T23:11:27+00:00,SAT-61010,150.52115024629578,37.885004826657344,575.6912250228169,-3.43373380919043,120263.88267746054,10.5,10500120263.882677,47.655,-122.3035,60.0,11.45
2026-01-20T23:11:28+00:00,SAT-61010,150.12814312667592,38.45549087550279,572.2666478371177,-3.366577460633809,117911.78327993493,10.5,10500117911.78328,47.655,-122.3035,60.0,11.466666666666667
2026-01-20T23:11:29+00:00,SAT-61010,149.72457515631618,39.03119605780009,568.909047916379,-3.2982216939027724,115517.67518440745,10.5,10500115517.675184,47.655,-122.3035,60.0,11.483333333333333
2026-01-20T23:11:30+00:00,SAT-61010,149.31002461862204,39.61201136177954,565.6196214803265,-3.228663105308185,113081.43917928697,10.5,10500113081.439178,47.655,-122.3035,60.0,11.5
2026-01-20T23:11:31+00:00,SAT-61010,148.88404934021642,40.197815336606375,562.3995681432992,-3.1578996985553625,110603.00534588935,10.5,10500110603.005346,47.655,-122.3035,60.0,11.516666666666667
2026-01-20T23:11:32+00:00,SAT-61010,148.44618562280434,40.78847348144848,559.2500895106066,-3.0859309235942387,108082.35441913454,10.5,10500108082.35442,47.655,-122.3035,60.0,11.533333333333333
2026-01-20T23:11:33+00:00,SAT-61010,147.99594713327681,41.383837614068696,556.1723877361419,-3.012757756894072,105519.52059910644,10.5,10500105519.5206,47.655,-122.3035,60.0,11.55
2026-01-20T23:11:34+00:00,SAT-61010,147.5328237478948,41.98374522656517,553.167663999933,-2.938382790434698,102914.59466790299,10.5,10500102914.594667,47.655,-122.3035,60.0,11.566666666666666
2026-01-20T23:11:35+00:00,SAT-61010,147.0562803500258,42.588018830698886,550.2371168969394,-2.862810299792415,100267.72637429176,10.5,10500100267.726374,47.655,-122.3035,60.0,11.583333333333334
2026-01-20T23:11:36+00:00,SAT-61010,146.56575558644224,43.19646529035348,547.3819407579465,-2.78604635016987,97579.12814732527,10.5,10500097579.128147,47.655,-122.3035,60.0,11.6
2026-01-20T23:11:37+00:00,SAT-61010,146.06066057800678,43.80887514988375,544.6033238647104,-2.7080987738612183,94849.07430707544,10.5,10500094849.074306,47.655,-122.3035,60.0,11.616666666666667
2026-01-20T23:11:38+00:00,SAT-61010,145.54037761204157,44.42502193316632,541.9024466875794,-2.6289773746485827,92077.9082234621,10.5,10500092077.908224,47.655,-122.3035,60.0,11.633333333333333
2026-01-20T23:11:39+00:00,SAT-61010,145.00425878049677,45.04466146232489,539.2804799192633,-2.548693839017202,89266.03920663217,10.5,10500089266.039207,47.655,-122.3035,60.0,11.65
2026-01-20T23:11:40+00:00,SAT-61010,144.4516246256629,45.66753113548903,536.7385825971501,-2.467261943319536,86413.9497627226,10.5,10500086413.949762,47.655,-122.3035,60.0,11.666666666666666
2026-01-20T23:11:41+00:00,SAT-61010,143.88176274468142,46.29334923053094,534.2779000190127,-2.3846974643516368,83522.19246186703,10.5,10500083522.192461,47.655,-122.3035,60.0,11.683333333333334
2026-01-20T23:11:42+00:00,SAT-61010,143.29392642552375,46.92181416970172,531.8995617478994,-2.301018351338288,80591.39596184244,10.5,10500080591.395962,47.655,-122.3035,60.0,11.7
2026-01-20T23:11:43+00:00,SAT-61010,142.68733327212868,47.5526038090994,529.604679445498,-2.216244675129315,77622.26322870939,10.5,10500077622.26323,47.655,-122.3035,60.0,11.716666666666667
2026-01-20T23:11:44+00:00,SAT-61010,142.0611638868332,48.18537470240219,527.3943447561691,-2.130398712437903,74615.57448719401,10.5,10500074615.574488,47.655,-122.3035,60.0,11.733333333333333
2026-01-20T23:11:45+00:00,SAT-61010,141.41456060032004,48.81976137523411,525.2696271069642,-2.043504934435132,71572.18682122046,10.5,10500071572.186821,47.655,-122.3035,60.0,11.75
2026-01-20T23:11:46+00:00,SAT-61010,140.7466263005105,49.45537558952366,523.231571519021,-1.955590073999837,68493.0365292855,10.5,10500068493.03653,47.655,-122.3035,60.0,11.766666666666667
2026-01-20T23:11:47+00:00,SAT-61010,140.05642336872845,50.09180562427774,521.2811963518851,-1.8666830657794866,65379.13702513694,10.5,10500065379.137026,47.655,-122.3035,60.0,11.783333333333333
2026-01-20T23:11:48+00:00,SAT-61010,139.34297280183083,50.728615541049194,519.4194911076145,-1.776815116667686,62231.581306193846,10.5,10500062231.581306,47.655,-122.3035,60.0,11.8
2026-01-20T23:11:49+00:00,SAT-61010,138.60525352264463,51.36534447949267,517.6474141645912,-1.6860196142567745,59051.538747169325,10.5,10500059051.538748,47.655,-122.3035,60.0,11.816666666666666
2026-01-20T23:11:50+00:00,SAT-61010,137.84220199125585,52.001505938937804,515.9658906026391,-1.5943321866770772,55840.257195894206,10.5,10500055840.257196,47.655,-122.3035,60.0,11.833333333333334
2026-01-20T23:11:51+00:00,SAT-61010,137.05271212252615,52.63658710425205,514.3758099684597,-1.5017905952058794,52599.05921202906,10.5,10500052599.059212,47.655,-122.3035,60.0,11.85
2026-01-20T23:11:52+00:00,SAT-61010,136.2356356531349,53.27004816870984,512.8780241481744,-1.4084347524534335,49329.34270401509,10.5,10500049329.342705,47.655,-122.3035,60.0,11.866666666666667
2026-01-20T23:11:53+00:00,SAT-61010,135.3897829890747,53.90132171045352,511.4733452217276,-1.3143066032522548,46032.576757313465,10.5,10500046032.576757,47.655,-122.3035,60.0,11.883333333333333
2026-01-20T23:11:54+00:00,SAT-61010,134.51392470206775,54.52981208354353,510.162543436084,-1.219450116934976,42710.30136394308,10.5,10500042710.301363,47.655,-122.3035,60.0,11.9
2026-01-20T23:11:55+00:00,SAT-61010,133.6067937294144,55.154894884538784,508.94634518612753,-1.123911169488221,39364.12329501071,10.5,10500039364.123295,47.655,-122.3035,60.0,11.916666666666666
2026-01-20T23:11:56+00:00,SAT-61010,132.6670884685815,55.7759164684061,507.8254311130912,-1.0277374636139542,35995.7133009214,10.5,10500035995.7133,47.655,-122.3035,60.0,11.933333333333334
2026-01-20T23:11:57+00:00,SAT-61010,131.69347689399208,56.3921935503762,506.80043428271364,-0.9309784390859309,32606.802971682082,10.5,10500032606.80297,47.655,-122.3035,60.0,11.95
2026-01-20T23:11:58+00:00,SAT-61010,130.6846018589753,57.003012917983284,505.8719384527986,-0.8336851427913573,29199.180185210836,10.5,10500029199.180185,47.655,-122.3035,60.0,11.966666666666667
2026-01-20T23:11:59+00:00,SAT-61010,129.63908779558935,57.60763126156118,505.040476470388,-0.7359101216372981,25774.68535646627,10.5,10500025774.685356,47.655,-122.3035,60.0,11.983333333333333
2026-01-20T23:12:00+00:00,SAT-61010,128.55554898294832,58.20527517159344,504.30652877574175,-0.6377072840736847,22335.206587397504,10.5,10500022335.206587,47.655,-122.3035,60.0,12.0
2026-01-20T23:12:01+00:00,SAT-61010,127.43259961583686,58.7951413254473,503.6705220444256,-0.5391317605361674,18882.67477906251,10.5,10500018882.67478,47.655,-122.3035,60.0,12.016666666666667
2026-01-20T23:12:02+00:00,SAT-61010,126.26886588684492,59.37639690825169,503.13282796858414,-0.44023976782462,15419.058881589708,10.5,10500015419.058882,47.655,-122.3035,60.0,12.033333333333333
2026-01-20T23:12:03+00:00,SAT-61010,125.06300026948284,59.94818032872772,502.6937621734737,-0.34108842917739773,11946.359592417353,10.5,10500011946.359592,47.655,-122.3035,60.0,12.05
2026-01-20T23:12:04+00:00,SAT-61010,123.81369828619111,60.509602246831825,502.3535833134408,-0.241735637692165,8466.604572713208,10.5,10500008466.604572,47.655,-122.3035,60.0,12.066666666666666
2026-01-20T23:12:05+00:00,SAT-61010,122.51971784413274,61.059747021820144,502.11249230411585,-0.14223987512541,4981.84210096708,10.5,10500004981.8421,47.655,-122.3035,60.0,12.083333333333334
2026-01-20T23:12:06+00:00,SAT-61010,121.17990136905132,61.597674606133495,501.9706317353241,-0.042660049373927623,1494.1353809048792,10.5,10500001494.135382,47.655,-122.3035,60.0,12.1
2026-01-20T23:12:07+00:00,SAT-61010,119.7932007520255,62.12242298609267,501.9280854460818,0.0569446858112522,-1994.4437728922055,10.5,10499998005.556227,47.655,-122.3035,60.0,12.116666666666667
2026-01-20T23:12:08+00:00,SAT-61010,118.3587051925527,62.6330112112281,501.9848782793976,0.15651509966601684,-5481.820848519068,10.5,10499994518.179152,47.655,-122.3035,60.0,12.133333333333333
2026-01-20T23:12:09+00:00,SAT-61010,116.87567172639643,63.12844312577435,502.1409760054645,0.2559920639182992,-8965.924923775572,10.5,10499991034.075077,47.655,-122.3035,60.0,12.15
2026-01-20T23:12:10+00:00,SAT-61010,115.34355827748652,63.60771184095986,502.39628542387896,0.355316726278361,-12444.69474253015,10.5,10499987555.305258,47.655,-122.3035,60.0,12.166666666666666
2026-01-20T23:12:11+00:00,SAT-61010,113.76205876032657,64.06980503288,502.7506546388873,0.4544306837819468,-15916.084785930276,10.5,10499984083.915215,47.655,-122.3035,60.0,12.183333333333334
2026-01-20T23:12:12+00:00,SAT-61010,112.1311396275163,64.51371111306106,503.2038735075125,0.5532761530794185,-19378.0712366483,10.5,10499980621.928762,47.655,-122.3035,60.0,12.2
2026-01-20T23:12:13+00:00,SAT-61010,110.45107701018826,64.93842630774785,503.75567425751706,0.6517961333673908,-22828.65768543652,10.5,10499977171.342314,47.655,-122.3035,60.0,12.216666666666667
2026-01-20T23:12:14+00:00,SAT-61010,108.72249337649991,65.34296265217756,504.4057322678621,0.7499345758271717,-26265.88106557805,10.5,10499973734.118935,47.655,-122.3035,60.0,12.233333333333333
2026-01-20T23:12:15+00:00,SAT-61010,106.94639234641852,65.72635688312984,505.1536670181538,0.8476365164716914,-29687.816305748293,10.5,10499970312.183695,47.655,-122.3035,60.0,12.25
2026-01-20T23:12:16+00:00,SAT-61010,105.12419020150647,66.0876801452101,505.9990431705815,0.9448482599776798,-33092.582768595326,10.5,10499966907.41723,47.655,-122.3035,60.0,12.266666666666667
2026-01-20T23:12:17+00:00,SAT-61010,103.25774221848026,66.42604842819941,506.9413718351992,1.0415174716796682,-36478.34747275902,10.5,10499963521.652527,47.655,-122.3035,60.0,12.283333333333333
2026-01-20T23:12:18+00:00,SAT-61010,101.3493622053292,66.74063352712774,507.9801119269544,1.137593350916321,-39843.33116419283,10.5,10499960156.668837,47.655,-122.3035,60.0,12.3
2026-01-20T23:12:19+00:00,SAT-61010,99.40183320181023,67.03067434307188,509.11467169560166,1.2330267124856753,-43185.8111690708,10.5,10499956814.188831,47.655,-122.3035,60.0,12.316666666666666
2026-01-20T23:12:20+00:00,SAT-61010,97.41840781750724,67.29548821652861,510.344410336854,1.3277701347917137,-46504.12658250727,10.5,10499953495.873417,47.655,-122.3035,60.0,12.333333333333334
2026-01-20T23:12:21+00:00,SAT-61010,95.40279662238493,67.53448199346293,511.6686397512863,1.4217780252138756,-49796.680558073596,10.5,10499950203.319443,47.655,-122.3035,60.0,12.35
2026-01-20T23:12:22+00:00,SAT-61010,93.35914371030854,67.74716244500767,513.0866263684329,1.5150067299266168,-53061.94415414372,10.5,10499946938.055845,47.655,-122.3035,60.0,12.366666666666667
2026-01-20T23:12:23+00:00,SAT-61010,91.29198889074847,67.93314567450088,514.597593080413,1.6074145961597606,-56298.45851451502,10.5,10499943701.541485,47.655,-122.3035,60.0,12.383333333333333
2026-01-20T23:12:24+00:00,SAT-61010,89.20621680709698,68.0921651262989,516.2007212376498,1.6989620571781168,-59504.83784475401,10.5,10499940495.162155,47.655,-122.3035,60.0,12.4
2026-01-20T23:12:25+00:00,SAT-61010,87.1069939167916,68.22407784777889,517.895152729342,1.7896116708191503,-62679.770761948515,10.5,10499937320.229239,47.655,-122.3035,60.0,12.416666666666666
2026-01-20T23:12:26+00:00,SAT-61010,84.99969512703355,68.32886869768181,519.6799921023724,1.879328154498017,-65822.0215207321,10.5,10499934177.97848,47.655,-122.3035,60.0,12.433333333333334
2026-01-20T23:12:27+00:00,SAT-61010,82.8898225020743,68.40665227414848,521.554308715125,1.9680784438247396,-68930.43206630557,10.5,10499931069.567934,47.655,-122.3035,60.0,12.45
2026-01-20T23:12:28+00:00,SAT-61010,80.78291898857692,68.45767242747064,523.5171389497663,2.055831702922534,-72003.92239582828,10.5,10499927996.077604,47.655,-122.3035,60.0,12.466666666666667
2026-01-20T23:12:29+00:00,SAT-61010,78.68448054703391,68.48229932395597,525.5674884348144,2.1425593187473058,-75041.490359463,10.5,10499924958.50964,47.655,-122.3035,60.0,12.483333333333333
2026-01-20T23:12:30+00:00,SAT-61010,76.59987014884989,68.48102414189466,527.704334262045,2.2282349255741916,-78042.21251799808,10.5,10499921957.787481,47.655,-122.3035,60.0,12.5
2026-01-20T23:12:31+00:00,SAT-61010,74.53423691887467,68.45445158440572,529.9266272278177,2.3128343748305165,-81005.24308627011,10.5,10499918994.756914,47.655,-122.3035,60.0,12.516666666666667
2026-01-20T23:12:32+00:00,SAT-61010,72.4924434243657,68.40329048631415,532.2332940443152,2.396335747747868,-83929.814376293,10.5,10499916070.185623,47.655,-122.3035,60.0,12.533333333333333
2026-01-20T23:12:33+00:00,SAT-61010,70.47900344837653,68.32834286419106,534.6232395634025,2.4787192930334485,-86815.23461424507,10.5,10499913184.765387,47.655,-122.3035,60.0,12.55
2026-01-20T23:12:34+00:00,SAT-61010,68.49803200062844,68.23049180910385,537.0953489383211,2.5599674111673565,-89660.88739049347,10.5,10499910339.11261,47.655,-122.3035,60.0,12.566666666666666
2026-01-20T23:12:35+00:00,SAT-61010,66.55320844768947,68.11068864055304,539.6484897697254,2.640064622508745,-92466.23054253694,10.5,10499907533.769457,47.655,-122.3035,60.0,12.583333333333334
2026-01-20T23:12:36+00:00,SAT-61010,64.64775296057908,67.9699397365439,542.2815142199074,2.7189975008763283,-95230.79382871414,10.5,10499904769.206171,47.655,-122.3035,60.0,12.6
2026-01-20T23:12:37+00:00,SAT-61010,62.78441581179539,67.80929342976555,544.9932610607814,2.7967546301294486,-97954.17740748906,10.5,10499902045.822592,47.655,-122.3035,60.0,12.616666666666667
2026-01-20T23:12:38+00:00,SAT-61010,60.96547845226063,67.62982731226997,547.7825576785639,2.8733265461154707,-100636.04980420302,10.5,10499899363.950195,47.655,-122.3035,60.0,12.633333333333333
2026-01-20T23:12:39+00:00,SAT-61010,59.19276491802774,67.4326362354576,550.6482220205563,2.948705658330559,-103276.14516730393,10.5,10499896723.854834,47.655,-122.3035,60.0,12.65
2026-01-20T23:12:40+00:00,SAT-61010,57.46766185828098,67.21882122972961,553.5890644637981,3.0228862222658517,-105874.26229979223,10.5,10499894125.7377,47.655,-122.3035,60.0,12.666666666666666
2026-01-20T23:12:41+00:00,SAT-61010,55.791145319727605,66.9894794977481,556.6038896561379,3.095864204532675,-108430.2599353353,10.5,10499891569.740065,47.655,-122.3035,60.0,12.683333333333334
2026-01-20T23:12:42+00:00,SAT-61010,54.163812528173125,66.74569558593593,559.6914982227918,3.1676372877270227,-110944.05690864223,10.5,10499889055.94309,47.655,-122.3035,60.0,12.7
2026-01-20T23:12:43+00:00,SAT-61010,52.58591687411262,66.48853376439507,562.8506884777515,3.2382047128378533,-113415.62663593577,10.5,10499886584.373363,47.655,-122.3035,60.0,12.716666666666667
2026-01-20T23:12:44+00:00,SAT-61010,51.0574046600336,66.21903162266948,566.0802579780219,3.307567284332527,-115844.99729306577,10.5,10499884155.002707,47.655,-122.3035,60.0,12.733333333333333
2026-01-20T23:12:45+00:00,SAT-61010,49.577952213433164,65.9381948246135,569.3790050829296,3.375727225566187,-118232.24675133408,10.5,10499881767.753248,47.655,-122.3035,60.0,12.75
2026-01-20T23:12:46+00:00,SAT-61010,48.147002371834304,65.64699296393886,572.7457303692274,3.4426881297206955,-120577.50085916872,10.5,10499879422.499142,47.655,-122.3035,60.0,12.766666666666667
2026-01-20T23:12:47+00:00,SAT-61010,46.763799459935704,65.34635642154613,576.179237997269,3.5084548932920123,-122880.93111257032,10.5,10499877119.068888,47.655,-122.3035,60.0,12.783333333333333
2026-01-20T23:12:48+00:00,SAT-61010,45.427422162359655,65.03717412391511,579.6783370108456,3.573033610279536,-125142.7509491754,10.5,10499874857.24905,47.655,-122.3035,60.0,12.8
2026-01-20T23:12:49+00:00,SAT-61010,44.13681389796948,64.72029209857358,583.2418425314976,3.636431525878257,-127363.2141263597,10.5,10499872636.785873,47.655,-122.3035,60.0,12.816666666666666
2026-01-20T23:12:50+00:00,SAT-61010,42.89081043239494,64.39651271403775,586.8685769066402,3.698656913779078,-129542.6104237763,10.5,10499870457.389576,47.655,-122.3035,60.0,12.833333333333334
2026-01-20T23:12:51+00:00,SAT-61010,41.68816465584919,64.06659450716332,590.5573707353159,3.7597190600305423,-131681.26507812514,10.5,10499868318.734922,47.655,-122.3035,60.0,12.85
2026-01-20T23:12:52+00:00,SAT-61010,40.527568496740905,63.73125249126767,594.307063877853,3.819628149458705,-133779.53480509642,10.5,10499866220.465195,47.655,-122.3035,60.0,12.866666666666667
2026-01-20T23:12:53+00:00,SAT-61010,39.40767209561726,63.391158864588576,598.1165063522465,3.8783951913840844,-135837.80519766404,10.5,10499864162.194803,47.655,-122.3035,60.0,12.883333333333333
2026-01-20T23:12:54+00:00,SAT-61010,38.32710037218255,63.04694403591718,601.9845591564535,3.936031997231139,-137856.48994187493,10.5,10499862143.510057,47.655,-122.3035,60.0,12.9
2026-01-20T23:12:55+00:00,SAT-61010,37.284467158500284,62.699197891892986,605.9100950683587,3.9925510472778885,-139836.02614985674,10.5,10499860163.97385,47.655,-122.3035,60.0,12.916666666666666
2026-01-20T23:12:56+00:00,SAT-61010,36.27838713813316,62.34847125529286,609.891999312844,4.047965479088945,-141776.87395469408,10.5,10499858223.126045,47.655,-122.3035,60.0,12.933333333333334
2026-01-20T23:12:57+00:00,SAT-61010,35.30748577507279,61.99527747063548,613.9291702173219,4.102288984151879,-143679.5128901966,10.5,10499856320.48711,47.655,-122.3035,60.0,12.95
2026-01-20T23:12:58+00:00,SAT-61010,34.37040747526189,61.64009408165685,618.0205197641827,4.155535807262525,-145544.44186936988,10.5,10499854455.55813,47.655,-122.3035,60.0,12.966666666666667
2026-01-20T23:12:59+00:00,SAT-61010,33.46582216709601,61.2833645546253,622.164974142626,4.207720605603514,-147372.17424874945,10.5,10499852627.82575,47.655,-122.3035,60.0,12.983333333333333
2026-01-20T23:13:00+00:00,SAT-61010,32.59243053282662,60.92550003025881,626.3614741599479,4.258858460686047,-149163.23824665227,10.5,10499850836.761753,47.655,-122.3035,60.0,13.0
2026-01-20T23:13:01+00:00,SAT-61010,31.748968041079358,60.56688106620045,630.6089756647386,4.30896481921725,-150918.17487210143,10.5,10499849081.825129,47.655,-122.3035,60.0,13.016666666666667
2026-01-20T23:13:02+00:00,SAT-61010,30.934207966911604,60.2078593576096,634.9064499111047,4.358055416369915,-152637.5352374078,10.5,10499847362.464762,47.655,-122.3035,60.0,13.033333333333333
2026-01-20T23:13:03+00:00,SAT-61010,30.14696355442342,59.84875942225706,639.2528838463642,4.406146227882661,-154321.87888051523,10.5,10499845678.121119,47.655,-122.3035,60.0,13.05
2026-01-20T23:13:04+00:00,SAT-61010,29.38608945121749,59.4898802364198,643.6472803509726,4.453253459148589,-155971.77338283867,10.5,10499844028.226618,47.655,-122.3035,60.0,13.066666666666666
2026-01-20T23:13:05+00:00,SAT-61010,28.65048252894895,59.13149681030848,648.0886584675635,4.4993934818179,-157587.79214882033,10.5,10499842412.207851,47.655,-122.3035,60.0,13.083333333333334
2026-01-20T23:13:06+00:00,SAT-61010,27.93908220466062,58.77386170183483,652.5760535667632,4.544582829989056,-159170.51427252748,10.5,10499840829.485727,47.655,-122.3035,60.0,13.1
2026-01-20T23:13:07+00:00,SAT-61010,27.25087034439226,58.41720646009712,657.1085175092056,4.588838040361591,-160720.51893912788,10.5,10499839279.48106,47.655,-122.3035,60.0,13.116666666666667
2026-01-20T23:13:08+00:00,SAT-61010,26.58487085106319,58.06174300926488,661.6851186481261,4.632175822003865,-162238.39137087495,10.5,10499837761.60863,47.655,-122.3035,60.0,13.133333333333333
2026-01-20T23:13:09+00:00,SAT-61010,25.940148954891004,57.70766494547864,666.3049420012715,4.674612851331505,-163724.71564638492,10.5,10499836275.284353,47.655,-122.3035,60.0,13.15
2026-01-20T23:13:10+00:00,SAT-61010,25.315810320277652,57.35514877762105,670.9670892183327,4.716165813113615,-165180.07613684848,10.5,10499834819.923862,47.655,-122.3035,60.0,13.166666666666666
2026-01-20T23:13:11+00:00,SAT-61010,24.71099998073736,57.00435509297946,675.670678589278,4.756851359381054,-166605.0560668243,10.5,10499833394.943933,47.655,-122.3035,60.0,13.183333333333334
2026-01-20T23:13:12+00:00,SAT-61010,24.12490115512584,56.655429656520134,680.4148450117007,4.796686106275601,-168000.2374038836,10.5,10499831999.762596,47.655,-122.3035,60.0,13.2
2026-01-20T23:13:13+00:00,SAT-61010,23.556733974876288,56.308504442879865,685.1987399550262,4.835686598419675,-169366.1996106873,10.5,10499830633.80039,47.655,-122.3035,60.0,13.216666666666667
2026-01-20T23:13:14+00:00,SAT-61010,23.005754154821958,55.96369860631311,690.0215313891835,4.873869251052859,-170703.5176183619,10.5,10499829296.482382,47.655,-122.3035,60.0,13.233333333333333
2026-01-20T23:13:15+00:00,SAT-61010,22.471251633105688,55.62111939282272,694.8824036555668,4.9112503822939315,-172012.76295645264,10.5,10499827987.237043,47.655,-122.3035,60.0,13.25
2026-01-20T23:13:16+00:00,SAT-61010,21.952549189168305,55.280862990803975,699.7805573701746,4.947846198117524,-173294.5032267423,10.5,10499826705.496773,47.655,-122.3035,60.0,13.266666666666667
2026-01-20T23:13:17+00:00,SAT-61010,21.449001061725276,54.94301532674849,704.7152093117638,4.983672711860225,-174549.29928401456,10.5,10499825450.700716,47.655,-122.3035,60.0,13.283333333333333
2026-01-20T23:13:18+00:00,SAT-61010,20.959991585195574,54.60765281363764,709.6855922297258,5.018745819184661,-175777.70786161316,10.5,10499824222.29214,47.655,-122.3035,60.0,13.3
2026-01-20T23:13:19+00:00,SAT-61010,20.48493383907104,54.27484304388706,714.690954726726,5.053081164975076,-176980.2769095622,10.5,10499823019.723091,47.655,-122.3035,60.0,13.316666666666666
2026-01-20T23:13:20+00:00,SAT-61010,20.023268338138752,53.94464544435854,719.7305610085945,5.086694311664306,-178157.55149008855,10.5,10499821842.44851,47.655,-122.3035,60.0,13.333333333333334
2026-01-20T23:13:21+00:00,SAT-61010,19.57446174154984,53.617111875536274,724.8036908020943,5.1196005147868915,-179310.06591654272,10.5,10499820689.934084,47.655,-122.3035,60.0,13.35
2026-01-20T23:13:22+00:00,SAT-61010,19.138005620913308,53.29228720426171,729.9096390488418,5.1518148985353465,-180438.34990212176,10.5,10499819561.650099,47.655,-122.3035,60.0,13.366666666666667
2026-01-20T23:13:23+00:00,SAT-61010,18.713415254755024,52.97020982568459,735.0477157743144,5.183352300195985,-181542.92311135406,10.5,10499818457.076889,47.655,-122.3035,60.0,13.383333333333333
2026-01-20T23:13:24+00:00,SAT-61010,18.30022848028506,52.65091215894749,740.2172458017099,5.214227425157993,-182624.30058917272,10.5,10499817375.699411,47.655,-122.3035,60.0,13.4
2026-01-20T23:13:25+00:00,SAT-61010,17.898004578226285,52.33442109878607,745.4175686204007,5.244454665936236,-183682.98642232845,10.5,10499816317.013578,47.655,-122.3035,60.0,13.416666666666666
2026-01-20T23:13:26+00:00,SAT-61010,17.506323218032275,52.02075844676704,750.6480380738944,5.274048201526569,-184719.47721923338,10.5,10499815280.522781,47.655,-122.3035,60.0,13.433333333333334
2026-01-20T23:13:27+00:00,SAT-61010,17.124783441290457,51.70994130638361,755.9080221468837,5.3030220075241195,-185734.26246434543,10.5,10499814265.737535,47.655,-122.3035,60.0,13.45
2026-01-20T23:13:28+00:00,SAT-61010,16.75300269057394,51.40198244992565,761.1969027623876,5.331389777470681,-186727.8217634219,10.5,10499813272.178236,47.655,-122.3035,60.0,13.466666666666667
2026-01-20T23:13:29+00:00,SAT-61010,16.390615889030723,51.09689066421231,766.5140755004518,5.359164968163652,-187700.6264304299,10.5,10499812299.37357,47.655,-122.3035,60.0,13.483333333333333
2026-01-20T23:13:30+00:00,SAT-61010,16.037274560678487,50.79467106944208,771.8589493620336,5.386360794390497,-188653.1393031249,10.5,10499811346.860697,47.655,-122.3035,60.0,13.5
2026-01-20T23:13:31+00:00,SAT-61010,15.692645994111183,50.495325415893056,777.230946527639,5.4129902220515165,-189585.81450218114,10.5,10499810414.185497,47.655,-122.3035,60.0,13.516666666666667
2026-01-20T23:13:32+00:00,SAT-61010,15.356412448188458,50.19885236015832,782.6295021090984,5.439066001517487,-190499.0985995172,10.5,10499809500.9014,47.655,-122.3035,60.0,13.533333333333333
2026-01-20T23:13:33+00:00,SAT-61010,15.028270395971209,49.90524772002388,788.0540639346119,5.4646005404225075,-191393.4261629635,10.5,10499808606.573837,47.655,-122.3035,60.0,13.55
2026-01-20T23:13:34+00:00,SAT-61010,14.707929814546596,49.61450471834452,793.5040922069267,5.489606113863695,-192269.22711834463,10.5,10499807730.772882,47.655,-122.3035,60.0,13.566666666666666
2026-01-20T23:13:35+00:00,SAT-61010,14.395113499645781,49.326614198350256,798.9790593711533,5.514094646515428,-193126.91911819874,10.5,10499806873.080881,47.655,-122.3035,60.0,13.583333333333334
2026-01-20T23:13:36+00:00,SAT-61010,14.089556428156364,49.04156483530031,804.478449765278,5.538077918825156,-193966.9147636267,10.5,10499806033.085236,47.655,-122.3035,60.0,13.6
2026-01-20T23:13:37+00:00,SAT-61010,13.791005142988661,48.7593433223994,810.0017594763196,5.561567343711934,-194789.61378333042,10.5,10499805210.386217,47.655,-122.3035,60.0,13.616666666666667
2026-01-20T23:13:38+00:00,SAT-61010,13.499217182126511,48.479934555017195,815.5484959737817,5.584574212804859,-195595.41165792441,10.5,10499804404.588343,47.655,-122.3035,60.0,13.633333333333333
2026-01-20T23:13:39+00:00,SAT-61010,13.213960525430116,48.203321789362825,821.1181779886858,5.607109477185766,-196384.69194061763,10.5,10499803615.30806,47.655,-122.3035,60.0,13.65
2026-01-20T23:13:40+00:00,SAT-61010,12.935013081906263,47.92948680084968,826.7103351739323,5.629183924321231,-197157.83245412042,10.5,10499802842.167545,47.655,-122.3035,60.0,13.666666666666666
2026-01-20T23:13:41+00:00,SAT-61010,12.66216219573221,47.65841002249552,832.3245079411221,5.650808058219528,-197915.20109323447,10.5,10499802084.798906,47.655,-122.3035,60.0,13.683333333333334
2026-01-20T23:13:42+00:00,SAT-61010,12.395204184523015,47.39007067926279,837.960247177853,5.671992148544853,-198657.15754504057,10.5,10499801342.842455,47.655,-122.3035,60.0,13.7
2026-01-20T23:13:43+00:00,SAT-61010,12.133943899932033,47.124446910483734,843.6171140140018,5.692746273208437,-199384.05478061954,10.5,10499800615.945219,47.655,-122.3035,60.0,13.716666666666667
2026-01-20T23:13:44+00:00,SAT-61010,11.87819431008546,46.86151588151107,849.2946796304816,5.713080263584093,-200096.23713626905,10.5,10499799903.762863,47.655,-122.3035,60.0,13.733333333333333
2026-01-20T23:13:45+00:00,SAT-61010,11.62777610680712,46.60125388993817,854.9925250133629,5.733003678253983,-200794.03939396908,10.5,10499799205.960606,47.655,-122.3035,60.0,13.75
2026-01-20T23:13:46+00:00,SAT-61010,11.38251733491514,46.34363646537455,860.7102406818082,5.752525957206924,-201477.79218205914,10.5,10499798522.207817,47.655,-122.3035,60.0,13.766666666666667
2026-01-20T23:13:47+00:00,SAT-61010,11.142253035098264,46.08863845508105,866.4474265697958,5.771656202047325,-202147.81427722544,10.5,10499797852.185722,47.655,-122.3035,60.0,13.783333333333333
2026-01-20T23:13:48+00:00,SAT-61010,10.906824914764712,45.836234113201286,872.2036916886377,5.790403432321288,-202804.42158212504,10.5,10499797195.578419,47.655,-122.3035,60.0,13.8
2026-01-20T23:13:49+00:00,SAT-61010,10.676081026343827,45.58639717228734,877.9786540451395,5.808776331312828,-203447.91822209448,10.5,10499796552.081778,47.655,-122.3035,60.0,13.816666666666666
2026-01-20T23:13:50+00:00,SAT-61010,10.449875472584507,45.33910092061064,883.7719403062355,5.826783473900019,-204078.60452563548,10.5,10499795921.395473,47.655,-122.3035,60.0,13.833333333333334
2026-01-20T23:13:51+00:00,SAT-61010,10.228068118845123,45.09431826411329,889.5831856908718,5.844433174848588,-204696.7717110154,10.5,10499795303.228289,47.655,-122.3035,60.0,13.85
2026-01-20T23:13:52+00:00,SAT-61010,10.010524326341425,44.85202179018203,895.4120337105874,5.861733579353694,-205302.70505742272,10.5,10499794697.294943,47.655,-122.3035,60.0,13.866666666666667
2026-01-20T23:13:53+00:00,SAT-61010,9.797114696118756,44.612183822988804,901.2581360003962,5.878692614403539,-205896.68220151542,10.5,10499794103.317799,47.655,-122.3035,60.0,13.883333333333333
2026-01-20T23:13:54+00:00,SAT-61010,9.587714828305264,44.374776476683884,907.1211521011613,5.895318040807483,-206478.9749596655,10.5,10499793521.02504,47.655,-122.3035,60.0,13.9
2026-01-20T23:13:55+00:00,SAT-61010,9.382205092151567,44.139771702549034,913.0007492938599,5.911617443662474,-207049.848994053,10.5,10499792950.151007,47.655,-122.3035,60.0,13.916666666666666
2026-01-20T23:13:56+00:00,SAT-61010,9.180470408517857,43.90714133296195,918.8966024243393,5.927598159770755,-207609.56127052713,10.5,10499792390.43873,47.655,-122.3035,60.0,13.933333333333334
2026-01-20T23:13:57+00:00,SAT-61010,8.982400045942265,43.67685712491838,924.8083936556841,5.9432674229060956,-208158.3651464441,10.5,10499791841.634853,47.655,-122.3035,60.0,13.95
2026-01-20T23:13:58+00:00,SAT-61010,8.787887422707614,43.44889079456597,930.7358123654624,5.958632266588941,-208696.5069654417,10.5,10499791303.493034,47.655,-122.3035,60.0,13.966666666666667
2026-01-20T23:13:59+00:00,SAT-61010,8.5968299221763,43.22321405282874,936.6785549460071,5.973699533653899,-209224.226392533,10.5,10499790775.773607,47.655,-122.3035,60.0,13.983333333333333
2026-01-20T23:14:00+00:00,SAT-61010,8.409128717338866,42.99979863788261,942.6363246142379,5.988475919353255,-209741.75792377398,10.5,10499790258.242077,47.655,-122.3035,60.0,14.0
2026-01-20T23:14:01+00:00,SAT-61010,8.224688602985994,42.778616343495734,948.6088312644729,6.002967951059955,-210249.33017537597,10.5,10499789750.669825,47.655,-122.3035,60.0,14.016666666666667
2026-01-20T23:14:02+00:00,SAT-61010,8.043417837109384,42.55963904583882,954.5957913009967,6.017181995747823,-210747.1661456945,10.5,10499789252.833855,47.655,-122.3035,60.0,14.033333333333333
2026-01-20T23:14:03+00:00,SAT-61010,7.865227990063969,42.342838727894026,960.5969274780892,6.031124270696461,-211235.48359016038,10.5,10499788764.516409,47.655,-122.3035,60.0,14.05
2026-01-20T23:14:04+00:00,SAT-61010,7.690033801105191,42.12818750145367,966.6119687507305,6.0448008134489735,-211714.49396907186,10.5,10499788285.506031,47.655,-122.3035,60.0,14.066666666666666
2026-01-20T23:14:05+00:00,SAT-61010,7.517753042874132,41.91565762841676,972.6406500953436,6.05821756591904,-212184.40539338024,10.5,10499787815.594606,47.655,-122.3035,60.0,14.083333333333334
2026-01-20T23:14:06+00:00,SAT-61010,7.34830639047481,41.70522153728353,978.6827124144202,6.071380271855668,-212645.41903347187,10.5,10499787354.580967,47.655,-122.3035,60.0,14.1
2026-01-20T23:14:07+00:00,SAT-61010,7.181617299700411,41.49685184183485,984.7379023388842,6.084294559983627,-213097.7320310976,10.5,10499786902.26797,47.655,-122.3035,60.0,14.116666666666667
2026-01-20T23:14:08+00:00,SAT-61010,7.017611889174063,41.2905213553083,990.8059721133745,6.09696591497013,-213541.5364825034,10.5,10499786458.463518,47.655,-122.3035,60.0,14.133333333333333
2026-01-20T23:14:09+00:00,SAT-61010,6.856218828975738,41.08620310430069,996.8866794525715,6.1093996868197715,-213977.0197674806,10.5,10499786022.980232,47.655,-122.3035,60.0,14.15
2026-01-20T23:14:10+00:00,SAT-61010,6.697369234538119,40.88387034107481,1002.979787406893,6.121601098750298,-214404.36482520893,10.5,10499785595.635176,47.655,-122.3035,60.0,14.166666666666666
2026-01-20T23:14:11+00:00,SAT-61010,6.540996565462926,40.6834965544576,1009.0850642360466,6.133575219965736,-214823.74920065608,10.5,10499785176.2508,47.655,-122.3035,60.0,14.183333333333334
2026-01-20T23:14:12+00:00,SAT-61010,6.387036529932319,40.48505548055465,1015.2022832554258,6.14532705062058,-215235.3480203831,10.5,10499784764.65198,47.655,-122.3035,60.0,14.2
2026-01-20T23:14:13+00:00,SAT-61010,6.235426991664416,40.28852110969451,1021.3312227672446,6.1568613868835085,-215639.32926650488,10.5,10499784360.670734,47.655,-122.3035,60.0,14.216666666666667
2026-01-20T23:14:14+00:00,SAT-61010,6.086107884528893,40.093867696860066,1027.4716658570965,6.168183013753795,-216035.86052993653,10.5,10499783964.13947,47.655,-122.3035,60.0,14.233333333333333
2026-01-20T23:14:15+00:00,SAT-61010,5.939021126740756,39.90106976504755,1033.6234003828135,6.179296470689037,-216425.10080168492,10.5,10499783574.899199,47.655,-122.3035,60.0,14.25
2026-01-20T23:14:16+00:00,SAT-61010,5.794110544467395,39.71010211536902,1039.786218729581,6.190206288141301,-216807.20875734527,10.5,10499783192.791243,47.655,-122.3035,60.0,14.266666666666667
2026-01-20T23:14:17+00:00,SAT-61010,5.651321793715255,39.52093982886999,1045.9599178009537,6.200916854868445,-217182.33810978217,10.5,10499782817.66189,47.655,-122.3035,60.0,14.283333333333333
2026-01-20T23:14:18+00:00,SAT-61010,5.510602288848752,39.33355827196255,1052.1442988775425,6.211432435711384,-217550.63823176475,10.5,10499782449.361769,47.655,-122.3035,60.0,14.3
2026-01-20T23:14:19+00:00,SAT-61010,5.371901133983381,39.147933100656076,1058.3391674934253,6.221757186634733,-217912.25468275356,10.5,10499782087.745317,47.655,-122.3035,60.0,14.316666666666666
2026-01-20T23:14:20+00:00,SAT-61010,5.235169057294469,38.96404026371947,1064.5443333275625,6.231895207863722,-218267.33106998005,10.5,10499781732.66893,47.655,-122.3035,60.0,14.333333333333334
2026-01-20T23:14:21+00:00,SAT-61010,5.100358347205936,38.781856003789805,1070.7596101482052,6.241850447829772,-218616.00568421438,10.5,10499781383.994316,47.655,-122.3035,60.0,14.35
2026-01-20T23:14:22+00:00,SAT-61010,4.9674227934939195,38.601356860887975,1076.9848156615074,6.251626789978116,-218958.41454013568,10.5,10499781041.58546,47.655,-122.3035,60.0,14.366666666666667
2026-01-20T23:14:23+00:00,SAT-61010,4.836317629312788,38.422519672897366,1083.2197714467122,6.261227990742746,-219294.689203952,10.5,10499780705.310797,47.655,-122.3035,60.0,14.383333333333333
2026-01-20T23:14:24+00:00,SAT-61010,4.706999477061231,38.2453215774974,1089.4643028294797,6.270657773262027,-219624.9600757177,10.5,10499780375.039925,47.655,-122.3035,60.0,14.4
2026-01-20T23:14:25+00:00,SAT-61010,4.579426294873808,38.06974001101258,1095.7182388486797,6.279919691600907,-219949.35163382103,10.5,10499780050.648367,47.655,-122.3035,60.0,14.416666666666666
2026-01-20T23:14:26+00:00,SAT-61010,4.45355732812369,37.89575271084716,1101.9814120877697,6.289017297104851,-220267.9882614023,10.5,10499779732.011738,47.655,-122.3035,60.0,14.433333333333334
2026-01-20T23:14:27+00:00,SAT-61010,4.329353059904724,37.72333771287632,1108.2536586720823,6.297953971193762,-220580.9883900899,10.5,10499779419.01161,47.655,-122.3035,60.0,14.45
2026-01-20T23:14:28+00:00,SAT-61010,4.206775166857906,37.55247335329604,1114.5348180993528,6.306733092337575,-220888.47034819183,10.5,10499779111.529652,47.655,-122.3035,60.0,14.466666666666667
2026-01-20T23:14:29+00:00,SAT-61010,4.085786473840733,37.383138265551445,1120.8247332367775,6.315357904651475,-221190.5477583445,10.5,10499778809.452242,47.655,-122.3035,60.0,14.483333333333333
2026-01-20T23:14:30+00:00,SAT-61010,3.9663509129922008,37.21531138071666,1127.1232501870165,6.3238315790487,-221487.33167934246,10.5,10499778512.668322,47.655,-122.3035,60.0,14.5
2026-01-20T23:14:31+00:00,SAT-61010,3.848433483446163,37.04897192595247,1133.4302182151878,6.332157231554243,-221778.93124756176,10.5,10499778221.068752,47.655,-122.3035,60.0,14.516666666666667
2026-01-20T23:14:32+00:00,SAT-61010,3.7320002125074323,36.88409942231309,1139.7454896941244,6.340337903084828,-222065.45296876912,10.5,10499777934.547031,47.655,-122.3035,60.0,14.533333333333333
2026-01-20T23:14:33+00:00,SAT-61010,3.6170181188140993,36.720673682964524,1146.0689200294678,6.348376541018056,-222347.00007259552,10.5,10499777652.999928,47.655,-122.3035,60.0,14.55
2026-01-20T23:14:34+00:00,SAT-61010,3.5034551774272296,36.55867481172317,1152.4003675663764,6.356276015696212,-222623.67309056927,10.5,10499777376.32691,47.655,-122.3035,60.0,14.566666666666666
2026-01-20T23:14:35+00:00,SAT-61010,3.391280286064903,36.39808320102919,1158.7396935126974,6.364039178382247,-222895.57188597985,10.5,10499777104.428114,47.655,-122.3035,60.0,14.583333333333334
2026-01-20T23:14:36+00:00,SAT-61010,3.2804632318882745,36.238879528310115,1165.0867619199373,6.371668768205379,-223162.79239471888,10.5,10499776837.207605,47.655,-122.3035,60.0,14.6
2026-01-20T23:14:37+00:00,SAT-61010,3.170974661117231,36.08104475469265,1171.4414395714277,6.379167433733363,-223425.42738083258,10.5,10499776574.572618,47.655,-122.3035,60.0,14.616666666666667
2026-01-20T23:14:38+00:00,SAT-61010,3.0627860496356516,35.92456012298069,1177.8035958920045,6.386537866414235,-223683.5711102161,10.5,10499776316.42889,47.655,-122.3035,60.0,14.633333333333333
2026-01-20T23:14:39+00:00,SAT-61010,2.955869672655779,35.76940715229073,1184.1731029907746,6.393782555921859,-223937.31078177932,10.5,10499776062.689219,47.655,-122.3035,60.0,14.65
2026-01-20T23:14:40+00:00,SAT-61010,2.850198579494052,35.61556763870135,1190.5498354598808,6.400904071922617,-224186.73639610867,10.5,10499775813.263603,47.655,-122.3035,60.0,14.666666666666666
2026-01-20T23:14:41+00:00,SAT-61010,2.7457465650229067,35.46302364887986,1196.9336704542784,6.4079047791920605,-224431.93077764695,10.5,10499775568.069221,47.655,-122.3035,60.0,14.683333333333334
2026-01-20T23:14:42+00:00,SAT-61010,2.6424881466303307,35.3117575206537,1203.3244874873924,6.414787125571719,-224672.97966015892,10.5,10499775327.02034,47.655,-122.3035,60.0,14.7
2026-01-20T23:14:43+00:00,SAT-61010,2.540398537766828,35.16175185655212,1209.7221685139627,6.421553389632907,-224909.96284885032,10.5,10499775090.037151,47.655,-122.3035,60.0,14.716666666666667
2026-01-20T23:14:44+00:00,SAT-61010,2.439453626349053,35.01298952341036,1216.1265977612234,6.428205887485575,-225142.96146368876,10.5,10499774857.038536,47.655,-122.3035,60.0,14.733333333333333
2026-01-20T23:14:45+00:00,SAT-61010,2.339629950953549,34.86545364701619,1222.5376617663424,6.434746801021627,-225372.05192375815,10.5,10499774627.948076,47.655,-122.3035,60.0,14.75
2026-01-20T23:14:46+00:00,SAT-61010,2.2409046804902424,34.71912761080669,1228.9552492425612,6.4411783142509735,-225597.31072232386,10.5,10499774402.689278,47.655,-122.3035,60.0,14.766666666666667
2026-01-20T23:14:47+00:00,SAT-61010,2.143255592689962,34.5739950513602,1235.3792510813075,6.4475025567493764,-225818.81244613716,10.5,10499774181.187553,47.655,-122.3035,60.0,14.783333333333333
2026-01-20T23:14:48+00:00,SAT-61010,2.046661054291781,34.4300398552181,1241.8095602979054,6.453721591084076,-226036.62933502748,10.5,10499773963.370665,47.655,-122.3035,60.0,14.8
2026-01-20T23:14:49+00:00,SAT-61010,1.9511000021373968,34.287246156012294,1248.2460719647465,6.459837400418309,-226250.83084776017,10.5,10499773749.169151,47.655,-122.3035,60.0,14.816666666666666
2026-01-20T23:14:50+00:00,SAT-61010,1.8565519252017928,34.14559833183166,1254.6886831320971,6.465852030119124,-226461.4886217411,10.5,10499773538.511377,47.655,-122.3035,60.0,14.833333333333334
2026-01-20T23:14:51+00:00,SAT-61010,1.7629968453809237,34.005080999474174,1261.1372928901362,6.4717673328013126,-226668.66754337688,10.5,10499773331.332457,47.655,-122.3035,60.0,14.85
2026-01-20T23:14:52+00:00,SAT-61010,1.6704153024712907,33.865679014386615,1267.5918021767166,6.4775852867550485,-226872.43690075754,10.5,10499773127.563099,47.655,-122.3035,60.0,14.866666666666667
2026-01-20T23:14:53+00:00,SAT-61010,1.5787883354746164,33.727377463589264,1274.0521139027069,6.483307618575678,-227072.8571665556,10.5,10499772927.142834,47.655,-122.3035,60.0,14.883333333333333
2026-01-20T23:14:54+00:00,SAT-61010,1.488097469582876,33.59016166689175,1280.5181327009664,6.488936221096473,-227269.99463579894,10.5,10499772730.005363,47.655,-122.3035,60.0,14.9
2026-01-20T23:14:55+00:00,SAT-61010,1.398324698219236,33.454017169041755,1286.9897650921398,6.494472833584734,-227463.9102249854,10.5,10499772536.089775,47.655,-122.3035,60.0,14.916666666666666
2026-01-20T23:14:56+00:00,SAT-61010,1.3094524699044,33.31892973885666,1293.4669193315017,6.499919128559191,-227654.6625127958,10.5,10499772345.337486,47.655,-122.3035,60.0,14.933333333333334
2026-01-20T23:14:57+00:00,SAT-61010,1.2214636744447056,33.18488536646895,1299.9495053423848,6.5052768377253445,-227842.31215088177,10.5,10499772157.687849,47.655,-122.3035,60.0,14.95
2026-01-20T23:14:58+00:00,SAT-61010,1.1343416281289795,33.05187025795148,1306.4374347752096,6.5105475972588716,-228026.91644503665,10.5,10499771973.083555,47.655,-122.3035,60.0,14.966666666666667
2026-01-20T23:14:59+00:00,SAT-61010,1.048070061346666,32.91987083328898,1312.9306209122092,6.515732991588522,-228208.53088865726,10.5,10499771791.46911,47.655,-122.3035,60.0,14.983333333333333
