satellites_20260121_005943/SAT-56450.csv

timestamp,satellite,azimuth_deg,elevation_deg,distance_km,relative_velocity_kms,doppler_shift_hz,tx_freq_ghz,rx_freq_hz,ue_lat,ue_lon,ue_alt_m,time_minutes
2026-01-20T23:05:34+00:00,SAT-56450,237.5193201335955,30.06768880644495,2913.981392650161,-2.9958083731427583,104925.88148431326,10.5,10500104925.881485,47.655,-122.3035,60.0,5.566666666666666
2026-01-20T23:05:35+00:00,SAT-56450,237.63062024078243,30.155873676417055,2910.993573099347,-2.9839484686912154,104510.49746307415,10.5,10500104510.497463,47.655,-122.3035,60.0,5.583333333333333
2026-01-20T23:05:36+00:00,SAT-56450,237.7424348308785,30.244016493119748,2908.017581826572,-2.9720490461235176,104093.7293502458,10.5,10500104093.729351,47.655,-122.3035,60.0,5.6
2026-01-20T23:05:37+00:00,SAT-56450,237.85476582409547,30.33211538285668,2905.0534582445716,-2.960110129907396,103675.57800279172,10.5,10500103675.578003,47.655,-122.3035,60.0,5.616666666666666
2026-01-20T23:05:38+00:00,SAT-56450,237.96761513742723,30.420168455491567,2902.1012417416773,-2.9481317060027727,103256.04292896892,10.5,10500103256.042929,47.655,-122.3035,60.0,5.633333333333334
2026-01-20T23:05:39+00:00,SAT-56450,238.08098468289296,30.508173803267283,2899.1609717202236,-2.9361137861251283,102835.12453910314,10.5,10500102835.124538,47.655,-122.3035,60.0,5.65
2026-01-20T23:05:40+00:00,SAT-56450,238.19487636815683,30.59612950144761,2896.2326875708613,-2.9240563773997046,102412.82308275046,10.5,10500102412.823082,47.655,-122.3035,60.0,5.666666666666667
2026-01-20T23:05:41+00:00,SAT-56450,238.3092920960238,30.68403360811412,2893.3164286771353,-2.911959474372287,101989.13836888123,10.5,10500101989.138369,47.655,-122.3035,60.0,5.683333333333334
2026-01-20T23:05:42+00:00,SAT-56450,238.4242337635738,30.77188416369284,2890.4122344280277,-2.899823090147323,101564.0708564686,10.5,10500101564.070856,47.655,-122.3035,60.0,5.7
2026-01-20T23:05:43+00:00,SAT-56450,238.53970326253227,30.85967919142772,2887.520144199454,-2.8876472511517313,101137.62147109512,10.5,10500101137.621471,47.655,-122.3035,60.0,5.716666666666667
2026-01-20T23:05:44+00:00,SAT-56450,238.6557024794015,30.947416697664753,2884.6401973409725,-2.8754319453137676,100709.78978995717,10.5,10500100709.78979,47.655,-122.3035,60.0,5.733333333333333
2026-01-20T23:05:45+00:00,SAT-56450,238.77223329362226,31.035094670672727,2881.7724332141793,-2.863177200065103,100280.57677382792,10.5,10500100280.576775,47.655,-122.3035,60.0,5.75
2026-01-20T23:05:46+00:00,SAT-56450,238.8892975786879,31.12271108168668,2878.9168911533143,-2.8508830251696553,99849.9827646811,10.5,10500099849.982765,47.655,-122.3035,60.0,5.766666666666667
2026-01-20T23:05:47+00:00,SAT-56450,239.00689720109952,31.21026388433639,2876.0736104828784,-2.8385494505249773,99418.00880965545,10.5,10500099418.00881,47.655,-122.3035,60.0,5.783333333333333
2026-01-20T23:05:48+00:00,SAT-56450,239.12503402078204,31.29775101515439,2873.2426304975547,-2.8261764673037986,98984.65459958265,10.5,10500098984.6546,47.655,-122.3035,60.0,5.8
2026-01-20T23:05:49+00:00,SAT-56450,239.24370988908964,31.38517039235199,2870.4239905008308,-2.81376412679566,98549.92193083934,10.5,10500098549.92193,47.655,-122.3035,60.0,5.816666666666666
2026-01-20T23:05:50+00:00,SAT-56450,239.36292665086017,31.472519917525524,2867.61772974504,-2.8013124409894647,98113.81122332765,10.5,10500098113.811224,47.655,-122.3035,60.0,5.833333333333333
2026-01-20T23:05:51+00:00,SAT-56450,239.4826861424097,31.559797474431054,2864.8238874705594,-2.788821424842121,97676.32300090174,10.5,10500097676.323,47.655,-122.3035,60.0,5.85
2026-01-20T23:05:52+00:00,SAT-56450,239.60299019120149,31.64700092898058,2862.04250290285,-2.7762911140235413,97237.45851287288,10.5,10500097237.458513,47.655,-122.3035,60.0,5.866666666666666
2026-01-20T23:05:53+00:00,SAT-56450,239.72384061631254,31.734128129814795,2859.2736152317975,-2.7637215294662814,96797.21849238768,10.5,10500096797.218493,47.655,-122.3035,60.0,5.883333333333334
2026-01-20T23:05:54+00:00,SAT-56450,239.84523922735454,31.821176907778305,2856.5172636264097,-2.7511127132422986,96355.60441298404,10.5,10500096355.604412,47.655,-122.3035,60.0,5.9
2026-01-20T23:05:55+00:00,SAT-56450,239.9671878249548,31.90814507650341,2853.7734872137357,-2.7384646922643707,95912.61721726132,10.5,10500095912.617218,47.655,-122.3035,60.0,5.916666666666667
2026-01-20T23:05:56+00:00,SAT-56450,240.08968819965992,31.9950304318857,2851.0423250939843,-2.7257774878365617,95468.25765137793,10.5,10500095468.257652,47.655,-122.3035,60.0,5.933333333333334
2026-01-20T23:05:57+00:00,SAT-56450,240.212742131222,32.081830751854326,2848.3238163461156,-2.7130511531786294,95022.52757931492,10.5,10500095022.52758,47.655,-122.3035,60.0,5.95
2026-01-20T23:05:58+00:00,SAT-56450,240.33635138952644,32.168543797275554,2845.6179999960123,-2.700285710347821,94575.42777361037,10.5,10500094575.427774,47.655,-122.3035,60.0,5.966666666666667
2026-01-20T23:05:59+00:00,SAT-56450,240.46051773279035,32.25516731096989,2842.9249150475584,-2.6874812211446755,94126.96039878059,10.5,10500094126.9604,47.655,-122.3035,60.0,5.983333333333333
2026-01-20T23:06:00+00:00,SAT-56450,240.58524290881837,32.341699018852275,2840.244600443003,-2.6746376953229474,93677.12579644332,10.5,10500093677.125797,47.655,-122.3035,60.0,6.0
2026-01-20T23:06:01+00:00,SAT-56450,240.71052865220196,32.42813662829401,2837.577095114868,-2.6617552005089,93225.92633515633,10.5,10500093225.926334,47.655,-122.3035,60.0,6.016666666666667
2026-01-20T23:06:02+00:00,SAT-56450,240.83637668643428,32.51447782985075,2834.9224379282273,-2.648833779147523,92773.36350152276,10.5,10500092773.3635,47.655,-122.3035,60.0,6.033333333333333
2026-01-20T23:06:03+00:00,SAT-56450,240.9627887222972,32.60072029645108,2832.2806677058243,-2.635873462619864,92319.43839463957,10.5,10500092319.438395,47.655,-122.3035,60.0,6.05
2026-01-20T23:06:04+00:00,SAT-56450,241.08976645680235,32.686861682985175,2829.6518232391045,-2.622874323008256,91864.15353913502,10.5,10500091864.15354,47.655,-122.3035,60.0,6.066666666666666
2026-01-20T23:06:05+00:00,SAT-56450,241.2173115746226,32.77289962756453,2827.0359432476243,-2.6098363958570823,91407.51017992375,10.5,10500091407.51018,47.655,-122.3035,60.0,6.083333333333333
2026-01-20T23:06:06+00:00,SAT-56450,241.3454257458256,32.85883175030935,2824.433066415489,-2.5967597361989196,90949.51024447939,10.5,10500090949.510244,47.655,-122.3035,60.0,6.1
2026-01-20T23:06:07+00:00,SAT-56450,241.47411062629465,32.944655653949376,2821.84323137192,-2.583644404721307,90490.15585833626,10.5,10500090490.155859,47.655,-122.3035,60.0,6.116666666666666
2026-01-20T23:06:08+00:00,SAT-56450,241.60336785743908,33.030368923946575,2819.2664766856115,-2.570490458231527,90029.44901112567,10.5,10500090029.44901,47.655,-122.3035,60.0,6.133333333333334
2026-01-20T23:06:09+00:00,SAT-56450,241.73319906550498,33.11596912836447,2816.702840868602,-2.557297949531071,89567.39155217922,10.5,10500089567.391552,47.655,-122.3035,60.0,6.15
2026-01-20T23:06:10+00:00,SAT-56450,241.86360586081236,33.20145381769704,2814.1523623802696,-2.544066949403264,89103.98596062839,10.5,10500089103.98596,47.655,-122.3035,60.0,6.166666666666667
2026-01-20T23:06:11+00:00,SAT-56450,241.9945898380809,33.286820525422414,2811.6150796093984,-2.5307975123394297,88639.23414498978,10.5,10500088639.234144,47.655,-122.3035,60.0,6.183333333333334
2026-01-20T23:06:12+00:00,SAT-56450,242.1261525750706,33.372066767459344,2809.091030890425,-2.5174897107522454,88173.13864146167,10.5,10500088173.138641,47.655,-122.3035,60.0,6.2
2026-01-20T23:06:13+00:00,SAT-56450,242.25829563291188,33.45719004272722,2806.580254485568,-2.5041436148959786,87705.70191064572,10.5,10500087705.70191,47.655,-122.3035,60.0,6.216666666666667
2026-01-20T23:06:14+00:00,SAT-56450,242.39102055542247,33.54218783305645,2804.0827885869785,-2.4907592810808716,87236.92592476476,10.5,10500087236.925924,47.655,-122.3035,60.0,6.233333333333333
2026-01-20T23:06:15+00:00,SAT-56450,242.5243288678044,33.62705760272806,2801.598671330647,-2.477336794966858,86766.81368399203,10.5,10500086766.813684,47.655,-122.3035,60.0,6.25
2026-01-20T23:06:16+00:00,SAT-56450,242.65822207757068,33.711796799413854,2799.1279407671336,-2.4638762264443206,86295.36763618438,10.5,10500086295.367636,47.655,-122.3035,60.0,6.266666666666667
2026-01-20T23:06:17+00:00,SAT-56450,242.79270167311762,33.796402853656,2796.6706348772927,-2.4503776539752766,85822.59052941354,10.5,10500085822.590528,47.655,-122.3035,60.0,6.283333333333333
2026-01-20T23:06:18+00:00,SAT-56450,242.92776912359886,33.88087317915072,2794.2267915637285,-2.4368411494591014,85348.48488189976,10.5,10500085348.484882,47.655,-122.3035,60.0,6.3
2026-01-20T23:06:19+00:00,SAT-56450,243.0634258779383,33.96520517252985,2791.796448657334,-2.423266798394623,84873.05368817363,10.5,10500084873.053688,47.655,-122.3035,60.0,6.316666666666666
2026-01-20T23:06:20+00:00,SAT-56450,243.19967336493562,34.04939621380481,2789.3796439037355,-2.409654691811625,84396.30013648329,10.5,10500084396.300137,47.655,-122.3035,60.0,6.333333333333333
2026-01-20T23:06:21+00:00,SAT-56450,243.33651299297932,34.13344366657855,2786.9764149577686,-2.396004895913863,83918.22654556428,10.5,10500083918.226545,47.655,-122.3035,60.0,6.35
2026-01-20T23:06:22+00:00,SAT-56450,243.4739461480072,34.217344877205356,2784.586799408244,-2.3823175127965914,83438.83649122424,10.5,10500083438.83649,47.655,-122.3035,60.0,6.366666666666666
2026-01-20T23:06:23+00:00,SAT-56450,243.61197419486558,34.30109717602115,2782.2108347421486,-2.368592630386403,82958.1330530244,10.5,10500082958.133053,47.655,-122.3035,60.0,6.383333333333334
2026-01-20T23:06:24+00:00,SAT-56450,243.75059847586306,34.384697876872174,2779.8485583587762,-2.354830329185818,82476.11905050355,10.5,10500082476.119051,47.655,-122.3035,60.0,6.4
2026-01-20T23:06:25+00:00,SAT-56450,243.8898203097201,34.46814427690649,2777.500007577135,-2.3410307271531523,81992.79861506089,10.5,10500081992.798615,47.655,-122.3035,60.0,6.416666666666667
2026-01-20T23:06:26+00:00,SAT-56450,244.02964099300377,34.5514336578435,2775.1652195985876,-2.327193892552994,81508.17413761101,10.5,10500081508.174137,47.655,-122.3035,60.0,6.433333333333334
2026-01-20T23:06:27+00:00,SAT-56450,244.170061796644,34.63456328433972,2772.844231556415,-2.3133199414144565,81022.2496819843,10.5,10500081022.249681,47.655,-122.3035,60.0,6.45
2026-01-20T23:06:28+00:00,SAT-56450,244.31108396796577,34.71753040562172,2770.5370804681775,-2.2994089696828257,80535.02860859051,10.5,10500080535.028608,47.655,-122.3035,60.0,6.466666666666667
2026-01-20T23:06:29+00:00,SAT-56450,244.4527087288975,34.8003322548659,2768.243803255747,-2.2854610832304436,80046.5146255269,10.5,10500080046.514626,47.655,-122.3035,60.0,6.483333333333333
2026-01-20T23:06:30+00:00,SAT-56450,244.59493727580093,34.882966049552635,2765.9644367354053,-2.2714763787557777,79556.71111958282,10.5,10500079556.711119,47.655,-122.3035,60.0,6.5
2026-01-20T23:06:31+00:00,SAT-56450,244.7377707782725,34.96542899121556,2763.699017626993,-2.2574549784145312,79065.62236916773,10.5,10500079065.62237,47.655,-122.3035,60.0,6.516666666666667
2026-01-20T23:06:32+00:00,SAT-56450,244.88121037995575,35.047718266362914,2761.4475825285203,-2.2433969797640625,78573.25179115299,10.5,10500078573.251791,47.655,-122.3035,60.0,6.533333333333333
2026-01-20T23:06:33+00:00,SAT-56450,245.02525719633687,35.12983104568178,2759.210167940703,-2.229302497488228,78079.60340225237,10.5,10500078079.603403,47.655,-122.3035,60.0,6.55
2026-01-20T23:06:34+00:00,SAT-56450,245.1699123150579,35.211764484681154,2756.9868102498745,-2.215171649867048,77584.68134513246,10.5,10500077584.681345,47.655,-122.3035,60.0,6.566666666666666
2026-01-20T23:06:35+00:00,SAT-56450,245.31517679543703,35.29351572389433,2754.777545724407,-2.2010045483658223,77088.48952377959,10.5,10500077088.489523,47.655,-122.3035,60.0,6.583333333333333
2026-01-20T23:06:36+00:00,SAT-56450,245.46105166727955,35.37508188868854,2752.5824105215033,-2.1868013275164224,76591.032650069,10.5,10500076591.03265,47.655,-122.3035,60.0,6.6
2026-01-20T23:06:37+00:00,SAT-56450,245.60753793165728,35.45646009017302,2750.4014406641936,-2.172562085594322,76092.31416602343,10.5,10500076092.314165,47.655,-122.3035,60.0,6.616666666666666
2026-01-20T23:06:38+00:00,SAT-56450,245.7546365577859,35.5376474239689,2748.234672077494,-2.1582869620890754,75592.33895715713,10.5,10500075592.338957,47.655,-122.3035,60.0,6.633333333333334
2026-01-20T23:06:39+00:00,SAT-56450,245.90234848495726,35.61864097176489,2746.082140547304,-2.1439760776495156,75091.11124910259,10.5,10500075091.11125,47.655,-122.3035,60.0,6.65
2026-01-20T23:06:40+00:00,SAT-56450,246.05067462054643,35.69943780072202,2743.943881739195,-2.1296295685207216,74588.63581373876,10.5,10500074588.635815,47.655,-122.3035,60.0,6.666666666666667
2026-01-20T23:06:41+00:00,SAT-56450,246.19961584028425,35.78003496412908,2741.819931182857,-2.115247552098919,74084.91676277811,10.5,10500074084.916763,47.655,-122.3035,60.0,6.683333333333334
2026-01-20T23:06:42+00:00,SAT-56450,246.34917298623958,35.860429500817084,2739.7103242908966,-2.1008301774256544,73579.95931628597,10.5,10500073579.959316,47.655,-122.3035,60.0,6.7
2026-01-20T23:06:43+00:00,SAT-56450,246.49934686813248,35.94061843639064,2737.615096327278,-2.0863775668248503,73073.7677585636,10.5,10500073073.76776,47.655,-122.3035,60.0,6.716666666666667
2026-01-20T23:06:44+00:00,SAT-56450,246.6501382607773,36.020598782371785,2735.534282433964,-2.0718898638726597,72566.34711825514,10.5,10500072566.347118,47.655,-122.3035,60.0,6.733333333333333
2026-01-20T23:06:45+00:00,SAT-56450,246.80154790473608,36.10036753708287,2733.467917609729,-2.0573672151472846,72057.7025291493,10.5,10500072057.70253,47.655,-122.3035,60.0,6.75
2026-01-20T23:06:46+00:00,SAT-56450,246.95357650572743,36.17992168585758,2731.4160367071554,-2.0428097518293966,71547.83858574809,10.5,10500071547.838585,47.655,-122.3035,60.0,6.766666666666667
2026-01-20T23:06:47+00:00,SAT-56450,247.10622473277584,36.25925820061123,2729.3786744479976,-2.0282176271315002,71036.7606542015,10.5,10500071036.760654,47.655,-122.3035,60.0,6.783333333333333
2026-01-20T23:06:48+00:00,SAT-56450,247.25949321891773,36.3383740407545,2727.355865401205,-2.0135909866392465,70524.47383353484,10.5,10500070524.473833,47.655,-122.3035,60.0,6.8
2026-01-20T23:06:49+00:00,SAT-56450,247.4133825598887,36.417266153054584,2725.3476439905303,-1.9989299805498748,70010.98338429075,10.5,10500070010.983385,47.655,-122.3035,60.0,6.816666666666666
2026-01-20T23:06:50+00:00,SAT-56450,247.56789331362717,36.49593147193215,2723.3540444899286,-1.9842347594006193,69496.29457892,10.5,10500069496.294579,47.655,-122.3035,60.0,6.833333333333333
2026-01-20T23:06:51+00:00,SAT-56450,247.72302599947358,36.5743669196156,2721.3751010232195,-1.9695054836395116,68980.41303699132,10.5,10500068980.413036,47.655,-122.3035,60.0,6.85
2026-01-20T23:06:52+00:00,SAT-56450,247.8787810980906,36.65256940665092,2719.410847554203,-1.9547423068099077,68463.34413624252,10.5,10500068463.344137,47.655,-122.3035,60.0,6.866666666666666
2026-01-20T23:06:53+00:00,SAT-56450,248.03515905011307,36.730535831796026,2717.4613178935447,-1.9399453833775826,67945.09328671843,10.5,10500067945.093287,47.655,-122.3035,60.0,6.883333333333334
2026-01-20T23:06:54+00:00,SAT-56450,248.19216025537497,36.80826308220264,2715.526545697856,-1.9251148860676317,67425.66653798253,10.5,10500067425.666538,47.655,-122.3035,60.0,6.9
2026-01-20T23:06:55+00:00,SAT-56450,248.34978507346983,36.88574803427009,2713.6065644514847,-1.9102509758164847,66905.06952670934,10.5,10500066905.069527,47.655,-122.3035,60.0,6.916666666666667
2026-01-20T23:06:56+00:00,SAT-56450,248.50803382201377,36.96298755336254,2711.70140747827,-1.8953538074410963,66383.30767524349,10.5,10500066383.307674,47.655,-122.3035,60.0,6.933333333333334
2026-01-20T23:06:57+00:00,SAT-56450,248.66690677528393,37.03997849373932,2709.811107947649,-1.880423569364962,65860.38758297282,10.5,10500065860.387583,47.655,-122.3035,60.0,6.95
2026-01-20T23:06:58+00:00,SAT-56450,248.82640416605392,37.11671770002245,2707.9356988411355,-1.8654604261806447,65336.315014625114,10.5,10500065336.315014,47.655,-122.3035,60.0,6.966666666666667
2026-01-20T23:06:59+00:00,SAT-56450,248.98652618284808,37.19320200646471,2706.0752129760917,-1.850464543722287,64811.09577841353,10.5,10500064811.095778,47.655,-122.3035,60.0,6.983333333333333
2026-01-20T23:07:00+00:00,SAT-56450,249.14727296915294,37.26942823717277,2704.229683004486,-1.8354361105668675,64284.73647910151,10.5,10500064284.736479,47.655,-122.3035,60.0,7.0
2026-01-20T23:07:01+00:00,SAT-56450,249.3086446244107,37.345393207183136,2702.3991413902136,-1.8203752987447448,63757.243141919935,10.5,10500063757.243141,47.655,-122.3035,60.0,7.016666666666667
2026-01-20T23:07:02+00:00,SAT-56450,249.47064120183254,37.42109372202165,2700.5836204255993,-1.805282289741706,63228.62212326874,10.5,10500063228.622124,47.655,-122.3035,60.0,7.033333333333333
2026-01-20T23:07:03+00:00,SAT-56450,249.63326270827628,37.496526578268735,2698.783152221963,-1.7901572737722131,62698.88008526298,10.5,10500062698.880085,47.655,-122.3035,60.0,7.05
2026-01-20T23:07:04+00:00,SAT-56450,249.79650910416734,37.571688564118155,2696.997768700921,-1.7750004258244647,62168.02315672958,10.5,10500062168.023157,47.655,-122.3035,60.0,7.066666666666666
2026-01-20T23:07:05+00:00,SAT-56450,249.96038030126553,37.64657645897609,2695.2275016095655,-1.7598119457182757,61636.05833620369,10.5,10500061636.058336,47.655,-122.3035,60.0,7.083333333333333
2026-01-20T23:07:06+00:00,SAT-56450,250.1248761639847,37.72118703467817,2693.4723824957027,-1.744592018100052,61102.992090783504,10.5,10500061102.99209,47.655,-122.3035,60.0,7.1
2026-01-20T23:07:07+00:00,SAT-56450,250.289996507182,37.79551705510126,2691.732442722984,-1.7293408379320458,60568.83124887178,10.5,10500060568.83125,47.655,-122.3035,60.0,7.116666666666666
2026-01-20T23:07:08+00:00,SAT-56450,250.4557410961835,37.86956327681038,2690.00771346062,-1.7140585995234447,60033.5826159982,10.5,10500060033.582617,47.655,-122.3035,60.0,7.133333333333334
2026-01-20T23:07:09+00:00,SAT-56450,250.6221096458586,37.94332244926465,2688.2982256840287,-1.6987455040337325,59497.25323761878,10.5,10500059497.253237,47.655,-122.3035,60.0,7.15
2026-01-20T23:07:10+00:00,SAT-56450,250.78910182037413,38.01679131534308,2686.604010168005,-1.6834017536642423,58959.850195679515,10.5,10500058959.850195,47.655,-122.3035,60.0,7.166666666666667
2026-01-20T23:07:11+00:00,SAT-56450,250.95671723240773,38.089966611627574,2684.9250974856845,-1.668027540579475,58421.3802205941,10.5,10500058421.38022,47.655,-122.3035,60.0,7.183333333333334
2026-01-20T23:07:12+00:00,SAT-56450,251.12495544131332,38.162845068245275,2683.2615180185467,-1.6526230853503683,57881.85103768977,10.5,10500057881.851038,47.655,-122.3035,60.0,7.2
2026-01-20T23:07:13+00:00,SAT-56450,251.29381595495948,38.23542341029861,2681.6133019280906,-1.637188586722361,57341.269607872484,10.5,10500057341.269608,47.655,-122.3035,60.0,7.216666666666667
2026-01-20T23:07:14+00:00,SAT-56450,251.4632982267292,38.30769835722016,2679.980479177599,-1.6217242500817994,56799.6431246409,10.5,10500056799.643126,47.655,-122.3035,60.0,7.233333333333333
2026-01-20T23:07:15+00:00,SAT-56450,251.63340165530968,38.379666623325924,2678.3630795255176,-1.6062303027325164,56256.979549136704,10.5,10500056256.97955,47.655,-122.3035,60.0,7.25
2026-01-20T23:07:16+00:00,SAT-56450,251.80412558596032,38.45132491900251,2676.7611325035923,-1.5907069434240173,55713.28584240829,10.5,10500055713.285843,47.655,-122.3035,60.0,7.266666666666667
2026-01-20T23:07:17+00:00,SAT-56450,251.97546930678374,38.522669949783136,2675.1746674453507,-1.5751544007413558,55168.570010471165,10.5,10500055168.570011,47.655,-122.3035,60.0,7.283333333333333
2026-01-20T23:07:18+00:00,SAT-56450,252.14743205087555,38.59369841790352,2673.603713456345,-1.5595728885078355,54622.83954232188,10.5,10500054622.839542,47.655,-122.3035,60.0,7.3
2026-01-20T23:07:19+00:00,SAT-56450,252.3200129939359,38.66440702195751,2672.0482994288727,-1.5439626284424615,54076.10220349788,10.5,10500054076.102203,47.655,-122.3035,60.0,7.316666666666666
2026-01-20T23:07:20+00:00,SAT-56450,252.49321125421113,38.734792457538234,2670.5084540341063,-1.5283238477164214,53528.36595049507,10.5,10500053528.36595,47.655,-122.3035,60.0,7.333333333333333
2026-01-20T23:07:21+00:00,SAT-56450,252.66702589218727,38.804851417765434,2668.9842057166506,-1.5126567722816828,52979.63869710715,10.5,10500052979.638697,47.655,-122.3035,60.0,7.35
2026-01-20T23:07:22+00:00,SAT-56450,252.84145590965295,38.874580593560786,2667.4755826957617,-1.4969616285923348,52429.9283747142,10.5,10500052429.928375,47.655,-122.3035,60.0,7.366666666666666
2026-01-20T23:07:23+00:00,SAT-56450,253.0165002488089,38.9439766739575,2665.9826129648454,-1.4812386485917484,51879.2431069542,10.5,10500051879.243107,47.655,-122.3035,60.0,7.383333333333334
2026-01-20T23:07:24+00:00,SAT-56450,253.1921577920757,39.013036346684366,2664.505324285983,-1.4654880621162145,51327.59094366628,10.5,10500051327.590944,47.655,-122.3035,60.0,7.4
2026-01-20T23:07:25+00:00,SAT-56450,253.36842736092325,39.08175629836925,2663.0437441920326,-1.4497101188520731,50774.98062992221,10.5,10500050774.98063,47.655,-122.3035,60.0,7.416666666666667
2026-01-20T23:07:26+00:00,SAT-56450,253.54530771738047,39.15013321578146,2661.597899966831,-1.4339050359316463,50221.4197706144,10.5,10500050221.419771,47.655,-122.3035,60.0,7.433333333333334
2026-01-20T23:07:27+00:00,SAT-56450,253.72279755934372,39.2181637846873,2660.167818677662,-1.4180730688547987,49666.91731442886,10.5,10500049666.917315,47.655,-122.3035,60.0,7.45
2026-01-20T23:07:28+00:00,SAT-56450,253.90089552426116,39.28584469192999,2658.7535271369907,-1.4022144513309653,49111.481446858605,10.5,10500049111.481447,47.655,-122.3035,60.0,7.466666666666667
2026-01-20T23:07:29+00:00,SAT-56450,254.0796001856626,39.35317262477328,2657.3550519241967,-1.3863294364769685,48555.121033125426,10.5,10500048555.121033,47.655,-122.3035,60.0,7.483333333333333
2026-01-20T23:07:30+00:00,SAT-56450,254.25891005473807,39.42014427215677,2655.972419366217,-1.3704182637359787,47997.844459542,10.5,10500047997.84446,47.655,-122.3035,60.0,7.5
2026-01-20T23:07:31+00:00,SAT-56450,254.4388235777867,39.486756324408745,2654.605655551184,-1.3544811831958283,47439.66048524209,10.5,10500047439.660484,47.655,-122.3035,60.0,7.516666666666667
2026-01-20T23:07:32+00:00,SAT-56450,254.61933913672635,39.553005474108055,2653.25478631781,-1.3385184501530951,46880.578051791745,10.5,10500046880.578053,47.655,-122.3035,60.0,7.533333333333333
2026-01-20T23:07:33+00:00,SAT-56450,254.8004550489099,39.61888841667464,2651.919837250191,-1.3225303126815366,46320.605847783314,10.5,10500046320.605848,47.655,-122.3035,60.0,7.55
2026-01-20T23:07:34+00:00,SAT-56450,254.98216956545323,39.68440185042881,2650.6008336850095,-1.3065170302664777,45759.7529614905,10.5,10500045759.752962,47.655,-122.3035,60.0,7.566666666666666
2026-01-20T23:07:35+00:00,SAT-56450,255.1644808718603,39.749542477479906,2649.2978007001575,-1.2904788581160653,45198.02833138213,10.5,10500045198.028332,47.655,-122.3035,60.0,7.583333333333333
2026-01-20T23:07:36+00:00,SAT-56450,255.34738708669178,39.8143070039178,2648.0107631189962,-1.2744160630294152,44635.44130189179,10.5,10500044635.441301,47.655,-122.3035,60.0,7.6
2026-01-20T23:07:37+00:00,SAT-56450,255.5308862623661,39.8786921407486,2646.7397454988018,-1.2583288929517056,44072.00055710844,10.5,10500044072.000557,47.655,-122.3035,60.0,7.616666666666666
2026-01-20T23:07:38+00:00,SAT-56450,255.71497638178693,39.9426946033852,2645.4847721495644,-1.2422176239626526,43507.71576651156,10.5,10500043507.715767,47.655,-122.3035,60.0,7.633333333333334
2026-01-20T23:07:39+00:00,SAT-56450,255.89965536139619,40.00631111337374,2644.2458671059326,-1.2260825161137383,42942.59603820405,10.5,10500042942.596039,47.655,-122.3035,60.0,7.65
2026-01-20T23:07:40+00:00,SAT-56450,256.08492104829327,40.06953839804979,2643.023054143195,-1.2099238479348067,42376.651127479236,10.5,10500042376.651127,47.655,-122.3035,60.0,7.666666666666667
2026-01-20T23:07:41+00:00,SAT-56450,256.27077122206697,40.13237319182068,2641.8163567588545,-1.1937418727291969,41809.88990609152,10.5,10500041809.889906,47.655,-122.3035,60.0,7.683333333333334
2026-01-20T23:07:42+00:00,SAT-56450,256.45720359045185,40.194812235359464,2640.625798197786,-1.1775368744453918,41242.32231911789,10.5,10500041242.322319,47.655,-122.3035,60.0,7.7
2026-01-20T23:07:43+00:00,SAT-56450,256.64421579298255,40.25685227749156,2639.451401421672,-1.161309126892891,40673.95795652523,10.5,10500040673.957956,47.655,-122.3035,60.0,7.716666666666667
2026-01-20T23:07:44+00:00,SAT-56450,256.8318053989305,40.31849007515083,2638.293189119118,-1.1450589035676213,40104.80639729777,10.5,10500040104.806396,47.655,-122.3035,60.0,7.733333333333333
2026-01-20T23:07:45+00:00,SAT-56450,257.0199699064602,40.37972239375591,2637.1511837059597,-1.1287864847868359,39534.877459331474,10.5,10500039534.877459,47.655,-122.3035,60.0,7.75
2026-01-20T23:07:46+00:00,SAT-56450,257.2087067430355,40.440546007994,2636.025407318466,-1.1124921479175716,38964.18085719322,10.5,10500038964.180857,47.655,-122.3035,60.0,7.766666666666667
2026-01-20T23:07:47+00:00,SAT-56450,257.3980132642514,40.50095770209156,2634.915881816276,-1.0961761790209816,38392.72660995463,10.5,10500038392.72661,47.655,-122.3035,60.0,7.783333333333333
2026-01-20T23:07:48+00:00,SAT-56450,257.58788675461574,40.56095427070501,2633.8226287737325,-1.0798388587477112,37820.52454718846,10.5,10500037820.524548,47.655,-122.3035,60.0,7.8
2026-01-20T23:07:49+00:00,SAT-56450,257.77832442593547,40.62053251905441,2632.745669485275,-1.0634804738648298,37247.584712690514,10.5,10500037247.584713,47.655,-122.3035,60.0,7.816666666666666
2026-01-20T23:07:50+00:00,SAT-56450,257.9693234177752,40.67968926370744,2631.6850249593404,-1.0471013195189356,36673.91744374311,10.5,10500036673.917444,47.655,-122.3035,60.0,7.833333333333333
2026-01-20T23:07:51+00:00,SAT-56450,258.16088079820815,40.7384213334381,2630.6407159100067,-1.0307016737468988,36099.532478373556,10.5,10500036099.532478,47.655,-122.3035,60.0,7.85
2026-01-20T23:07:52+00:00,SAT-56450,258.35299356033283,40.79672556879561,2629.612762774056,-1.0142818361605368,35524.44031025503,10.5,10500035524.44031,47.655,-122.3035,60.0,7.866666666666666
2026-01-20T23:07:53+00:00,SAT-56450,258.5456586253639,40.854598823675246,2628.6011856894593,-0.9978420982823313,34948.65114973799,10.5,10500034948.65115,47.655,-122.3035,60.0,7.883333333333334
2026-01-20T23:07:54+00:00,SAT-56450,258.73887284069644,40.91203796535759,2627.6060045034387,-0.9813827556380124,34372.175347383585,10.5,10500034372.175348,47.655,-122.3035,60.0,7.9
2026-01-20T23:07:55+00:00,SAT-56450,258.93263298003643,40.969039875166985,2626.627238768482,-0.9649041052535733,33795.02330629852,10.5,10500033795.023306,47.655,-122.3035,60.0,7.916666666666667
2026-01-20T23:07:56+00:00,SAT-56450,259.12693574316825,41.02560144902273,2625.6649077408424,-0.9484064461792491,33217.20550048699,10.5,10500033217.2055,47.655,-122.3035,60.0,7.933333333333334
2026-01-20T23:07:57+00:00,SAT-56450,259.3217777557802,41.08171959800091,2624.71903037852,-0.9318900799164165,32638.732489802573,10.5,10500032638.73249,47.655,-122.3035,60.0,7.95
2026-01-20T23:07:58+00:00,SAT-56450,259.51715556945487,41.137391248940204,2623.7896253388167,-0.915355305382664,32059.614743603626,10.5,10500032059.614744,47.655,-122.3035,60.0,7.966666666666667
2026-01-20T23:07:59+00:00,SAT-56450,259.71306566067483,41.19261334476239,2622.876710980915,-0.8988024318022764,31479.863092232634,10.5,10500031479.863092,47.655,-122.3035,60.0,7.983333333333333
2026-01-20T23:08:00+00:00,SAT-56450,259.9095044323798,41.24738284551661,2621.980305355598,-0.8822317632141731,30899.488184418624,10.5,10500030899.488184,47.655,-122.3035,60.0,8.0
2026-01-20T23:08:01+00:00,SAT-56450,260.10646821252294,41.30169672855928,2621.100426210419,-0.8656436020365599,30318.5006121264,10.5,10500030318.500612,47.655,-122.3035,60.0,8.016666666666667
2026-01-20T23:08:02+00:00,SAT-56450,260.3039532532595,41.35555198893496,2620.237090991321,-0.8490382646835071,29736.911457515132,10.5,10500029736.911457,47.655,-122.3035,60.0,8.033333333333333
2026-01-20T23:08:03+00:00,SAT-56450,260.5019557334788,41.40894564064703,2619.3903168286765,-0.8324160578310859,29154.73146167807,10.5,10500029154.731462,47.655,-122.3035,60.0,8.05
2026-01-20T23:08:04+00:00,SAT-56450,260.70047175634954,41.46187471657274,2618.5601205469993,-0.8157772935994178,28571.971556382134,10.5,10500028571.971556,47.655,-122.3035,60.0,8.066666666666666
2026-01-20T23:08:05+00:00,SAT-56450,260.89949735014784,41.51433626926214,2617.7465186595164,-0.799122287850138,27988.642804437888,10.5,10500027988.642805,47.655,-122.3035,60.0,8.083333333333334
2026-01-20T23:08:06+00:00,SAT-56450,261.0990284687728,41.566327371640796,2616.949527364434,-0.7824513545908961,27404.756203721474,10.5,10500027404.756205,47.655,-122.3035,60.0,8.1
2026-01-20T23:08:07+00:00,SAT-56450,261.29906099093233,41.61784511736071,2616.169162546789,-0.765764807422258,26820.32273785123,10.5,10500026820.322739,47.655,-122.3035,60.0,8.116666666666667
2026-01-20T23:08:08+00:00,SAT-56450,261.4995907197926,41.66888662127392,2615.4054397788527,-0.7490629725999696,26235.353833683435,10.5,10500026235.353834,47.655,-122.3035,60.0,8.133333333333333
2026-01-20T23:08:09+00:00,SAT-56450,261.7006133857046,41.7194490206719,2614.6583743075134,-0.7323461596898397,25649.860333522192,10.5,10500025649.860334,47.655,-122.3035,60.0,8.15
2026-01-20T23:08:10+00:00,SAT-56450,261.90212464189915,41.769529474748765,2613.927981070916,-0.7156146978022848,25063.853764206404,10.5,10500025063.853764,47.655,-122.3035,60.0,8.166666666666666
2026-01-20T23:08:11+00:00,SAT-56450,262.10412006901095,41.819125166274006,2613.2142746789746,-0.698868905462012,24477.345281818685,10.5,10500024477.345282,47.655,-122.3035,60.0,8.183333333333334
2026-01-20T23:08:12+00:00,SAT-56450,262.30659517236893,41.86823330144814,2612.517269423927,-0.682109106917299,23890.346242905278,10.5,10500023890.346243,47.655,-122.3035,60.0,8.2
2026-01-20T23:08:13+00:00,SAT-56450,262.5095453830913,41.916851110703895,2611.836979274628,-0.6653356288807816,23302.868090324693,10.5,10500023302.86809,47.655,-122.3035,60.0,8.216666666666667
2026-01-20T23:08:14+00:00,SAT-56450,262.7129660587577,41.96497584938249,2611.173417874091,-0.6485487967772665,22714.922221830202,10.5,10500022714.922222,47.655,-122.3035,60.0,8.233333333333333
2026-01-20T23:08:15+00:00,SAT-56450,262.9168524827843,42.0126047981,2610.526598540772,-0.6317489367689871,22126.520061002888,10.5,10500022126.520061,47.655,-122.3035,60.0,8.25
2026-01-20T23:08:16+00:00,SAT-56450,263.12119986462096,42.059735263300205,2609.896534267834,-0.6149363800287161,21537.673206914096,10.5,10500021537.673206,47.655,-122.3035,60.0,8.266666666666667
2026-01-20T23:08:17+00:00,SAT-56450,263.3260033409506,42.10636457803542,2609.283237718152,-0.5981114552333585,20948.393171219348,10.5,10500020948.393171,47.655,-122.3035,60.0,8.283333333333333
2026-01-20T23:08:18+00:00,SAT-56450,263.53125797504504,42.152490102306714,2608.6867212267994,-0.5812744961425248,20358.691643592014,10.5,10500020358.691643,47.655,-122.3035,60.0,8.3
2026-01-20T23:08:19+00:00,SAT-56450,263.7369587581953,42.198109223869714,2608.1069967959797,-0.5644258307307607,19768.58011108801,10.5,10500019768.58011,47.655,-122.3035,60.0,8.316666666666666
2026-01-20T23:08:20+00:00,SAT-56450,263.94310060787706,42.2432193583088,2607.544076100798,-0.5475657980767051,19178.070449675568,10.5,10500019178.07045,47.655,-122.3035,60.0,8.333333333333334
2026-01-20T23:08:21+00:00,SAT-56450,264.14967837136555,42.287817950297686,2606.9979704781827,-0.5306947295518442,18587.174265385835,10.5,10500018587.174265,47.655,-122.3035,60.0,8.35
2026-01-20T23:08:22+00:00,SAT-56450,264.35668682325206,42.33190247351925,2606.468690934576,-0.5138129602203892,17995.903293584815,10.5,10500017995.903294,47.655,-122.3035,60.0,8.366666666666667
2026-01-20T23:08:23+00:00,SAT-56450,264.56412066659755,42.37547043137697,2605.95624814225,-0.4969208296702151,17404.269428076335,10.5,10500017404.269428,47.655,-122.3035,60.0,8.383333333333333
2026-01-20T23:08:24+00:00,SAT-56450,264.7719745348003,42.41851935782947,2605.460652434792,-0.4800186738315398,16812.284434557616,10.5,10500016812.284435,47.655,-122.3035,60.0,8.4
2026-01-20T23:08:25+00:00,SAT-56450,264.9802429902955,42.461046817555754,2604.9819138107573,-0.46310683144554415,16219.960177177685,10.5,10500016219.960176,47.655,-122.3035,60.0,8.416666666666666
2026-01-20T23:08:26+00:00,SAT-56450,265.18892052575234,42.50305040663814,2604.520041930862,-0.4461856437157341,15627.308606326607,10.5,10500015627.308607,47.655,-122.3035,60.0,8.433333333333334
2026-01-20T23:08:27+00:00,SAT-56450,265.39800156518197,42.544527753203035,2604.07504611553,-0.4292554492664003,15034.341582059424,10.5,10500015034.341581,47.655,-122.3035,60.0,8.45
2026-01-20T23:08:28+00:00,SAT-56450,265.60748046318236,42.58547651768647,2603.6469353474617,-0.41231659156669215,14441.071134118614,10.5,10500014441.071135,47.655,-122.3035,60.0,8.466666666666667
2026-01-20T23:08:29+00:00,SAT-56450,265.81735150702514,42.625894393650356,2603.2357182668056,-0.3953694115583825,13847.509203727255,10.5,10500013847.509203,47.655,-122.3035,60.0,8.483333333333333
2026-01-20T23:08:30+00:00,SAT-56450,266.0276089159494,42.66577910804182,2602.841403173678,-0.37841425284021696,13253.667825166829,10.5,10500013253.667826,47.655,-122.3035,60.0,8.5
2026-01-20T23:08:31+00:00,SAT-56450,266.23824684255544,42.70512842184838,2602.463998025512,-0.3614514588930342,12659.559028589236,10.5,10500012659.559029,47.655,-122.3035,60.0,8.516666666666667
2026-01-20T23:08:32+00:00,SAT-56450,266.4492593730836,42.74394013053207,2602.1035104371763,-0.34448137570980314,12065.194932131792,10.5,10500012065.194933,47.655,-122.3035,60.0,8.533333333333333
2026-01-20T23:08:33+00:00,SAT-56450,266.66064052886577,42.78221206466848,2601.759947678468,-0.32750434730143574,11470.5875845118,10.5,10500011470.587585,47.655,-122.3035,60.0,8.55
2026-01-20T23:08:34+00:00,SAT-56450,266.8723842659103,42.8199420902299,2601.433316676093,-0.3105207200324096,10875.749116878387,10.5,10500010875.749117,47.655,-122.3035,60.0,8.566666666666666
2026-01-20T23:08:35+00:00,SAT-56450,267.0844844762334,42.857128109184565,2601.123624011314,-0.2935308411525212,10280.691691388289,10.5,10500010280.69169,47.655,-122.3035,60.0,8.583333333333334
2026-01-20T23:08:36+00:00,SAT-56450,267.2969349889665,42.89376806003483,2600.830875919071,-0.2765350582668125,9685.427482640447,10.5,10500009685.427483,47.655,-122.3035,60.0,8.6
2026-01-20T23:08:37+00:00,SAT-56450,267.50972957100055,42.929859918258586,2600.555078287626,-0.25953371723306623,9089.968604037382,10.5,10500009089.968603,47.655,-122.3035,60.0,8.616666666666667
2026-01-20T23:08:38+00:00,SAT-56450,267.72286192630037,42.96540169652779,2600.296236660306,-0.242527169653981,8494.327370192883,10.5,10500008494.32737,47.655,-122.3035,60.0,8.633333333333333
2026-01-20T23:08:39+00:00,SAT-56450,267.9363257001216,43.00039144573154,2600.0543562297707,-0.22551576146103125,7898.515897090474,10.5,10500007898.515898,47.655,-122.3035,60.0,8.65
2026-01-20T23:08:40+00:00,SAT-56450,268.150114475782,43.03482725474703,2599.829441843674,-0.2084998438549139,7302.546485264135,10.5,10500007302.546486,47.655,-122.3035,60.0,8.666666666666666
2026-01-20T23:08:41+00:00,SAT-56450,268.3642217787384,43.06870725141208,2599.621497999403,-0.19147976705139602,6706.431400751443,10.5,10500006706.4314,47.655,-122.3035,60.0,8.683333333333334
2026-01-20T23:08:42+00:00,SAT-56450,268.57864107693564,43.10202960285578,2599.4305288450632,-0.17445587970905924,6110.18285505075,10.5,10500006110.182856,47.655,-122.3035,60.0,8.7
2026-01-20T23:08:43+00:00,SAT-56450,268.7933657795689,43.134792515594484,2599.2565381810336,-0.15742853380871788,5513.81317601905,10.5,10500005513.813175,47.655,-122.3035,60.0,8.716666666666667
2026-01-20T23:08:44+00:00,SAT-56450,269.00838924099065,43.16699423640748,2599.0995294566483,-0.14039808038793028,4917.334658476525,10.5,10500004917.334658,47.655,-122.3035,60.0,8.733333333333333
2026-01-20T23:08:45+00:00,SAT-56450,269.2237047604585,43.198633052550946,2598.9595057711417,-0.12336486967974299,4320.759569065948,10.5,10500004320.75957,47.655,-122.3035,60.0,8.75
2026-01-20T23:08:46+00:00,SAT-56450,269.43930558199924,43.22970729199865,2598.836469874447,-0.10632925442323417,3724.1002622019223,10.5,10500003724.100262,47.655,-122.3035,60.0,8.766666666666667
2026-01-20T23:08:47+00:00,SAT-56450,269.6551848977473,43.2602153241708,2598.7304241647025,-0.08929158613368882,3127.3690494366356,10.5,10500003127.36905,47.655,-122.3035,60.0,8.783333333333333
2026-01-20T23:08:48+00:00,SAT-56450,269.8713358476725,43.29015556012335,2598.641370689465,-0.07225221672991837,2530.5782564554806,10.5,10500002530.578257,47.655,-122.3035,60.0,8.8
2026-01-20T23:08:49+00:00,SAT-56450,270.08775152053204,43.31952645290775,2598.5693111453133,-0.055211498275577,1933.740214016853,10.5,10500001933.740213,47.655,-122.3035,60.0,8.816666666666666
2026-01-20T23:08:50+00:00,SAT-56450,270.30442495514274,43.348326497964344,2598.5142468776994,-0.03816978379942809,1336.8672866813579,10.5,10500001336.867287,47.655,-122.3035,60.0,8.833333333333334
2026-01-20T23:08:51+00:00,SAT-56450,270.5213491428757,43.37655423365832,2598.4761788799906,-0.02112742511203234,739.9717963429874,10.5,10500000739.971796,47.655,-122.3035,60.0,8.85
2026-01-20T23:08:52+00:00,SAT-56450,270.73851702654514,43.404208241325556,2598.455107794679,-0.004084774905711712,143.0660957787436,10.5,10500000143.066095,47.655,-122.3035,60.0,8.866666666666667
2026-01-20T23:08:53+00:00,SAT-56450,270.9559215027446,43.431287145769055,2598.451033912506,0.012957814062667933,-453.8374599737706,10.5,10499999546.16254,47.655,-122.3035,60.0,8.883333333333333
2026-01-20T23:08:54+00:00,SAT-56450,271.17355542417107,43.457789615721886,2598.463957172398,0.02999998935794383,-1050.726527144356,10.5,10499998949.273474,47.655,-122.3035,60.0,8.9
2026-01-20T23:08:55+00:00,SAT-56450,271.3914115984411,43.48371436386676,2598.493877161784,0.04704139847176957,-1647.5887593996129,10.5,10499998352.411242,47.655,-122.3035,60.0,8.916666666666666
2026-01-20T23:08:56+00:00,SAT-56450,271.609482791567,43.50906014741697,2598.540793116527,0.06408168889427411,-2244.411810352741,10.5,10499997755.58819,47.655,-122.3035,60.0,8.933333333333334
2026-01-20T23:08:57+00:00,SAT-56450,271.82776172756417,43.53382576821403,2598.6047039209175,0.08112050827974134,-2841.1833393663424,10.5,10499997158.81666,47.655,-122.3035,60.0,8.95
2026-01-20T23:08:58+00:00,SAT-56450,272.04624109085813,43.558010073146875,2598.6856081078417,0.0981575044913335,-3437.8910131188213,10.5,10499996562.108988,47.655,-122.3035,60.0,8.966666666666667
2026-01-20T23:08:59+00:00,SAT-56450,272.26491352780613,43.58161195444538,2598.783503858988,0.11519232547149516,-4034.5225010653844,10.5,10499995965.477499,47.655,-122.3035,60.0,8.983333333333333
2026-01-20T23:09:00+00:00,SAT-56450,272.4837716464862,43.604630349775555,2598.898389004925,0.13222461915962147,-4631.0654725544355,10.5,10499995368.934528,47.655,-122.3035,60.0,9.0
2026-01-20T23:09:01+00:00,SAT-56450,272.70280801922365,43.6270642426265,2599.0302610251,0.1492540342818319,-5227.50762448879,10.5,10499994772.492376,47.655,-122.3035,60.0,9.016666666666667
2026-01-20T23:09:02+00:00,SAT-56450,272.9220151840966,43.6489126625614,2599.1791170486235,0.166280219511391,-5823.83665192006,10.5,10499994176.163347,47.655,-122.3035,60.0,9.033333333333333
2026-01-20T23:09:03+00:00,SAT-56450,273.1413856459859,43.67017468541192,2599.3449538542163,0.18330282344583854,-6420.040247247663,10.5,10499993579.959753,47.655,-122.3035,60.0,9.05
2026-01-20T23:09:04+00:00,SAT-56450,273.36091187717705,43.69084943342244,2599.5277678701327,0.2003214961662078,-7016.1061548292255,10.5,10499992983.893845,47.655,-122.3035,60.0,9.066666666666666
2026-01-20T23:09:05+00:00,SAT-56450,273.58058632090535,43.71093607565882,2599.7275551756425,0.2173358865409199,-7612.022076551568,10.5,10499992387.977924,47.655,-122.3035,60.0,9.083333333333334
2026-01-20T23:09:06+00:00,SAT-56450,273.8004013898815,43.73043382793048,2599.94431149982,0.2343456457812887,-8207.77579635953,10.5,10499991792.224203,47.655,-122.3035,60.0,9.1
2026-01-20T23:09:07+00:00,SAT-56450,274.02034947103834,43.749341953275966,2600.1780322238787,0.2513504229874835,-8803.355024256736,10.5,10499991196.644976,47.655,-122.3035,60.0,9.116666666666667
2026-01-20T23:09:08+00:00,SAT-56450,274.2404229231022,43.767659761786994,2600.4287123790714,0.2683498709183475,-9398.747598389045,10.5,10499990601.252401,47.655,-122.3035,60.0,9.133333333333333
2026-01-20T23:09:09+00:00,SAT-56450,274.4606140823215,43.78538661113628,2600.696346650334,0.2853436396356017,-9993.941262437691,10.5,10499990006.058737,47.655,-122.3035,60.0,9.15
2026-01-20T23:09:10+00:00,SAT-56450,274.6809152600838,43.80252190639722,2600.980929373597,0.30233138279306443,-10588.923885894343,10.5,10499989411.076115,47.655,-122.3035,60.0,9.166666666666666
2026-01-20T23:09:11+00:00,SAT-56450,274.90131874770145,43.81906510044407,2601.2824545393696,0.3193127519674597,-11183.683265502052,10.5,10499988816.316734,47.655,-122.3035,60.0,9.183333333333334
2026-01-20T23:09:12+00:00,SAT-56450,275.12181681519434,43.83501569385771,2601.6009157906656,0.336287400338945,-11778.207254162888,10.5,10499988221.792746,47.655,-122.3035,60.0,9.2
2026-01-20T23:09:13+00:00,SAT-56450,275.3424017139898,43.850373235130355,2601.936306424603,0.3532549828791525,-12372.483767523936,10.5,10499987627.516232,47.655,-122.3035,60.0,9.216666666666667
2026-01-20T23:09:14+00:00,SAT-56450,275.5630656791876,43.865137320810966,2602.288619394195,0.3702151546730473,-12966.500725201686,10.5,10499987033.499275,47.655,-122.3035,60.0,9.233333333333333
2026-01-20T23:09:15+00:00,SAT-56450,275.7838009305353,43.87930759554094,2602.6578473084555,0.38716756831531773,-13560.245959592607,10.5,10499986439.75404,47.655,-122.3035,60.0,9.25
2026-01-20T23:09:16+00:00,SAT-56450,276.0045996718361,43.89288375199179,2603.0439824299215,0.4041118836011097,-14153.707555283636,10.5,10499985846.292444,47.655,-122.3035,60.0,9.266666666666667
2026-01-20T23:09:17+00:00,SAT-56450,276.2254540969257,43.90586553120671,2603.4470166818332,0.4210477558252832,-14746.87343924267,10.5,10499985253.12656,47.655,-122.3035,60.0,9.283333333333333
2026-01-20T23:09:18+00:00,SAT-56450,276.44635638758604,43.9182527224087,2603.8669416436433,0.43797484104756895,-15339.731565226613,10.5,10499984660.268435,47.655,-122.3035,60.0,9.3
2026-01-20T23:09:19+00:00,SAT-56450,276.6672987152594,43.93004516305434,2604.303748551781,0.45489280070720367,-15932.270075405428,10.5,10499984067.729925,47.655,-122.3035,60.0,9.316666666666666
2026-01-20T23:09:20+00:00,SAT-56450,276.8882732453557,43.94124273900532,2604.7574283050194,0.4718012927245108,-16524.47698870184,10.5,10499983475.523012,47.655,-122.3035,60.0,9.333333333333334
2026-01-20T23:09:21+00:00,SAT-56450,277.10927213607073,43.95184538437684,2605.2279714609635,0.4886999777484454,-17116.340419606808,10.5,10499982883.65958,47.655,-122.3035,60.0,9.35
2026-01-20T23:09:22+00:00,SAT-56450,277.3302875411562,43.961853081599315,2605.715368238771,0.5055885171267649,-17707.848507086295,10.5,10499982292.151493,47.655,-122.3035,60.0,9.366666666666667
2026-01-20T23:09:23+00:00,SAT-56450,277.5513116112693,43.971265861384204,2606.2196085198525,0.5224665731199892,-18298.989422075076,10.5,10499981701.010578,47.655,-122.3035,60.0,9.383333333333333
2026-01-20T23:09:24+00:00,SAT-56450,277.7723364955661,43.980083802693194,2606.7406818487775,0.5393338090365878,-18889.751372211544,10.5,10499981110.248629,47.655,-122.3035,60.0,9.4
2026-01-20T23:09:25+00:00,SAT-56450,277.9933543432652,43.98830703268988,2607.2785774343233,0.556189889228405,-19480.122601677496,10.5,10499980519.877398,47.655,-122.3035,60.0,9.416666666666666
2026-01-20T23:09:26+00:00,SAT-56450,278.21435730522586,43.99593572668101,2607.833284150514,0.5730344795231551,-20070.09140634595,10.5,10499979929.908594,47.655,-122.3035,60.0,9.433333333333334
2026-01-20T23:09:27+00:00,SAT-56450,278.4353375357115,44.00297010805172,2608.4047905380917,0.5898672440612636,-20659.646022993908,10.5,10499979340.353977,47.655,-122.3035,60.0,9.45
2026-01-20T23:09:28+00:00,SAT-56450,278.65628719282597,44.00941044814458,2608.9930848028353,0.6066878547309655,-21248.774959759456,10.5,10499978751.22504,47.655,-122.3035,60.0,9.466666666666667
2026-01-20T23:09:29+00:00,SAT-56450,278.8771984427359,44.01525706624297,2609.598154823287,0.623495977987627,-21837.466534498624,10.5,10499978162.533466,47.655,-122.3035,60.0,9.483333333333333
2026-01-20T23:09:30+00:00,SAT-56450,279.0980634585979,44.02051032937869,2610.2199881453334,0.6402912807379132,-22425.70908087384,10.5,10499977574.290918,47.655,-122.3035,60.0,9.5
2026-01-20T23:09:31+00:00,SAT-56450,279.31887442187485,44.02517065221301,2610.858571982656,0.6570734401880712,-23013.491293282463,10.5,10499976986.508707,47.655,-122.3035,60.0,9.516666666666667
2026-01-20T23:09:32+00:00,SAT-56450,279.5396235274011,44.02923849698432,2611.5138932270033,0.6738421258402444,-23600.801596291545,10.5,10499976399.198404,47.655,-122.3035,60.0,9.533333333333333
2026-01-20T23:09:33+00:00,SAT-56450,279.7603029814441,44.032714373271986,2612.1859384405084,0.6905970074115534,-24187.628421997564,10.5,10499975812.371578,47.655,-122.3035,60.0,9.55
2026-01-20T23:09:34+00:00,SAT-56450,279.98090500307705,44.03559883785064,2612.8746938558997,0.7073377688162379,-24773.960699740146,10.5,10499975226.0393,47.655,-122.3035,60.0,9.566666666666666
2026-01-20T23:09:35+00:00,SAT-56450,280.2014218301184,44.03789249458011,2613.580145390666,0.7240640779621561,-25359.78679824774,10.5,10499974640.213202,47.655,-122.3035,60.0,9.583333333333334
2026-01-20T23:09:36+00:00,SAT-56450,280.42184571473115,44.03959599413438,2614.302278631087,0.7407756183193637,-25945.095631302767,10.5,10499974054.90437,47.655,-122.3035,60.0,9.6
2026-01-20T23:09:37+00:00,SAT-56450,280.6421689297187,44.04071003386632,2615.0410788477575,0.7574720641835327,-26529.87579136195,10.5,10499973470.124208,47.655,-122.3035,60.0,9.616666666666667
2026-01-20T23:09:38+00:00,SAT-56450,280.8623837666154,44.04123535756575,2615.7965309864367,0.7741531002917112,-27114.116236583137,10.5,10499972885.883764,47.655,-122.3035,60.0,9.633333333333333
2026-01-20T23:09:39+00:00,SAT-56450,281.0824825400422,44.04117275525762,2616.568619678461,0.7908184061533978,-27697.805742033303,10.5,10499972302.194258,47.655,-122.3035,60.0,9.65
2026-01-20T23:09:40+00:00,SAT-56450,281.3024575871051,44.04052306295736,2617.3573292355313,0.8074676664736224,-28280.933264748895,10.5,10499971719.066734,47.655,-122.3035,60.0,9.666666666666666
2026-01-20T23:09:41+00:00,SAT-56450,281.5223012700124,44.03928716243011,2618.162643654894,0.8241005634488419,-28863.487673905525,10.5,10499971136.512325,47.655,-122.3035,60.0,9.683333333333334
2026-01-20T23:09:42+00:00,SAT-56450,281.74200597640856,44.03746598093984,2618.984546616841,0.840716787549839,-29445.458128480706,10.5,10499970554.541872,47.655,-122.3035,60.0,9.7
2026-01-20T23:09:43+00:00,SAT-56450,281.9615641227325,44.035060490970366,2619.8230214929567,0.8573160233505231,-30026.833580918475,10.5,10499969973.16642,47.655,-122.3035,60.0,9.716666666666667
2026-01-20T23:09:44+00:00,SAT-56450,282.18096815357137,44.0320717099614,2620.678051340245,0.8738979639273196,-30607.603281456984,10.5,10499969392.396719,47.655,-122.3035,60.0,9.733333333333333
2026-01-20T23:09:45+00:00,SAT-56450,282.40021054497504,44.02850069999914,2621.549618909602,0.8904622939075005,-31187.756184409267,10.5,10499968812.243816,47.655,-122.3035,60.0,9.75
2026-01-20T23:09:46+00:00,SAT-56450,282.61928380323167,44.02434856755464,2622.4377066373922,0.9070087155642369,-31767.28186212239,10.5,10499968232.718138,47.655,-122.3035,60.0,9.766666666666667
2026-01-20T23:09:47+00:00,SAT-56450,282.83818047042536,44.0196164631045,2623.3422966630487,0.9235369167936702,-32346.16938339902,10.5,10499967653.830616,47.655,-122.3035,60.0,9.783333333333333
2026-01-20T23:09:48+00:00,SAT-56450,283.0568931216525,44.01430558087793,2624.263370814731,0.9400465919834329,-32924.40804440132,10.5,10499967075.591955,47.655,-122.3035,60.0,9.8
2026-01-20T23:09:49+00:00,SAT-56450,283.275414367697,44.00841715851038,2625.200910615802,0.9565374458959561,-33501.98750466077,10.5,10499966498.012495,47.655,-122.3035,60.0,9.816666666666666
2026-01-20T23:09:50+00:00,SAT-56450,283.49373685850423,44.001952476646274,2626.1548972951755,0.9730091734474213,-34078.89707885154,10.5,10499965921.10292,47.655,-122.3035,60.0,9.833333333333334
2026-01-20T23:09:51+00:00,SAT-56450,283.71185328161073,43.99491285865355,2627.125311777494,0.9894614741681371,-34655.12624325405,10.5,10499965344.873756,47.655,-122.3035,60.0,9.85
2026-01-20T23:09:52+00:00,SAT-56450,283.9297563642732,43.98729967025146,2628.112134687731,1.0058940559618408,-35230.66476742163,10.5,10499964769.335232,47.655,-122.3035,60.0,9.866666666666667
2026-01-20T23:09:53+00:00,SAT-56450,284.1474388762232,43.97911431908561,2629.1153463595433,1.0223066195257136,-35805.502168503495,10.5,10499964194.497831,47.655,-122.3035,60.0,9.883333333333333
2026-01-20T23:09:54+00:00,SAT-56450,284.3648936288959,43.97035825441608,2630.134926828084,1.0386988739715313,-36379.62825836358,10.5,10499963620.371742,47.655,-122.3035,60.0,9.9
2026-01-20T23:09:55+00:00,SAT-56450,284.5821134781678,43.96103296667371,2631.1708558383916,1.0550705278108619,-36953.03282784402,10.5,10499963046.967173,47.655,-122.3035,60.0,9.916666666666666
2026-01-20T23:09:56+00:00,SAT-56450,284.79909132504895,43.95113998707936,2632.223112844795,1.0714212895878001,-37525.705668926144,10.5,10499962474.29433,47.655,-122.3035,60.0,9.933333333333334
2026-01-20T23:09:57+00:00,SAT-56450,285.01582011648304,43.940680887252654,2633.2916770109437,1.087750871435997,-38097.63669931272,10.5,10499961902.3633,47.655,-122.3035,60.0,9.95
2026-01-20T23:09:58+00:00,SAT-56450,285.2322928469506,43.92965727878136,2634.376527213389,1.1040589892158779,-38668.81596723396,10.5,10499961331.184032,47.655,-122.3035,60.0,9.966666666666667
2026-01-20T23:09:59+00:00,SAT-56450,285.4485025599806,43.91807081277544,2635.4776420453004,1.120345359920691,-39239.233560596294,10.5,10499960760.76644,47.655,-122.3035,60.0,9.983333333333333
2026-01-20T23:10:00+00:00,SAT-56450,285.66444234913337,43.905923179439085,2636.5949998175947,1.1366096958253722,-39808.879402050894,10.5,10499960191.120598,47.655,-122.3035,60.0,10.0
2026-01-20T23:10:01+00:00,SAT-56450,285.880105357777,43.89321610770323,2637.7285785542313,1.1528517224180626,-40377.74387703128,10.5,10499959622.256123,47.655,-122.3035,60.0,10.016666666666667
2026-01-20T23:10:02+00:00,SAT-56450,286.09548478247626,43.879951364653365,2638.87835600539,1.169071160670355,-40945.81721278235,10.5,10499959054.182787,47.655,-122.3035,60.0,10.033333333333333
2026-01-20T23:10:03+00:00,SAT-56450,286.3105738727151,43.866130755141846,2640.044309642965,1.1852677314740516,-41513.08963375437,10.5,10499958486.910366,47.655,-122.3035,60.0,10.05
2026-01-20T23:10:04+00:00,SAT-56450,286.5253659316122,43.851756121350355,2641.226416660488,1.2014411646219145,-42079.55167614691,10.5,10499957920.448324,47.655,-122.3035,60.0,10.066666666666666
2026-01-20T23:10:05+00:00,SAT-56450,286.7398543182195,43.836829342236484,2642.4246539820047,1.2175911839844216,-42645.19366873608,10.5,10499957354.806332,47.655,-122.3035,60.0,10.083333333333334
2026-01-20T23:10:06+00:00,SAT-56450,286.9540324470622,43.821352333152454,2643.638998256165,1.2337175235425752,-43210.006294411316,10.5,10499956789.993706,47.655,-122.3035,60.0,10.1
2026-01-20T23:10:07+00:00,SAT-56450,287.1678937905845,43.805327045259666,2644.8694258663113,1.2498199111680677,-43773.98002208818,10.5,10499956226.019978,47.655,-122.3035,60.0,10.116666666666667
2026-01-20T23:10:08+00:00,SAT-56450,287.3814318786289,43.788755465142984,2646.1159129243833,1.2658980840035359,-44337.105645389944,10.5,10499955662.894354,47.655,-122.3035,60.0,10.133333333333333
2026-01-20T23:10:09+00:00,SAT-56450,287.5946403006458,43.77163961421966,2647.3784352801626,1.2819517771922806,-44899.37388791463,10.5,10499955100.626112,47.655,-122.3035,60.0,10.15
2026-01-20T23:10:10+00:00,SAT-56450,287.80751270587797,43.75398154829036,2648.6569685192826,1.2979807311966298,-45460.77565955516,10.5,10499954539.22434,47.655,-122.3035,60.0,10.166666666666666
2026-01-20T23:10:11+00:00,SAT-56450,288.0200428047649,43.735783356986154,2649.951487968529,1.3139846787285618,-46021.30159875436,10.5,10499953978.6984,47.655,-122.3035,60.0,10.183333333333334
2026-01-20T23:10:12+00:00,SAT-56450,288.23222436814774,43.717047163395584,2651.2619686881144,1.3299633732852256,-46580.943071939684,10.5,10499953419.056929,47.655,-122.3035,60.0,10.2
2026-01-20T23:10:13+00:00,SAT-56450,288.44405123120794,43.69777512328048,2652.5883854924045,1.345916549606395,-47139.690788575965,10.5,10499952860.309212,47.655,-122.3035,60.0,10.216666666666667
2026-01-20T23:10:14+00:00,SAT-56450,288.6555172907959,43.677969424851916,2653.9307129312115,1.3618439635270303,-47697.5361969707,10.5,10499952302.463802,47.655,-122.3035,60.0,10.233333333333333
2026-01-20T23:10:15+00:00,SAT-56450,288.8666165092868,43.657632287966536,2655.288925310836,1.3777453573182148,-48254.47027036702,10.5,10499951745.52973,47.655,-122.3035,60.0,10.25
2026-01-20T23:10:16+00:00,SAT-56450,289.0773429127906,43.63676596382608,2656.662996680535,1.3936204832802395,-48810.48433327337,10.5,10499951189.515667,47.655,-122.3035,60.0,10.266666666666667
2026-01-20T23:10:17+00:00,SAT-56450,289.2876905931262,43.61537273432572,2658.052900842526,1.4094690972068995,-49365.56983255545,10.5,10499950634.430168,47.655,-122.3035,60.0,10.283333333333333
2026-01-20T23:10:18+00:00,SAT-56450,289.4976537087121,43.59345491149293,2659.4586113554737,1.4252909535960285,-49919.71816968891,10.5,10499950080.28183,47.655,-122.3035,60.0,10.3
2026-01-20T23:10:19+00:00,SAT-56450,289.7072264846603,43.57101483699612,2660.8801015331937,1.4410858103647632,-50472.920865907894,10.5,10499949527.079134,47.655,-122.3035,60.0,10.316666666666666
2026-01-20T23:10:20+00:00,SAT-56450,289.91640321361876,43.54805488157974,2662.317344448064,1.4568534288683472,-51025.16956286354,10.5,10499948974.830437,47.655,-122.3035,60.0,10.333333333333334
2026-01-20T23:10:21+00:00,SAT-56450,290.1251782565311,43.52457744449382,2663.7703129344554,1.4725935678553643,-51576.45581091078,10.5,10499948423.54419,47.655,-122.3035,60.0,10.35
2026-01-20T23:10:22+00:00,SAT-56450,290.3335460425323,43.5005849530199,2665.23897958613,1.4883059969259078,-52126.771540470276,10.5,10499947873.22846,47.655,-122.3035,60.0,10.366666666666667
2026-01-20T23:10:23+00:00,SAT-56450,290.5415010707349,43.47607986177449,2666.723316767064,1.5039904767516648,-52676.10836925217,10.5,10499947323.89163,47.655,-122.3035,60.0,10.383333333333333
2026-01-20T23:10:24+00:00,SAT-56450,290.74903790915414,43.45106465233498,2668.2232966025445,1.5196467841626626,-53224.45848090001,10.5,10499946775.54152,47.655,-122.3035,60.0,10.4
2026-01-20T23:10:25+00:00,SAT-56450,290.9561511971803,43.42554183244937,2669.738890995283,1.535274686957355,-53771.81374273341,10.5,10499946228.186256,47.655,-122.3035,60.0,10.416666666666666
2026-01-20T23:10:26+00:00,SAT-56450,291.16283564443796,43.3995139356599,2671.270071616408,1.5508739563087748,-54318.16614026406,10.5,10499945681.83386,47.655,-122.3035,60.0,10.433333333333334
2026-01-20T23:10:27+00:00,SAT-56450,291.3690860314054,43.37298352072467,2672.8168099088334,1.5664443723081949,-54863.50797135813,10.5,10499945136.49203,47.655,-122.3035,60.0,10.45
2026-01-20T23:10:28+00:00,SAT-56450,291.57489721075325,43.34595317093749,2674.3790770961486,1.5819857134795396,-55407.8314789866,10.5,10499944592.168522,47.655,-122.3035,60.0,10.466666666666667
2026-01-20T23:10:29+00:00,SAT-56450,291.78026410717086,43.318425493628006,2675.956844181059,1.5974977566243753,-55951.128845796185,10.5,10499944048.871155,47.655,-122.3035,60.0,10.483333333333333
2026-01-20T23:10:30+00:00,SAT-56450,291.9851817172301,43.29040311966298,2677.5500819436656,1.6129802888987386,-56493.39261709097,10.5,10499943506.607384,47.655,-122.3035,60.0,10.5
2026-01-20T23:10:31+00:00,SAT-56450,292.1896451107681,43.26188870273917,2679.1587609517937,1.6284330945099743,-57034.61523489937,10.5,10499942965.384766,47.655,-122.3035,60.0,10.516666666666667
2026-01-20T23:10:32+00:00,SAT-56450,292.39364943051896,43.23288491890552,2680.782851558052,1.6438559612951338,-57574.78926837747,10.5,10499942425.210732,47.655,-122.3035,60.0,10.533333333333333
2026-01-20T23:10:33+00:00,SAT-56450,292.59718989255657,43.203394465971606,2682.4223239034504,1.6592486795180168,-58113.90737167637,10.5,10499941886.092628,47.655,-122.3035,60.0,10.55
2026-01-20T23:10:34+00:00,SAT-56450,292.8002617865774,43.1734200629357,2684.077147919823,1.6746110416857058,-58651.96227751637,10.5,10499941348.037722,47.655,-122.3035,60.0,10.566666666666666
2026-01-20T23:10:35+00:00,SAT-56450,293.0028604761167,43.14296444941868,2685.747293332064,1.6899428414497943,-59188.94675870345,10.5,10499940811.053242,47.655,-122.3035,60.0,10.583333333333334
2026-01-20T23:10:36+00:00,SAT-56450,293.20498139862514,43.112030385115624,2687.43272965927,1.7052438818227753,-59724.85391590185,10.5,10499940275.146084,47.655,-122.3035,60.0,10.6
2026-01-20T23:10:37+00:00,SAT-56450,293.4066200664863,43.080620649099664,2689.133426224075,1.7205139553986364,-60259.676484875694,10.5,10499939740.323515,47.655,-122.3035,60.0,10.616666666666667
2026-01-20T23:10:38+00:00,SAT-56450,293.60777206564137,43.04873803948811,2690.849352142259,1.7357528641363311,-60793.407529389806,10.5,10499939206.59247,47.655,-122.3035,60.0,10.633333333333333
2026-01-20T23:10:39+00:00,SAT-56450,293.80843305657413,43.01638537274942,2692.5804763320907,1.7509604184861496,-61326.04041061157,10.5,10499938673.959589,47.655,-122.3035,60.0,10.65
2026-01-20T23:10:40+00:00,SAT-56450,294.0085987751597,42.98356548302092,2694.3267675227944,1.7661364269208972,-61857.568420448464,10.5,10499938142.43158,47.655,-122.3035,60.0,10.666666666666666
2026-01-20T23:10:41+00:00,SAT-56450,294.2082650321887,42.9502812216251,2696.0881942525766,1.781280685208395,-62387.98440582567,10.5,10499937612.015594,47.655,-122.3035,60.0,10.683333333333334
2026-01-20T23:10:42+00:00,SAT-56450,294.4074277117286,42.91653545679207,2697.8647248559582,1.7963930200914415,-62917.282298543134,10.5,10499937082.717701,47.655,-122.3035,60.0,10.7
2026-01-20T23:10:43+00:00,SAT-56450,294.6060827744513,42.88233107255864,2699.656327494663,1.8114732366194743,-63445.45527060751,10.5,10499936554.54473,47.655,-122.3035,60.0,10.716666666666667
2026-01-20T23:10:44+00:00,SAT-56450,294.8042262548854,42.84767096866472,2701.4629701359845,1.8265211574090565,-63972.49710930051,10.5,10499936027.502892,47.655,-122.3035,60.0,10.733333333333333
2026-01-20T23:10:45+00:00,SAT-56450,295.0018542631359,42.81255805970648,2703.284620570307,1.841536598395693,-64498.40136790492,10.5,10499935501.598633,47.655,-122.3035,60.0,10.75
2026-01-20T23:10:46+00:00,SAT-56450,295.19896298383674,42.77699527475602,2705.12124640444,1.8565193760795218,-65023.16161947937,10.5,10499934976.83838,47.655,-122.3035,60.0,10.766666666666667
2026-01-20T23:10:47+00:00,SAT-56450,295.3955486759132,42.74098555684419,2706.9728150621836,1.8714693253241854,-65546.77208025008,10.5,10499934453.22792,47.655,-122.3035,60.0,10.783333333333333
2026-01-20T23:10:48+00:00,SAT-56450,295.5916076742552,42.70453186210174,2708.8392938026404,1.8863862611620819,-66069.22627186925,10.5,10499933930.773727,47.655,-122.3035,60.0,10.8
