satellites_20260121_005943/SAT-64794.csv

timestamp,satellite,azimuth_deg,elevation_deg,distance_km,relative_velocity_kms,doppler_shift_hz,tx_freq_ghz,rx_freq_hz,ue_lat,ue_lon,ue_alt_m,time_minutes
2026-01-20T23:11:44+00:00,SAT-64794,248.53163049665633,30.061880457603888,3169.683859056223,-4.002033876635254,140168.15494628012,10.5,10500140168.154945,47.655,-122.3035,60.0,11.733333333333333
2026-01-20T23:11:45+00:00,SAT-64794,248.63214333201833,30.131976603646695,3165.6924972699253,-3.993114860211606,139855.7732637219,10.5,10500139855.773264,47.655,-122.3035,60.0,11.75
2026-01-20T23:11:46+00:00,SAT-64794,248.7331191732156,30.202039519926743,3161.7100307160076,-3.9841574127122126,139542.04556232778,10.5,10500139542.045563,47.655,-122.3035,60.0,11.766666666666667
2026-01-20T23:11:47+00:00,SAT-64794,248.83455989437715,30.272067891702264,3157.7364977230627,-3.9751614286697836,139226.96814818712,10.5,10500139226.968147,47.655,-122.3035,60.0,11.783333333333333
2026-01-20T23:11:48+00:00,SAT-64794,248.9364673697657,30.342060390420013,3153.771936724869,-3.9661267934096096,138910.53700490657,10.5,10500138910.537004,47.655,-122.3035,60.0,11.8
2026-01-20T23:11:49+00:00,SAT-64794,249.03884347335656,30.41201567346362,3149.8163862695756,-3.957053425764927,138592.74928968272,10.5,10500138592.74929,47.655,-122.3035,60.0,11.816666666666666
2026-01-20T23:11:50+00:00,SAT-64794,249.1416900794985,30.481932384646964,3145.869884986279,-3.9479412020325055,138273.60066990514,10.5,10500138273.60067,47.655,-122.3035,60.0,11.833333333333334
2026-01-20T23:11:51+00:00,SAT-64794,249.2450090616127,30.551809153384717,3141.932471627452,-3.9387900586767404,137953.08892028822,10.5,10500137953.08892,47.655,-122.3035,60.0,11.85
2026-01-20T23:11:52+00:00,SAT-64794,249.34880229356594,30.621644595652025,3138.004185008932,-3.929599849771982,137631.20892989848,10.5,10500137631.20893,47.655,-122.3035,60.0,11.866666666666667
2026-01-20T23:11:53+00:00,SAT-64794,249.45307164727814,30.69143731245887,3134.085064092092,-3.9203705093264016,137307.95838742287,10.5,10500137307.958387,47.655,-122.3035,60.0,11.883333333333333
2026-01-20T23:11:54+00:00,SAT-64794,249.55781899463597,30.76118589115835,3130.175147904124,-3.9111019291303553,136983.33350290195,10.5,10500136983.333504,47.655,-122.3035,60.0,11.9
2026-01-20T23:11:55+00:00,SAT-64794,249.66304620615097,30.8308889046196,3126.274475580138,-3.9017940044976855,136657.3306097837,10.5,10500136657.33061,47.655,-122.3035,60.0,11.916666666666666
2026-01-20T23:11:56+00:00,SAT-64794,249.76875515081747,30.900544911204197,3122.3830863596527,-3.892446654691581,136329.94688032346,10.5,10500136329.94688,47.655,-122.3035,60.0,11.933333333333334
2026-01-20T23:11:57+00:00,SAT-64794,249.87494769655467,30.97015245509797,3118.501019562707,-3.8830597663353306,136001.17834358918,10.5,10500136001.178343,47.655,-122.3035,60.0,11.95
2026-01-20T23:11:58+00:00,SAT-64794,249.98162570906607,31.039710065653583,3114.628314622415,-3.8736332564981377,135671.02209499362,10.5,10500135671.022095,47.655,-122.3035,60.0,11.966666666666667
2026-01-20T23:11:59+00:00,SAT-64794,250.08879105245424,31.109216257838476,3110.765011054601,-3.8641670131053467,135339.47420920822,10.5,10500135339.474209,47.655,-122.3035,60.0,11.983333333333333
2026-01-20T23:12:00+00:00,SAT-64794,250.19644558816128,31.178669531638143,3106.911148486864,-3.854660954428105,135006.53182374287,10.5,10500135006.531824,47.655,-122.3035,60.0,12.0
2026-01-20T23:12:01+00:00,SAT-64794,250.30459117557018,31.248068372505035,3103.0667666283143,-3.8451149891245806,134672.19173942026,10.5,10500134672.19174,47.655,-122.3035,60.0,12.016666666666667
2026-01-20T23:12:02+00:00,SAT-64794,250.41322967149597,31.317411251109146,3099.2319052791604,-3.835529013891483,134336.45033812214,10.5,10500134336.450338,47.655,-122.3035,60.0,12.033333333333333
2026-01-20T23:12:03+00:00,SAT-64794,250.52236292958784,31.386696623039388,3095.4066043426396,-3.825902935661066,133999.30436022242,10.5,10500133999.30436,47.655,-122.3035,60.0,12.05
2026-01-20T23:12:04+00:00,SAT-64794,250.63199280034695,31.455922928904577,3091.590903814807,-3.8162366622976607,133660.75057874018,10.5,10500133660.750578,47.655,-122.3035,60.0,12.066666666666666
2026-01-20T23:12:05+00:00,SAT-64794,250.74212113090198,31.52508859426618,3087.7848437836087,-3.806530117685701,133320.78632778634,10.5,10500133320.786327,47.655,-122.3035,60.0,12.083333333333334
2026-01-20T23:12:06+00:00,SAT-64794,250.85274976520344,31.594192029849225,3083.9884644129033,-3.7967831889571984,132979.40765424655,10.5,10500132979.407654,47.655,-122.3035,60.0,12.1
2026-01-20T23:12:07+00:00,SAT-64794,250.9638805426745,31.663231630798176,3080.2018059791167,-3.786995795011459,132636.6117176314,10.5,10500132636.611717,47.655,-122.3035,60.0,12.116666666666667
2026-01-20T23:12:08+00:00,SAT-64794,251.0755152988566,31.732205777173082,3076.4249088395586,-3.7771678497377588,132292.39550197913,10.5,10500132292.395502,47.655,-122.3035,60.0,12.133333333333333
2026-01-20T23:12:09+00:00,SAT-64794,251.18765586498859,31.801112833776852,3072.6578134374204,-3.7672992610050007,131946.755780469,10.5,10500131946.755781,47.655,-122.3035,60.0,12.15
2026-01-20T23:12:10+00:00,SAT-64794,251.3003040675304,31.869951149973108,3068.900560307778,-3.757389937917064,131599.68936953435,10.5,10500131599.68937,47.655,-122.3035,60.0,12.166666666666666
2026-01-20T23:12:11+00:00,SAT-64794,251.413461727899,31.938719059629314,3065.153190076362,-3.747439796089645,131251.19331367995,10.5,10500131251.193314,47.655,-122.3035,60.0,12.183333333333334
2026-01-20T23:12:12+00:00,SAT-64794,251.52713066237396,32.00741488116153,3061.415743453062,-3.737448752426272,130901.26470251584,10.5,10500130901.264702,47.655,-122.3035,60.0,12.2
2026-01-20T23:12:13+00:00,SAT-64794,251.6413126818295,32.07603691748162,3057.688261230642,-3.727416721084052,130549.90052946078,10.5,10500130549.90053,47.655,-122.3035,60.0,12.216666666666667
2026-01-20T23:12:14+00:00,SAT-64794,251.7560095913347,32.14458345587686,3053.970784287481,-3.717343601691105,130197.09727906698,10.5,10500130197.097279,47.655,-122.3035,60.0,12.233333333333333
2026-01-20T23:12:15+00:00,SAT-64794,251.87122318939163,32.213052767671726,3050.263353602061,-3.70722933533307,129842.85288790432,10.5,10500129842.852888,47.655,-122.3035,60.0,12.25
2026-01-20T23:12:16+00:00,SAT-64794,251.9869552688908,32.281443108910466,3046.566010211622,-3.6970738232796174,129487.16389801902,10.5,10500129487.163898,47.655,-122.3035,60.0,12.266666666666667
2026-01-20T23:12:17+00:00,SAT-64794,252.10320761555838,32.349752719564925,3042.8787952518715,-3.686876986234234,129130.02753211177,10.5,10500129130.027533,47.655,-122.3035,60.0,12.283333333333333
2026-01-20T23:12:18+00:00,SAT-64794,252.21998200821974,32.41797982381987,3039.2017499376007,-3.676638739856326,128771.44083621817,10.5,10500128771.440836,47.655,-122.3035,60.0,12.3
2026-01-20T23:12:19+00:00,SAT-64794,252.33728021830032,32.48612262991259,3035.5349155677172,-3.6663590096652667,128411.40120171168,10.5,10500128411.401201,47.655,-122.3035,60.0,12.316666666666666
2026-01-20T23:12:20+00:00,SAT-64794,252.45510400980294,32.55417933024931,3031.8783335154108,-3.6560377073146744,128049.90553432828,10.5,10500128049.905535,47.655,-122.3035,60.0,12.333333333333334
2026-01-20T23:12:21+00:00,SAT-64794,252.57345513850154,32.62214810108278,3028.232045241982,-3.6456747689980658,127686.95159929503,10.5,10500127686.9516,47.655,-122.3035,60.0,12.35
2026-01-20T23:12:22+00:00,SAT-64794,252.69233535239232,32.690027102906456,3024.5960922723684,-3.6352701022855105,127322.5361593248,10.5,10500127322.53616,47.655,-122.3035,60.0,12.366666666666667
2026-01-20T23:12:23+00:00,SAT-64794,252.81174639039034,32.75781447985979,3020.9705162236887,-3.624823636193954,126956.65672829073,10.5,10500126956.656729,47.655,-122.3035,60.0,12.383333333333333
2026-01-20T23:12:24+00:00,SAT-64794,252.93168998266452,32.825508360069,3017.355358783858,-3.614335307384983,126589.3110878137,10.5,10500126589.311089,47.655,-122.3035,60.0,12.4
2026-01-20T23:12:25+00:00,SAT-64794,253.05216785053568,32.89310685572615,3013.7506617039594,-3.603805007612361,126220.4954466526,10.5,10500126220.495447,47.655,-122.3035,60.0,12.416666666666666
2026-01-20T23:12:26+00:00,SAT-64794,253.17318170456772,32.96060806220539,3010.156466843034,-3.593232696751629,125850.20839947916,10.5,10500125850.208399,47.655,-122.3035,60.0,12.433333333333334
2026-01-20T23:12:27+00:00,SAT-64794,253.2947332464925,33.02801005926443,3006.5728161001407,-3.5826182927562953,125478.4470726782,10.5,10500125478.447073,47.655,-122.3035,60.0,12.45
2026-01-20T23:12:28+00:00,SAT-64794,253.4168241674036,33.095310910219325,3002.9997514561646,-3.571961715478071,125105.20865911758,10.5,10500125105.208658,47.655,-122.3035,60.0,12.466666666666667
2026-01-20T23:12:29+00:00,SAT-64794,253.53945614740428,33.16250866192311,2999.437314971928,-3.561262905901966,124730.49109184275,10.5,10500124730.491093,47.655,-122.3035,60.0,12.483333333333333
2026-01-20T23:12:30+00:00,SAT-64794,253.6626308559514,33.229601345113885,2995.8855487671085,-3.5505217739424713,124354.2912156781,10.5,10500124354.291216,47.655,-122.3035,60.0,12.5
2026-01-20T23:12:31+00:00,SAT-64794,253.78634995035188,33.296586973784656,2992.34449505123,-3.5397382840201352,123976.60778448076,10.5,10500123976.607784,47.655,-122.3035,60.0,12.516666666666667
2026-01-20T23:12:32+00:00,SAT-64794,253.91061507725487,33.36346354615434,2988.8141960693006,-3.528912348133657,123597.43771607289,10.5,10500123597.437716,47.655,-122.3035,60.0,12.533333333333333
2026-01-20T23:12:33+00:00,SAT-64794,254.03542787040467,33.43022904364635,2985.294694154095,-3.5180438912276157,123216.7783816962,10.5,10500123216.778381,47.655,-122.3035,60.0,12.55
2026-01-20T23:12:34+00:00,SAT-64794,254.16078995063776,33.49688143108826,2981.786031713244,-3.5071328692622292,122834.62823889121,10.5,10500122834.628239,47.655,-122.3035,60.0,12.566666666666666
2026-01-20T23:12:35+00:00,SAT-64794,254.28670292658012,33.56341865725035,2978.2882511983,-3.496179212492972,122450.98484490962,10.5,10500122450.984844,47.655,-122.3035,60.0,12.583333333333334
2026-01-20T23:12:36+00:00,SAT-64794,254.41316839327897,33.62983865432892,2974.8013951303737,-3.4851828467121346,122065.84560068358,10.5,10500122065.8456,47.655,-122.3035,60.0,12.6
2026-01-20T23:12:37+00:00,SAT-64794,254.54018793158667,33.69613933782514,2971.325506104586,-3.4741437251462193,121679.20886800729,10.5,10500121679.208868,47.655,-122.3035,60.0,12.616666666666667
2026-01-20T23:12:38+00:00,SAT-64794,254.66776310871415,33.76231860702807,2967.860626762707,-3.4630617790773073,121291.0722400886,10.5,10500121291.07224,47.655,-122.3035,60.0,12.633333333333333
2026-01-20T23:12:39+00:00,SAT-64794,254.79589547696776,33.82837434456972,2964.4067998150404,-3.451936964055989,120901.43416012115,10.5,10500120901.43416,47.655,-122.3035,60.0,12.65
2026-01-20T23:12:40+00:00,SAT-64794,254.92458657418035,33.894304416855086,2960.964068016222,-3.4407691906381257,120510.29149539286,10.5,10500120510.291496,47.655,-122.3035,60.0,12.666666666666666
2026-01-20T23:12:41+00:00,SAT-64794,255.0538379215594,33.960106673186,2957.5324742100925,-3.4295584373560066,120117.64349401368,10.5,10500120117.643494,47.655,-122.3035,60.0,12.683333333333334
2026-01-20T23:12:42+00:00,SAT-64794,255.1836510257529,34.025778947020164,2954.1120612619025,-3.4183046289966628,119723.4875217073,10.5,10500119723.487522,47.655,-122.3035,60.0,12.7
2026-01-20T23:12:43+00:00,SAT-64794,255.3140273763545,34.091319054934964,2950.7028721119163,-3.407007723262998,119327.82209705048,10.5,10500119327.822098,47.655,-122.3035,60.0,12.716666666666667
2026-01-20T23:12:44+00:00,SAT-64794,255.44496844664855,34.156724797232336,2947.3049497425823,-3.3956676536879953,118930.64489208716,10.5,10500118930.644892,47.655,-122.3035,60.0,12.733333333333333
2026-01-20T23:12:45+00:00,SAT-64794,255.57647569219114,34.22199395746232,2943.9183372026373,-3.3842843806122196,118531.9545177761,10.5,10500118531.954517,47.655,-122.3035,60.0,12.75
2026-01-20T23:12:46+00:00,SAT-64794,255.7085505513392,34.2871243029205,2940.5430775803734,-3.3728578545518335,118131.74924098408,10.5,10500118131.74924,47.655,-122.3035,60.0,12.766666666666667
2026-01-20T23:12:47+00:00,SAT-64794,255.84119444436388,34.35211358444899,2937.1792140134335,-3.361388027065872,117730.02736510355,10.5,10500117730.027365,47.655,-122.3035,60.0,12.783333333333333
2026-01-20T23:12:48+00:00,SAT-64794,255.97440877298024,34.416959536451174,2933.8267896877733,-3.3498748461370256,117326.78706826831,10.5,10500117326.787067,47.655,-122.3035,60.0,12.8
2026-01-20T23:12:49+00:00,SAT-64794,256.10819491967084,34.48165987681363,2930.485847841226,-3.338318260329387,116922.02654897531,10.5,10500116922.026548,47.655,-122.3035,60.0,12.816666666666666
2026-01-20T23:12:50+00:00,SAT-64794,256.2425542471767,34.54621230692116,2927.156431762924,-3.3267182487073517,116515.7450739711,10.5,10500116515.745073,47.655,-122.3035,60.0,12.833333333333334
2026-01-20T23:12:51+00:00,SAT-64794,256.37748809920373,34.610614512233745,2923.83858476288,-3.3150747486912775,116107.94045145197,10.5,10500116107.94045,47.655,-122.3035,60.0,12.85
2026-01-20T23:12:52+00:00,SAT-64794,256.5129977981894,34.67486416150167,2920.5323502135184,-3.303387714319294,115698.61107163872,10.5,10500115698.611073,47.655,-122.3035,60.0,12.866666666666667
2026-01-20T23:12:53+00:00,SAT-64794,256.6490846454148,34.73895890708266,2917.237771533104,-3.291657133617743,115287.75651516323,10.5,10500115287.756516,47.655,-122.3035,60.0,12.883333333333333
2026-01-20T23:12:54+00:00,SAT-64794,256.7857499218741,34.802896385609884,2913.9548921518426,-3.279882952260982,114875.3748793117,10.5,10500114875.37488,47.655,-122.3035,60.0,12.9
2026-01-20T23:12:55+00:00,SAT-64794,256.92299488595313,34.866674217189804,2910.683755554121,-3.268065117229998,114461.46430713404,10.5,10500114461.464308,47.655,-122.3035,60.0,12.916666666666666
2026-01-20T23:12:56+00:00,SAT-64794,257.06082077289665,34.9302900054448,2907.4244052772037,-3.256203624169857,114046.024646102,10.5,10500114046.024647,47.655,-122.3035,60.0,12.933333333333334
2026-01-20T23:12:57+00:00,SAT-64794,257.19922879630474,34.993741338468226,2904.176884862698,-3.2442984205387666,113629.05405597978,10.5,10500113629.054056,47.655,-122.3035,60.0,12.95
2026-01-20T23:12:58+00:00,SAT-64794,257.3382201454981,35.05702578792216,2900.9412379046144,-3.232349485789909,113210.55181713092,10.5,10500113210.551817,47.655,-122.3035,60.0,12.966666666666667
2026-01-20T23:12:59+00:00,SAT-64794,257.4777959863145,35.12014090967905,2897.7175080174534,-3.220356776225533,112790.51639907532,10.5,10500112790.5164,47.655,-122.3035,60.0,12.983333333333333
2026-01-20T23:13:00+00:00,SAT-64794,257.6179574594974,35.18308424340792,2894.5057388592977,-3.208320274735403,112368.94720254013,10.5,10500112368.947203,47.655,-122.3035,60.0,13.0
2026-01-20T23:13:01+00:00,SAT-64794,257.7587056812654,35.245853313117856,2891.305974105295,-3.1962399597084903,111945.84347061576,10.5,10500111945.843472,47.655,-122.3035,60.0,13.016666666666667
2026-01-20T23:13:02+00:00,SAT-64794,257.90004174251726,35.308445627114814,2888.118257452146,-3.1841157874068933,111521.20367141585,10.5,10500111521.20367,47.655,-122.3035,60.0,13.033333333333333
2026-01-20T23:13:03+00:00,SAT-64794,258.0419667072397,35.37085867761089,2884.9426326401717,-3.171947748098711,111095.02746408804,10.5,10500111095.027464,47.655,-122.3035,60.0,13.05
2026-01-20T23:13:04+00:00,SAT-64794,258.18448161339205,35.433089941428655,2881.7791434194014,-3.159735825530567,110667.3142793704,10.5,10500110667.31428,47.655,-122.3035,60.0,13.066666666666666
2026-01-20T23:13:05+00:00,SAT-64794,258.3275874720141,35.49513687992585,2878.6278335560723,-3.1474799759792997,110238.06258589283,10.5,10500110238.062586,47.655,-122.3035,60.0,13.083333333333334
2026-01-20T23:13:06+00:00,SAT-64794,258.47128526533254,35.556996938513684,2875.4887468600286,-3.135180218455884,109807.27304950009,10.5,10500109807.27305,47.655,-122.3035,60.0,13.1
2026-01-20T23:13:07+00:00,SAT-64794,258.6155759490162,35.61866754793391,2872.361927122155,-3.1228364971466105,109374.94371535994,10.5,10500109374.943716,47.655,-122.3035,60.0,13.116666666666667
2026-01-20T23:13:08+00:00,SAT-64794,258.7604604480654,35.6801461228644,2869.247418189001,-3.1104488214687893,108941.07491330648,10.5,10500108941.074913,47.655,-122.3035,60.0,13.133333333333333
2026-01-20T23:13:09+00:00,SAT-64794,258.9059396592053,35.74143006325332,2866.145263897723,-3.0980171809520782,108505.66627662402,10.5,10500108505.666277,47.655,-122.3035,60.0,13.15
2026-01-20T23:13:10+00:00,SAT-64794,259.0520144493149,35.802516754004124,2863.0555080959202,-3.085541544444639,108068.71671424338,10.5,10500108068.716715,47.655,-122.3035,60.0,13.166666666666666
2026-01-20T23:13:11+00:00,SAT-64794,259.1986856537775,35.86340356464182,2859.9781946622606,-3.0730219260145004,107630.22671888648,10.5,10500107630.226719,47.655,-122.3035,60.0,13.183333333333334
2026-01-20T23:13:12+00:00,SAT-64794,259.3459540779813,35.9240878502772,2856.913367461382,-3.0604583057628285,107190.19559361196,10.5,10500107190.195593,47.655,-122.3035,60.0,13.2
2026-01-20T23:13:13+00:00,SAT-64794,259.49382049502333,35.9845669510244,2853.861070377768,-3.0478506785891275,106748.62315977889,10.5,10500106748.62316,47.655,-122.3035,60.0,13.216666666666667
2026-01-20T23:13:14+00:00,SAT-64794,259.64228564574296,36.044838192375984,2850.8213473009887,-3.0351990464759644,106305.50948682513,10.5,10500106305.509487,47.655,-122.3035,60.0,13.233333333333333
2026-01-20T23:13:15+00:00,SAT-64794,259.79135023839865,36.10489888543344,2847.7942421186367,-3.022503400206772,105860.85425194756,10.5,10500105860.854252,47.655,-122.3035,60.0,13.25
2026-01-20T23:13:16+00:00,SAT-64794,259.9410149474252,36.164746326785306,2844.779798727497,-3.009763753362201,105414.65793079794,10.5,10500105414.65793,47.655,-122.3035,60.0,13.266666666666667
2026-01-20T23:13:17+00:00,SAT-64794,260.0912804138919,36.22437779905138,2841.7780610108107,-2.996980098160389,104966.9202508226,10.5,10500104966.92025,47.655,-122.3035,60.0,13.283333333333333
2026-01-20T23:13:18+00:00,SAT-64794,260.2421472437311,36.283790570572386,2838.7890728595785,-2.984152437074333,104517.64129863634,10.5,10500104517.641298,47.655,-122.3035,60.0,13.3
2026-01-20T23:13:19+00:00,SAT-64794,260.39361600755586,36.34298189571658,2835.812878162336,-2.97128079147925,104066.82182288963,10.5,10500104066.821823,47.655,-122.3035,60.0,13.316666666666666
2026-01-20T23:13:20+00:00,SAT-64794,260.5456872409249,36.40194901536981,2832.8495207863007,-2.958365147701993,103614.46134469108,10.5,10500103614.461344,47.655,-122.3035,60.0,13.333333333333334
2026-01-20T23:13:21+00:00,SAT-64794,260.6983614418385,36.46068915636324,2829.899044612326,-2.9454055411878435,103160.56110548436,10.5,10500103160.561106,47.655,-122.3035,60.0,13.35
2026-01-20T23:13:22+00:00,SAT-64794,260.85163907256515,36.519199532565594,2826.961493485915,-2.932401960114592,102705.1206912057,10.5,10500102705.120691,47.655,-122.3035,60.0,13.366666666666667
2026-01-20T23:13:23+00:00,SAT-64794,261.0055205564642,36.57747734407996,2824.0369112643602,-2.9193544438611396,102248.14148107078,10.5,10500102248.141481,47.655,-122.3035,60.0,13.383333333333333
2026-01-20T23:13:24+00:00,SAT-64794,261.16000627995396,36.635519778388115,2821.125341765683,-2.9062629897578085,101789.62338157615,10.5,10500101789.62338,47.655,-122.3035,60.0,13.4
2026-01-20T23:13:25+00:00,SAT-64794,261.3150965895767,36.69332400966062,2818.2268288105647,-2.8931276219323308,101329.56723777711,10.5,10500101329.567238,47.655,-122.3035,60.0,13.416666666666666
2026-01-20T23:13:26+00:00,SAT-64794,261.47079179266916,36.75088719942883,2815.341416195624,-2.879948373671577,100867.97421552065,10.5,10500100867.974216,47.655,-122.3035,60.0,13.433333333333334
2026-01-20T23:13:27+00:00,SAT-64794,261.6270921571697,36.808206496915595,2812.4691476842822,-2.8667252490026813,100404.84445585404,10.5,10500100404.844456,47.655,-122.3035,60.0,13.45
2026-01-20T23:13:28+00:00,SAT-64794,261.78399790926045,36.8652790386127,2809.6100670359438,-2.8534582880577255,99940.17936437253,10.5,10500099940.179365,47.655,-122.3035,60.0,13.466666666666667
2026-01-20T23:13:29+00:00,SAT-64794,261.94150923462547,36.92210194915305,2806.7642179699874,-2.8401475136964347,99473.9797417204,10.5,10500099473.979742,47.655,-122.3035,60.0,13.483333333333333
2026-01-20T23:13:30+00:00,SAT-64794,262.09962627675475,36.97867234113573,2803.931644182994,-2.8267929536838716,99006.2465603476,10.5,10500099006.246561,47.655,-122.3035,60.0,13.5
2026-01-20T23:13:31+00:00,SAT-64794,262.2583491364668,37.0349873153916,2801.1123893438535,-2.813394642465647,98536.98102668511,10.5,10500098536.981028,47.655,-122.3035,60.0,13.516666666666667
2026-01-20T23:13:32+00:00,SAT-64794,262.41767787154487,37.09104396129395,2798.306497087101,-2.7999526218672317,98066.18460563786,10.5,10500098066.184607,47.655,-122.3035,60.0,13.533333333333333
2026-01-20T23:13:33+00:00,SAT-64794,262.5776124964147,37.146839357082705,2795.514011005559,-2.786466911898762,97593.85799804545,10.5,10500097593.857998,47.655,-122.3035,60.0,13.55
2026-01-20T23:13:34+00:00,SAT-64794,262.7381529801296,37.20237056962294,2792.7349746720915,-2.772937561220757,97120.00290820509,10.5,10500097120.002909,47.655,-122.3035,60.0,13.566666666666666
2026-01-20T23:13:35+00:00,SAT-64794,262.89929924727625,37.257634655162086,2789.969431611034,-2.7593646203589013,96644.62110573998,10.5,10500096644.621105,47.655,-122.3035,60.0,13.583333333333334
2026-01-20T23:13:36+00:00,SAT-64794,263.0610511773351,37.31262865956509,2787.2174252963296,-2.7457481168602307,96167.71355546384,10.5,10500096167.713556,47.655,-122.3035,60.0,13.6
2026-01-20T23:13:37+00:00,SAT-64794,263.2234086025797,37.367349618063486,2784.478999174448,-2.732088101357156,95689.28203073789,10.5,10500095689.28203,47.655,-122.3035,60.0,13.616666666666667
2026-01-20T23:13:38+00:00,SAT-64794,263.38637130865925,37.42179455592166,2781.754196641361,-2.7183846314228455,95209.32854801796,10.5,10500095209.328548,47.655,-122.3035,60.0,13.633333333333333
2026-01-20T23:13:39+00:00,SAT-64794,263.54993903428243,37.47596048878858,2779.043061035622,-2.7046377531746857,94727.85472253007,10.5,10500094727.854723,47.655,-122.3035,60.0,13.65
2026-01-20T23:13:40+00:00,SAT-64794,263.7141114697709,37.52984442269191,2776.3456356497886,-2.690847506218751,94244.86194144646,10.5,10500094244.861942,47.655,-122.3035,60.0,13.666666666666666
2026-01-20T23:13:41+00:00,SAT-64794,263.87888825586515,37.58344335413533,2773.6619637369204,-2.6770139642967137,93760.35278751241,10.5,10500093760.352787,47.655,-122.3035,60.0,13.683333333333334
2026-01-20T23:13:42+00:00,SAT-64794,264.04426898508507,37.636754271006254,2770.992088476528,-2.6631371740834777,93274.32889548049,10.5,10500093274.328896,47.655,-122.3035,60.0,13.7
2026-01-20T23:13:43+00:00,SAT-64794,264.210253199279,37.68977415227801,2768.3360530015757,-2.6492172094289654,92786.79285188734,10.5,10500092786.792852,47.655,-122.3035,60.0,13.716666666666667
2026-01-20T23:13:44+00:00,SAT-64794,264.37684039058354,37.742499968791385,2765.693900371372,-2.635254115511373,92297.74623906455,10.5,10500092297.746239,47.655,-122.3035,60.0,13.733333333333333
2026-01-20T23:13:45+00:00,SAT-64794,264.54402999882734,37.794928682935996,2763.0656736001683,-2.6212479687567893,91807.191733777,10.5,10500091807.191734,47.655,-122.3035,60.0,13.75
2026-01-20T23:13:46+00:00,SAT-64794,264.71182141276245,37.84705724952483,2760.451415625995,-2.6071988391704544,91315.13178790433,10.5,10500091315.131788,47.655,-122.3035,60.0,13.766666666666667
2026-01-20T23:13:47+00:00,SAT-64794,264.8802139689043,37.89888261592834,2757.8511693170626,-2.593106792804167,90821.56871485991,10.5,10500090821.568714,47.655,-122.3035,60.0,13.783333333333333
2026-01-20T23:13:48+00:00,SAT-64794,265.0492069505148,37.95040172226242,2755.2649774757056,-2.5789718960304127,90326.50483928896,10.5,10500090326.504839,47.655,-122.3035,60.0,13.8
2026-01-20T23:13:49+00:00,SAT-64794,265.21879958683957,38.00161150166886,2752.6928828380646,-2.5647942330723876,89829.94311104408,10.5,10500089829.943111,47.655,-122.3035,60.0,13.816666666666666
2026-01-20T23:13:50+00:00,SAT-64794,265.38899105354733,38.05250888094668,2750.1349280562804,-2.5505738817781793,89331.88625669456,10.5,10500089331.886257,47.655,-122.3035,60.0,13.833333333333334
2026-01-20T23:13:51+00:00,SAT-64794,265.5597804715459,38.103090780710666,2747.5911557048535,-2.536310920730762,88832.3370285486,10.5,10500088832.337029,47.655,-122.3035,60.0,13.85
2026-01-20T23:13:52+00:00,SAT-64794,265.73116690628945,38.15335411569665,2745.0616082799115,-2.5220054308102617,88331.2982593703,10.5,10500088331.29826,47.655,-122.3035,60.0,13.866666666666667
2026-01-20T23:13:53+00:00,SAT-64794,265.9031493671626,38.20329579510426,2742.546328196917,-2.5076575042113016,87828.7731782054,10.5,10500087828.773178,47.655,-122.3035,60.0,13.883333333333333
2026-01-20T23:13:54+00:00,SAT-64794,266.0757268075273,38.252912723121796,2740.0453577793833,-2.4932672187535108,87324.76451062642,10.5,10500087324.764511,47.655,-122.3035,60.0,13.9
2026-01-20T23:13:55+00:00,SAT-64794,266.24889812296476,38.30220179895217,2737.558739273213,-2.478834675950737,86819.27581207776,10.5,10500086819.275812,47.655,-122.3035,60.0,13.916666666666666
2026-01-20T23:13:56+00:00,SAT-64794,266.422662152197,38.35115991759406,2735.086514823065,-2.4643599672286682,86312.31028467373,10.5,10500086312.310286,47.655,-122.3035,60.0,13.933333333333334
2026-01-20T23:13:57+00:00,SAT-64794,266.59701767563774,38.39978396996275,2732.6287264824155,-2.449843180758859,85803.87101655513,10.5,10500085803.871017,47.655,-122.3035,60.0,13.95
2026-01-20T23:13:58+00:00,SAT-64794,266.7719634144262,38.44807084315388,2730.1854162168056,-2.4352844277204846,85293.96190168695,10.5,10500085293.961903,47.655,-122.3035,60.0,13.966666666666667
2026-01-20T23:13:59+00:00,SAT-64794,266.9474980313363,38.496017421226504,2727.756625880892,-2.420683797600879,84782.5860742942,10.5,10500084782.586075,47.655,-122.3035,60.0,13.983333333333333
2026-01-20T23:14:00+00:00,SAT-64794,267.12362012849775,38.54362058511646,2725.342397240085,-2.406041406805241,84269.74761137931,10.5,10500084269.747612,47.655,-122.3035,60.0,14.0
2026-01-20T23:14:01+00:00,SAT-64794,267.300328248625,38.59087721350702,2722.9427719436976,-2.3913573503742245,83755.449841668,10.5,10500083755.449842,47.655,-122.3035,60.0,14.016666666666667
2026-01-20T23:14:02+00:00,SAT-64794,267.4776208727415,38.63778418276143,2720.5577915462577,-2.376631747968682,83239.69695618947,10.5,10500083239.696957,47.655,-122.3035,60.0,14.033333333333333
2026-01-20T23:14:03+00:00,SAT-64794,267.65549642128957,38.68433836775925,2718.18749748295,-2.3618647082683606,82722.49276136822,10.5,10500082722.492762,47.655,-122.3035,60.0,14.05
2026-01-20T23:14:04+00:00,SAT-64794,267.83395325261085,38.730536642042615,2715.831931080571,-2.347056346209196,82203.84128274687,10.5,10500082203.841282,47.655,-122.3035,60.0,14.066666666666666
2026-01-20T23:14:05+00:00,SAT-64794,268.0129896627237,38.776375878307135,2713.4911335512847,-2.3322067780993128,81683.74659392794,10.5,10500081683.746593,47.655,-122.3035,60.0,14.083333333333334
2026-01-20T23:14:06+00:00,SAT-64794,268.19260388472924,38.8218529487998,2711.1651459912605,-2.3173161283747987,81162.21305318957,10.5,10500081162.213053,47.655,-122.3035,60.0,14.1
2026-01-20T23:14:07+00:00,SAT-64794,268.3727940887544,38.86696472585679,2708.8540093725614,-2.302384518676529,80639.24492090977,10.5,10500080639.24492,47.655,-122.3035,60.0,14.116666666666667
2026-01-20T23:14:08+00:00,SAT-64794,268.553558381075,38.9117080822328,2706.557764545935,-2.287412071474795,80114.84648651618,10.5,10500080114.846487,47.655,-122.3035,60.0,14.133333333333333
2026-01-20T23:14:09+00:00,SAT-64794,268.7348948034801,38.956079891506505,2704.276452239984,-2.272398927306595,79589.02267220894,10.5,10500079589.022673,47.655,-122.3035,60.0,14.15
2026-01-20T23:14:10+00:00,SAT-64794,268.91680133408795,39.00007702882582,2702.01011304315,-2.257345200979789,79061.77749904498,10.5,10500079061.777498,47.655,-122.3035,60.0,14.166666666666666
2026-01-20T23:14:11+00:00,SAT-64794,269.099275884589,39.04369637081169,2699.7587874293727,-2.242251044259982,78533.11628249771,10.5,10500078533.116283,47.655,-122.3035,60.0,14.183333333333334
2026-01-20T23:14:12+00:00,SAT-64794,269.28231630262655,39.08693479667653,2697.522515721231,-2.2271165850793024,78003.04350329144,10.5,10500078003.043503,47.655,-122.3035,60.0,14.2
2026-01-20T23:14:13+00:00,SAT-64794,269.465920369205,39.12978918817674,2695.3013381137116,-2.2119419658826036,77471.5641504475,10.5,10500077471.56415,47.655,-122.3035,60.0,14.216666666666667
2026-01-20T23:14:14+00:00,SAT-64794,269.6500857992624,39.17225643030844,2693.095294659738,-2.1967273278416486,76938.68316839816,10.5,10500076938.683168,47.655,-122.3035,60.0,14.233333333333333
2026-01-20T23:14:15+00:00,SAT-64794,269.8348102409375,39.214333411705795,2690.9044252714375,-2.181472817172789,76404.40567825852,10.5,10500076404.405678,47.655,-122.3035,60.0,14.25
2026-01-20T23:14:16+00:00,SAT-64794,270.02009127540146,39.25601702516365,2688.7287697151105,-2.166178590002662,75868.73714824392,10.5,10500075868.737148,47.655,-122.3035,60.0,14.266666666666667
2026-01-20T23:14:17+00:00,SAT-64794,270.2059264171087,39.29730416825881,2686.5683676013477,-2.150844792591836,75331.68270101804,10.5,10500075331.682701,47.655,-122.3035,60.0,14.283333333333333
2026-01-20T23:14:18+00:00,SAT-64794,270.39231311238376,39.338191743598784,2684.4232583948697,-2.1354715723580933,74793.24749977526,10.5,10500074793.2475,47.655,-122.3035,60.0,14.3
2026-01-20T23:14:19+00:00,SAT-64794,270.57924873890244,39.37867665928711,2682.293481413371,-2.120059099449347,74253.43750381519,10.5,10500074253.437504,47.655,-122.3035,60.0,14.316666666666666
2026-01-20T23:14:20+00:00,SAT-64794,270.76673060716337,39.41875582980063,2680.1790758048533,-2.104607528770474,73712.25813856191,10.5,10500073712.258139,47.655,-122.3035,60.0,14.333333333333334
2026-01-20T23:14:21+00:00,SAT-64794,270.95475595858574,39.45842617615153,2678.0800805628264,-2.0891170253287448,73169.71518326794,10.5,10500073169.715183,47.655,-122.3035,60.0,14.35
2026-01-20T23:14:22+00:00,SAT-64794,271.14332196587856,39.49768462653428,2675.9965345162323,-2.0735877484398753,72625.81421784364,10.5,10500072625.814219,47.655,-122.3035,60.0,14.366666666666667
2026-01-20T23:14:23+00:00,SAT-64794,271.33242573198277,39.53652811667979,2673.928476335121,-2.0580198757403965,72080.56146387167,10.5,10500072080.561464,47.655,-122.3035,60.0,14.383333333333333
2026-01-20T23:14:24+00:00,SAT-64794,271.5220642912585,39.574953590664045,2671.875944512383,-2.0424135773690733,71533.96288033127,10.5,10500071533.962881,47.655,-122.3035,60.0,14.4
2026-01-20T23:14:25+00:00,SAT-64794,271.7122346082908,39.61295800123603,2669.83897737122,-2.0267690198070123,70986.02429809501,10.5,10500070986.024298,47.655,-122.3035,60.0,14.416666666666666
2026-01-20T23:14:26+00:00,SAT-64794,271.90293357705696,39.650538310224064,2667.817613068799,-2.011086394270886,70436.75241437962,10.5,10500070436.752415,47.655,-122.3035,60.0,14.433333333333334
2026-01-20T23:14:27+00:00,SAT-64794,272.0941580227958,39.68769148947232,2665.8118895715797,-1.9953658713568556,69886.15320418429,10.5,10500069886.153204,47.655,-122.3035,60.0,14.45
2026-01-20T23:14:28+00:00,SAT-64794,272.28590469960466,39.72441452093969,2663.82184467588,-1.9796076429361804,69334.23338765212,10.5,10500069334.233387,47.655,-122.3035,60.0,14.466666666666667
2026-01-20T23:14:29+00:00,SAT-64794,272.478170292037,39.760704397577996,2661.847515986658,-1.96381188234941,68780.99903590238,10.5,10500068780.999037,47.655,-122.3035,60.0,14.483333333333333
2026-01-20T23:14:30+00:00,SAT-64794,272.67095141286603,39.79655812348068,2659.888940935995,-1.947978792135843,68226.45724271807,10.5,10500068226.457243,47.655,-122.3035,60.0,14.5
2026-01-20T23:14:31+00:00,SAT-64794,272.8642446055526,39.83197271490972,2657.946156753971,-1.9321085581382356,67670.6145170986,10.5,10500067670.614517,47.655,-122.3035,60.0,14.516666666666667
2026-01-20T23:14:32+00:00,SAT-64794,273.05804634221073,39.86694520048615,2656.0192004853216,-1.9162013819231545,67113.47791875778,10.5,10500067113.477919,47.655,-122.3035,60.0,14.533333333333333
2026-01-20T23:14:33+00:00,SAT-64794,273.25235302480587,39.90147262197461,2654.1081089737504,-1.9002574505917074,66555.05400076785,10.5,10500066555.054,47.655,-122.3035,60.0,14.55
2026-01-20T23:14:34+00:00,SAT-64794,273.4471609833178,39.9355520345244,2652.21291887636,-1.8842769731401265,65995.35008306088,10.5,10500065995.350082,47.655,-122.3035,60.0,14.566666666666666
2026-01-20T23:14:35+00:00,SAT-64794,273.64246647763434,39.96918050756965,2650.333666641815,-1.868260153666421,65434.373314012526,10.5,10500065434.373314,47.655,-122.3035,60.0,14.583333333333334
2026-01-20T23:14:36+00:00,SAT-64794,273.83826569675284,40.00235512524789,2648.4703885152253,-1.852207195815269,64872.130826120796,10.5,10500064872.130827,47.655,-122.3035,60.0,14.6
2026-01-20T23:14:37+00:00,SAT-64794,274.03455475839445,40.03507298690309,2646.6231205385984,-1.8361183141905986,64308.63013572305,10.5,10500064308.630136,47.655,-122.3035,60.0,14.616666666666667
2026-01-20T23:14:38+00:00,SAT-64794,274.23132970990764,40.0673312077928,2644.7918985399124,-1.8199937183136332,63743.878581138786,10.5,10500063743.878582,47.655,-122.3035,60.0,14.633333333333333
2026-01-20T23:14:39+00:00,SAT-64794,274.4285865274344,40.09912691951367,2642.976758138181,-1.8038336179932473,63177.883510762294,10.5,10500063177.88351,47.655,-122.3035,60.0,14.65
2026-01-20T23:14:40+00:00,SAT-64794,274.62632111566273,40.13045727052564,2641.177734743169,-1.7876382422886656,62610.652947216535,10.5,10500062610.652946,47.655,-122.3035,60.0,14.666666666666666
2026-01-20T23:14:41+00:00,SAT-64794,274.8245293097344,40.16131942700722,2639.394863536193,-1.7714078096800079,62042.19454259947,10.5,10500062042.194542,47.655,-122.3035,60.0,14.683333333333334
2026-01-20T23:14:42+00:00,SAT-64794,275.0232068738708,40.19171057319093,2637.6281794806723,-1.755142537210658,61472.51589868852,10.5,10500061472.515898,47.655,-122.3035,60.0,14.7
2026-01-20T23:14:43+00:00,SAT-64794,275.2223495009613,40.22162791186386,2635.877717323561,-1.7388426653102407,60901.62543634613,10.5,10500060901.625437,47.655,-122.3035,60.0,14.716666666666667
2026-01-20T23:14:44+00:00,SAT-64794,275.42195281510527,40.251068665292294,2634.1435115720246,-1.7225084125183383,60329.5308097529,10.5,10500060329.53081,47.655,-122.3035,60.0,14.733333333333333
2026-01-20T23:14:45+00:00,SAT-64794,275.6220123688926,40.28003007537314,2632.4255965152734,-1.7061400149228538,59756.240287705856,10.5,10500059756.240288,47.655,-122.3035,60.0,14.75
2026-01-20T23:14:46+00:00,SAT-64794,275.8225236453151,40.30850940446079,2630.724006207057,-1.6897377140186403,59181.76232837626,10.5,10500059181.76233,47.655,-122.3035,60.0,14.766666666666667
2026-01-20T23:14:47+00:00,SAT-64794,276.0234820583006,40.33650393598295,2629.038774460276,-1.6733017430780632,58606.105101949106,10.5,10500058606.105103,47.655,-122.3035,60.0,14.783333333333333
2026-01-20T23:14:48+00:00,SAT-64794,276.2248829516332,40.36401097483148,2627.369934855179,-1.6568323451104707,58029.277119639686,10.5,10500058029.27712,47.655,-122.3035,60.0,14.8
2026-01-20T23:14:49+00:00,SAT-64794,276.4267216000353,40.391027848054144,2625.7175207296555,-1.6403297620594737,57451.286855336686,10.5,10500057451.286856,47.655,-122.3035,60.0,14.816666666666666
2026-01-20T23:14:50+00:00,SAT-64794,276.6289932089786,40.41755190536624,2624.081565180295,-1.6237942467181594,56872.14316292331,10.5,10500056872.143164,47.655,-122.3035,60.0,14.833333333333334
2026-01-20T23:14:51+00:00,SAT-64794,276.83169291599404,40.44358051985613,2622.462101051568,-1.6072260492653319,56291.85480471955,10.5,10500056291.854805,47.655,-122.3035,60.0,14.85
2026-01-20T23:14:52+00:00,SAT-64794,277.03481579036395,40.4691110884701,2620.859160938434,-1.5906254109493572,55710.43023026367,10.5,10500055710.430231,47.655,-122.3035,60.0,14.866666666666667
2026-01-20T23:14:53+00:00,SAT-64794,277.2383568319084,40.49414103240155,2619.2727771952473,-1.5739926074210149,55127.87909401194,10.5,10500055127.879093,47.655,-122.3035,60.0,14.883333333333333
2026-01-20T23:14:54+00:00,SAT-64794,277.4423109755246,40.51866779816418,2617.702981901446,-1.5573278829444472,54544.209951127916,10.5,10500054544.209951,47.655,-122.3035,60.0,14.9
2026-01-20T23:14:55+00:00,SAT-64794,277.6466730871062,40.54268885762169,2616.149806892856,-1.5406315005320244,53959.43201341728,10.5,10500053959.432013,47.655,-122.3035,60.0,14.916666666666666
2026-01-20T23:14:56+00:00,SAT-64794,277.85143796606997,40.56620170881257,2614.6132837429923,-1.523903729536666,53373.55471475868,10.5,10500053373.554714,47.655,-122.3035,60.0,14.933333333333334
2026-01-20T23:14:57+00:00,SAT-64794,278.05660034630444,40.58920387657051,2613.093443756734,-1.50714483336512,52786.587280770626,10.5,10500052786.58728,47.655,-122.3035,60.0,14.95
2026-01-20T23:14:58+00:00,SAT-64794,278.26215489548565,40.611692912956784,2611.590317976258,-1.490355085542283,52198.53929145199,10.5,10500052198.539291,47.655,-122.3035,60.0,14.966666666666667
2026-01-20T23:14:59+00:00,SAT-64794,278.4680962165922,40.63366639793488,2610.103937170944,-1.473534752655342,51609.42008381375,10.5,10500051609.420084,47.655,-122.3035,60.0,14.983333333333333
