satellites_20260121_005943/SAT-45237.csv

timestamp,satellite,azimuth_deg,elevation_deg,distance_km,relative_velocity_kms,doppler_shift_hz,tx_freq_ghz,rx_freq_hz,ue_lat,ue_lon,ue_alt_m,time_minutes
2026-01-20T23:01:00+00:00,SAT-45237,208.42062751128574,30.017763344523193,1544.2798614234296,-6.497620256974154,227574.14630567064,10.5,10500227574.146305,47.655,-122.3035,60.0,1.0
2026-01-20T23:01:01+00:00,SAT-45237,208.32981007847525,30.116474941653586,1537.7995681538073,-6.493902447708804,227443.93289888045,10.5,10500227443.9329,47.655,-122.3035,60.0,1.0166666666666666
2026-01-20T23:01:02+00:00,SAT-45237,208.23825936570398,30.215757094435858,1531.3229827792925,-6.490129909206969,227311.80264272416,10.5,10500227311.802643,47.655,-122.3035,60.0,1.0333333333333334
2026-01-20T23:01:03+00:00,SAT-45237,208.14596423939898,30.315615971089926,1524.8501598831767,-6.486301754314886,227177.72446532428,10.5,10500227177.724464,47.655,-122.3035,60.0,1.05
2026-01-20T23:01:04+00:00,SAT-45237,208.05291334376818,30.416057815341723,1518.3811549335398,-6.48241711155839,227041.66784396925,10.5,10500227041.667845,47.655,-122.3035,60.0,1.0666666666666667
2026-01-20T23:01:05+00:00,SAT-45237,207.95909509490122,30.517088947712534,1511.9160242676123,-6.4784750642254,226903.6006715242,10.5,10500226903.600672,47.655,-122.3035,60.0,1.0833333333333333
2026-01-20T23:01:06+00:00,SAT-45237,207.86449767553177,30.618715765863367,1505.4548251368915,-6.474474699319684,226763.49097099926,10.5,10500226763.49097,47.655,-122.3035,60.0,1.1
2026-01-20T23:01:07+00:00,SAT-45237,207.769109028951,30.72094474570149,1498.9976157034368,-6.470415086815075,226621.30616894402,10.5,10500226621.30617,47.655,-122.3035,60.0,1.1166666666666667
2026-01-20T23:01:08+00:00,SAT-45237,207.67291685306705,30.823782442177954,1492.5444550568532,-6.466295214511099,226477.01081381622,10.5,10500226477.010815,47.655,-122.3035,60.0,1.1333333333333333
2026-01-20T23:01:09+00:00,SAT-45237,207.5759085951381,30.92723548899766,1486.0954032962475,-6.462114152934531,226330.57235153185,10.5,10500226330.572351,47.655,-122.3035,60.0,1.15
2026-01-20T23:01:10+00:00,SAT-45237,207.47807144409322,31.031310601015345,1479.6505214477206,-6.457870896137016,226181.9555495244,10.5,10500226181.95555,47.655,-122.3035,60.0,1.1666666666666667
2026-01-20T23:01:11+00:00,SAT-45237,207.37939232480488,31.136014574046417,1473.20987154064,-6.453564396311943,226031.1237091742,10.5,10500226031.123709,47.655,-122.3035,60.0,1.1833333333333333
2026-01-20T23:01:12+00:00,SAT-45237,207.27985789176225,31.24135428521927,1466.7735166493849,-6.449193628989655,225878.0409492202,10.5,10500225878.040949,47.655,-122.3035,60.0,1.2
2026-01-20T23:01:13+00:00,SAT-45237,207.17945452155868,31.34733669439129,1460.3415208700726,-6.4447575494883305,225722.67068048613,10.5,10500225722.670681,47.655,-122.3035,60.0,1.2166666666666666
2026-01-20T23:01:14+00:00,SAT-45237,207.07816830581064,31.453968844860917,1453.9139493407163,-6.440255045814732,225564.97395626505,10.5,10500225564.973957,47.655,-122.3035,60.0,1.2333333333333334
2026-01-20T23:01:15+00:00,SAT-45237,206.9759850445329,31.561257863256017,1447.490868308357,-6.435685012797962,225404.91206879728,10.5,10500225404.91207,47.655,-122.3035,60.0,1.25
2026-01-20T23:01:16+00:00,SAT-45237,206.87289023823948,31.669210960661932,1441.0723451222598,-6.431046354997501,225242.4466511221,10.5,10500225242.446651,47.655,-122.3035,60.0,1.2666666666666666
2026-01-20T23:01:17+00:00,SAT-45237,206.76886907970305,31.77783543379346,1434.658448224209,-6.42633787708528,225077.5358377943,10.5,10500225077.535837,47.655,-122.3035,60.0,1.2833333333333334
2026-01-20T23:01:18+00:00,SAT-45237,206.6639064471832,31.887138664285093,1428.2492472481292,-6.421558442464128,224910.13982037312,10.5,10500224910.13982,47.655,-122.3035,60.0,1.3
2026-01-20T23:01:19+00:00,SAT-45237,206.55798689495245,31.997128120669448,1421.8448129615117,-6.4167068353994265,224740.21601868977,10.5,10500224740.216019,47.655,-122.3035,60.0,1.3166666666666667
2026-01-20T23:01:20+00:00,SAT-45237,206.45109464570731,32.107811357979024,1415.4452173443399,-6.41178182062161,224567.72116837878,10.5,10500224567.721169,47.655,-122.3035,60.0,1.3333333333333333
2026-01-20T23:01:21+00:00,SAT-45237,206.3432135817774,32.21919601833664,1409.0505336085732,-6.406782165413898,224392.61209448415,10.5,10500224392.612095,47.655,-122.3035,60.0,1.35
2026-01-20T23:01:22+00:00,SAT-45237,206.2343272357264,32.331289831924785,1402.6608361956007,-6.401706599631924,224214.8443111774,10.5,10500224214.84431,47.655,-122.3035,60.0,1.3666666666666667
2026-01-20T23:01:23+00:00,SAT-45237,206.12441878127228,32.444100617227015,1396.2762008135678,-6.39655378841715,224034.3710660662,10.5,10500224034.371065,47.655,-122.3035,60.0,1.3833333333333333
2026-01-20T23:01:24+00:00,SAT-45237,206.01347102439178,32.55763628074402,1389.8967045019197,-6.391322435485941,223851.14695781434,10.5,10500223851.146957,47.655,-122.3035,60.0,1.4
2026-01-20T23:01:25+00:00,SAT-45237,205.90146639241584,32.67190481852601,1383.5224255929284,-6.3860111785478395,223665.12427324743,10.5,10500223665.124273,47.655,-122.3035,60.0,1.4166666666666667
2026-01-20T23:01:26+00:00,SAT-45237,205.78838692453627,32.786914315807806,1377.1534437775233,-6.380618626635069,223476.25429479027,10.5,10500223476.254295,47.655,-122.3035,60.0,1.4333333333333333
2026-01-20T23:01:27+00:00,SAT-45237,205.6742142613484,32.90267294726246,1370.7898401338925,-6.375143348401795,223284.48689065705,10.5,10500223284.48689,47.655,-122.3035,60.0,1.45
2026-01-20T23:01:28+00:00,SAT-45237,205.5589296342966,33.019188976995444,1364.4316971677533,-6.369583921488015,223089.77224378393,10.5,10500223089.772243,47.655,-122.3035,60.0,1.4666666666666666
2026-01-20T23:01:29+00:00,SAT-45237,205.44251385389433,33.136470759418,1358.0790988033891,-6.363938887667895,222892.05928093393,10.5,10500222892.05928,47.655,-122.3035,60.0,1.4833333333333334
2026-01-20T23:01:30+00:00,SAT-45237,205.32494729836128,33.254526739255475,1351.7321304194218,-6.35820669085077,222691.29350122972,10.5,10500222691.2935,47.655,-122.3035,60.0,1.5
2026-01-20T23:01:31+00:00,SAT-45237,205.2062099029463,33.37336545030752,1345.3908789464133,-6.352385831518969,222487.42238521948,10.5,10500222487.422386,47.655,-122.3035,60.0,1.5166666666666666
2026-01-20T23:01:32+00:00,SAT-45237,205.08628114621877,33.492995517079876,1339.055432810445,-6.346474733144784,222280.3907162342,10.5,10500222280.390717,47.655,-122.3035,60.0,1.5333333333333334
2026-01-20T23:01:33+00:00,SAT-45237,204.9651400382336,33.61342565383291,1332.7258820099219,-6.340471785783533,222070.142107201,10.5,10500222070.142107,47.655,-122.3035,60.0,1.55
2026-01-20T23:01:34+00:00,SAT-45237,204.84276510757456,33.73466466438283,1326.4023181489006,-6.334375333896616,221856.6185741553,10.5,10500221856.618574,47.655,-122.3035,60.0,1.5666666666666667
2026-01-20T23:01:35+00:00,SAT-45237,204.71913438814818,33.85672144158924,1320.0848344825608,-6.3281837367534335,221639.7626517711,10.5,10500221639.762651,47.655,-122.3035,60.0,1.5833333333333333
2026-01-20T23:01:36+00:00,SAT-45237,204.5942254044687,33.97960496796682,1313.7735259024387,-6.32189526768291,221419.5138647236,10.5,10500221419.513865,47.655,-122.3035,60.0,1.6
2026-01-20T23:01:37+00:00,SAT-45237,204.46801515827045,34.10332431423285,1307.4684890221365,-6.315508169088802,221195.81065455763,10.5,10500221195.810654,47.655,-122.3035,60.0,1.6166666666666667
2026-01-20T23:01:38+00:00,SAT-45237,204.34048011370427,34.22788863884182,1301.1698222081652,-6.309020672705806,220968.5910891426,10.5,10500220968.59109,47.655,-122.3035,60.0,1.6333333333333333
2026-01-20T23:01:39+00:00,SAT-45237,204.21159618159754,34.35330718784032,1294.8776255905866,-6.302430950485203,220737.79114247972,10.5,10500220737.791143,47.655,-122.3035,60.0,1.65
2026-01-20T23:01:40+00:00,SAT-45237,204.08133870416324,34.479589293648246,1288.592001122636,-6.29573714471323,220503.34574957492,10.5,10500220503.345749,47.655,-122.3035,60.0,1.6666666666666667
2026-01-20T23:01:41+00:00,SAT-45237,203.94968243857682,34.60674437432323,1282.3130526103087,-6.288937330945348,220265.18750823996,10.5,10500220265.187508,47.655,-122.3035,60.0,1.6833333333333333
2026-01-20T23:01:42+00:00,SAT-45237,203.8166015407709,34.734781931964115,1276.0408857789125,-6.282029597021197,220023.24944653065,10.5,10500220023.249447,47.655,-122.3035,60.0,1.7
2026-01-20T23:01:43+00:00,SAT-45237,203.6820695470468,34.863711552614056,1269.7756082608166,-6.275011934518251,219777.46122099453,10.5,10500219777.461222,47.655,-122.3035,60.0,1.7166666666666666
2026-01-20T23:01:44+00:00,SAT-45237,203.54605935730535,34.993542903800844,1263.517329691457,-6.267882318299152,219527.75190275497,10.5,10500219527.751904,47.655,-122.3035,60.0,1.7333333333333334
2026-01-20T23:01:45+00:00,SAT-45237,203.408543216034,35.12428573357223,1257.2661617260069,-6.260638679566139,219274.04903376338,10.5,10500219274.049034,47.655,-122.3035,60.0,1.75
2026-01-20T23:01:46+00:00,SAT-45237,203.26949269324558,35.255949868844525,1251.0222180829194,-6.253278880994875,219016.27775588067,10.5,10500219016.277756,47.655,-122.3035,60.0,1.7666666666666666
2026-01-20T23:01:47+00:00,SAT-45237,203.12887866522706,35.388545213033375,1244.7856146122738,-6.245800772457958,218754.3627625501,10.5,10500218754.362762,47.655,-122.3035,60.0,1.7833333333333334
2026-01-20T23:01:48+00:00,SAT-45237,202.98667129350704,35.52208174473873,1238.5564693085425,-6.23820213900099,218488.2264766994,10.5,10500218488.226477,47.655,-122.3035,60.0,1.8
2026-01-20T23:01:49+00:00,SAT-45237,202.8428400041484,35.65656951511869,1232.3349023752455,-6.2304807011309995,218217.78906084254,10.5,10500218217.78906,47.655,-122.3035,60.0,1.8166666666666667
2026-01-20T23:01:50+00:00,SAT-45237,202.6973534663763,35.792018645072154,1226.1210362893175,-6.222634161079436,217942.97003740526,10.5,10500217942.970037,47.655,-122.3035,60.0,1.8333333333333333
2026-01-20T23:01:51+00:00,SAT-45237,202.55017956939133,35.928439323230734,1219.9149958193343,-6.214660149591297,217663.68642505552,10.5,10500217663.686424,47.655,-122.3035,60.0,1.85
2026-01-20T23:01:52+00:00,SAT-45237,202.40128539962265,36.06584180258758,1213.7169080968088,-6.206556253525285,217379.85370537738,10.5,10500217379.853704,47.655,-122.3035,60.0,1.8666666666666667
2026-01-20T23:01:53+00:00,SAT-45237,202.2506372164855,36.204236397468776,1207.5269026599594,-6.198319982596399,217091.3846580563,10.5,10500217091.384659,47.655,-122.3035,60.0,1.8833333333333333
2026-01-20T23:01:54+00:00,SAT-45237,202.09820042814385,36.34363347954019,1201.34511153065,-6.189948846809331,216798.1920729239,10.5,10500216798.192074,47.655,-122.3035,60.0,1.9
2026-01-20T23:01:55+00:00,SAT-45237,201.9439395645351,36.48404347530324,1195.1716692140988,-6.181440238032576,216500.18460218253,10.5,10500216500.184603,47.655,-122.3035,60.0,1.9166666666666667
2026-01-20T23:01:56+00:00,SAT-45237,201.7878182523035,36.625476860621006,1189.0067128167009,-6.172791505678966,216197.2694110575,10.5,10500216197.269411,47.655,-122.3035,60.0,1.9333333333333333
2026-01-20T23:01:57+00:00,SAT-45237,201.62979918701726,36.767944156652106,1182.8503820883705,-6.163999978402334,215889.35293770634,10.5,10500215889.352938,47.655,-122.3035,60.0,1.95
2026-01-20T23:01:58+00:00,SAT-45237,201.46984410388922,36.911455926029355,1176.7028194432437,-6.15506289145055,215576.33834881455,10.5,10500215576.338348,47.655,-122.3035,60.0,1.9666666666666666
2026-01-20T23:01:59+00:00,SAT-45237,201.30791374921495,37.05602276698462,1170.5641700528372,-6.145977413654017,215258.126484847,10.5,10500215258.126484,47.655,-122.3035,60.0,1.9833333333333334
2026-01-20T23:02:00+00:00,SAT-45237,201.14396785017723,37.20165530775591,1164.4345819122861,-6.1367406610774795,214934.616338192,10.5,10500214934.616339,47.655,-122.3035,60.0,2.0
2026-01-20T23:02:01+00:00,SAT-45237,200.9779650832033,37.34836420094409,1158.3142058929716,-6.127349706504158,214605.70538533584,10.5,10500214605.705385,47.655,-122.3035,60.0,2.0166666666666666
2026-01-20T23:02:02+00:00,SAT-45237,200.8098630409764,37.49616011772798,1152.2031957856848,-6.11780149251417,214271.28654250127,10.5,10500214271.286543,47.655,-122.3035,60.0,2.033333333333333
2026-01-20T23:02:03+00:00,SAT-45237,200.63961820051043,37.645053739510345,1146.101708430484,-6.108092994887457,213931.2538887096,10.5,10500213931.25389,47.655,-122.3035,60.0,2.05
2026-01-20T23:02:04+00:00,SAT-45237,200.46718588581385,37.79505575316816,1140.0099036835827,-6.098221003496549,213585.4949917178,10.5,10500213585.494991,47.655,-122.3035,60.0,2.066666666666667
2026-01-20T23:02:05+00:00,SAT-45237,200.29252023504787,37.946176840382506,1133.9279446027624,-6.08818234300174,213233.89863769777,10.5,10500213233.898638,47.655,-122.3035,60.0,2.0833333333333335
2026-01-20T23:02:06+00:00,SAT-45237,200.115574160571,38.09842767198629,1127.8559974126754,-6.077973675536671,212876.3479204505,10.5,10500212876.347921,47.655,-122.3035,60.0,2.1
2026-01-20T23:02:07+00:00,SAT-45237,199.93629931295578,38.25181889680948,1121.79423166694,-6.067591668464698,212512.72611694364,10.5,10500212512.726116,47.655,-122.3035,60.0,2.1166666666666667
2026-01-20T23:02:08+00:00,SAT-45237,199.75464603907182,38.40636113423937,1115.7428202429246,-6.057032859928454,212142.91197828855,10.5,10500212142.911978,47.655,-122.3035,60.0,2.1333333333333333
2026-01-20T23:02:09+00:00,SAT-45237,199.57056334243467,38.56206496273692,1109.7019394706226,-6.046293711039191,211766.7815576318,10.5,10500211766.781557,47.655,-122.3035,60.0,2.15
2026-01-20T23:02:10+00:00,SAT-45237,199.38399884073374,38.71894090905443,1103.6717692094794,-6.035370660347908,211384.21011796448,10.5,10500211384.210117,47.655,-122.3035,60.0,2.1666666666666665
2026-01-20T23:02:11+00:00,SAT-45237,199.19489872014537,38.87699943824123,1097.6524928708927,-6.024259976838458,210995.0669833189,10.5,10500210995.066984,47.655,-122.3035,60.0,2.183333333333333
2026-01-20T23:02:12+00:00,SAT-45237,199.00320769248987,39.03625093905389,1091.6442975873256,-6.012957908554133,210599.2207443004,10.5,10500210599.220745,47.655,-122.3035,60.0,2.2
2026-01-20T23:02:13+00:00,SAT-45237,198.8088689463344,39.196705712545764,1085.6473742331943,-6.001460624089755,210196.53720889275,10.5,10500210196.537209,47.655,-122.3035,60.0,2.216666666666667
2026-01-20T23:02:14+00:00,SAT-45237,198.61182409816132,39.35837395836331,1079.6619175041021,-5.989764168188129,209786.87784725844,10.5,10500209786.877848,47.655,-122.3035,60.0,2.2333333333333334
2026-01-20T23:02:15+00:00,SAT-45237,198.41201314317115,39.521265758957654,1073.6881260403625,-5.977864502606509,209370.1012230546,10.5,10500209370.101223,47.655,-122.3035,60.0,2.25
2026-01-20T23:02:16+00:00,SAT-45237,198.2093744031282,39.68539106402536,1067.726202509763,-5.96575751864332,208946.06343217235,10.5,10500208946.063433,47.655,-122.3035,60.0,2.2666666666666666
2026-01-20T23:02:17+00:00,SAT-45237,198.0038444719153,39.85075967436945,1061.776353677836,-5.953439020355732,208514.6175149449,10.5,10500208514.617516,47.655,-122.3035,60.0,2.283333333333333
2026-01-20T23:02:18+00:00,SAT-45237,197.79535815973088,40.01738122433693,1055.838790494868,-5.940904674808871,208075.61171366472,10.5,10500208075.611713,47.655,-122.3035,60.0,2.3
2026-01-20T23:02:19+00:00,SAT-45237,197.5838484369837,40.185265161750934,1049.9137282325253,-5.928150084497023,207628.8920090803,10.5,10500207628.89201,47.655,-122.3035,60.0,2.316666666666667
2026-01-20T23:02:20+00:00,SAT-45237,197.36924637387736,40.354420728831606,1044.0013865482535,-5.915170757108237,207174.3010614246,10.5,10500207174.301062,47.655,-122.3035,60.0,2.3333333333333335
2026-01-20T23:02:21+00:00,SAT-45237,197.1514810788198,40.5248569410726,1038.1019895798308,-5.901962089499006,206711.67764914074,10.5,10500206711.677649,47.655,-122.3035,60.0,2.35
2026-01-20T23:02:22+00:00,SAT-45237,196.93047963535042,40.69658256443532,1032.215766055904,-5.888519365001853,206240.8565745822,10.5,10500206240.856575,47.655,-122.3035,60.0,2.3666666666666667
2026-01-20T23:02:23+00:00,SAT-45237,196.7061670369875,40.86960609112804,1026.3429494092088,-5.874837772512289,205761.66933251882,10.5,10500205761.669333,47.655,-122.3035,60.0,2.3833333333333333
2026-01-20T23:02:24+00:00,SAT-45237,196.47846611920846,41.043935714591626,1020.4837778707565,-5.860912402823777,205273.94398177174,10.5,10500205273.943981,47.655,-122.3035,60.0,2.4
2026-01-20T23:02:25+00:00,SAT-45237,196.24729748921212,41.21957930290631,1014.6384945676735,-5.846738227692006,204777.50441195577,10.5,10500204777.504412,47.655,-122.3035,60.0,2.4166666666666665
2026-01-20T23:02:26+00:00,SAT-45237,196.0125794541663,41.396544370063275,1008.8073476419221,-5.8323100914359225,204272.17004931188,10.5,10500204272.17005,47.655,-122.3035,60.0,2.433333333333333
2026-01-20T23:02:27+00:00,SAT-45237,195.77422794738987,41.57483804530485,1002.9905903773965,-5.81762276533364,203757.75776188212,10.5,10500203757.757761,47.655,-122.3035,60.0,2.45
2026-01-20T23:02:28+00:00,SAT-45237,195.53215645003357,41.754467042475476,997.1884812727706,-5.80267083841553,203234.07803462175,10.5,10500203234.078035,47.655,-122.3035,60.0,2.466666666666667
2026-01-20T23:02:29+00:00,SAT-45237,195.28627591452178,41.935437624113675,991.4012842232574,-5.787448882853809,202700.9407620421,10.5,10500202700.940762,47.655,-122.3035,60.0,2.4833333333333334
2026-01-20T23:02:30+00:00,SAT-45237,195.03649467891762,42.11775556891657,985.6292685374245,-5.771951218385014,202158.1469972892,10.5,10500202158.146997,47.655,-122.3035,60.0,2.5
2026-01-20T23:02:31+00:00,SAT-45237,194.78271838822403,42.30142612961117,979.8727091889552,-5.756172163290136,201605.4977425297,10.5,10500201605.497742,47.655,-122.3035,60.0,2.5166666666666666
2026-01-20T23:02:32+00:00,SAT-45237,194.52484990287718,42.4864539968194,974.1318868181006,-5.740105845266743,201042.78732489262,10.5,10500201042.787325,47.655,-122.3035,60.0,2.533333333333333
2026-01-20T23:02:33+00:00,SAT-45237,194.26278921236215,42.672843254563126,968.4070879217545,-5.723746294835694,200469.80666796758,10.5,10500200469.806667,47.655,-122.3035,60.0,2.55
2026-01-20T23:02:34+00:00,SAT-45237,193.9964333423111,42.86059733646485,962.6986049503716,-5.707087353295564,199886.34006797936,10.5,10500199886.340069,47.655,-122.3035,60.0,2.566666666666667
2026-01-20T23:02:35+00:00,SAT-45237,193.72567626302126,43.04971897635669,957.006736496685,-5.690122830245603,199292.17071090837,10.5,10500199292.170712,47.655,-122.3035,60.0,2.5833333333333335
2026-01-20T23:02:36+00:00,SAT-45237,193.4504087882559,43.24021016163569,951.33178732732,-5.67284630121556,198687.0735846309,10.5,10500198687.073586,47.655,-122.3035,60.0,2.6
2026-01-20T23:02:37+00:00,SAT-45237,193.17051848049667,43.43207207695402,945.674068616241,-5.655251291252312,198070.82190889964,10.5,10500198070.821909,47.655,-122.3035,60.0,2.6166666666666667
2026-01-20T23:02:38+00:00,SAT-45237,192.88588954523465,43.625305051351255,940.0338979950988,-5.637331107365148,197443.18126686852,10.5,10500197443.181267,47.655,-122.3035,60.0,2.6333333333333333
2026-01-20T23:02:39+00:00,SAT-45237,192.59640273044872,43.819908496479975,934.4115997706865,-5.619078991568023,196803.9149652799,10.5,10500196803.914965,47.655,-122.3035,60.0,2.65
2026-01-20T23:02:40+00:00,SAT-45237,192.30193521631116,44.01588084703699,928.8075049897627,-5.600487998118305,196152.77973484644,10.5,10500196152.779736,47.655,-122.3035,60.0,2.6666666666666665
2026-01-20T23:02:41+00:00,SAT-45237,192.00236050825671,44.21321949345557,923.221951626306,-5.581551020160961,195489.52666344293,10.5,10500195489.526663,47.655,-122.3035,60.0,2.683333333333333
2026-01-20T23:02:42+00:00,SAT-45237,191.69754832665436,44.41192071202255,917.6552847421988,-5.562260876064046,194813.90421994033,10.5,10500194813.90422,47.655,-122.3035,60.0,2.7
2026-01-20T23:02:43+00:00,SAT-45237,191.387364489534,44.61197959437076,912.1078565618043,-5.542610174040511,194125.653512689,10.5,10500194125.653513,47.655,-122.3035,60.0,2.716666666666667
2026-01-20T23:02:44+00:00,SAT-45237,191.07167080029086,44.81338996820172,906.5800266815612,-5.522591388605808,193424.51096738726,10.5,10500193424.510967,47.655,-122.3035,60.0,2.7333333333333334
2026-01-20T23:02:45+00:00,SAT-45237,190.75032492955486,45.01614431669647,901.072162203325,-5.502196847265705,192710.20786083254,10.5,10500192710.20786,47.655,-122.3035,60.0,2.75
2026-01-20T23:02:46+00:00,SAT-45237,190.42318029591058,45.22023369312131,895.5846378809854,-5.481418740081748,191982.47065594405,10.5,10500191982.470655,47.655,-122.3035,60.0,2.7666666666666666
2026-01-20T23:02:47+00:00,SAT-45237,190.09008594459635,45.42564763137615,890.1178362575438,-5.460249060492616,191241.01892907682,10.5,10500191241.018929,47.655,-122.3035,60.0,2.783333333333333
2026-01-20T23:02:48+00:00,SAT-45237,189.75088642842678,45.632374049541234,884.6721478612125,-5.438679727874639,190485.56966260876,10.5,10500190485.569662,47.655,-122.3035,60.0,2.8
2026-01-20T23:02:49+00:00,SAT-45237,189.40542168058963,45.84039915329379,879.2479712792789,-5.416702391701457,189715.83038578407,10.5,10500189715.830385,47.655,-122.3035,60.0,2.816666666666667
2026-01-20T23:02:50+00:00,SAT-45237,189.05352689871762,46.049707326528626,873.8457134272886,-5.394308644442742,188931.50663132692,10.5,10500188931.506632,47.655,-122.3035,60.0,2.8333333333333335
2026-01-20T23:02:51+00:00,SAT-45237,188.69503241606006,46.26028102499682,868.4657896058977,-5.3714898779092906,188132.2969040387,10.5,10500188132.296904,47.655,-122.3035,60.0,2.85
2026-01-20T23:02:52+00:00,SAT-45237,188.32976358177532,46.47210065872055,863.1086237009962,-5.348237321935518,187317.89403562294,10.5,10500187317.894035,47.655,-122.3035,60.0,2.8666666666666667
2026-01-20T23:02:53+00:00,SAT-45237,187.95754064008258,46.68514447011682,857.7746483452524,-5.324542056818905,186487.9856203671,10.5,10500186487.98562,47.655,-122.3035,60.0,2.8833333333333333
2026-01-20T23:02:54+00:00,SAT-45237,187.57817861021695,46.899388406567496,852.4643050672518,-5.300395018686298,185642.25420309315,10.5,10500185642.254204,47.655,-122.3035,60.0,2.9
2026-01-20T23:02:55+00:00,SAT-45237,187.19148716845223,47.11480598699686,847.178044435282,-5.27578696185222,184780.37596078656,10.5,10500184780.375961,47.655,-122.3035,60.0,2.9166666666666665
2026-01-20T23:02:56+00:00,SAT-45237,186.79727053598964,47.33136816035425,841.9163262386614,-5.250708474517786,183902.02125243843,10.5,10500183902.021252,47.655,-122.3035,60.0,2.933333333333333
2026-01-20T23:02:57+00:00,SAT-45237,186.39532737021932,47.549043158010164,836.679619653409,-5.225150046316412,183006.8569847822,10.5,10500183006.856985,47.655,-122.3035,60.0,2.95
2026-01-20T23:02:58+00:00,SAT-45237,185.98545065615573,47.76779634207447,831.4684033405495,-5.199101938826912,182094.54207711449,10.5,10500182094.542078,47.655,-122.3035,60.0,2.966666666666667
2026-01-20T23:02:59+00:00,SAT-45237,185.56742761405792,47.98759004104711,826.2831656735593,-5.172554299331255,181164.73144557283,10.5,10500181164.731445,47.655,-122.3035,60.0,2.9833333333333334
2026-01-20T23:03:00+00:00,SAT-45237,185.14103960644738,48.2083833829015,821.1244048523597,-5.145497109765155,180217.07421516965,10.5,10500180217.074215,47.655,-122.3035,60.0,3.0
2026-01-20T23:03:01+00:00,SAT-45237,184.70606205837018,48.43013211845102,815.9926290682205,-5.117920222640955,179251.2149779633,10.5,10500179251.214977,47.655,-122.3035,60.0,3.0166666666666666
2026-01-20T23:03:02+00:00,SAT-45237,184.26226438567218,48.652788438490866,810.88835663284,-5.0898132991213005,178266.7916241364,10.5,10500178266.791624,47.655,-122.3035,60.0,3.033333333333333
2026-01-20T23:03:03+00:00,SAT-45237,183.8094099414291,48.876300780306785,805.8121161691829,-5.061165894934323,177263.43835110887,10.5,10500177263.43835,47.655,-122.3035,60.0,3.05
2026-01-20T23:03:04+00:00,SAT-45237,183.34725597003953,49.10061362992294,800.7644467166351,-5.031967424483803,176240.7844065241,10.5,10500176240.784407,47.655,-122.3035,60.0,3.066666666666667
2026-01-20T23:03:05+00:00,SAT-45237,182.87555358135742,49.32566731464874,795.74589787195,-5.002207121084521,175198.4526955227,10.5,10500175198.452696,47.655,-122.3035,60.0,3.0833333333333335
2026-01-20T23:03:06+00:00,SAT-45237,182.39404774821367,49.55139778550292,790.757029969855,-4.971874142783023,174136.06348703324,10.5,10500174136.063486,47.655,-122.3035,60.0,3.1
2026-01-20T23:03:07+00:00,SAT-45237,181.90247731669314,49.77773639630761,785.7984141581194,-4.940957497475631,173053.2317910884,10.5,10500173053.23179,47.655,-122.3035,60.0,3.1166666666666667
2026-01-20T23:03:08+00:00,SAT-45237,181.4005750483988,50.004609671052634,780.8706325473037,-4.909446033717025,171949.56703690247,10.5,10500171949.567038,47.655,-122.3035,60.0,3.1333333333333333
2026-01-20T23:03:09+00:00,SAT-45237,180.88806769274225,50.231939062637835,775.9742783696765,-4.877328548823554,170824.67685910672,10.5,10500170824.676859,47.655,-122.3035,60.0,3.15
2026-01-20T23:03:10+00:00,SAT-45237,180.36467608056535,50.459640708710126,771.1099560303165,-4.8445936982648865,169678.16392426158,10.5,10500169678.163925,47.655,-122.3035,60.0,3.1666666666666665
2026-01-20T23:03:11+00:00,SAT-45237,179.83011526277542,50.68762517544621,766.2782812485805,-4.811230029032452,168509.6270995608,10.5,10500168509.6271,47.655,-122.3035,60.0,3.183333333333333
2026-01-20T23:03:12+00:00,SAT-45237,179.28409468608396,50.91579719535686,761.479881166292,-4.777226018104562,167318.6628000425,10.5,10500167318.6628,47.655,-122.3035,60.0,3.2
2026-01-20T23:03:13+00:00,SAT-45237,178.72631840942475,51.14405539991357,756.7153944175691,-4.742570060236305,166104.8645609397,10.5,10500166104.864561,47.655,-122.3035,60.0,3.216666666666667
2026-01-20T23:03:14+00:00,SAT-45237,178.15648537116465,51.37229204499701,751.9854712108267,-4.7072504624766145,164867.82284564496,10.5,10500164867.822845,47.655,-122.3035,60.0,3.2333333333333334
2026-01-20T23:03:15+00:00,SAT-45237,177.5742897120968,51.60039273014281,747.29077341625,-4.6712554713558685,163607.12599793493,10.5,10500163607.125998,47.655,-122.3035,60.0,3.25
2026-01-20T23:03:16+00:00,SAT-45237,176.9794211559837,51.82823611390499,742.6319746261512,-4.634573306195248,162322.36140860524,10.5,10500162322.361408,47.655,-122.3035,60.0,3.2666666666666666
2026-01-20T23:03:17+00:00,SAT-45237,176.37156545250159,52.05569362675033,738.0097601821057,-4.597192138753934,161013.11480262893,10.5,10500161013.114803,47.655,-122.3035,60.0,3.283333333333333
2026-01-20T23:03:18+00:00,SAT-45237,175.75040489542604,52.28262917975731,733.4248272223884,-4.559100116328964,159678.97104821136,10.5,10500159678.971048,47.655,-122.3035,60.0,3.3
2026-01-20T23:03:19+00:00,SAT-45237,175.11561891763,52.508898872681186,728.8778847063697,-4.520285372554395,158319.51453502255,10.5,10500158319.514536,47.655,-122.3035,60.0,3.316666666666667
2026-01-20T23:03:20+00:00,SAT-45237,174.46688477126574,52.73435070220693,724.3696534281422,-4.480736083806456,156934.33114974422,10.5,10500156934.33115,47.655,-122.3035,60.0,3.3333333333333335
2026-01-20T23:03:21+00:00,SAT-45237,173.80387829383247,52.95882427459705,719.9008659738925,-4.440440430019042,155523.0069036625,10.5,10500155523.006905,47.655,-122.3035,60.0,3.35
2026-01-20T23:03:22+00:00,SAT-45237,173.1262747806895,53.182150519653945,715.4722667183535,-4.399386638694404,154085.12947410851,10.5,10500154085.129475,47.655,-122.3035,60.0,3.3666666666666667
2026-01-20T23:03:23+00:00,SAT-45237,172.43374996043056,53.40415141267624,711.0846117773623,-4.3575629960403965,152620.28859453218,10.5,10500152620.288595,47.655,-122.3035,60.0,3.3833333333333333
2026-01-20T23:03:24+00:00,SAT-45237,171.72598108512264,53.624639705137874,706.7386689493113,-4.314957906342754,151128.07813397,10.5,10500151128.078135,47.655,-122.3035,60.0,3.4
2026-01-20T23:03:25+00:00,SAT-45237,171.0026481353029,53.843418669593696,702.4352175973855,-4.271559860500056,149608.0949950068,10.5,10500149608.094995,47.655,-122.3035,60.0,3.4166666666666665
2026-01-20T23:03:26+00:00,SAT-45237,170.26343516138226,54.06028185710449,698.1750485631801,-4.227357479622247,148059.94064078023,10.5,10500148059.940641,47.655,-122.3035,60.0,3.433333333333333
2026-01-20T23:03:27+00:00,SAT-45237,169.50803175716933,54.27501287473168,693.9589640368368,-4.182339553929912,146483.22245739776,10.5,10500146483.222458,47.655,-122.3035,60.0,3.45
2026-01-20T23:03:28+00:00,SAT-45237,168.7361346721564,54.4873851866519,689.7877773883841,-4.136495051276987,144877.55405243838,10.5,10500144877.554052,47.655,-122.3035,60.0,3.466666666666667
2026-01-20T23:03:29+00:00,SAT-45237,167.94744957380684,54.697161941587844,685.6623129905772,-4.0898131653718,143242.55694385717,10.5,10500143242.556944,47.655,-122.3035,60.0,3.4833333333333334
2026-01-20T23:03:30+00:00,SAT-45237,167.14169295753146,54.904095833166984,681.5834059936464,-4.042283313473181,141577.8604792933,10.5,10500141577.86048,47.655,-122.3035,60.0,3.5
2026-01-20T23:03:31+00:00,SAT-45237,166.31859421764796,55.10792899555771,677.5519021023424,-3.9938951805660663,139883.10338328689,10.5,10500139883.103384,47.655,-122.3035,60.0,3.5166666666666666
2026-01-20T23:03:32+00:00,SAT-45237,165.47789787304745,55.30839294205161,673.5686573089246,-3.9446387864959362,138157.9361086106,10.5,10500138157.93611,47.655,-122.3035,60.0,3.533333333333333
2026-01-20T23:03:33+00:00,SAT-45237,164.6193659424382,55.505208553570235,669.6345375591926,-3.894504451200482,136402.01961853576,10.5,10500136402.019619,47.655,-122.3035,60.0,3.55
2026-01-20T23:03:34+00:00,SAT-45237,163.7427804885232,55.69808611739204,665.7504184531954,-3.8434828833399575,134615.02849104215,10.5,10500134615.028492,47.655,-122.3035,60.0,3.566666666666667
2026-01-20T23:03:35+00:00,SAT-45237,162.84794630144873,55.88672542912931,661.9171848575443,-3.7915651896286016,132796.65124564382,10.5,10500132796.651245,47.655,-122.3035,60.0,3.5833333333333335
2026-01-20T23:03:36+00:00,SAT-45237,161.93469373046636,56.070815959781264,658.1357305084213,-3.7387429366777423,130946.59250939627,10.5,10500130946.59251,47.655,-122.3035,60.0,3.6
2026-01-20T23:03:37+00:00,SAT-45237,161.00288164150217,56.25003709745042,654.4069575529081,-3.6850081412816853,129064.57267666719,10.5,10500129064.572678,47.655,-122.3035,60.0,3.6166666666666667
2026-01-20T23:03:38+00:00,SAT-45237,160.05240050316502,56.424058466227905,650.7317761000031,-3.6303533611564123,127150.33108718942,10.5,10500127150.331087,47.655,-122.3035,60.0,3.6333333333333333
2026-01-20T23:03:39+00:00,SAT-45237,159.08317555866327,56.592540334263546,647.1111036811432,-3.574771712899689,125203.62665509996,10.5,10500125203.626656,47.655,-122.3035,60.0,3.65
2026-01-20T23:03:40+00:00,SAT-45237,158.0951700774515,56.75513411314216,643.5458646928112,-3.5182569178463354,123224.23947498547,10.5,10500123224.239475,47.655,-122.3035,60.0,3.6666666666666665
2026-01-20T23:03:41+00:00,SAT-45237,157.08838865226102,56.911482956246694,640.0369897934125,-3.4608033280341943,121211.97173132033,10.5,10500121211.971731,47.655,-122.3035,60.0,3.683333333333333
2026-01-20T23:03:42+00:00,SAT-45237,156.06288051414228,57.06122246036778,636.585415274253,-3.4024059856310225,119166.64977984781,10.5,10500119166.64978,47.655,-122.3035,60.0,3.7
2026-01-20T23:03:43+00:00,SAT-45237,155.01874281848333,57.2039814770933,633.1920823712504,-3.343060665459916,117088.12563700024,10.5,10500117088.125637,47.655,-122.3035,60.0,3.716666666666667
2026-01-20T23:03:44+00:00,SAT-45237,153.9561238631293,57.33938303687037,629.8579365342316,-3.2827639221366893,114976.27863084947,10.5,10500114976.278631,47.655,-122.3035,60.0,3.7333333333333334
2026-01-20T23:03:45+00:00,SAT-45237,152.87522618921338,57.46704538883648,626.5839266492206,-3.2215131198280487,112831.016443364,10.5,10500112831.016443,47.655,-122.3035,60.0,3.75
2026-01-20T23:03:46+00:00,SAT-45237,151.7763095178459,57.58658315710021,623.3710042310455,-3.159306488379638,110652.27707625051,10.5,10500110652.277077,47.655,-122.3035,60.0,3.7666666666666666
2026-01-20T23:03:47+00:00,SAT-45237,150.65969345796535,57.69760861465781,620.2201225599681,-3.0961431652041473,108440.03031805273,10.5,10500108440.030317,47.655,-122.3035,60.0,3.783333333333333
2026-01-20T23:03:48+00:00,SAT-45237,149.5257599298749,57.79973307260198,617.1322357765379,-3.03202324462958,106194.27947253626,10.5,10500106194.279472,47.655,-122.3035,60.0,3.8
2026-01-20T23:03:49+00:00,SAT-45237,148.37495523986172,57.89256838125235,614.1082979272273,-2.96694779347911,103915.06190436137,10.5,10500103915.061905,47.655,-122.3035,60.0,3.816666666666667
2026-01-20T23:03:50+00:00,SAT-45237,147.20779175591636,57.97572853637776,611.1492619945309,-2.900918964343359,101602.45300635704,10.5,10500101602.453007,47.655,-122.3035,60.0,3.8333333333333335
2026-01-20T23:03:51+00:00,SAT-45237,146.0248490844934,58.048831385901124,608.2560788140925,-2.833939934461503,99256.56405887895,10.5,10500099256.564058,47.655,-122.3035,60.0,3.85
2026-01-20T23:03:52+00:00,SAT-45237,144.82677475571967,58.11150042097353,605.4296960527895,-2.7660150496840554,96877.54727199502,10.5,10500096877.547272,47.655,-122.3035,60.0,3.8666666666666667
2026-01-20T23:03:53+00:00,SAT-45237,143.61428428031383,58.16336664566925,602.671057043238,-2.6971498022204616,94465.59500611201,10.5,10500094465.595007,47.655,-122.3035,60.0,3.8833333333333333
2026-01-20T23:03:54+00:00,SAT-45237,142.38816059347926,58.20407050493431,599.98109964049,-2.6273508625034614,92020.9408880004,10.5,10500092020.940887,47.655,-122.3035,60.0,3.9
2026-01-20T23:03:55+00:00,SAT-45237,141.1492528243751,58.23326385597265,597.3607550469532,-2.5566261834191213,89543.86346137091,10.5,10500089543.86346,47.655,-122.3035,60.0,3.9166666666666665
2026-01-20T23:03:56+00:00,SAT-45237,139.8984743234619,58.25061196477254,594.8109465333565,-2.4849849431140667,87034.68418374188,10.5,10500087034.684183,47.655,-122.3035,60.0,3.933333333333333
2026-01-20T23:03:57+00:00,SAT-45237,138.63680000192514,58.25579550397684,592.3325882167575,-2.4124376568080246,84493.77134258747,10.5,10500084493.771343,47.655,-122.3035,60.0,3.95
2026-01-20T23:03:58+00:00,SAT-45237,137.36526289660068,58.24851253237492,589.9265837270343,-2.338996143792193,81921.538899481,10.5,10500081921.5389,47.655,-122.3035,60.0,3.966666666666667
2026-01-20T23:03:59+00:00,SAT-45237,136.0849500376068,58.22848043052141,587.5938249062923,-2.2646735993814673,79318.44901016625,10.5,10500079318.44901,47.655,-122.3035,60.0,3.9833333333333334
2026-01-20T23:04:00+00:00,SAT-45237,134.79699758898516,58.1954377692831,585.335190436509,-2.1894845738615687,76685.01128719679,10.5,10500076685.011288,47.655,-122.3035,60.0,4.0
2026-01-20T23:04:01+00:00,SAT-45237,133.50258535007924,58.14914608675565,583.1515444881778,-2.113445031884049,74021.7848802004,10.5,10500074021.78488,47.655,-122.3035,60.0,4.016666666666667
2026-01-20T23:04:02+00:00,SAT-45237,132.20293062801198,58.0893915494127,581.0437353097121,-2.036572335224428,71329.37787199601,10.5,10500071329.377872,47.655,-122.3035,60.0,4.033333333333333
2026-01-20T23:04:03+00:00,SAT-45237,130.89928159365454,58.01598647521203,579.0125938340483,-1.9588852739252658,68608.44836935589,10.5,10500068608.44837,47.655,-122.3035,60.0,4.05
2026-01-20T23:04:04+00:00,SAT-45237,129.5929101760708,57.92877069668055,577.0589322541869,-1.880404043940213,65859.70372000564,10.5,10500065859.70372,47.655,-122.3035,60.0,4.066666666666666
2026-01-20T23:04:05+00:00,SAT-45237,128.28510462392643,57.82761274634708,575.1835426210305,-1.8011502807724358,63083.901690784274,10.5,10500063083.901691,47.655,-122.3035,60.0,4.083333333333333
2026-01-20T23:04:06+00:00,SAT-45237,126.97716180123265,57.71241084589981,573.3871954076734,-1.7211470291555009,60281.84940574042,10.5,10500060281.849405,47.655,-122.3035,60.0,4.1
2026-01-20T23:04:07+00:00,SAT-45237,125.67037937002229,57.583093687881444,571.670638103929,-1.640418743923953,57454.40337662366,10.5,10500057454.403378,47.655,-122.3035,60.0,4.116666666666666
2026-01-20T23:04:08+00:00,SAT-45237,124.36604795342625,57.43962099847334,570.0345938099888,-1.5589912644551358,54602.46860772904,10.5,10500054602.468607,47.655,-122.3035,60.0,4.133333333333334
2026-01-20T23:04:09+00:00,SAT-45237,123.06544341229605,57.281983876347404,568.4797598555723,-1.4768918148028494,51726.99860057827,10.5,10500051726.9986,47.655,-122.3035,60.0,4.15
2026-01-20T23:04:10+00:00,SAT-45237,121.76981932486584,57.110204902204316,567.0068064189421,-1.3941489454100746,48828.993312452796,10.5,10500048828.993313,47.655,-122.3035,60.0,4.166666666666667
2026-01-20T23:04:11+00:00,SAT-45237,120.48039982172888,56.92433802488745,565.6163752040533,-1.3107925203962973,45909.4987111421,10.5,10500045909.49871,47.655,-122.3035,60.0,4.183333333333334
2026-01-20T23:04:12+00:00,SAT-45237,119.19837283465033,56.724468224562166,564.309078130378,-1.2268536862836967,42969.60567960257,10.5,10500042969.60568,47.655,-122.3035,60.0,4.2
2026-01-20T23:04:13+00:00,SAT-45237,117.9248838540325,56.51071096112475,563.0854960539244,-1.1423648061382814,40010.447709301465,10.5,10500040010.44771,47.655,-122.3035,60.0,4.216666666666667
2026-01-20T23:04:14+00:00,SAT-45237,116.66103029917505,56.283211423388565,561.9461775539357,-1.0573594165020106,37033.199391797614,10.5,10500037033.199392,47.655,-122.3035,60.0,4.233333333333333
2026-01-20T23:04:15+00:00,SAT-45237,115.4078565357761,56.04214359024134,560.8916377625444,-0.9718721843648127,34039.07491171954,10.5,10500034039.074911,47.655,-122.3035,60.0,4.25
2026-01-20T23:04:16+00:00,SAT-45237,114.16634957447609,55.787709117591454,559.922357237338,-0.8859388288479826,31029.325303786718,10.5,10500031029.325304,47.655,-122.3035,60.0,4.266666666666667
2026-01-20T23:04:17+00:00,SAT-45237,112.93743551241772,55.52013607540712,559.0387809120335,-0.7995960643867993,28005.236462824534,10.5,10500028005.236464,47.655,-122.3035,60.0,4.283333333333333
2026-01-20T23:04:18+00:00,SAT-45237,111.72197670022089,55.23967754908624,558.2413171038186,-0.7128815315925,24968.126722258137,10.5,10500024968.126722,47.655,-122.3035,60.0,4.3
2026-01-20T23:04:19+00:00,SAT-45237,110.5207696354503,54.94661012599141,557.5303365896435,-0.625833708716711,21919.34375322232,10.5,10500021919.343754,47.655,-122.3035,60.0,4.316666666666666
2026-01-20T23:04:20+00:00,SAT-45237,109.33454359147375,54.64123229322697,556.9061717708167,-0.5384918416556733,18860.26211301343,10.5,10500018860.262114,47.655,-122.3035,60.0,4.333333333333333
2026-01-20T23:04:21+00:00,SAT-45237,108.16395991792068,54.32386276029071,556.3691159074056,-0.4508958613379131,15792.280351656103,10.5,10500015792.280352,47.655,-122.3035,60.0,4.35
2026-01-20T23:04:22+00:00,SAT-45237,107.00961197918815,53.994838726688336,555.9194224350312,-0.3630862849330515,12716.817551817932,10.5,10500012716.817553,47.655,-122.3035,60.0,4.366666666666666
2026-01-20T23:04:23+00:00,SAT-45237,105.87202571273424,53.65451412169996,555.5573043801912,-0.27510412953995234,9635.310305803288,10.5,10500009635.310307,47.655,-122.3035,60.0,4.383333333333334
2026-01-20T23:04:24+00:00,SAT-45237,104.75166072729529,53.30325782861147,555.2829338616634,-0.1869908243540223,6549.209639280633,10.5,10500006549.209639,47.655,-122.3035,60.0,4.4
2026-01-20T23:04:25+00:00,SAT-45237,103.64891185707262,52.94145190186443,555.0964416795076,-0.09878810284171616,3459.9772347775997,10.5,10500003459.977234,47.655,-122.3035,60.0,4.416666666666667
2026-01-20T23:04:26+00:00,SAT-45237,102.56411118014393,52.56948981275873,554.9979170116069,-0.010537912624976943,369.0822754528998,10.5,10500000369.082275,47.655,-122.3035,60.0,4.433333333333334
2026-01-20T23:04:27+00:00,SAT-45237,101.49753037119721,52.187774718189,554.9874072000822,0.0777176863625116,-2722.002121902519,10.5,10499997277.997879,47.655,-122.3035,60.0,4.45
2026-01-20T23:04:28+00:00,SAT-45237,100.44938335003373,51.79671777000048,555.0649176392811,0.16593662216709634,-5811.802419507537,10.5,10499994188.19758,47.655,-122.3035,60.0,4.466666666666667
2026-01-20T23:04:29+00:00,SAT-45237,99.41982918288294,51.39673648176283,555.2304117637891,0.25407690942649785,-8898.848112377222,10.5,10499991101.151888,47.655,-122.3035,60.0,4.483333333333333
2026-01-20T23:04:30+00:00,SAT-45237,98.40897515418236,50.98825315310669,555.4838111347905,0.3420967506377446,-11981.675275154248,10.5,10499988018.324724,47.655,-122.3035,60.0,4.5
2026-01-20T23:04:31+00:00,SAT-45237,97.41687996150087,50.571693360148245,555.8249956274265,0.42995463344333307,-15058.829969481743,10.5,10499984941.17003,47.655,-122.3035,60.0,4.516666666666667
2026-01-20T23:04:32+00:00,SAT-45237,96.44355699513808,50.14748452167264,556.2538037151807,0.5176094254421661,-18128.87156468341,10.5,10499981871.128435,47.655,-122.3035,60.0,4.533333333333333
2026-01-20T23:04:33+00:00,SAT-45237,95.48897765176505,49.71605454335608,556.7700328488216,0.6050204778177881,-21190.376367262634,10.5,10499978809.623632,47.655,-122.3035,60.0,4.55
2026-01-20T23:04:34+00:00,SAT-45237,94.55307462581747,49.27783053493929,557.3734399386985,0.6921477018754549,-24241.94030155447,10.5,10499975758.059698,47.655,-122.3035,60.0,4.566666666666666
2026-01-20T23:04:35+00:00,SAT-45237,93.63574518946037,48.83323762197804,558.0637419133691,0.7789516743373939,-27282.18259761103,10.5,10499972717.817402,47.655,-122.3035,60.0,4.583333333333333
2026-01-20T23:04:36+00:00,SAT-45237,92.73685437414863,48.38269782773852,558.8406163832415,0.8653937121566276,-30309.74841149803,10.5,10499969690.251589,47.655,-122.3035,60.0,4.6
2026-01-20T23:04:37+00:00,SAT-45237,91.85623807668715,47.92662904590364,559.7037023788324,0.9514359630886623,-33323.311997498466,10.5,10499966676.688002,47.655,-122.3035,60.0,4.616666666666666
2026-01-20T23:04:38+00:00,SAT-45237,90.9937060407168,47.46544409011184,560.6526011793528,1.0370414667488195,-36321.57884659861,10.5,10499963678.421154,47.655,-122.3035,60.0,4.633333333333334
2026-01-20T23:04:39+00:00,SAT-45237,90.14904472481197,46.99954983228971,561.6868772021903,1.1221742498750453,-39303.28902299461,10.5,10499960696.710978,47.655,-122.3035,60.0,4.65
2026-01-20T23:04:40+00:00,SAT-45237,89.32202000831876,46.52934640875494,562.806058987399,1.2067993818988851,-42267.21911042303,10.5,10499957732.78089,47.655,-122.3035,60.0,4.666666666666667
2026-01-20T23:04:41+00:00,SAT-45237,88.5123797614656,46.05522650974294,564.0096402376129,1.2908830249702525,-45212.18396423986,10.5,10499954787.816036,47.655,-122.3035,60.0,4.683333333333334
2026-01-20T23:04:42+00:00,SAT-45237,87.71985626757144,45.57757474677709,565.2970809078498,1.3743925208237504,-48137.03975384657,10.5,10499951862.960247,47.655,-122.3035,60.0,4.7
2026-01-20T23:04:43+00:00,SAT-45237,86.94416846825611,45.09676708005206,566.6678083819514,1.4572964164192477,-51040.684860731555,10.5,10499948959.31514,47.655,-122.3035,60.0,4.716666666666667
2026-01-20T23:04:44+00:00,SAT-45237,86.18502406940222,44.61317032399496,568.1212186745935,1.5395645242410743,-53922.06199040297,10.5,10499946077.93801,47.655,-122.3035,60.0,4.733333333333333
2026-01-20T23:04:45+00:00,SAT-45237,85.44212148212102,44.12714171262629,569.6566776934367,1.6211679445281897,-56780.15895098332,10.5,10499943219.84105,47.655,-122.3035,60.0,4.75
2026-01-20T23:04:46+00:00,SAT-45237,84.71515162034754,43.63902853213372,571.273522523446,1.7020791363142227,-59614.011141332114,10.5,10499940385.98886,47.655,-122.3035,60.0,4.766666666666667
2026-01-20T23:04:47+00:00,SAT-45237,84.00379953307186,43.14916780119109,572.9710627820635,1.782271896416585,-62422.70081515573,10.5,10499937577.299185,47.655,-122.3035,60.0,4.783333333333333
2026-01-20T23:04:48+00:00,SAT-45237,83.30774591724118,42.6578860210091,574.7485819534229,1.8617214274674678,-65205.35946374078,10.5,10499934794.640535,47.655,-122.3035,60.0,4.8
2026-01-20T23:04:49+00:00,SAT-45237,82.62666847394796,42.16549896445297,576.6053387904171,1.9404043212086597,-67961.16723086785,10.5,10499932038.83277,47.655,-122.3035,60.0,4.816666666666666
2026-01-20T23:04:50+00:00,SAT-45237,81.96024314953897,41.67231152309497,578.5405687001027,2.0182986000153886,-70689.35436715216,10.5,10499929310.645634,47.655,-122.3035,60.0,4.833333333333333
2026-01-20T23:04:51+00:00,SAT-45237,81.30814524291398,41.17861759220354,580.5534851705179,2.0953836853307903,-73389.20012448511,10.5,10499926610.799875,47.655,-122.3035,60.0,4.85
2026-01-20T23:04:52+00:00,SAT-45237,80.67005041097426,40.68470000737153,582.6432811660211,2.171640455592291,-76060.03478486124,10.5,10499923939.965216,47.655,-122.3035,60.0,4.866666666666666
2026-01-20T23:04:53+00:00,SAT-45237,80.04563554806577,40.190830507140575,584.8091305803985,2.24705117091928,-78701.23702262196,10.5,10499921298.762978,47.655,-122.3035,60.0,4.883333333333334
2026-01-20T23:04:54+00:00,SAT-45237,79.43457958759932,39.69726974869682,587.0501896148621,2.3215995277537282,-81312.23581820108,10.5,10499918687.764181,47.655,-122.3035,60.0,4.9
2026-01-20T23:04:55+00:00,SAT-45237,78.83656419132885,39.20426734256972,589.3655982105417,2.395270620415386,-83892.50911162533,10.5,10499916107.490889,47.655,-122.3035,60.0,4.916666666666667
2026-01-20T23:04:56+00:00,SAT-45237,78.25127436109018,38.71206192434962,591.754481442636,2.468050905989399,-86441.58257273,10.5,10499913558.417427,47.655,-122.3035,60.0,4.933333333333334
2026-01-20T23:04:57+00:00,SAT-45237,77.6783989754869,38.2208812579041,594.2159508795428,2.539928221033008,-88959.03018629836,10.5,10499911040.969814,47.655,-122.3035,60.0,4.95
2026-01-20T23:04:58+00:00,SAT-45237,77.11763124454781,37.730942356651035,596.749105958653,2.6108917369876528,-91444.47269040487,10.5,10499908555.52731,47.655,-122.3035,60.0,4.966666666666667
2026-01-20T23:04:59+00:00,SAT-45237,76.56866910357752,37.24245163221194,599.3530353176754,2.680931925740096,-93897.57637022011,10.5,10499906102.42363,47.655,-122.3035,60.0,4.983333333333333
2026-01-20T23:05:00+00:00,SAT-45237,76.03121554775053,36.75560506507354,602.0268180916134,2.7500405344974324,-96318.05217802724,10.5,10499903681.947823,47.655,-122.3035,60.0,5.0
2026-01-20T23:05:01+00:00,SAT-45237,75.50497891033505,36.27058839262,604.7695251846856,2.8182105771904293,-98705.65543213068,10.5,10499901294.344568,47.655,-122.3035,60.0,5.016666666666667
2026-01-20T23:05:02+00:00,SAT-45237,74.98967308662414,35.787577309538584,607.5802205336702,2.8854362537641554,-101060.18299007253,10.5,10499898939.81701,47.655,-122.3035,60.0,5.033333333333333
2026-01-20T23:05:03+00:00,SAT-45237,74.48501772195175,35.30673769052392,610.4579622907577,2.9517129509126177,-103381.47327436264,10.5,10499896618.526726,47.655,-122.3035,60.0,5.05
2026-01-20T23:05:04+00:00,SAT-45237,73.99073835182558,34.82822581896783,613.4018040071345,3.0170371775244296,-105669.40401151289,10.5,10499894330.59599,47.655,-122.3035,60.0,5.066666666666666
2026-01-20T23:05:05+00:00,SAT-45237,73.5065665106437,34.35218863057667,616.4107957521855,3.081406539704063,-107923.89135717571,10.5,10499892076.108643,47.655,-122.3035,60.0,5.083333333333333
2026-01-20T23:05:06+00:00,SAT-45237,73.03223980517193,33.878763963564744,619.4839852077838,3.1448196954593586,-110144.88830910905,10.5,10499889855.11169,47.655,-122.3035,60.0,5.1
2026-01-20T23:05:07+00:00,SAT-45237,72.56750196003442,33.408080816877586,622.6204187173885,3.207276318670137,-112332.38344520476,10.5,10499887667.616554,47.655,-122.3035,60.0,5.116666666666666
2026-01-20T23:05:08+00:00,SAT-45237,72.11210283672484,32.94025961359789,625.8191422992089,3.2687770092294848,-114486.39777625624,10.5,10499885513.602224,47.655,-122.3035,60.0,5.133333333333334
2026-01-20T23:05:09+00:00,SAT-45237,71.66579843672663,32.47541247540204,629.0792025697472,3.3293233304447862,-116606.98605590091,10.5,10499883393.013945,47.655,-122.3035,60.0,5.15
2026-01-20T23:05:10+00:00,SAT-45237,71.22835087287886,32.0136434888214,632.399647704644,3.388917694294791,-118694.23276183721,10.5,10499881305.767239,47.655,-122.3035,60.0,5.166666666666667
2026-01-20T23:05:11+00:00,SAT-45237,70.799528333752,31.55504898366025,635.7795282850873,3.447563351173354,-120748.25173660713,10.5,10499879251.748264,47.655,-122.3035,60.0,5.183333333333334
2026-01-20T23:05:12+00:00,SAT-45237,70.37910502794259,31.09971780768634,639.217898133991,3.5052643208580743,-122769.18376982579,10.5,10499877230.81623,47.655,-122.3035,60.0,5.2
2026-01-20T23:05:13+00:00,SAT-45237,69.96686111851693,30.64773160454348,642.7138150833266,3.562025401192465,-124757.19690226791,10.5,10499875242.803099,47.655,-122.3035,60.0,5.216666666666667
2026-01-20T23:05:14+00:00,SAT-45237,69.56258263978891,30.19916508421159,646.266341750116,3.61785203429507,-126712.48173994503,10.5,10499873287.518261,47.655,-122.3035,60.0,5.233333333333333
