satellites_20260121_005943/SAT-64808.csv

timestamp,satellite,azimuth_deg,elevation_deg,distance_km,relative_velocity_kms,doppler_shift_hz,tx_freq_ghz,rx_freq_hz,ue_lat,ue_lon,ue_alt_m,time_minutes
2026-01-20T23:09:01+00:00,SAT-64808,249.2471239038499,30.004080671030678,3160.1249277032416,-3.9813412050559367,139443.41005765842,10.5,10500139443.410057,47.655,-122.3035,60.0,9.016666666666667
2026-01-20T23:09:02+00:00,SAT-64808,249.3485239517653,30.074215733362312,3156.154203408066,-3.9723033771510465,139126.867094455,10.5,10500139126.867094,47.655,-122.3035,60.0,9.033333333333333
2026-01-20T23:09:03+00:00,SAT-64808,249.45038999130634,30.144315194595798,3152.1924928399208,-3.9632267286235154,138808.96446883568,10.5,10500138808.964468,47.655,-122.3035,60.0,9.05
2026-01-20T23:09:04+00:00,SAT-64808,249.55272388685484,30.21437771217842,3148.239834715907,-3.9541112053830063,138489.70028632795,10.5,10500138489.700287,47.655,-122.3035,60.0,9.066666666666666
2026-01-20T23:09:05+00:00,SAT-64808,249.65552750381485,30.2844019304641,3144.2962678070717,-3.944956660048327,138169.06938501913,10.5,10500138169.069386,47.655,-122.3035,60.0,9.083333333333334
2026-01-20T23:09:06+00:00,SAT-64808,249.7588027059619,30.35438647900453,3140.36183103145,-3.93576302326171,137847.06933570674,10.5,10500137847.069336,47.655,-122.3035,60.0,9.1
2026-01-20T23:09:07+00:00,SAT-64808,249.86255135728413,30.42432997381265,3136.4365633762504,-3.9265301784446542,137523.6960553186,10.5,10500137523.696054,47.655,-122.3035,60.0,9.116666666666667
2026-01-20T23:09:08+00:00,SAT-64808,249.9667753205357,30.494231016459654,3132.5205039449484,-3.917258040297046,137198.9465562839,10.5,10500137198.946556,47.655,-122.3035,60.0,9.133333333333333
2026-01-20T23:09:09+00:00,SAT-64808,250.07147645785005,30.56408819452749,3128.613691926092,-3.907946500402396,136872.81704139855,10.5,10500136872.817041,47.655,-122.3035,60.0,9.15
2026-01-20T23:09:10+00:00,SAT-64808,250.1766566298968,30.63390008112008,3124.7161666163574,-3.8985954678005457,136545.30432485306,10.5,10500136545.304325,47.655,-122.3035,60.0,9.166666666666666
2026-01-20T23:09:11+00:00,SAT-64808,250.28231769614132,30.70366523508014,3120.827967403138,-3.88920482874937,136216.40442291708,10.5,10500136216.404423,47.655,-122.3035,60.0,9.183333333333334
2026-01-20T23:09:12+00:00,SAT-64808,250.38846151397908,30.77338220050423,3116.9491337872646,-3.8797745195231914,135886.11510364784,10.5,10500135886.115103,47.655,-122.3035,60.0,9.2
2026-01-20T23:09:13+00:00,SAT-64808,250.49508993989735,30.843049507536577,3113.079705333127,-3.870304408195274,135554.43174641297,10.5,10500135554.431746,47.655,-122.3035,60.0,9.216666666666667
2026-01-20T23:09:14+00:00,SAT-64808,250.60220482733618,30.91266567108127,3109.2197217366866,-3.8607944286711287,135221.3520363039,10.5,10500135221.352036,47.655,-122.3035,60.0,9.233333333333333
2026-01-20T23:09:15+00:00,SAT-64808,250.70980802829487,30.982229191881213,3105.369222759826,-3.8512444633598815,134886.8718547908,10.5,10500134886.871855,47.655,-122.3035,60.0,9.25
2026-01-20T23:09:16+00:00,SAT-64808,250.81790139163527,31.051738555522633,3101.5282482817015,-3.8416544312472376,134550.98836441038,10.5,10500134550.988365,47.655,-122.3035,60.0,9.266666666666667
2026-01-20T23:09:17+00:00,SAT-64808,250.92648676385483,31.121192232998713,3097.696838262271,-3.832024229322128,134213.6979572793,10.5,10500134213.697958,47.655,-122.3035,60.0,9.283333333333333
2026-01-20T23:09:18+00:00,SAT-64808,251.0355659882207,31.19058868023637,3093.8750327642265,-3.822353787026881,133874.99816216942,10.5,10500133874.998161,47.655,-122.3035,60.0,9.3
2026-01-20T23:09:19+00:00,SAT-64808,251.14514090543204,31.2599263385952,3090.062871920632,-3.812642983800585,133534.8847565276,10.5,10500133534.884756,47.655,-122.3035,60.0,9.316666666666666
2026-01-20T23:09:20+00:00,SAT-64808,251.25521335191877,31.329203633889026,3086.2603959847884,-3.8028917438747896,133193.35508662226,10.5,10500133193.355087,47.655,-122.3035,60.0,9.333333333333334
2026-01-20T23:09:21+00:00,SAT-64808,251.3657851608608,31.39841897711135,3082.4676452855633,-3.793099973644051,132850.40587399478,10.5,10500132850.405874,47.655,-122.3035,60.0,9.35
2026-01-20T23:09:22+00:00,SAT-64808,251.47685816140387,31.467570764031834,3078.684660245183,-3.7832675766502915,132506.03374027528,10.5,10500132506.033741,47.655,-122.3035,60.0,9.366666666666667
2026-01-20T23:09:23+00:00,SAT-64808,251.58843417828575,31.536657375069286,3074.91148138207,-3.773394489249148,132160.23645636893,10.5,10500132160.236456,47.655,-122.3035,60.0,9.383333333333333
2026-01-20T23:09:24+00:00,SAT-64808,251.7005150325324,31.605677175802256,3071.148149278126,-3.7634805880118285,131813.00969927735,10.5,10500131813.009699,47.655,-122.3035,60.0,9.4
2026-01-20T23:09:25+00:00,SAT-64808,251.81310253938193,31.67462851581669,3067.3947046383482,-3.7535257979078134,131464.35084111436,10.5,10500131464.350842,47.655,-122.3035,60.0,9.416666666666666
2026-01-20T23:09:26+00:00,SAT-64808,251.926198509439,31.743509729502012,3063.6511882425684,-3.7435300448361213,131114.25728655013,10.5,10500131114.257286,47.655,-122.3035,60.0,9.433333333333334
2026-01-20T23:09:27+00:00,SAT-64808,252.03980474839543,31.812319135991945,3059.9176409445186,-3.733493233380523,130762.72569370472,10.5,10500130762.725695,47.655,-122.3035,60.0,9.45
2026-01-20T23:09:28+00:00,SAT-64808,252.15392305609697,31.88105503870646,3056.1941036930934,-3.7234152653839607,130409.75262470274,10.5,10500130409.752625,47.655,-122.3035,60.0,9.466666666666667
2026-01-20T23:09:29+00:00,SAT-64808,252.26855522612624,31.949715725230607,3052.480617535084,-3.713296088234507,130055.33623685196,10.5,10500130055.336237,47.655,-122.3035,60.0,9.483333333333333
2026-01-20T23:09:30+00:00,SAT-64808,252.38370304690488,32.01829946806516,3048.7772235697516,-3.703135586612523,129699.47249117085,10.5,10500129699.47249,47.655,-122.3035,60.0,9.5
2026-01-20T23:09:31+00:00,SAT-64808,252.49936829942573,32.08680452342253,3045.08396301137,-3.6929337001049074,129342.15927173702,10.5,10500129342.159271,47.655,-122.3035,60.0,9.516666666666667
2026-01-20T23:09:32+00:00,SAT-64808,252.61555275862878,32.15522913215087,3041.4008771344656,-3.682690324978417,128983.3929453735,10.5,10500128983.392946,47.655,-122.3035,60.0,9.533333333333333
2026-01-20T23:09:33+00:00,SAT-64808,252.73225819171094,32.2235715188797,3037.72800731702,-3.672405402131666,128623.17144209976,10.5,10500128623.171442,47.655,-122.3035,60.0,9.55
2026-01-20T23:09:34+00:00,SAT-64808,252.84948635920725,32.29182989276688,3034.065394995961,-3.662078836057962,128261.49141686747,10.5,10500128261.491417,47.655,-122.3035,60.0,9.566666666666666
2026-01-20T23:09:35+00:00,SAT-64808,252.9672390134728,32.360002446768746,3030.413081703466,-3.6517105570559796,127898.35042844136,10.5,10500127898.350428,47.655,-122.3035,60.0,9.583333333333334
2026-01-20T23:09:36+00:00,SAT-64808,253.08551789917817,32.4280873580472,3026.771109041229,-3.6413004868517445,127533.74573533575,10.5,10500127533.745735,47.655,-122.3035,60.0,9.6
2026-01-20T23:09:37+00:00,SAT-64808,253.2043247526649,32.496082787752556,3023.1395186890086,-3.630848539345205,127167.6743219626,10.5,10500127167.674322,47.655,-122.3035,60.0,9.616666666666667
2026-01-20T23:09:38+00:00,SAT-64808,253.32366130133613,32.56398688081528,3019.518352412435,-3.620354650646526,126800.13395062968,10.5,10500126800.133951,47.655,-122.3035,60.0,9.633333333333333
2026-01-20T23:09:39+00:00,SAT-64808,253.44352926400592,32.63179776629688,3015.907652040857,-3.6098187303556113,126431.12145514322,10.5,10500126431.121454,47.655,-122.3035,60.0,9.65
2026-01-20T23:09:40+00:00,SAT-64808,253.56393034966516,32.6995135568435,3012.3074594937825,-3.5992407254986825,126060.63498013737,10.5,10500126060.63498,47.655,-122.3035,60.0,9.666666666666666
2026-01-20T23:09:41+00:00,SAT-64808,253.6848662583455,32.76713234932138,3008.7178167435513,-3.588620541996633,125688.67123056394,10.5,10500125688.67123,47.655,-122.3035,60.0,9.683333333333334
2026-01-20T23:09:42+00:00,SAT-64808,253.80633867934876,32.8346522239997,3005.1387658563335,-3.5779581227433517,125315.22820632531,10.5,10500125315.228207,47.655,-122.3035,60.0,9.7
2026-01-20T23:09:43+00:00,SAT-64808,253.9283492921138,32.90207124518529,3001.5703489552507,-3.567253387939694,124940.3031125179,10.5,10500124940.303112,47.655,-122.3035,60.0,9.716666666666667
2026-01-20T23:09:44+00:00,SAT-64808,254.05089976504573,32.96938746074801,2998.0126082430124,-3.556506267537222,124563.89349574907,10.5,10500124563.893496,47.655,-122.3035,60.0,9.733333333333333
2026-01-20T23:09:45+00:00,SAT-64808,254.17399175543738,33.03659890225416,2994.4655859921886,-3.545716707978211,124185.99748020082,10.5,10500124185.99748,47.655,-122.3035,60.0,9.75
2026-01-20T23:09:46+00:00,SAT-64808,254.29762690965208,33.103703585224565,2990.929324528765,-3.534884608659542,123806.61154232635,10.5,10500123806.611542,47.655,-122.3035,60.0,9.766666666666667
2026-01-20T23:09:47+00:00,SAT-64808,254.42180686104103,33.170699508213424,2987.4038662790617,-3.5240099447912696,123425.7348138769,10.5,10500123425.734814,47.655,-122.3035,60.0,9.783333333333333
2026-01-20T23:09:48+00:00,SAT-64808,254.54653323221314,33.23758465417905,2983.889253694123,-3.513092612335219,123043.36365099551,10.5,10500123043.363651,47.655,-122.3035,60.0,9.8
2026-01-20T23:09:49+00:00,SAT-64808,254.67180763178658,33.304356988962205,2980.3855293287543,-3.5021325800343486,122659.49695892836,10.5,10500122659.49696,47.655,-122.3035,60.0,9.816666666666666
2026-01-20T23:09:50+00:00,SAT-64808,254.7976316565509,33.37101446260555,2976.892735768933,-3.4911297637422023,122274.13179051064,10.5,10500122274.13179,47.655,-122.3035,60.0,9.833333333333334
2026-01-20T23:09:51+00:00,SAT-64808,254.92400688914478,33.437555008331245,2973.410915684561,-3.480084108168537,121887.26620924413,10.5,10500121887.266209,47.655,-122.3035,60.0,9.85
2026-01-20T23:09:52+00:00,SAT-64808,255.05093489863236,33.50397654303935,2969.940111800681,-3.4689955494606197,121498.89797873603,10.5,10500121498.897978,47.655,-122.3035,60.0,9.866666666666667
2026-01-20T23:09:53+00:00,SAT-64808,255.17841723974692,33.5702769671208,2966.480366906019,-3.457864040204088,121109.02543833482,10.5,10500121109.025438,47.655,-122.3035,60.0,9.883333333333333
2026-01-20T23:09:54+00:00,SAT-64808,255.30645545304947,33.63645416473252,2963.0317238365888,-3.446689501915579,120717.64583922114,10.5,10500120717.64584,47.655,-122.3035,60.0,9.9
2026-01-20T23:09:55+00:00,SAT-64808,255.43505106329212,33.70250600318489,2959.5942255066784,-3.4354719012075945,120324.75801202358,10.5,10500120324.758013,47.655,-122.3035,60.0,9.916666666666666
2026-01-20T23:09:56+00:00,SAT-64808,255.56420558065102,33.76843033376593,2956.1679148638736,-3.424211156539322,119930.35910083796,10.5,10500119930.3591,47.655,-122.3035,60.0,9.933333333333334
2026-01-20T23:09:57+00:00,SAT-64808,255.69392049841701,33.83422499080898,2952.7528349370855,-3.4129072456095715,119534.44832458226,10.5,10500119534.448324,47.655,-122.3035,60.0,9.95
2026-01-20T23:09:58+00:00,SAT-64808,255.8241972947809,33.89988779279192,2949.3490287774644,-3.4015600867906235,119137.0228243085,10.5,10500119137.022825,47.655,-122.3035,60.0,9.966666666666667
2026-01-20T23:09:59+00:00,SAT-64808,255.95503743006432,33.96541654119602,2945.956539517572,-3.3901696403605293,118738.08120878597,10.5,10500118738.08121,47.655,-122.3035,60.0,9.983333333333333
2026-01-20T23:10:00+00:00,SAT-64808,256.08644234783475,34.03080902128256,2942.5754103295853,-3.378735864621381,118337.62201757757,10.5,10500118337.622017,47.655,-122.3035,60.0,10.0
2026-01-20T23:10:01+00:00,SAT-64808,256.21841347433286,34.096063002046634,2939.2056844272697,-3.367258696911715,117935.6430560138,10.5,10500117935.643057,47.655,-122.3035,60.0,10.016666666666667
2026-01-20T23:10:02+00:00,SAT-64808,256.35095221714926,34.161176235803424,2935.847405086883,-3.3557380870987004,117532.14256823082,10.5,10500117532.142569,47.655,-122.3035,60.0,10.033333333333333
2026-01-20T23:10:03+00:00,SAT-64808,256.48405996517937,34.226146458422484,2932.500615634683,-3.3441740149851746,117127.11984683863,10.5,10500117127.119846,47.655,-122.3035,60.0,10.05
2026-01-20T23:10:04+00:00,SAT-64808,256.6177380893209,34.290971389892384,2929.1653594170716,-3.3325664078779242,116720.57234581333,10.5,10500116720.572346,47.655,-122.3035,60.0,10.066666666666666
2026-01-20T23:10:05+00:00,SAT-64808,256.7519879398293,34.355648733318766,2925.8416798529474,-3.320915239937022,116312.49916013143,10.5,10500116312.49916,47.655,-122.3035,60.0,10.083333333333334
2026-01-20T23:10:06+00:00,SAT-64808,256.8868108476782,34.42017617581912,2922.529620386984,-3.3092204557431364,115902.89834877345,10.5,10500115902.898348,47.655,-122.3035,60.0,10.1
2026-01-20T23:10:07+00:00,SAT-64808,257.0222081228093,34.484551387961915,2919.229224519123,-3.2974820323242247,115491.76910716132,10.5,10500115491.769108,47.655,-122.3035,60.0,10.116666666666667
2026-01-20T23:10:08+00:00,SAT-64808,257.15818105491957,34.548772024395845,2915.940535772218,-3.2856999227035018,115079.10978996931,10.5,10500115079.10979,47.655,-122.3035,60.0,10.133333333333333
2026-01-20T23:10:09+00:00,SAT-64808,257.29473091192887,34.61283572340147,2912.6635977159754,-3.2738740849259,114664.9189277535,10.5,10500114664.918928,47.655,-122.3035,60.0,10.15
2026-01-20T23:10:10+00:00,SAT-64808,257.431858939613,34.67674010699854,2909.3984539619423,-3.262004492002917,114249.19557526238,10.5,10500114249.195576,47.655,-122.3035,60.0,10.166666666666666
2026-01-20T23:10:11+00:00,SAT-64808,257.5695663616631,34.740482781252766,2906.1451481485847,-3.2500911048494046,113831.93836356865,10.5,10500113831.938364,47.655,-122.3035,60.0,10.183333333333334
2026-01-20T23:10:12+00:00,SAT-64808,257.7078543786217,34.80406133606309,2902.903723953348,-3.2381339075362283,113413.14673476675,10.5,10500113413.146734,47.655,-122.3035,60.0,10.2
2026-01-20T23:10:13+00:00,SAT-64808,257.8467241682866,34.86747334563545,2899.6742250695656,-3.2261328348211857,112992.81840379871,10.5,10500112992.818403,47.655,-122.3035,60.0,10.216666666666667
2026-01-20T23:10:14+00:00,SAT-64808,257.98617688299527,34.93071636755031,2896.456695255637,-3.2140878927993555,112570.95358413996,10.5,10500112570.953585,47.655,-122.3035,60.0,10.233333333333333
2026-01-20T23:10:15+00:00,SAT-64808,258.12621365212743,34.99378794418122,2893.2511782638853,-3.201999043870606,112147.5509588749,10.5,10500112147.550959,47.655,-122.3035,60.0,10.25
2026-01-20T23:10:16+00:00,SAT-64808,258.2668355796203,35.05668560187828,2890.0577178841318,-3.189866246421903,111722.60907053901,10.5,10500111722.60907,47.655,-122.3035,60.0,10.266666666666667
2026-01-20T23:10:17+00:00,SAT-64808,258.4080437431634,35.11940685093014,2886.8763579477004,-3.1776895036377524,111296.12803066713,10.5,10500111296.12803,47.655,-122.3035,60.0,10.283333333333333
2026-01-20T23:10:18+00:00,SAT-64808,258.5498391955956,35.18194918647533,2883.707142282739,-3.1654687721111023,110868.10631896075,10.5,10500110868.10632,47.655,-122.3035,60.0,10.3
2026-01-20T23:10:19+00:00,SAT-64808,258.6922229621987,35.244310087643456,2880.5501147606865,-3.15320404765778,110438.5437888724,10.5,10500110438.543789,47.655,-122.3035,60.0,10.316666666666666
2026-01-20T23:10:20+00:00,SAT-64808,258.8351960418584,35.30648701836667,2877.405319257156,-3.1408952905324585,110007.43904835264,10.5,10500110007.439049,47.655,-122.3035,60.0,10.333333333333334
2026-01-20T23:10:21+00:00,SAT-64808,258.9787594047992,35.368477426741414,2874.272799687398,-3.1285425054773373,109574.7922634933,10.5,10500109574.792263,47.655,-122.3035,60.0,10.35
2026-01-20T23:10:22+00:00,SAT-64808,259.1229139940057,35.430278745951455,2871.1525999619357,-3.116145677327645,109140.60290316,10.5,10500109140.602903,47.655,-122.3035,60.0,10.366666666666667
2026-01-20T23:10:23+00:00,SAT-64808,259.2676607236725,35.491888393944116,2868.044764006414,-3.103704772246111,108704.86978222837,10.5,10500108704.869781,47.655,-122.3035,60.0,10.383333333333333
2026-01-20T23:10:24+00:00,SAT-64808,259.41300047768533,35.553303773128036,2864.9493357802276,-3.0912198024000235,108267.59332684829,10.5,10500108267.593327,47.655,-122.3035,60.0,10.4
2026-01-20T23:10:25+00:00,SAT-64808,259.5589341111264,35.61452227134487,2861.866359230634,-3.078690735264843,107828.77239787283,10.5,10500107828.772398,47.655,-122.3035,60.0,10.416666666666666
2026-01-20T23:10:26+00:00,SAT-64808,259.70546244750363,35.67554126106596,2858.7958783373297,-3.0661175916181183,107388.40772301964,10.5,10500107388.407722,47.655,-122.3035,60.0,10.433333333333334
2026-01-20T23:10:27+00:00,SAT-64808,259.85258628064685,35.73635810051789,2855.7379370592894,-3.053500337753189,106946.49812173888,10.5,10500106946.498121,47.655,-122.3035,60.0,10.45
2026-01-20T23:10:28+00:00,SAT-64808,260.0003063714184,35.79697013269392,2852.6925793891032,-3.0408389904067485,106503.04418022037,10.5,10500106503.04418,47.655,-122.3035,60.0,10.466666666666667
2026-01-20T23:10:29+00:00,SAT-64808,260.1486234494771,35.85737468643336,2849.659849302671,-3.028133535240393,106058.04539627253,10.5,10500106058.045397,47.655,-122.3035,60.0,10.483333333333333
2026-01-20T23:10:30+00:00,SAT-64808,260.2975382111028,35.91756907590045,2846.6397907901915,-3.0153839850561788,105611.50221827754,10.5,10500105611.502218,47.655,-122.3035,60.0,10.5
2026-01-20T23:10:31+00:00,SAT-64808,260.44705131984176,35.97755060121641,2843.6324478290953,-3.0025903245414427,105163.41410992118,10.5,10500105163.41411,47.655,-122.3035,60.0,10.516666666666667
2026-01-20T23:10:32+00:00,SAT-64808,260.59716340442947,36.03731654800438,2840.6378644120855,-2.9897525779250556,104713.78191980094,10.5,10500104713.78192,47.655,-122.3035,60.0,10.533333333333333
2026-01-20T23:10:33+00:00,SAT-64808,260.7478750600805,36.096864188275255,2837.656084507702,-2.97687072908222,104262.60508315825,10.5,10500104262.605083,47.655,-122.3035,60.0,10.55
2026-01-20T23:10:34+00:00,SAT-64808,260.8991868457486,36.156190779740314,2834.687152100564,-2.9639448134160333,103809.88483995936,10.5,10500103809.88484,47.655,-122.3035,60.0,10.566666666666666
2026-01-20T23:10:35+00:00,SAT-64808,261.05109928607027,36.215293566945796,2831.7311111399836,-2.9509748167974776,103355.62069534622,10.5,10500103355.620695,47.655,-122.3035,60.0,10.583333333333334
2026-01-20T23:10:36+00:00,SAT-64808,261.20361286810544,36.274169780409395,2828.7880055893643,-2.9379607636973346,102899.8135063892,10.5,10500102899.813507,47.655,-122.3035,60.0,10.6
2026-01-20T23:10:37+00:00,SAT-64808,261.35672804262225,36.33281663751201,2825.857879387703,-2.9249026663108464,102442.46370021721,10.5,10500102442.4637,47.655,-122.3035,60.0,10.616666666666667
2026-01-20T23:10:38+00:00,SAT-64808,261.51044522276123,36.39123134238163,2822.940776461836,-2.911800541129744,101983.57185444042,10.5,10500101983.571854,47.655,-122.3035,60.0,10.633333333333333
2026-01-20T23:10:39+00:00,SAT-64808,261.66476478352905,36.44941108611396,2820.0367407221497,-2.898654404578166,101523.13854430169,10.5,10500101523.138544,47.655,-122.3035,60.0,10.65
2026-01-20T23:10:40+00:00,SAT-64808,261.8196870610872,36.5073530469086,2817.1458160626503,-2.885464284687482,101061.16475157811,10.5,10500101061.164751,47.655,-122.3035,60.0,10.666666666666666
2026-01-20T23:10:41+00:00,SAT-64808,261.9752123526425,36.565054390445354,2814.2680463493884,-2.8722301949377123,100597.65094839704,10.5,10500100597.650948,47.655,-122.3035,60.0,10.683333333333334
2026-01-20T23:10:42+00:00,SAT-64808,262.1313409149428,36.622512269743936,2811.4034754349705,-2.858952174839388,100132.59851858437,10.5,10500100132.598518,47.655,-122.3035,60.0,10.7
2026-01-20T23:10:43+00:00,SAT-64808,262.2880729649643,36.679723825835694,2808.5521471325974,-2.8456302280445738,99666.00759005094,10.5,10500099666.00759,47.655,-122.3035,60.0,10.716666666666667
2026-01-20T23:10:44+00:00,SAT-64808,262.44540867719365,36.73668618721111,2805.7141052518277,-2.8322644103237846,99197.880116116,10.5,10500099197.880116,47.655,-122.3035,60.0,10.733333333333333
2026-01-20T23:10:45+00:00,SAT-64808,262.6033481857897,36.7933964710204,2802.889393546598,-2.8188547370156005,98728.21663400154,10.5,10500098728.216635,47.655,-122.3035,60.0,10.75
2026-01-20T23:10:46+00:00,SAT-64808,262.76189158159286,36.8498517824404,2800.0780557555477,-2.80540124225816,98257.01833936956,10.5,10500098257.01834,47.655,-122.3035,60.0,10.766666666666667
2026-01-20T23:10:47+00:00,SAT-64808,262.9210389124146,36.90604921522416,2797.280135583269,-2.7919039719472654,97784.28683968523,10.5,10500097784.28684,47.655,-122.3035,60.0,10.783333333333333
2026-01-20T23:10:48+00:00,SAT-64808,263.0807901829894,36.961985852116214,2794.4956766885803,-2.7783629647060946,97310.0234876956,10.5,10500097310.023487,47.655,-122.3035,60.0,10.8
2026-01-20T23:10:49+00:00,SAT-64808,263.2411453538024,37.01765876489396,2791.72472269178,-2.764778254571142,96834.22947550265,10.5,10500096834.229475,47.655,-122.3035,60.0,10.816666666666666
2026-01-20T23:10:50+00:00,SAT-64808,263.40210434008355,37.07306501446932,2788.967317179221,-2.7511498803297396,96356.90616160286,10.5,10500096356.906162,47.655,-122.3035,60.0,10.833333333333334
2026-01-20T23:10:51+00:00,SAT-64808,263.563667011307,37.12820165118103,2786.223503698572,-2.7374778992628306,95878.05555221713,10.5,10500095878.055552,47.655,-122.3035,60.0,10.85
2026-01-20T23:10:52+00:00,SAT-64808,263.725833191542,37.183065715365125,2783.493325740374,-2.7237623525102967,95397.67908823816,10.5,10500095397.679089,47.655,-122.3035,60.0,10.866666666666667
2026-01-20T23:10:53+00:00,SAT-64808,263.8886026577427,37.237654237243575,2780.7768267541373,-2.710003299664462,94915.7788568412,10.5,10500094915.778856,47.655,-122.3035,60.0,10.883333333333333
2026-01-20T23:10:54+00:00,SAT-64808,264.05197514010706,37.29196423750522,2778.0740501299383,-2.6962007821894542,94432.3563102754,10.5,10500094432.35631,47.655,-122.3035,60.0,10.9
2026-01-20T23:10:55+00:00,SAT-64808,264.215950320207,37.34599272716594,2775.385039216502,-2.682354857711296,93947.41346684782,10.5,10500093947.413467,47.655,-122.3035,60.0,10.916666666666666
2026-01-20T23:10:56+00:00,SAT-64808,264.3805278312243,37.39973670811565,2772.709837305077,-2.6684655883430826,93460.9525020218,10.5,10500093460.952501,47.655,-122.3035,60.0,10.933333333333334
2026-01-20T23:10:57+00:00,SAT-64808,264.5457072574594,37.453193173440155,2770.0484876249698,-2.65453303650589,92972.97560204749,10.5,10500092972.975601,47.655,-122.3035,60.0,10.95
2026-01-20T23:10:58+00:00,SAT-64808,264.711488133617,37.50635910766344,2767.401033343228,-2.640557249244099,92483.48441461805,10.5,10500092483.484415,47.655,-122.3035,60.0,10.966666666666667
2026-01-20T23:10:59+00:00,SAT-64808,264.8778699430488,37.559231486686265,2764.7675175799823,-2.6265383116403047,91992.48191968592,10.5,10500091992.48192,47.655,-122.3035,60.0,10.983333333333333
2026-01-20T23:11:00+00:00,SAT-64808,265.04485211942404,37.611807278790955,2762.147983370506,-2.612476284521806,91499.97024768036,10.5,10500091499.970247,47.655,-122.3035,60.0,11.0
2026-01-20T23:11:01+00:00,SAT-64808,265.2124340444295,37.66408344441414,2759.5424736894092,-2.5983712251568405,91005.95140437731,10.5,10500091005.951405,47.655,-122.3035,60.0,11.016666666666667
2026-01-20T23:11:02+00:00,SAT-64808,265.38061504675625,37.71605693633628,2756.9510314541862,-2.5842232297529346,90510.4287593713,10.5,10500090510.428759,47.655,-122.3035,60.0,11.033333333333333
2026-01-20T23:11:03+00:00,SAT-64808,265.5493944038988,37.76772470072389,2754.3736994863793,-2.5700323478355958,90013.40404725511,10.5,10500090013.404047,47.655,-122.3035,60.0,11.05
2026-01-20T23:11:04+00:00,SAT-64808,265.7187713383264,37.819083676471955,2751.8105205581383,-2.555798682800104,89514.88088936877,10.5,10500089514.88089,47.655,-122.3035,60.0,11.066666666666666
2026-01-20T23:11:05+00:00,SAT-64808,265.8887450202926,37.87013079655424,2749.2615373384924,-2.5415222894295013,89014.86120444618,10.5,10500089014.861204,47.655,-122.3035,60.0,11.083333333333334
2026-01-20T23:11:06+00:00,SAT-64808,266.0593145638472,37.92086298734077,2746.7267924418347,-2.527203273864976,88513.34871000072,10.5,10500088513.34871,47.655,-122.3035,60.0,11.1
2026-01-20T23:11:07+00:00,SAT-64808,266.23047902953294,37.97127716990895,2744.2063283766997,-2.5128417049596363,88010.3458175595,10.5,10500088010.345818,47.655,-122.3035,60.0,11.116666666666667
2026-01-20T23:11:08+00:00,SAT-64808,266.4022374211194,38.021370259597404,2741.7001875829533,-2.4984376810428253,87505.85597103201,10.5,10500087505.85597,47.655,-122.3035,60.0,11.133333333333333
2026-01-20T23:11:09+00:00,SAT-64808,266.5745886868716,38.07113916689546,2739.208412402393,-2.483991286829697,86999.88213750132,10.5,10500086999.882137,47.655,-122.3035,60.0,11.15
2026-01-20T23:11:10+00:00,SAT-64808,266.74753171786557,38.120580797477885,2736.7310450923283,-2.4695026156426136,86492.42758551132,10.5,10500086492.427586,47.655,-122.3035,60.0,11.166666666666666
2026-01-20T23:11:11+00:00,SAT-64808,266.9210653478475,38.169692052691836,2734.2681278169944,-2.4549717718135042,85983.49596920746,10.5,10500085983.49597,47.655,-122.3035,60.0,11.183333333333334
2026-01-20T23:11:12+00:00,SAT-64808,267.09518835329146,38.21846983009223,2731.8197026365724,-2.4403988418373075,85473.09031800836,10.5,10500085473.090319,47.655,-122.3035,60.0,11.2
2026-01-20T23:11:13+00:00,SAT-64808,267.26989945137706,38.26691102341517,2729.3858115249805,-2.425783937314509,84961.21454063513,10.5,10500084961.21454,47.655,-122.3035,60.0,11.216666666666667
2026-01-20T23:11:14+00:00,SAT-64808,267.4451973010865,38.315012523405464,2726.9664963448317,-2.4111271482162735,84447.8717882585,10.5,10500084447.871788,47.655,-122.3035,60.0,11.233333333333333
2026-01-20T23:11:15+00:00,SAT-64808,267.62108050088295,38.36277121772704,2724.5617988690105,-2.3964286075894514,83933.06672074199,10.5,10500083933.066721,47.655,-122.3035,60.0,11.25
2026-01-20T23:11:16+00:00,SAT-64808,267.79754759119265,38.410183992154366,2722.171760737708,-2.3816883988176625,83416.80225853264,10.5,10500083416.80226,47.655,-122.3035,60.0,11.266666666666667
2026-01-20T23:11:17+00:00,SAT-64808,267.9745970499969,38.4572477299432,2719.796423507954,-2.366906646324285,82899.08275946352,10.5,10500082899.08276,47.655,-122.3035,60.0,11.283333333333333
2026-01-20T23:11:18+00:00,SAT-64808,268.15222729518524,38.50395931299274,2717.4358286126867,-2.352083463055573,82379.91217939017,10.5,10500082379.91218,47.655,-122.3035,60.0,11.3
2026-01-20T23:11:19+00:00,SAT-64808,268.33043668299547,38.550315621980495,2715.0900173721993,-2.3372189689107334,81859.29471769,10.5,10500081859.294718,47.655,-122.3035,60.0,11.316666666666666
2026-01-20T23:11:20+00:00,SAT-64808,268.5092235078512,38.59631353686398,2712.7590309872053,-2.322313276553959,81337.2343203396,10.5,10500081337.23432,47.655,-122.3035,60.0,11.333333333333334
2026-01-20T23:11:21+00:00,SAT-64808,268.68858600110883,38.64194993711158,2710.4429105460554,-2.307366523006888,80813.73578641636,10.5,10500080813.735786,47.655,-122.3035,60.0,11.35
2026-01-20T23:11:22+00:00,SAT-64808,268.86852233228194,38.687221702555334,2708.1416970004434,-2.2923788208290192,80288.80305823004,10.5,10500080288.803059,47.655,-122.3035,60.0,11.366666666666667
2026-01-20T23:11:23+00:00,SAT-64808,269.04903060643744,38.732125713296135,2705.8554311898033,-2.277350308683034,79762.4409923343,10.5,10500079762.440992,47.655,-122.3035,60.0,11.383333333333333
2026-01-20T23:11:24+00:00,SAT-64808,269.23010886560564,38.77665885060122,2703.5841538152767,-2.2622811067471527,79234.65379787874,10.5,10500079234.653797,47.655,-122.3035,60.0,11.4
2026-01-20T23:11:25+00:00,SAT-64808,269.4117550866255,38.82081799693876,2701.3279054581476,-2.2471713687304113,78705.44685840403,10.5,10500078705.446857,47.655,-122.3035,60.0,11.416666666666666
2026-01-20T23:11:26+00:00,SAT-64808,269.5939671832285,38.864600037027685,2699.0867265464008,-2.2320212111935227,78174.82425635932,10.5,10500078174.824257,47.655,-122.3035,60.0,11.433333333333334
2026-01-20T23:11:27+00:00,SAT-64808,269.7767430023593,38.908001857521725,2696.8606573917705,-2.216830793042577,77642.79155730814,10.5,10500077642.791557,47.655,-122.3035,60.0,11.45
2026-01-20T23:11:28+00:00,SAT-64808,269.9600803270241,38.95102034824007,2694.6497381475087,-2.201600237105653,77109.35306320933,10.5,10500077109.353064,47.655,-122.3035,60.0,11.466666666666667
2026-01-20T23:11:29+00:00,SAT-64808,270.1439768726754,38.99365240188426,2692.454008844369,-2.1863297076815624,76574.51452850227,10.5,10500076574.514528,47.655,-122.3035,60.0,11.483333333333333
2026-01-20T23:11:30+00:00,SAT-64808,270.328430290063,39.03589491525988,2690.2735093492415,-2.1710193444570494,76038.2808456076,10.5,10500076038.280846,47.655,-122.3035,60.0,11.5
2026-01-20T23:11:31+00:00,SAT-64808,270.51343816257935,39.07774478922612,2688.1082793897026,-2.1556693044196757,75500.6575128938,10.5,10500075500.657513,47.655,-122.3035,60.0,11.516666666666667
2026-01-20T23:11:32+00:00,SAT-64808,270.698998007127,39.11919892946018,2685.958358536762,-2.140279731531331,74961.64957251519,10.5,10500074961.649572,47.655,-122.3035,60.0,11.533333333333333
2026-01-20T23:11:33+00:00,SAT-64808,270.8851072724093,39.16025424664134,2683.8237862178476,-2.1248507938496193,74421.26291055995,10.5,10500074421.26291,47.655,-122.3035,60.0,11.55
2026-01-20T23:11:34+00:00,SAT-64808,271.071763340463,39.200907657354335,2681.7046016927816,-2.1093826499787496,73879.5030820184,10.5,10500073879.503082,47.655,-122.3035,60.0,11.566666666666666
2026-01-20T23:11:35+00:00,SAT-64808,271.2589635252835,39.241156084350884,2679.6008440632027,-2.093875457693008,73336.3756128134,10.5,10500073336.375612,47.655,-122.3035,60.0,11.583333333333334
2026-01-20T23:11:36+00:00,SAT-64808,271.4467050721911,39.28099645698592,2677.512552273397,-2.0783293869060184,72791.8864540388,10.5,10500072791.886454,47.655,-122.3035,60.0,11.6
2026-01-20T23:11:37+00:00,SAT-64808,271.634985158388,39.32042571190056,2675.4397650981896,-2.062744611507715,72246.04169605563,10.5,10500072246.041697,47.655,-122.3035,60.0,11.616666666666667
2026-01-20T23:11:38+00:00,SAT-64808,271.8238008928136,39.35944079355643,2673.382521138979,-2.0471212933579626,71698.84700788105,10.5,10500071698.847008,47.655,-122.3035,60.0,11.633333333333333
2026-01-20T23:11:39+00:00,SAT-64808,272.01314931452515,39.39803865447043,2671.340858835737,-2.031459613983206,71150.30874733902,10.5,10500071150.308748,47.655,-122.3035,60.0,11.65
2026-01-20T23:11:40+00:00,SAT-64808,272.2030273940132,39.4362162560543,2669.3148164473905,-2.0157597511968373,70600.43314220665,10.5,10500070600.433142,47.655,-122.3035,60.0,11.666666666666666
2026-01-20T23:11:41+00:00,SAT-64808,272.39343203240094,39.473970569013666,2667.3044320555305,-2.000021882251681,70049.22640062764,10.5,10500070049.2264,47.655,-122.3035,60.0,11.683333333333334
2026-01-20T23:11:42+00:00,SAT-64808,272.5843600609034,39.511298573813946,2665.3097435649647,-1.984246192503111,69496.69501453123,10.5,10500069496.695015,47.655,-122.3035,60.0,11.7
2026-01-20T23:11:43+00:00,SAT-64808,272.77580824115387,39.54819726131066,2663.330788695642,-1.9684328651394494,68942.84539994739,10.5,10500068942.8454,47.655,-122.3035,60.0,11.716666666666667
2026-01-20T23:11:44+00:00,SAT-64808,272.96777326454793,39.58466363319217,2661.367604984809,-1.9525820995388699,68387.68453994307,10.5,10500068387.68454,47.655,-122.3035,60.0,11.733333333333333
2026-01-20T23:11:45+00:00,SAT-64808,273.1602517534351,39.62069470276518,2659.420229770869,-1.936694079708946,67831.2188792419,10.5,10500067831.21888,47.655,-122.3035,60.0,11.75
2026-01-20T23:11:46+00:00,SAT-64808,273.3532402591744,39.656287495160576,2657.4887002087057,-1.9207689979280207,67273.45515224476,10.5,10500067273.455153,47.655,-122.3035,60.0,11.766666666666667
2026-01-20T23:11:47+00:00,SAT-64808,273.54673526255806,39.69143904798005,2655.5730532614393,-1.9048070619908946,66714.40063680451,10.5,10500066714.400637,47.655,-122.3035,60.0,11.783333333333333
2026-01-20T23:11:48+00:00,SAT-64808,273.74073317501075,39.72614641207693,2653.673325684947,-1.888808463597046,66154.06204704783,10.5,10500066154.062048,47.655,-122.3035,60.0,11.8
2026-01-20T23:11:49+00:00,SAT-64808,273.93523033659505,39.760406651760846,2651.7895540439195,-1.872773420834252,65592.44702133116,10.5,10500065592.447021,47.655,-122.3035,60.0,11.816666666666666
2026-01-20T23:11:50+00:00,SAT-64808,274.1302230184035,39.79421684577997,2649.9217746855406,-1.8567021220985638,65029.5621580811,10.5,10500065029.562159,47.655,-122.3035,60.0,11.833333333333334
2026-01-20T23:11:51+00:00,SAT-64808,274.32570741911513,39.827574087288305,2648.070023769101,-1.8405947897640815,64465.41524577932,10.5,10500064465.415245,47.655,-122.3035,60.0,11.85
2026-01-20T23:11:52+00:00,SAT-64808,274.52167966826573,39.8604754849679,2646.2343372321097,-1.8244516291078854,63900.01347409746,10.5,10500063900.013474,47.655,-122.3035,60.0,11.866666666666667
2026-01-20T23:11:53+00:00,SAT-64808,274.7181358241372,39.89291816323143,2644.4147508073465,-1.8082728724072468,63333.3649783681,10.5,10500063333.364979,47.655,-122.3035,60.0,11.883333333333333
2026-01-20T23:11:54+00:00,SAT-64808,274.91507187644527,39.92489926321446,2642.611299995932,-1.7920587144185867,62765.47657978494,10.5,10500062765.47658,47.655,-122.3035,60.0,11.9
2026-01-20T23:11:55+00:00,SAT-64808,275.1124837419376,39.956415942624815,2640.824020104752,-1.7758093946735065,62196.35666775786,10.5,10500062196.356668,47.655,-122.3035,60.0,11.916666666666666
2026-01-20T23:11:56+00:00,SAT-64808,275.31036726910463,39.98746537705206,2639.0529462017976,-1.759525128872164,61626.012797018804,10.5,10500061626.012796,47.655,-122.3035,60.0,11.933333333333334
2026-01-20T23:11:57+00:00,SAT-64808,275.5087182353267,40.01804476006519,2637.2981131399356,-1.7432061502594811,61054.453136791555,10.5,10500061054.453136,47.655,-122.3035,60.0,11.95
2026-01-20T23:11:58+00:00,SAT-64808,275.7075323486391,40.0481513040389,2635.55955553941,-1.7268526862922644,60481.68565357564,10.5,10500060481.685654,47.655,-122.3035,60.0,11.966666666666667
2026-01-20T23:11:59+00:00,SAT-64808,275.9068052469138,40.07778224057359,2633.837307793615,-1.7104649659535047,59907.71836732397,10.5,10500059907.718367,47.655,-122.3035,60.0,11.983333333333333
2026-01-20T23:12:00+00:00,SAT-64808,276.1065324978353,40.10693482104702,2632.13140406757,-1.6940432339571192,59332.559848953075,10.5,10500059332.559849,47.655,-122.3035,60.0,12.0
2026-01-20T23:12:01+00:00,SAT-64808,276.3067096006355,40.135606317405426,2630.441878282237,-1.6775877236140975,58756.21827000072,10.5,10500058756.21827,47.655,-122.3035,60.0,12.016666666666667
2026-01-20T23:12:02+00:00,SAT-64808,276.50733198461637,40.16379402249316,2628.768764125886,-1.6610986796454723,58178.70220163264,10.5,10500058178.702202,47.655,-122.3035,60.0,12.033333333333333
2026-01-20T23:12:03+00:00,SAT-64808,276.7083950104217,40.19149525077154,2627.1120950427194,-1.6445763427217637,57600.02007314847,10.5,10500057600.020073,47.655,-122.3035,60.0,12.05
2026-01-20T23:12:04+00:00,SAT-64808,276.90989396943814,40.21870733877621,2625.471904236912,-1.6280209646358825,57020.18070340104,10.5,10500057020.180704,47.655,-122.3035,60.0,12.066666666666666
2026-01-20T23:12:05+00:00,SAT-64808,277.1118240851331,40.245427645829295,2623.848224661515,-1.6114327944394016,56439.19281522991,10.5,10500056439.192816,47.655,-122.3035,60.0,12.083333333333334
2026-01-20T23:12:06+00:00,SAT-64808,277.3141805126501,40.27165355451725,2622.241089021194,-1.594812085582027,55857.06528551589,10.5,10500055857.065285,47.655,-122.3035,60.0,12.1
2026-01-20T23:12:07+00:00,SAT-64808,277.5169583393712,40.297382471290895,2620.65052976784,-1.5781590941623072,55273.807083913445,10.5,10500055273.807083,47.655,-122.3035,60.0,12.116666666666667
2026-01-20T23:12:08+00:00,SAT-64808,277.7201525852253,40.32261182703195,2619.076579097929,-1.5614740805127694,54689.427328368874,10.5,10500054689.427328,47.655,-122.3035,60.0,12.133333333333333
2026-01-20T23:12:09+00:00,SAT-64808,277.92375820329187,40.34733907764689,2617.5192689482974,-1.5447573013387759,54103.935009789835,10.5,10500054103.935009,47.655,-122.3035,60.0,12.15
2026-01-20T23:12:10+00:00,SAT-64808,278.1277700793251,40.37156170453292,2615.9786309997626,-1.5280090302297664,53517.33971043577,10.5,10500053517.33971,47.655,-122.3035,60.0,12.166666666666666
2026-01-20T23:12:11+00:00,SAT-64808,278.33218303410325,40.39527721536815,2614.4546966602798,-1.5112295256963002,52929.65048443998,10.5,10500052929.650484,47.655,-122.3035,60.0,12.183333333333334
2026-01-20T23:12:12+00:00,SAT-64808,278.53699182145726,40.41848314439497,2612.9474970799856,-1.4944190642622779,52340.87701683916,10.5,10500052340.877016,47.655,-122.3035,60.0,12.2
2026-01-20T23:12:13+00:00,SAT-64808,278.74219113084877,40.44117705322257,2611.457063133228,-1.4775779139429845,51751.02869466229,10.5,10500051751.028694,47.655,-122.3035,60.0,12.216666666666667
2026-01-20T23:12:14+00:00,SAT-64808,278.94777558629823,40.46335653121311,2609.9834254270554,-1.4607063541774696,51160.11530504691,10.5,10500051160.115305,47.655,-122.3035,60.0,12.233333333333333
2026-01-20T23:12:15+00:00,SAT-64808,279.1537397481564,40.485019196172615,2608.5266142898226,-1.4438046634056223,50568.146600135726,10.5,10500050568.1466,47.655,-122.3035,60.0,12.25
2026-01-20T23:12:16+00:00,SAT-64808,279.36007811312686,40.5061626948493,2607.086659772186,-1.426873119292296,49975.132304926454,10.5,10500049975.132305,47.655,-122.3035,60.0,12.266666666666667
2026-01-20T23:12:17+00:00,SAT-64808,279.56678511434234,40.52678470343522,2605.663591647878,-1.4099120092931992,49381.08248733393,10.5,10500049381.082487,47.655,-122.3035,60.0,12.283333333333333
2026-01-20T23:12:18+00:00,SAT-64808,279.7738551229977,40.54688292822005,2604.2574394039434,-1.3929216199995578,48786.00718499515,10.5,10500048786.007185,47.655,-122.3035,60.0,12.3
2026-01-20T23:12:19+00:00,SAT-64808,279.9812824484771,40.56645510608315,2602.868232241597,-1.3759022383893524,48189.91644909293,10.5,10500048189.916449,47.655,-122.3035,60.0,12.316666666666666
2026-01-20T23:12:20+00:00,SAT-64808,280.18906133864743,40.58549900500439,2601.4959990758434,-1.3588541565486825,47592.82050971798,10.5,10500047592.820509,47.655,-122.3035,60.0,12.333333333333334
2026-01-20T23:12:21+00:00,SAT-64808,280.3971859809162,40.604012424637766,2600.140768530379,-1.3417776701735302,46994.7297233944,10.5,10500046994.729723,47.655,-122.3035,60.0,12.35
2026-01-20T23:12:22+00:00,SAT-64808,280.60565050306565,40.62199319685798,2598.8025689339925,-1.3246730808913116,46395.65465439018,10.5,10500046395.654654,47.655,-122.3035,60.0,12.366666666666667
2026-01-20T23:12:23+00:00,SAT-64808,280.81444897457186,40.63943918633209,2597.4814283146507,-1.307540678738983,45795.605461026375,10.5,10500045795.605461,47.655,-122.3035,60.0,12.383333333333333
2026-01-20T23:12:24+00:00,SAT-64808,281.0235754050139,40.65634829085556,2596.1773744110546,-1.290380774851228,45194.593040555716,10.5,10500045194.59304,47.655,-122.3035,60.0,12.4
2026-01-20T23:12:25+00:00,SAT-64808,281.23302374788875,40.67271844211824,2594.890434651603,-1.2731936679057543,44592.62785393493,10.5,10500044592.627853,47.655,-122.3035,60.0,12.416666666666666
2026-01-20T23:12:26+00:00,SAT-64808,281.4427878989137,40.6885476060212,2593.6206361668114,-1.2559796738073967,43989.72096548762,10.5,10500043989.720966,47.655,-122.3035,60.0,12.433333333333334
2026-01-20T23:12:27+00:00,SAT-64808,281.65286169935297,40.70383378337194,2592.3680057721344,-1.2387390943624643,43385.88294574734,10.5,10500043385.882946,47.655,-122.3035,60.0,12.45
2026-01-20T23:12:28+00:00,SAT-64808,281.8632389340121,40.718575010179826,2591.1325699820236,-1.221472243409878,42781.124786680644,10.5,10500042781.124786,47.655,-122.3035,60.0,12.466666666666667
2026-01-20T23:12:29+00:00,SAT-64808,282.0739133337306,40.73276935827438,2589.914354997929,-1.204179440067945,42175.45766516055,10.5,10500042175.457664,47.655,-122.3035,60.0,12.483333333333333
2026-01-20T23:12:30+00:00,SAT-64808,282.28487857677544,40.74641493582593,2588.7133867030348,-1.1868610018429002,41568.89270159842,10.5,10500041568.892702,47.655,-122.3035,60.0,12.5
2026-01-20T23:12:31+00:00,SAT-64808,282.4961282890861,40.75950988778062,2587.529690663863,-1.1695172439692356,40961.44093683962,10.5,10500040961.440937,47.655,-122.3035,60.0,12.516666666666667
2026-01-20T23:12:32+00:00,SAT-64808,282.7076560442969,40.77205239628676,2586.3632921325448,-1.1521484918951361,40353.113769456235,10.5,10500040353.11377,47.655,-122.3035,60.0,12.533333333333333
2026-01-20T23:12:33+00:00,SAT-64808,282.9194553661505,40.78404068125521,2585.214216036628,-1.134755071426065,39743.92261053373,10.5,10500039743.922611,47.655,-122.3035,60.0,12.55
2026-01-20T23:12:34+00:00,SAT-64808,283.1315197290983,40.79547300079715,2584.082486978726,-1.1173373115906156,39133.87898404524,10.5,10500039133.878984,47.655,-122.3035,60.0,12.566666666666666
2026-01-20T23:12:35+00:00,SAT-64808,283.34384255951824,40.8063476516872,2582.9681292333,-1.099895533864727,38522.99414943798,10.5,10500038522.99415,47.655,-122.3035,60.0,12.583333333333334
2026-01-20T23:12:36+00:00,SAT-64808,283.556417234751,40.81666296971838,2581.8711667541916,-1.082430078408021,37911.28002054081,10.5,10500037911.28002,47.655,-122.3035,60.0,12.6
2026-01-20T23:12:37+00:00,SAT-64808,283.76923708738326,40.82641733030177,2580.791623155993,-1.0649412775936857,37298.748238468695,10.5,10500037298.748238,47.655,-122.3035,60.0,12.616666666666667
2026-01-20T23:12:38+00:00,SAT-64808,283.9822954043405,40.835609148799534,2579.729521721806,-1.0474294679094558,36685.41058844544,10.5,10500036685.41059,47.655,-122.3035,60.0,12.633333333333333
2026-01-20T23:12:39+00:00,SAT-64808,284.1955854283519,40.84423688096758,2578.6848853991446,-1.0298949823261847,36071.27873251881,10.5,10500036071.278732,47.655,-122.3035,60.0,12.65
2026-01-20T23:12:40+00:00,SAT-64808,284.40910035777597,40.8522990233279,2577.6577368034377,-1.0123381719485163,35456.3649678586,10.5,10500035456.364967,47.655,-122.3035,60.0,12.666666666666666
2026-01-20T23:12:41+00:00,SAT-64808,284.62283335117394,40.85979411370286,2576.6480981999475,-0.9947593732799394,34840.68108024039,10.5,10500034840.68108,47.655,-122.3035,60.0,12.683333333333334
2026-01-20T23:12:42+00:00,SAT-64808,284.8367775248413,40.86672073147865,2575.6559915183298,-0.9771589349637898,34224.23928062858,10.5,10500034224.23928,47.655,-122.3035,60.0,12.7
2026-01-20T23:12:43+00:00,SAT-64808,285.0509259561545,40.8730774980716,2574.6814383405263,-0.9595371983042004,33607.05152293759,10.5,10500033607.051523,47.655,-122.3035,60.0,12.716666666666667
2026-01-20T23:12:44+00:00,SAT-64808,285.26527168256627,40.87886307724668,2573.724459908084,-0.9418945215539257,32989.130354694316,10.5,10500032989.130354,47.655,-122.3035,60.0,12.733333333333333
2026-01-20T23:12:45+00:00,SAT-64808,285.47980770626896,40.884076175580496,2572.7850771052545,-0.9242312539524431,32370.48800774252,10.5,10500032370.488008,47.655,-122.3035,60.0,12.75
2026-01-20T23:12:46+00:00,SAT-64808,285.6945269928626,40.88871554274849,2571.863310467979,-0.9065477434132834,31751.136667485727,10.5,10500031751.136667,47.655,-122.3035,60.0,12.766666666666667
2026-01-20T23:12:47+00:00,SAT-64808,285.9094224717039,40.89277997186732,2570.959180185215,-0.8888443538736392,31131.089080543883,10.5,10500031131.08908,47.655,-122.3035,60.0,12.783333333333333
2026-01-20T23:12:48+00:00,SAT-64808,286.1244870405809,40.89626829990253,2570.0727060829513,-0.8711214373087347,30510.357574578193,10.5,10500030510.357574,47.655,-122.3035,60.0,12.8
2026-01-20T23:12:49+00:00,SAT-64808,286.3397135635753,40.899179407933154,2569.2039076361425,-0.8533793570723262,29888.954875774172,10.5,10500029888.954876,47.655,-122.3035,60.0,12.816666666666666
2026-01-20T23:12:50+00:00,SAT-64808,286.55509487464803,40.901512221512036,2568.3528039573557,-0.8356184707554657,29266.893508483092,10.5,10500029266.893509,47.655,-122.3035,60.0,12.833333333333334
2026-01-20T23:12:51+00:00,SAT-64808,286.770623777007,40.903265710950315,2567.5194138025217,-0.8178391493306322,28644.18646573036,10.5,10500028644.186466,47.655,-122.3035,60.0,12.85
2026-01-20T23:12:52+00:00,SAT-64808,286.98629304744327,40.90443889164018,2566.70375555759,-0.8000417496295977,28020.84624527404,10.5,10500028020.846245,47.655,-122.3035,60.0,12.866666666666667
2026-01-20T23:12:53+00:00,SAT-64808,287.20209543335505,40.90503082431367,2565.9058472526253,-0.7822266442531769,27396.88589717076,10.5,10500027396.885897,47.655,-122.3035,60.0,12.883333333333333
2026-01-20T23:12:54+00:00,SAT-64808,287.4180236578595,40.905040615341704,2565.1257065460904,-0.7643942009558012,26772.318301736308,10.5,10500026772.318302,47.655,-122.3035,60.0,12.9
2026-01-20T23:12:55+00:00,SAT-64808,287.63407041935875,40.90446741698786,2564.3633507296704,-0.7465447912090214,26147.156469475707,10.5,10500026147.15647,47.655,-122.3035,60.0,12.916666666666666
2026-01-20T23:12:56+00:00,SAT-64808,287.85022839342105,40.90331042766335,2563.6187967245714,-0.7286787864005316,25521.41340795699,10.5,10500025521.413408,47.655,-122.3035,60.0,12.933333333333334
2026-01-20T23:12:57+00:00,SAT-64808,288.06649023363434,40.90156889217092,2562.8920610816012,-0.7107965608977188,24895.1022291096,10.5,10500024895.102228,47.655,-122.3035,60.0,12.95
2026-01-20T23:12:58+00:00,SAT-64808,288.282848573328,40.89924210193605,2562.1831599781995,-0.6928984917711908,24268.236139541255,10.5,10500024268.23614,47.655,-122.3035,60.0,12.966666666666667
2026-01-20T23:12:59+00:00,SAT-64808,288.49929602736216,40.89632939521833,2561.4921092157397,-0.6749849565723314,23640.828362698434,10.5,10500023640.828363,47.655,-122.3035,60.0,12.983333333333333
2026-01-20T23:13:00+00:00,SAT-64808,288.7158251931314,40.892830157320375,2560.8189242190515,-0.6570563328377855,23012.89212151143,10.5,10500023012.892122,47.655,-122.3035,60.0,13.0
2026-01-20T23:13:01+00:00,SAT-64808,288.9324286514741,40.88874382079186,2560.163620036434,-0.6391130034232271,22384.440825205427,10.5,10500022384.440825,47.655,-122.3035,60.0,13.016666666666667
2026-01-20T23:13:02+00:00,SAT-64808,289.1490989693204,40.88406986559015,2559.526211334354,-0.6211553490177883,21755.487807124144,10.5,10500021755.487806,47.655,-122.3035,60.0,13.033333333333333
2026-01-20T23:13:03+00:00,SAT-64808,289.36582869987313,40.878807819272886,2558.9067123996,-0.6031837533888892,21126.04650842596,10.5,10500021126.046509,47.655,-122.3035,60.0,13.05
2026-01-20T23:13:04+00:00,SAT-64808,289.5826103845774,40.87295725714694,2558.30513713622,-0.5851986030986498,20496.130468151478,10.5,10500020496.130468,47.655,-122.3035,60.0,13.066666666666666
2026-01-20T23:13:05+00:00,SAT-64808,289.7994365551139,40.86651780239394,2557.7214990627294,-0.5672002833161598,19865.753176551487,10.5,10500019865.753176,47.655,-122.3035,60.0,13.083333333333334
2026-01-20T23:13:06+00:00,SAT-64808,290.0162997337337,40.859489126235175,2557.1558113135025,-0.5491891816087984,19234.928207875004,10.5,10500019234.928207,47.655,-122.3035,60.0,13.1
2026-01-20T23:13:07+00:00,SAT-64808,290.23319243508854,40.85187094804293,2556.608086636378,-0.531165689777415,18603.669284645104,10.5,10500018603.669285,47.655,-122.3035,60.0,13.116666666666667
2026-01-20T23:13:08+00:00,SAT-64808,290.45010716894234,40.843663035399466,2556.07833738844,-0.5131301961664565,17971.990008327004,10.5,10500017971.990007,47.655,-122.3035,60.0,13.133333333333333
2026-01-20T23:13:09+00:00,SAT-64808,290.6670364396419,40.83486520426058,2555.566575539463,-0.4950830919826636,17339.90408063557,10.5,10500017339.904081,47.655,-122.3035,60.0,13.15
2026-01-20T23:13:10+00:00,SAT-64808,290.8839727480799,40.82547731902656,2555.072812669059,-0.4770247721016155,16707.425331783907,10.5,10500016707.425331,47.655,-122.3035,60.0,13.166666666666666
2026-01-20T23:13:11+00:00,SAT-64808,291.10090859448616,40.815499292550165,2554.5970599630164,-0.4589556306772193,16074.567566709109,10.5,10500016074.567566,47.655,-122.3035,60.0,13.183333333333334
2026-01-20T23:13:12+00:00,SAT-64808,291.3178364789237,40.8049310862295,2554.139328214021,-0.44087606124589507,15441.344568721266,10.5,10500015441.344568,47.655,-122.3035,60.0,13.2
2026-01-20T23:13:13+00:00,SAT-64808,291.5347489018612,40.79377271009696,2553.699627822272,-0.4227864613351128,14807.770260913918,10.5,10500014807.770262,47.655,-122.3035,60.0,13.216666666666667
2026-01-20T23:13:14+00:00,SAT-64808,291.75163836708634,40.78202422277893,2553.2779687915004,-0.40468722895210185,14173.8585831838,10.5,10500014173.858583,47.655,-122.3035,60.0,13.233333333333333
2026-01-20T23:13:15+00:00,SAT-64808,291.9684973829918,40.76968573151527,2552.874360728492,-0.38657876198974206,13539.62347142266,10.5,10500013539.623472,47.655,-122.3035,60.0,13.25
2026-01-20T23:13:16+00:00,SAT-64808,292.185318463265,40.756757392204484,2552.488812843201,-0.36846145900617316,12905.07888482244,10.5,10500012905.078884,47.655,-122.3035,60.0,13.266666666666667
2026-01-20T23:13:17+00:00,SAT-64808,292.4020941282026,40.743239409407906,2552.1213339480855,-0.3503357218919318,12270.238899289734,10.5,10500012270.2389,47.655,-122.3035,60.0,13.283333333333333
2026-01-20T23:13:18+00:00,SAT-64808,292.6188169075788,40.729132036239015,2551.771932454785,-0.3322019511958543,11635.11754373911,10.5,10500011635.117544,47.655,-122.3035,60.0,13.3
2026-01-20T23:13:19+00:00,SAT-64808,292.83547934085334,40.71443557440176,2551.4406163754593,-0.3140605497669799,10999.728927647968,10.5,10500010999.728928,47.655,-122.3035,60.0,13.316666666666666
2026-01-20T23:13:20+00:00,SAT-64808,293.0520739794826,40.69915037408328,2551.1273933204916,-0.29591191867710315,10364.087098247091,10.5,10500010364.0871,47.655,-122.3035,60.0,13.333333333333334
2026-01-20T23:13:21+00:00,SAT-64808,293.26859338637644,40.68327683403412,2550.8322705002647,-0.2777564632452112,9728.206251521904,10.5,10500009728.206251,47.655,-122.3035,60.0,13.35
2026-01-20T23:13:22+00:00,SAT-64808,293.485030140043,40.6668154013012,2550.5552547209213,-0.2595945871721196,9092.100526782619,10.5,10500009092.100527,47.655,-122.3035,60.0,13.366666666666667
2026-01-20T23:13:23+00:00,SAT-64808,293.7013768342061,40.649766571268984,2550.2963523859817,-0.24142669623777085,8455.78413615927,10.5,10500008455.784136,47.655,-122.3035,60.0,13.383333333333333
2026-01-20T23:13:24+00:00,SAT-64808,293.9176260804695,40.6321308874617,2550.055569494267,-0.22325319512638556,7819.271253405075,10.5,10500007819.271254,47.655,-122.3035,60.0,13.4
2026-01-20T23:13:25+00:00,SAT-64808,294.1337705079226,40.61390894157645,2549.832911640994,-0.2050744909072599,7182.57613580869,10.5,10500007182.576136,47.655,-122.3035,60.0,13.416666666666666
2026-01-20T23:13:26+00:00,SAT-64808,294.34980276652425,40.59510137319388,2549.628384015396,-0.1868909896464641,6545.71300552155,10.5,10500006545.713005,47.655,-122.3035,60.0,13.433333333333334
2026-01-20T23:13:27+00:00,SAT-64808,294.56571552650286,40.57570886981143,2549.441991401722,-0.16870309998166044,5908.696174763124,10.5,10500005908.696175,47.655,-122.3035,60.0,13.45
2026-01-20T23:13:28+00:00,SAT-64808,294.7815014828026,40.55573216641694,2549.2737381766738,-0.15051122817102627,5271.539872413254,10.5,10500005271.539873,47.655,-122.3035,60.0,13.466666666666667
2026-01-20T23:13:29+00:00,SAT-64808,294.9971533519285,40.53517204573586,2549.123628311778,-0.13231578359270002,4634.258436626015,10.5,10500004634.258436,47.655,-122.3035,60.0,13.483333333333333
2026-01-20T23:13:30+00:00,SAT-64808,295.2126638778231,40.51402933764047,2548.991665370275,-0.11411717431920365,3996.866159827271,10.5,10500003996.86616,47.655,-122.3035,60.0,13.5
2026-01-20T23:13:31+00:00,SAT-64808,295.42802583031585,40.49230491922964,2548.8778525084203,-0.09591580952030551,3359.3773728730957,10.5,10500003359.377373,47.655,-122.3035,60.0,13.516666666666667
2026-01-20T23:13:32+00:00,SAT-64808,295.64323200788874,40.469999714491195,2548.782192474392,-0.0777120980267914,2721.806394746961,10.5,10500002721.806395,47.655,-122.3035,60.0,13.533333333333333
2026-01-20T23:13:33+00:00,SAT-64808,295.85827523721184,40.44711469427257,2548.7046876086265,-0.05950644979210458,2084.167583752551,10.5,10500002084.167583,47.655,-122.3035,60.0,13.55
2026-01-20T23:13:34+00:00,SAT-64808,296.07314837729285,40.42365087576067,2548.6453398427007,-0.04129927418421912,1446.4752776879423,10.5,10500001446.475277,47.655,-122.3035,60.0,13.566666666666666
2026-01-20T23:13:35+00:00,SAT-64808,296.2878443186399,40.39960932246394,2548.6041506999145,-0.023090981222646884,808.7438371708214,10.5,10500000808.743837,47.655,-122.3035,60.0,13.583333333333334
2026-01-20T23:13:36+00:00,SAT-64808,296.5023559837778,40.3749911440584,2548.5811212946414,-0.0048819805208321,170.98760859666805,10.5,10500000170.987608,47.655,-122.3035,60.0,13.6
2026-01-20T23:13:37+00:00,SAT-64808,296.71667633232846,40.349797495693394,2548.5762523327353,0.013327317433643,-466.7790310230269,10.5,10499999533.220968,47.655,-122.3035,60.0,13.616666666666667
2026-01-20T23:13:38+00:00,SAT-64808,296.9307983569835,40.324029578325195,2548.589544110656,0.03153650321080151,-1104.5417417185854,10.5,10499998895.458258,47.655,-122.3035,60.0,13.633333333333333
2026-01-20T23:13:39+00:00,SAT-64808,297.14471508980563,40.297688637841325,2548.620996516525,0.04974516605573759,-1742.2861371157132,10.5,10499998257.713863,47.655,-122.3035,60.0,13.65
2026-01-20T23:13:40+00:00,SAT-64808,297.3584195989222,40.270775965309205,2548.6706090288044,0.06795289690439259,-2379.997890060737,10.5,10499997620.00211,47.655,-122.3035,60.0,13.666666666666666
2026-01-20T23:13:41+00:00,SAT-64808,297.57190499402304,40.2432928961415,2548.738380717984,0.08615928497340034,-3017.662613182562,10.5,10499996982.337387,47.655,-122.3035,60.0,13.683333333333334
2026-01-20T23:13:42+00:00,SAT-64808,297.7851644234189,40.21524081029791,2548.8243102448637,0.10436392131051052,-3655.265983243516,10.5,10499996344.734016,47.655,-122.3035,60.0,13.7
2026-01-20T23:13:43+00:00,SAT-64808,297.998191078581,40.186621131527325,2548.928395862384,0.12256639586622636,-4292.793638575713,10.5,10499995707.206362,47.655,-122.3035,60.0,13.716666666666667
2026-01-20T23:13:44+00:00,SAT-64808,298.2109781929672,40.15743532733209,2549.050635414528,0.14076629976300584,-4930.231258558083,10.5,10499995069.768742,47.655,-122.3035,60.0,13.733333333333333
2026-01-20T23:13:45+00:00,SAT-64808,298.42351904455495,40.12768490843279,2549.1910263374916,0.15896322404402463,-5567.5645197927515,10.5,10499994432.43548,47.655,-122.3035,60.0,13.75
2026-01-20T23:13:46+00:00,SAT-64808,298.63580695639865,40.09737142848274,2549.349565659605,0.1771567599049244,-6204.779104221849,10.5,10499993795.220896,47.655,-122.3035,60.0,13.766666666666667
2026-01-20T23:13:47+00:00,SAT-64808,298.8478352975271,40.06649648372728,2549.5262500014837,0.1953464982262505,-6841.8606827515,10.5,10499993158.139317,47.655,-122.3035,60.0,13.783333333333333
2026-01-20T23:13:48+00:00,SAT-64808,299.05959748347476,40.03506171270816,2549.7210755757146,0.21353203290534087,-7478.795031948666,10.5,10499992521.204967,47.655,-122.3035,60.0,13.8
2026-01-20T23:13:49+00:00,SAT-64808,299.2710869796064,40.003068795539235,2549.9340381898655,0.23171295516121532,-8115.56783457428,10.5,10499991884.432165,47.655,-122.3035,60.0,13.816666666666666
2026-01-20T23:13:50+00:00,SAT-64808,299.48229729930813,39.97051945392697,2550.1651332438128,0.24988885836672878,-8752.16484882569,10.5,10499991247.835152,47.655,-122.3035,60.0,13.833333333333334
2026-01-20T23:13:51+00:00,SAT-64808,299.69322200654653,39.93741545053538,2550.4143557318907,0.26805933598164217,-9388.57183594406,10.5,10499990611.428164,47.655,-122.3035,60.0,13.85
2026-01-20T23:13:52+00:00,SAT-64808,299.9038547163419,39.90375858864801,2550.681700242976,0.28622398288517387,-10024.77460688596,10.5,10499989975.225393,47.655,-122.3035,60.0,13.866666666666667
2026-01-20T23:13:53+00:00,SAT-64808,300.11418909638127,39.86955071163978,2550.967160961907,0.30438239319268806,-10660.758945854552,10.5,10499989339.241055,47.655,-122.3035,60.0,13.883333333333333
2026-01-20T23:13:54+00:00,SAT-64808,300.32421886691543,39.83479370271085,2551.2707316687183,0.32253416289132253,-11296.510702610427,10.5,10499988703.489298,47.655,-122.3035,60.0,13.9
2026-01-20T23:13:55+00:00,SAT-64808,300.5339378025154,39.79948948430968,2551.592405740508,0.34067888696956294,-11932.015691937155,10.5,10499988067.984308,47.655,-122.3035,60.0,13.916666666666666
2026-01-20T23:13:56+00:00,SAT-64808,300.7433397319148,39.763640017860766,2551.9321761504457,0.35881616388195375,-12567.259850014352,10.5,10499987432.74015,47.655,-122.3035,60.0,13.933333333333334
2026-01-20T23:13:57+00:00,SAT-64808,300.952418540426,39.727247303046234,2552.290035471224,0.3769455915880336,-13202.229095684432,10.5,10499986797.770905,47.655,-122.3035,60.0,13.95
2026-01-20T23:13:58+00:00,SAT-64808,301.16116816991575,39.69031337748534,2552.6659758745677,0.3950667671655798,-13836.909316906791,10.5,10499986163.090683,47.655,-122.3035,60.0,13.966666666666667
2026-01-20T23:13:59+00:00,SAT-64808,301.3695826188798,39.65284031639494,2553.0599891303546,0.4131792896408841,-14471.286469886052,10.5,10499985528.71353,47.655,-122.3035,60.0,13.983333333333333
2026-01-20T23:14:00+00:00,SAT-64808,301.5776559437878,39.614830232023124,2553.472066608556,0.43128276329624715,-15105.346694914502,10.5,10499984894.653305,47.655,-122.3035,60.0,14.0
2026-01-20T23:14:01+00:00,SAT-64808,301.78538226173436,39.57628527281372,2553.9021992844837,0.44937678394753633,-15739.07583575412,10.5,10499984260.924164,47.655,-122.3035,60.0,14.016666666666667
2026-01-20T23:14:02+00:00,SAT-64808,301.99275574700346,39.537207623681425,2554.350377730341,0.4674609582992281,-16372.460117532028,10.5,10499983627.539883,47.655,-122.3035,60.0,14.033333333333333
2026-01-20T23:14:03+00:00,SAT-64808,302.199770636126,39.4975995047165,2554.8165921260843,0.48553488747707,-17005.48556998467,10.5,10499982994.51443,47.655,-122.3035,60.0,14.05
2026-01-20T23:14:04+00:00,SAT-64808,302.40642122562485,39.45746317122548,2555.3008322538617,0.503598178365956,-17638.138424558158,10.5,10499982361.861576,47.655,-122.3035,60.0,14.066666666666666
2026-01-20T23:14:05+00:00,SAT-64808,302.61270187472815,39.416800912835726,2555.8030875037516,0.5216504322029341,-18270.40471488715,10.5,10499981729.595285,47.655,-122.3035,60.0,14.083333333333334
2026-01-20T23:14:06+00:00,SAT-64808,302.8186070032747,39.375615053511034,2556.3233468681356,0.5396912607258888,-18902.27084239001,10.5,10499981097.729158,47.655,-122.3035,60.0,14.1
2026-01-20T23:14:07+00:00,SAT-64808,303.0241310959226,39.33390795032725,2556.8615989521663,0.5577202671173334,-19533.72290883982,10.5,10499980466.277092,47.655,-122.3035,60.0,14.116666666666667
2026-01-20T23:14:08+00:00,SAT-64808,303.22926869914266,39.29168199366173,2557.417831965238,0.5757370666859043,-20164.747440717787,10.5,10499979835.25256,47.655,-122.3035,60.0,14.133333333333333
2026-01-20T23:14:09+00:00,SAT-64808,303.43401442554875,39.248939605898684,2557.992033733079,0.593741263208732,-20795.330560622995,10.5,10499979204.66944,47.655,-122.3035,60.0,14.15
2026-01-20T23:14:10+00:00,SAT-64808,303.63836295015426,39.205683241775354,2558.5841916862532,0.611732472650565,-21425.458818016472,10.5,10499978574.541182,47.655,-122.3035,60.0,14.166666666666666
2026-01-20T23:14:11+00:00,SAT-64808,303.8423090144804,39.16191538709979,2559.1942928723097,0.6297103066725467,-22055.118611628783,10.5,10499977944.881388,47.655,-122.3035,60.0,14.183333333333334
2026-01-20T23:14:12+00:00,SAT-64808,304.04584742517864,39.11763855859652,2559.8223239514978,0.647674382551649,-22684.296536880574,10.5,10499977315.703463,47.655,-122.3035,60.0,14.2
2026-01-20T23:14:13+00:00,SAT-64808,304.24897305583585,39.07285530307105,2560.4682712023628,0.6656243106835483,-23312.9789481804,10.5,10499976687.021051,47.655,-122.3035,60.0,14.216666666666667
2026-01-20T23:14:14+00:00,SAT-64808,304.4516808448859,39.02756819740941,2561.1321205148847,0.6835597154760479,-23941.152690700786,10.5,10499976058.84731,47.655,-122.3035,60.0,14.233333333333333
