satellites_20260121_005943/SAT-54791.csv

timestamp,satellite,azimuth_deg,elevation_deg,distance_km,relative_velocity_kms,doppler_shift_hz,tx_freq_ghz,rx_freq_hz,ue_lat,ue_lon,ue_alt_m,time_minutes
2026-01-20T23:10:52+00:00,SAT-54791,209.92487410739196,30.03729616271577,1658.3203192801714,-6.100069977110918,213650.2538688436,10.5,10500213650.253868,47.655,-122.3035,60.0,10.866666666666667
2026-01-20T23:10:53+00:00,SAT-54791,209.92330322562853,30.176465922979766,1652.2365161563328,-6.0938900606187385,213433.80705226664,10.5,10500213433.807053,47.655,-122.3035,60.0,10.883333333333333
2026-01-20T23:10:54+00:00,SAT-54791,209.92191731735238,30.316469717491387,1646.1588764692092,-6.087634627946589,213214.71533963404,10.5,10500213214.71534,47.655,-122.3035,60.0,10.9
2026-01-20T23:10:55+00:00,SAT-54791,209.9207192367196,30.457315901324097,1640.0874755336038,-6.081302633076292,212992.94209496444,10.5,10500212992.942095,47.655,-122.3035,60.0,10.916666666666666
2026-01-20T23:10:56+00:00,SAT-54791,209.91971189704108,30.59901292528396,1634.0223897075489,-6.0748930768587055,212768.45232382865,10.5,10500212768.452324,47.655,-122.3035,60.0,10.933333333333334
2026-01-20T23:10:57+00:00,SAT-54791,209.91889827231986,30.741569338409324,1627.9636963455619,-6.068404875878043,212541.20808042292,10.5,10500212541.20808,47.655,-122.3035,60.0,10.95
2026-01-20T23:10:58+00:00,SAT-54791,209.91828139882693,30.884993787443985,1621.911473882686,-6.061836966458283,212311.17211031364,10.5,10500212311.17211,47.655,-122.3035,60.0,10.966666666666667
2026-01-20T23:10:59+00:00,SAT-54791,209.91786437672636,31.02929501872883,1615.865801814805,-6.055188273764165,212078.3067682234,10.5,10500212078.306768,47.655,-122.3035,60.0,10.983333333333333
2026-01-20T23:11:00+00:00,SAT-54791,209.91765037178018,31.174481879394403,1609.826760709771,-6.048457689681693,211842.57324331283,10.5,10500211842.573244,47.655,-122.3035,60.0,11.0
2026-01-20T23:11:01+00:00,SAT-54791,209.91764261706453,31.32056331803794,1603.7944322405951,-6.041644094614662,211603.9323225868,10.5,10500211603.932323,47.655,-122.3035,60.0,11.016666666666667
2026-01-20T23:11:02+00:00,SAT-54791,209.91784441476855,31.467548385919454,1597.7688991968992,-6.0347463654418485,211362.34466958942,10.5,10500211362.34467,47.655,-122.3035,60.0,11.033333333333333
2026-01-20T23:11:03+00:00,SAT-54791,209.91825913805485,31.61544623836998,1591.750245488432,-6.027763295123266,211117.7680086745,10.5,10500211117.76801,47.655,-122.3035,60.0,11.05
2026-01-20T23:11:04+00:00,SAT-54791,209.91889023292705,31.764266134232773,1585.7385562287625,-6.020693771730216,210870.1633953956,10.5,10500210870.163395,47.655,-122.3035,60.0,11.066666666666666
2026-01-20T23:11:05+00:00,SAT-54791,209.91974122026258,31.91401743969598,1579.7339176404234,-6.013536576869334,210619.48815646322,10.5,10500210619.488157,47.655,-122.3035,60.0,11.083333333333334
2026-01-20T23:11:06+00:00,SAT-54791,209.92081569780925,32.06470962720411,1573.7364171610925,-6.006290493406365,210365.6996626874,10.5,10500210365.699663,47.655,-122.3035,60.0,11.1
2026-01-20T23:11:07+00:00,SAT-54791,209.9221173422802,32.216352276998805,1567.746143442335,-5.998954286413521,210108.7546616732,10.5,10500210108.754662,47.655,-122.3035,60.0,11.116666666666667
2026-01-20T23:11:08+00:00,SAT-54791,209.92364991154048,32.368955078198084,1561.763186367352,-5.9915267410242254,209848.61060365426,10.5,10500209848.610603,47.655,-122.3035,60.0,11.133333333333333
2026-01-20T23:11:09+00:00,SAT-54791,209.92541724687405,32.52252783085913,1555.7876370309705,-5.9840065414143,209585.22140290184,10.5,10500209585.221403,47.655,-122.3035,60.0,11.15
2026-01-20T23:11:10+00:00,SAT-54791,209.927423275236,32.67708044495848,1549.8195878403333,-5.976392412806698,209318.54241133155,10.5,10500209318.542412,47.655,-122.3035,60.0,11.166666666666666
2026-01-20T23:11:11+00:00,SAT-54791,209.92967201169745,32.832622942979526,1543.8591324739607,-5.968683070719407,209048.52864094992,10.5,10500209048.52864,47.655,-122.3035,60.0,11.183333333333334
2026-01-20T23:11:12+00:00,SAT-54791,209.93216756193925,32.989165461243076,1537.9063658914301,-5.960877153218993,208775.13239108713,10.5,10500208775.132391,47.655,-122.3035,60.0,11.2
2026-01-20T23:11:13+00:00,SAT-54791,209.93491412474432,33.14671824946153,1531.9613844106195,-5.952973318256121,208498.30665749862,10.5,10500208498.306658,47.655,-122.3035,60.0,11.216666666666667
2026-01-20T23:11:14+00:00,SAT-54791,209.93791599470205,33.305291672818214,1526.0242856878788,-5.944970192129783,208218.00332736428,10.5,10500208218.003326,47.655,-122.3035,60.0,11.233333333333333
2026-01-20T23:11:15+00:00,SAT-54791,209.94117756491508,33.464896212714,1520.095168749595,-5.936866374695278,207934.17336169418,10.5,10500207934.17336,47.655,-122.3035,60.0,11.25
2026-01-20T23:11:16+00:00,SAT-54791,209.94470332984557,33.62554246763784,1514.1741340185654,-5.92866046878633,207646.7678258152,10.5,10500207646.767826,47.655,-122.3035,60.0,11.266666666666667
2026-01-20T23:11:17+00:00,SAT-54791,209.9484978882544,33.78724115483627,1508.2612833110293,-5.920350999102952,207355.73504848144,10.5,10500207355.735048,47.655,-122.3035,60.0,11.283333333333333
2026-01-20T23:11:18+00:00,SAT-54791,209.9525659461838,33.9500031097772,1502.3567199145905,-5.911936538629344,207061.02504956315,10.5,10500207061.02505,47.655,-122.3035,60.0,11.3
2026-01-20T23:11:19+00:00,SAT-54791,209.95691232017006,34.113839289044954,1496.460548540064,-5.903415581823648,206762.58509861614,10.5,10500206762.585098,47.655,-122.3035,60.0,11.316666666666666
2026-01-20T23:11:20+00:00,SAT-54791,209.9615419404256,34.27876076977626,1490.5728753997919,-5.894786624278101,206460.36250491685,10.5,10500206460.362505,47.655,-122.3035,60.0,11.333333333333334
2026-01-20T23:11:21+00:00,SAT-54791,209.96645985423496,34.44477875126329,1484.693808206512,-5.886048128502118,206154.30341904142,10.5,10500206154.30342,47.655,-122.3035,60.0,11.35
2026-01-20T23:11:22+00:00,SAT-54791,209.97167122942778,34.61190455560579,1478.8234562063524,-5.877198552502542,205844.35383386695,10.5,10500205844.353834,47.655,-122.3035,60.0,11.366666666666667
2026-01-20T23:11:23+00:00,SAT-54791,209.97718135800497,34.78014962916401,1472.9619301833234,-5.868236300052055,205530.45784276057,10.5,10500205530.457842,47.655,-122.3035,60.0,11.383333333333333
2026-01-20T23:11:24+00:00,SAT-54791,209.98299565984976,34.949525542587544,1467.1093425134047,-5.859159769014515,205212.55933213775,10.5,10500205212.559332,47.655,-122.3035,60.0,11.4
2026-01-20T23:11:25+00:00,SAT-54791,209.9891196866119,35.12004399220132,1461.265807170441,-5.849967329104511,204890.60120250712,10.5,10500204890.601202,47.655,-122.3035,60.0,11.416666666666666
2026-01-20T23:11:26+00:00,SAT-54791,209.99555912573337,35.291716800746144,1455.431439754214,-5.840657322366345,204564.5253852471,10.5,10500204564.525385,47.655,-122.3035,60.0,11.433333333333334
2026-01-20T23:11:27+00:00,SAT-54791,210.0023198046001,35.464555918118606,1449.6063575180406,-5.831228070912202,204234.27311362888,10.5,10500204234.273113,47.655,-122.3035,60.0,11.45
2026-01-20T23:11:28+00:00,SAT-54791,210.0094076948664,35.63857342231846,1443.790679388651,-5.821677850453286,203899.78399576517,10.5,10500203899.783997,47.655,-122.3035,60.0,11.466666666666667
2026-01-20T23:11:29+00:00,SAT-54791,210.01682891690797,35.81378151958732,1437.9845260124653,-5.812004934691051,203560.99756937858,10.5,10500203560.99757,47.655,-122.3035,60.0,11.483333333333333
2026-01-20T23:11:30+00:00,SAT-54791,210.02458974449215,35.99019254584722,1432.1880197576002,-5.802207570722406,203217.85244038817,10.5,10500203217.85244,47.655,-122.3035,60.0,11.5
2026-01-20T23:11:31+00:00,SAT-54791,210.03269660962147,36.16781896739585,1426.4012847404,-5.792283952499723,202870.28535336631,10.5,10500202870.285353,47.655,-122.3035,60.0,11.516666666666667
2026-01-20T23:11:32+00:00,SAT-54791,210.04115610746334,36.34667338075922,1420.62444687844,-5.782232267037404,202518.23280988858,10.5,10500202518.23281,47.655,-122.3035,60.0,11.533333333333333
2026-01-20T23:11:33+00:00,SAT-54791,210.04997500160124,36.526768513914455,1414.857633897448,-5.772050667162422,202161.63011414197,10.5,10500202161.630114,47.655,-122.3035,60.0,11.55
2026-01-20T23:11:34+00:00,SAT-54791,210.05916022940238,36.70811722665902,1409.100975365398,-5.761737273106314,201800.4114286834,10.5,10500201800.411428,47.655,-122.3035,60.0,11.566666666666666
2026-01-20T23:11:35+00:00,SAT-54791,210.06871890761096,36.89073251098708,1403.3546027250202,-5.751290204628472,201434.51089953358,10.5,10500201434.510899,47.655,-122.3035,60.0,11.583333333333334
2026-01-20T23:11:36+00:00,SAT-54791,210.0786583382325,37.07462749245293,1397.6186492942707,-5.740707479474614,201063.85909976243,10.5,10500201063.8591,47.655,-122.3035,60.0,11.6
2026-01-20T23:11:37+00:00,SAT-54791,210.08898601440833,37.259815428258435,1391.8932503680744,-5.729987192794612,200688.38931346106,10.5,10500200688.389313,47.655,-122.3035,60.0,11.616666666666667
2026-01-20T23:11:38+00:00,SAT-54791,210.0997096269439,37.446309711032605,1386.1785431411274,-5.7191272927017165,200308.02967487602,10.5,10500200308.029675,47.655,-122.3035,60.0,11.633333333333333
2026-01-20T23:11:39+00:00,SAT-54791,210.11083707056738,37.63412386535582,1380.4746668545397,-5.708125808791804,199922.7111721201,10.5,10500199922.711172,47.655,-122.3035,60.0,11.65
2026-01-20T23:11:40+00:00,SAT-54791,210.1223764509852,37.82327155163109,1374.7817627145712,-5.696980647151656,199532.3604674951,10.5,10500199532.360468,47.655,-122.3035,60.0,11.666666666666666
2026-01-20T23:11:41+00:00,SAT-54791,210.13433609172316,38.01376656322175,1369.099974015812,-5.6856897460406515,199136.9053501234,10.5,10500199136.90535,47.655,-122.3035,60.0,11.683333333333334
2026-01-20T23:11:42+00:00,SAT-54791,210.14672454162923,38.205622828640735,1363.429446109094,-5.674250968313097,198736.27096812264,10.5,10500198736.270967,47.655,-122.3035,60.0,11.7
2026-01-20T23:11:43+00:00,SAT-54791,210.15955058240516,38.39885441011977,1357.7703264766965,-5.662662178526595,198330.38252926714,10.5,10500198330.38253,47.655,-122.3035,60.0,11.716666666666667
2026-01-20T23:11:44+00:00,SAT-54791,210.1728232366591,38.59347550469377,1352.122764730646,-5.650921195353872,197919.1636342488,10.5,10500197919.163633,47.655,-122.3035,60.0,11.733333333333333
2026-01-20T23:11:45+00:00,SAT-54791,210.18655177616134,38.789500443623844,1346.4869126584797,-5.6390257835402045,197502.53599499207,10.5,10500197502.535995,47.655,-122.3035,60.0,11.75
2026-01-20T23:11:46+00:00,SAT-54791,210.20074573039489,38.98694369144397,1340.862924277029,-5.626973739373777,197080.42242818748,10.5,10500197080.422428,47.655,-122.3035,60.0,11.766666666666667
2026-01-20T23:11:47+00:00,SAT-54791,210.21541489577132,39.18581984791826,1335.2509558009601,-5.614762713238729,196652.74064034875,10.5,10500196652.74064,47.655,-122.3035,60.0,11.783333333333333
2026-01-20T23:11:48+00:00,SAT-54791,210.23056934461275,39.38614364369345,1329.6511657882902,-5.602390453259004,196219.411761251,10.5,10500196219.41176,47.655,-122.3035,60.0,11.8
2026-01-20T23:11:49+00:00,SAT-54791,210.24621943537278,39.587929944447396,1324.0637150429063,-5.589854585424701,195780.3526430253,10.5,10500195780.352644,47.655,-122.3035,60.0,11.816666666666666
2026-01-20T23:11:50+00:00,SAT-54791,210.26237582250744,39.79119374718955,1318.4887667363762,-5.577152721263503,195335.47963126804,10.5,10500195335.479631,47.655,-122.3035,60.0,11.833333333333334
2026-01-20T23:11:51+00:00,SAT-54791,210.279049467177,39.99595018025181,1312.9264864223692,-5.564282441928582,194884.70800773153,10.5,10500194884.708008,47.655,-122.3035,60.0,11.85
2026-01-20T23:11:52+00:00,SAT-54791,210.2962516483243,40.20221450262684,1307.3770420669528,-5.551241308040774,194427.9523350388,10.5,10500194427.952335,47.655,-122.3035,60.0,11.866666666666667
2026-01-20T23:11:53+00:00,SAT-54791,210.3139939743006,40.410002103578634,1301.8406040690668,-5.5380268107798,193965.1247436915,10.5,10500193965.124744,47.655,-122.3035,60.0,11.883333333333333
2026-01-20T23:11:54+00:00,SAT-54791,210.33228839479918,40.61932850031228,1296.3173453297823,-5.524636449136208,193496.13763775936,10.5,10500193496.137638,47.655,-122.3035,60.0,11.9
2026-01-20T23:11:55+00:00,SAT-54791,210.35114721363485,40.83020933841349,1290.8074412445105,-5.511067628125887,193020.9001299219,10.5,10500193020.90013,47.655,-122.3035,60.0,11.916666666666666
2026-01-20T23:11:56+00:00,SAT-54791,210.37058310165426,41.042660388313635,1285.311069796726,-5.497317783732076,192539.32241746658,10.5,10500192539.322418,47.655,-122.3035,60.0,11.933333333333334
2026-01-20T23:11:57+00:00,SAT-54791,210.39060911078553,41.25669754637825,1279.828411527084,-5.48338426231804,192051.31155880983,10.5,10500192051.31156,47.655,-122.3035,60.0,11.95
2026-01-20T23:11:58+00:00,SAT-54791,210.41123868816763,41.47233683124177,1274.359649622799,-5.4692643929251235,191556.77400568163,10.5,10500191556.774006,47.655,-122.3035,60.0,11.966666666666667
2026-01-20T23:11:59+00:00,SAT-54791,210.432485691275,41.68959438275781,1268.9049699349214,-5.454955485724228,191055.61554888883,10.5,10500191055.61555,47.655,-122.3035,60.0,11.983333333333333
2026-01-20T23:12:00+00:00,SAT-54791,210.454364403705,41.908486460773815,1263.4645609971592,-5.4404547621970725,190547.7388729681,10.5,10500190547.738873,47.655,-122.3035,60.0,12.0
2026-01-20T23:12:01+00:00,SAT-54791,210.47688955138122,42.129029440939156,1258.038614114328,-5.425759471570617,190033.04763421195,10.5,10500190033.047634,47.655,-122.3035,60.0,12.016666666666667
2026-01-20T23:12:02+00:00,SAT-54791,210.50007632006657,42.351239815006004,1252.6273233346815,-5.410866769280628,189511.4422039483,10.5,10500189511.442204,47.655,-122.3035,60.0,12.033333333333333
2026-01-20T23:12:03+00:00,SAT-54791,210.5239403731071,42.57513418605449,1247.2308855434524,-5.395773814657867,188982.82308992444,10.5,10500188982.82309,47.655,-122.3035,60.0,12.05
2026-01-20T23:12:04+00:00,SAT-54791,210.54849787048965,42.80072926748616,1241.849500458967,-5.380477696561563,188447.0883316765,10.5,10500188447.088331,47.655,-122.3035,60.0,12.066666666666666
2026-01-20T23:12:05+00:00,SAT-54791,210.57376548845204,43.028041878766274,1236.4833707029295,-5.364975483247972,187904.13524713722,10.5,10500187904.135246,47.655,-122.3035,60.0,12.083333333333334
2026-01-20T23:12:06+00:00,SAT-54791,210.59976044025987,43.2570889430027,1231.1327018209702,-5.349264201361583,187353.85969681942,10.5,10500187353.859697,47.655,-122.3035,60.0,12.1
2026-01-20T23:12:07+00:00,SAT-54791,210.62650049791924,43.48788748344055,1225.7977023241456,-5.333340832907912,186796.15597779007,10.5,10500186796.155977,47.655,-122.3035,60.0,12.116666666666667
2026-01-20T23:12:08+00:00,SAT-54791,210.654004014882,43.72045461957518,1220.4785837334587,-5.317202345342142,186230.91787750207,10.5,10500186230.917877,47.655,-122.3035,60.0,12.133333333333333
2026-01-20T23:12:09+00:00,SAT-54791,210.68228995009596,43.95480756433424,1215.1755605943708,-5.300845625527237,185658.03636072789,10.5,10500185658.03636,47.655,-122.3035,60.0,12.15
2026-01-20T23:12:10+00:00,SAT-54791,210.71137789280138,44.19096361810694,1209.8888505571783,-5.284267545379668,185077.40186875054,10.5,10500185077.401869,47.655,-122.3035,60.0,12.166666666666666
2026-01-20T23:12:11+00:00,SAT-54791,210.74128808899025,44.42894016535422,1204.6186743919197,-5.267464955528366,184488.90409727333,10.5,10500184488.904097,47.655,-122.3035,60.0,12.183333333333334
2026-01-20T23:12:12+00:00,SAT-54791,210.77204146916253,44.668754670705404,1199.3652560096061,-5.250434645851186,183892.43061423997,10.5,10500183892.430614,47.655,-122.3035,60.0,12.2
2026-01-20T23:12:13+00:00,SAT-54791,210.8036596772364,44.91042467298177,1194.1288225228104,-5.233173362723396,183287.86746394954,10.5,10500183287.867464,47.655,-122.3035,60.0,12.216666666666667
2026-01-20T23:12:14+00:00,SAT-54791,210.83616510102465,45.1539677796404,1188.9096042890544,-5.215677832651915,182675.09999482744,10.5,10500182675.099995,47.655,-122.3035,60.0,12.233333333333333
2026-01-20T23:12:15+00:00,SAT-54791,210.8695809044838,45.399401661992,1183.707834930623,-5.197944716821414,182054.01126743772,10.5,10500182054.011267,47.655,-122.3035,60.0,12.25
2026-01-20T23:12:16+00:00,SAT-54791,210.90393106127146,45.6467440479493,1178.5237513997129,-5.179970687783918,181424.48474047717,10.5,10500181424.484741,47.655,-122.3035,60.0,12.266666666666667
2026-01-20T23:12:17+00:00,SAT-54791,210.9392403906786,45.89601271803825,1173.3575939670964,-5.161752317168912,180786.4003379084,10.5,10500180786.400337,47.655,-122.3035,60.0,12.283333333333333
2026-01-20T23:12:18+00:00,SAT-54791,210.97553459456603,46.14722549568477,1168.2096063227732,-5.143286193264821,180139.63856716044,10.5,10500180139.638567,47.655,-122.3035,60.0,12.3
2026-01-20T23:12:19+00:00,SAT-54791,211.01284029721037,46.400400242720266,1163.0800355593572,-5.12456882214256,179484.0770560575,10.5,10500179484.077057,47.655,-122.3035,60.0,12.316666666666666
2026-01-20T23:12:20+00:00,SAT-54791,211.0511850864871,46.655554849687036,1157.9691322540737,-5.105596727136762,178819.59403707215,10.5,10500178819.594038,47.655,-122.3035,60.0,12.333333333333334
2026-01-20T23:12:21+00:00,SAT-54791,211.09059755812933,46.91270723059924,1152.8771504515425,-5.08636632752203,178146.0640980545,10.5,10500178146.064098,47.655,-122.3035,60.0,12.35
2026-01-20T23:12:22+00:00,SAT-54791,211.13110736133922,47.171875311197404,1147.8043477675608,-5.06687408315279,177463.3632481318,10.5,10500177463.363249,47.655,-122.3035,60.0,12.366666666666667
2026-01-20T23:12:23+00:00,SAT-54791,211.17274524823364,47.43307702399591,1142.7509853486295,-5.047116333672851,176771.3632861469,10.5,10500176771.363287,47.655,-122.3035,60.0,12.383333333333333
2026-01-20T23:12:24+00:00,SAT-54791,211.2155431245336,47.696330294642834,1137.7173279918466,-5.027089459401007,176069.93743555274,10.5,10500176069.937435,47.655,-122.3035,60.0,12.4
2026-01-20T23:12:25+00:00,SAT-54791,211.25953410464425,47.96165303599834,1132.7036441043374,-5.006789770861726,175358.9564753097,10.5,10500175358.956476,47.655,-122.3035,60.0,12.416666666666666
2026-01-20T23:12:26+00:00,SAT-54791,211.30475256877202,48.22906313598421,1127.7102057728646,-4.986213532876918,174638.28958368138,10.5,10500174638.289583,47.655,-122.3035,60.0,12.433333333333334
2026-01-20T23:12:27+00:00,SAT-54791,211.35123422356372,48.498578446034216,1122.7372888094087,-4.965357028661103,173907.80658311816,10.5,10500173907.806583,47.655,-122.3035,60.0,12.45
2026-01-20T23:12:28+00:00,SAT-54791,211.39901616688155,48.770216772412915,1117.785172732824,-4.944216437702534,173167.373663138,10.5,10500173167.373663,47.655,-122.3035,60.0,12.466666666666667
2026-01-20T23:12:29+00:00,SAT-54791,211.44813695508898,49.04399586028365,1112.8541408722888,-4.92278795885976,172416.8576916884,10.5,10500172416.85769,47.655,-122.3035,60.0,12.483333333333333
2026-01-20T23:12:30+00:00,SAT-54791,211.49863667558327,49.319933383763434,1107.944480347986,-4.901067766257919,171656.12467044833,10.5,10500171656.12467,47.655,-122.3035,60.0,12.5
2026-01-20T23:12:31+00:00,SAT-54791,211.5505570232053,49.59804693296318,1103.0564820957713,-4.879051979200617,170885.0386810147,10.5,10500170885.038681,47.655,-122.3035,60.0,12.516666666666667
2026-01-20T23:12:32+00:00,SAT-54791,211.6039413808352,49.87835399856502,1098.1904409218484,-4.8567366815657405,170103.46256422592,10.5,10500170103.462564,47.655,-122.3035,60.0,12.533333333333333
2026-01-20T23:12:33+00:00,SAT-54791,211.65883490511118,50.16087195665477,1093.3466555381003,-4.834117955832813,169311.25911194383,10.5,10500169311.259111,47.655,-122.3035,60.0,12.55
2026-01-20T23:12:34+00:00,SAT-54791,211.71528461776248,50.445618054725536,1088.525428563483,-4.811191867945155,168508.29053686242,10.5,10500168508.290537,47.655,-122.3035,60.0,12.566666666666666
2026-01-20T23:12:35+00:00,SAT-54791,211.77333950245918,50.73260939603616,1083.727066540519,-4.787954435014173,167694.4173413756,10.5,10500167694.417341,47.655,-122.3035,60.0,12.583333333333334
2026-01-20T23:12:36+00:00,SAT-54791,211.8330506072257,51.021862921142706,1078.9518799839984,-4.764401640104107,166869.4988354014,10.5,10500166869.498835,47.655,-122.3035,60.0,12.6
2026-01-20T23:12:37+00:00,SAT-54791,211.894471153485,51.31339538929244,1074.2001834149344,-4.74052949508814,166033.39533786895,10.5,10500166033.395338,47.655,-122.3035,60.0,12.616666666666667
2026-01-20T23:12:38+00:00,SAT-54791,211.95765665292342,51.60722336270826,1069.4722953318333,-4.716333944139379,165185.9647965643,10.5,10500165185.964796,47.655,-122.3035,60.0,12.633333333333333
2026-01-20T23:12:39+00:00,SAT-54791,212.02266503049347,51.9033631839623,1064.7685382782115,-4.691810951038804,164327.0658460242,10.5,10500164327.065845,47.655,-122.3035,60.0,12.65
2026-01-20T23:12:40+00:00,SAT-54791,212.08955675664282,52.20183095762979,1060.0892388230423,-4.666956436313577,163456.55560585367,10.5,10500163456.555605,47.655,-122.3035,60.0,12.666666666666666
2026-01-20T23:12:41+00:00,SAT-54791,212.1583949872975,52.50264252689761,1055.434727603892,-4.64176632398017,162574.29131786828,10.5,10500162574.291317,47.655,-122.3035,60.0,12.683333333333334
2026-01-20T23:12:42+00:00,SAT-54791,212.22924571379556,52.805813451912485,1050.8053393234425,-4.616236523231556,161680.12970470169,10.5,10500161680.129705,47.655,-122.3035,60.0,12.7
2026-01-20T23:12:43+00:00,SAT-54791,212.3021779226119,53.11135898572829,1046.2014127642728,-4.590362934627574,160773.92718661897,10.5,10500160773.927187,47.655,-122.3035,60.0,12.716666666666667
2026-01-20T23:12:44+00:00,SAT-54791,212.37726376593787,53.41929404932512,1041.623290797471,-4.564141449225756,159855.53985107405,10.5,10500159855.53985,47.655,-122.3035,60.0,12.733333333333333
2026-01-20T23:12:45+00:00,SAT-54791,212.4545787439549,53.72963320517017,1037.07132039211,-4.537567965955067,158924.82406121172,10.5,10500158924.82406,47.655,-122.3035,60.0,12.75
2026-01-20T23:12:46+00:00,SAT-54791,212.53420189997914,54.0423906304969,1032.5458526073974,-4.510638383169929,157981.63616005392,10.5,10500157981.63616,47.655,-122.3035,60.0,12.766666666666667
2026-01-20T23:12:47+00:00,SAT-54791,212.616216029134,54.35758008849557,1028.0472425932492,-4.483348561923211,157025.83118416448,10.5,10500157025.831184,47.655,-122.3035,60.0,12.783333333333333
2026-01-20T23:12:48+00:00,SAT-54791,212.70070790098683,54.67521489523915,1023.575849627491,-4.455694419791354,156057.26614980158,10.5,10500156057.26615,47.655,-122.3035,60.0,12.8
2026-01-20T23:12:49+00:00,SAT-54791,212.78776850000037,54.99530789145761,1019.1320370594859,-4.427671872784077,155075.79801835047,10.5,10500155075.798018,47.655,-122.3035,60.0,12.816666666666666
2026-01-20T23:12:50+00:00,SAT-54791,212.87749328217475,55.317871408497915,1014.7161723116959,-4.399276830407798,154081.28352342302,10.5,10500154081.283524,47.655,-122.3035,60.0,12.833333333333334
2026-01-20T23:12:51+00:00,SAT-54791,212.96998245037193,55.642917231938284,1010.3286268861692,-4.3705052042101995,153073.57947012494,10.5,10500153073.57947,47.655,-122.3035,60.0,12.85
2026-01-20T23:12:52+00:00,SAT-54791,213.0653412500607,55.9704565636592,1005.9697763625036,-4.341352970457569,152052.54493028132,10.5,10500152052.54493,47.655,-122.3035,60.0,12.866666666666667
2026-01-20T23:12:53+00:00,SAT-54791,213.16368028874894,56.3004999864889,1001.6400003333006,-4.3118160846292515,151018.03824767045,10.5,10500151018.038248,47.655,-122.3035,60.0,12.883333333333333
2026-01-20T23:12:54+00:00,SAT-54791,213.26511587750497,56.63305742014715,997.339682424897,-4.281890547345807,149969.91934710703,10.5,10500149969.919348,47.655,-122.3035,60.0,12.9
2026-01-20T23:12:55+00:00,SAT-54791,213.36977040026744,56.96813807967168,993.0692102523441,-4.251572384239965,148908.04902943768,10.5,10500148908.04903,47.655,-122.3035,60.0,12.916666666666666
2026-01-20T23:12:56+00:00,SAT-54791,213.47777271126355,57.30575042971635,988.8289753944621,-4.220857658792978,147832.28942112438,10.5,10500147832.289421,47.655,-122.3035,60.0,12.933333333333334
2026-01-20T23:12:57+00:00,SAT-54791,213.58925856397943,57.64590213707666,984.6193733560925,-4.18974246104388,146742.50357879497,10.5,10500146742.503578,47.655,-122.3035,60.0,12.95
2026-01-20T23:12:58+00:00,SAT-54791,213.70437107384024,57.98860001930017,980.4408035416114,-4.158222927612211,145638.5561905237,10.5,10500145638.55619,47.655,-122.3035,60.0,12.966666666666667
2026-01-20T23:12:59+00:00,SAT-54791,213.8232612187016,58.333849991700866,976.2936692084728,-4.12629526646928,144520.31444342554,10.5,10500144520.314444,47.655,-122.3035,60.0,12.983333333333333
2026-01-20T23:13:00+00:00,SAT-54791,213.94608838084153,58.681657013068275,972.1783773960475,-4.093955691661272,143387.64573738325,10.5,10500143387.645737,47.655,-122.3035,60.0,13.0
2026-01-20T23:13:01+00:00,SAT-54791,214.0730209316409,59.03202502223269,968.095338919564,-4.061200512287093,142240.42080142815,10.5,10500142240.420801,47.655,-122.3035,60.0,13.016666666666667
2026-01-20T23:13:02+00:00,SAT-54791,214.20423686786802,59.384956878110856,964.0449682753097,-4.028026081755432,141078.51191650738,10.5,10500141078.511917,47.655,-122.3035,60.0,13.033333333333333
2026-01-20T23:13:03+00:00,SAT-54791,214.3399245002095,59.74045429125764,960.0276835964389,-3.994428824171267,139901.79383965125,10.5,10500139901.79384,47.655,-122.3035,60.0,13.05
2026-01-20T23:13:04+00:00,SAT-54791,214.4802832016534,60.09851775304309,956.0439065824654,-3.9604052360290005,138710.14386327393,10.5,10500138710.143864,47.655,-122.3035,60.0,13.066666666666666
2026-01-20T23:13:05+00:00,SAT-54791,214.62552422095132,60.45914646001325,952.0940624270658,-3.9259518950187684,137503.44212360762,10.5,10500137503.442123,47.655,-122.3035,60.0,13.083333333333334
2026-01-20T23:13:06+00:00,SAT-54791,214.77587156798037,60.82233823364743,948.1785797371006,-3.891065449381646,136281.57122787685,10.5,10500136281.571228,47.655,-122.3035,60.0,13.1
2026-01-20T23:13:07+00:00,SAT-54791,214.9315629776228,61.188089433238545,944.2978904622504,-3.8557426603945375,135044.41774229903,10.5,10500135044.417742,47.655,-122.3035,60.0,13.116666666666667
2026-01-20T23:13:08+00:00,SAT-54791,215.0928509625148,61.55639486634492,940.4524297822837,-3.8199803553895735,133791.87054662502,10.5,10500133791.870546,47.655,-122.3035,60.0,13.133333333333333
2026-01-20T23:13:09+00:00,SAT-54791,215.26000396024006,61.927247687826906,936.6426360411751,-3.7837755090328153,132523.82368086313,10.5,10500132523.82368,47.655,-122.3035,60.0,13.15
2026-01-20T23:13:10+00:00,SAT-54791,215.4333075907246,62.300639299054964,932.8689506001665,-3.7471251302349327,131240.17238441267,10.5,10500131240.172384,47.655,-122.3035,60.0,13.166666666666666
2026-01-20T23:13:11+00:00,SAT-54791,215.61306602668355,62.676559227674744,929.1318178036121,-3.710026426454971,129940.81885067701,10.5,10500129940.818851,47.655,-122.3035,60.0,13.183333333333334
2026-01-20T23:13:12+00:00,SAT-54791,215.7996035029576,63.05499501435752,925.4316847809611,-3.672476684491944,128625.6680518808,10.5,10500128625.668053,47.655,-122.3035,60.0,13.2
2026-01-20T23:13:13+00:00,SAT-54791,215.9932659661269,63.435932077702944,921.7690013676278,-3.634473297740279,127294.62869367091,10.5,10500127294.628695,47.655,-122.3035,60.0,13.216666666666667
2026-01-20T23:13:14+00:00,SAT-54791,216.1944228872498,63.819353570372954,918.1442199986815,-3.5960138453376698,125947.61598720917,10.5,10500125947.615988,47.655,-122.3035,60.0,13.233333333333333
2026-01-20T23:13:15+00:00,SAT-54791,216.40346925981257,64.2052402311641,914.557795523598,-3.557096007392124,124584.54868006485,10.5,10500124584.54868,47.655,-122.3035,60.0,13.25
2026-01-20T23:13:16+00:00,SAT-54791,216.6208277945216,64.593570214411,911.010185105559,-3.5177176418809406,123205.35174954226,10.5,10500123205.35175,47.655,-122.3035,60.0,13.266666666666667
2026-01-20T23:13:17+00:00,SAT-54791,216.84695134386516,64.9843189122619,907.5018480440564,-3.477876738415297,121809.95478332086,10.5,10500121809.954782,47.655,-122.3035,60.0,13.283333333333333
2026-01-20T23:13:18+00:00,SAT-54791,217.08232557568658,65.37745875480783,904.0332456436101,-3.4375714724299393,120398.29387740754,10.5,10500120398.293877,47.655,-122.3035,60.0,13.3
2026-01-20T23:13:19+00:00,SAT-54791,217.32747193261875,65.7729589971117,900.6048410284401,-3.3968001838150834,118970.31088773545,10.5,10500118970.310888,47.655,-122.3035,60.0,13.316666666666666
2026-01-20T23:13:20+00:00,SAT-54791,217.58295090673852,66.17078548246151,897.2170989784485,-3.3555613744544726,117525.95334393623,10.5,10500117525.953344,47.655,-122.3035,60.0,13.333333333333334
2026-01-20T23:13:21+00:00,SAT-54791,217.84936566954244,66.57090038112851,893.8704857676591,-3.3138537587428023,116065.176218674,10.5,10500116065.176218,47.655,-122.3035,60.0,13.35
2026-01-20T23:13:22+00:00,SAT-54791,218.1273661059261,66.97326190795378,890.565468952273,-3.271676228009574,114587.94068161825,10.5,10500114587.940681,47.655,-122.3035,60.0,13.366666666666667
2026-01-20T23:13:23+00:00,SAT-54791,218.41765329617874,67.37782400511905,887.3025171942047,-3.229027883660871,113094.21526020893,10.5,10500113094.21526,47.655,-122.3035,60.0,13.383333333333333
2026-01-20T23:13:24+00:00,SAT-54791,218.72098450902752,67.78453599418296,884.082100051567,-3.185908044563025,111583.97609826383,10.5,10500111583.976099,47.655,-122.3035,60.0,13.4
2026-01-20T23:13:25+00:00,SAT-54791,219.03817876991153,68.19334218978152,880.9046877617895,-3.1423162111842853,110057.20570006799,10.5,10500110057.2057,47.655,-122.3035,60.0,13.416666666666666
2026-01-20T23:13:26+00:00,SAT-54791,219.3701230748328,68.60418146383584,877.7707510605017,-3.098252152502428,108513.89597424594,10.5,10500108513.895975,47.655,-122.3035,60.0,13.433333333333334
2026-01-20T23:13:27+00:00,SAT-54791,219.71777934856513,69.01698676986034,874.6807609137393,-3.0537158476120894,106954.04618860337,10.5,10500106954.046188,47.655,-122.3035,60.0,13.45
2026-01-20T23:13:28+00:00,SAT-54791,220.08219223084046,69.43168460139842,871.6351883083876,-3.0087075159057703,105377.66402719374,10.5,10500105377.664026,47.655,-122.3035,60.0,13.466666666666667
2026-01-20T23:13:29+00:00,SAT-54791,220.4644978120014,69.84819438738207,868.6345040125242,-2.963227619097192,103784.76566118456,10.5,10500103784.765661,47.655,-122.3035,60.0,13.483333333333333
2026-01-20T23:13:30+00:00,SAT-54791,220.8659334439391,70.2664278107959,865.6791783337445,-2.917276896795788,102175.37699482679,10.5,10500102175.376995,47.655,-122.3035,60.0,13.5
2026-01-20T23:13:31+00:00,SAT-54791,221.2878487787601,70.68628804386574,862.7696808420068,-2.870856327287894,100549.532291846,10.5,10500100549.532291,47.655,-122.3035,60.0,13.516666666666667
2026-01-20T23:13:32+00:00,SAT-54791,221.7317181933894,71.10766887545101,859.9064801315918,-2.8239671592281876,98907.27528541084,10.5,10500098907.275286,47.655,-122.3035,60.0,13.533333333333333
2026-01-20T23:13:33+00:00,SAT-54791,222.19915480215346,71.53045372455888,857.0900435514548,-2.7766109409837907,97248.66020588751,10.5,10500097248.660206,47.655,-122.3035,60.0,13.55
2026-01-20T23:13:34+00:00,SAT-54791,222.69192627808843,71.95451452116414,854.3208369063136,-2.7287894684178644,95573.74995200039,10.5,10500095573.749952,47.655,-122.3035,60.0,13.566666666666666
2026-01-20T23:13:35+00:00,SAT-54791,223.21197271874837,72.37971041975071,851.5993242098115,-2.680504864876794,93882.61889232164,10.5,10500093882.618893,47.655,-122.3035,60.0,13.583333333333334
2026-01-20T23:13:36+00:00,SAT-54791,223.7614268625799,72.8058863394141,848.9259673579078,-2.631759512581917,92175.35046231927,10.5,10500092175.350462,47.655,-122.3035,60.0,13.6
2026-01-20T23:13:37+00:00,SAT-54791,224.34263694770598,73.23287127667052,846.3012258706927,-2.5825561281663556,90452.03980997657,10.5,10500090452.03981,47.655,-122.3035,60.0,13.616666666666667
2026-01-20T23:13:38+00:00,SAT-54791,224.9581925981162,73.66047637695151,843.7255565588681,-2.532897724512411,88712.79245917626,10.5,10500088712.79246,47.655,-122.3035,60.0,13.633333333333333
2026-01-20T23:13:39+00:00,SAT-54791,225.61095411010876,74.08849270356761,841.1994132282879,-2.4827876090694847,86957.72425078682,10.5,10500086957.72425,47.655,-122.3035,60.0,13.65
2026-01-20T23:13:40+00:00,SAT-54791,226.30408557568086,74.51668865827328,838.7232463861759,-2.432229438606121,85186.96326031082,10.5,10500085186.96326,47.655,-122.3035,60.0,13.666666666666666
2026-01-20T23:13:41+00:00,SAT-54791,227.0410923212223,74.94480700291132,836.2975028927393,-2.381227182488836,83400.64851175403,10.5,10500083400.648512,47.655,-122.3035,60.0,13.683333333333334
2026-01-20T23:13:42+00:00,SAT-54791,227.82586311705236,75.37256139522826,833.9226256494038,-2.3297851321460636,81598.93030909293,10.5,10500081598.93031,47.655,-122.3035,60.0,13.7
2026-01-20T23:13:43+00:00,SAT-54791,228.66271764142186,75.79963236243229,831.5990532776101,-2.277907911969469,79781.97061808482,10.5,10500079781.970617,47.655,-122.3035,60.0,13.716666666666667
2026-01-20T23:13:44+00:00,SAT-54791,229.5564596298874,76.22566261450574,829.3272197867392,-2.2256004940589267,77949.94358269924,10.5,10500077949.943583,47.655,-122.3035,60.0,13.733333333333333
2026-01-20T23:13:45+00:00,SAT-54791,230.5124360374351,76.6502515835098,827.1075542273312,-2.172868172413726,76103.03462118491,10.5,10500076103.03462,47.655,-122.3035,60.0,13.75
2026-01-20T23:13:46+00:00,SAT-54791,231.5366023209016,77.07294904883327,824.9404803700439,-2.119716605581608,74241.44191981935,10.5,10500074241.44192,47.655,-122.3035,60.0,13.766666666666667
2026-01-20T23:13:47+00:00,SAT-54791,232.63559365155737,77.49324771072708,822.8264163420771,-2.0661517705282963,72365.37481722476,10.5,10500072365.374817,47.655,-122.3035,60.0,13.783333333333333
2026-01-20T23:13:48+00:00,SAT-54791,233.8168012396406,77.91057452632917,820.7657743096036,-2.0121800101560425,70475.05546866842,10.5,10500070475.05547,47.655,-122.3035,60.0,13.8
2026-01-20T23:13:49+00:00,SAT-54791,235.08845216705612,78.32428064352558,818.7589601128079,-1.9578080054670357,68570.7178711076,10.5,10500068570.71787,47.655,-122.3035,60.0,13.816666666666666
2026-01-20T23:13:50+00:00,SAT-54791,236.45968972042942,78.73362972766428,816.8063729286888,-1.9030427883547791,66652.60831119768,10.5,10500066652.60831,47.655,-122.3035,60.0,13.833333333333334
2026-01-20T23:13:51+00:00,SAT-54791,237.9406493180985,79.13778450652379,814.908404921103,-1.8478917320932717,64720.985032183,10.5,10500064720.985033,47.655,-122.3035,60.0,13.85
2026-01-20T23:13:52+00:00,SAT-54791,239.54252226150635,79.53579137922215,813.0654409002952,-1.7923625678854036,62776.11881349176,10.5,10500062776.118813,47.655,-122.3035,60.0,13.866666666666667
2026-01-20T23:13:53+00:00,SAT-54791,241.27759558610757,79.92656301958708,811.2778579659242,-1.7364633602882436,60818.292110025526,10.5,10500060818.29211,47.655,-122.3035,60.0,13.883333333333333
2026-01-20T23:13:54+00:00,SAT-54791,243.15925076614775,80.3088590310052,809.5460251745968,-1.680202529683468,58847.79983916878,10.5,10500058847.799839,47.655,-122.3035,60.0,13.9
2026-01-20T23:13:55+00:00,SAT-54791,245.2018968906528,80.68126496953174,807.8703031849925,-1.6235888259823232,56864.94845982548,10.5,10500056864.94846,47.655,-122.3035,60.0,13.916666666666666
2026-01-20T23:13:56+00:00,SAT-54791,247.42080480182688,81.0421704163527,806.2510439292128,-1.566631348381527,54870.05666435422,10.5,10500054870.056664,47.655,-122.3035,60.0,13.933333333333334
2026-01-20T23:13:57+00:00,SAT-54791,249.83179833933343,81.38974738475109,804.6885902644269,-1.5093395204678675,52863.454506626076,10.5,10500052863.454506,47.655,-122.3035,60.0,13.95
2026-01-20T23:13:58+00:00,SAT-54791,252.45074825357807,81.72193116188227,803.183275649347,-1.4517230983539147,50845.48368697155,10.5,10500050845.483686,47.655,-122.3035,60.0,13.966666666666667
2026-01-20T23:13:59+00:00,SAT-54791,255.2928070187591,82.0364068245153,801.7354238125887,-1.3937921694652784,48816.497509705274,10.5,10500048816.497509,47.655,-122.3035,60.0,13.983333333333333
2026-01-20T23:14:00+00:00,SAT-54791,258.37132396624025,82.33060603892841,800.345348422242,-1.3355571281864649,46776.86003014086,10.5,10500046776.86003,47.655,-122.3035,60.0,14.0
2026-01-20T23:14:01+00:00,SAT-54791,261.6963987482253,82.6017202361677,799.0133527797307,-1.2770286897402299,44726.94654070454,10.5,10500044726.94654,47.655,-122.3035,60.0,14.016666666666667
2026-01-20T23:14:02+00:00,SAT-54791,265.273078585696,82.84673748197794,797.7397294998297,-1.2182178583788665,42667.142456859605,10.5,10500042667.142456,47.655,-122.3035,60.0,14.033333333333333
2026-01-20T23:14:03+00:00,SAT-54791,269.0992909294905,83.06251061912653,796.5247602224066,-1.1591359585747973,40597.844409532714,10.5,10500040597.84441,47.655,-122.3035,60.0,14.05
2026-01-20T23:14:04+00:00,SAT-54791,273.16373055118714,83.24586267207208,795.3687152930546,-1.0997945789113301,38519.458279930994,10.5,10500038519.45828,47.655,-122.3035,60.0,14.066666666666666
2026-01-20T23:14:05+00:00,SAT-54791,277.4440683763065,83.39373099117367,794.271853499687,-1.0402055997719981,36432.40016933975,10.5,10500036432.40017,47.655,-122.3035,60.0,14.083333333333334
2026-01-20T23:14:06+00:00,SAT-54791,281.9059698121986,83.50334383612241,793.2344217815145,-0.9803811622572024,34337.09531045182,10.5,10500034337.09531,47.655,-122.3035,60.0,14.1
2026-01-20T23:14:07+00:00,SAT-54791,286.5034226179538,83.57241284097228,792.2566549690233,-0.9203336640005476,32233.977920837988,10.5,10500032233.97792,47.655,-122.3035,60.0,14.116666666666667
2026-01-20T23:14:08+00:00,SAT-54791,291.1807061407992,83.59931501616573,791.3387755281267,-0.8600757542499091,30123.491030665104,10.5,10500030123.49103,47.655,-122.3035,60.0,14.133333333333333
2026-01-20T23:14:09+00:00,SAT-54791,295.8759719225975,83.58323290191355,790.4809933092215,-0.7996203104752203,28006.08566340189,10.5,10500028006.085663,47.655,-122.3035,60.0,14.15
2026-01-20T23:14:10+00:00,SAT-54791,300.52594825517286,83.52422508481303,789.6835053195741,-0.7389804305509107,25882.220562014812,10.5,10500025882.220562,47.655,-122.3035,60.0,14.166666666666666
2026-01-20T23:14:11+00:00,SAT-54791,305.0709171736278,83.42321220765524,788.9464955035047,-0.6781694224965985,23752.361829643774,10.5,10500023752.36183,47.655,-122.3035,60.0,14.183333333333334
2026-01-20T23:14:12+00:00,SAT-54791,309.4590191870801,83.2818819694699,788.2701345328014,-0.6172007853339778,21616.982259129305,10.5,10500021616.98226,47.655,-122.3035,60.0,14.2
2026-01-20T23:14:13+00:00,SAT-54791,313.6491674735415,83.10253359685758,787.6545796162284,-0.5560882000535935,19476.561016630818,10.5,10500019476.561016,47.655,-122.3035,60.0,14.216666666666667
2026-01-20T23:14:14+00:00,SAT-54791,317.61228356977125,82.88789181478153,787.0999743180416,-0.4948455138784505,17331.583090471642,10.5,10500017331.58309,47.655,-122.3035,60.0,14.233333333333333
2026-01-20T23:14:15+00:00,SAT-54791,321.33100165953323,82.64092038341572,786.6064483922002,-0.4334867193192611,15182.538557565185,10.5,10500015182.538557,47.655,-122.3035,60.0,14.25
2026-01-20T23:14:16+00:00,SAT-54791,324.7982714739114,82.36465799384526,786.1741176374657,-0.372025945494433,13029.922279404196,10.5,10500013029.92228,47.655,-122.3035,60.0,14.266666666666667
2026-01-20T23:14:17+00:00,SAT-54791,328.0153732219208,82.06208903829912,785.8030837611593,-0.3104774408550435,10874.233297016286,10.5,10500010874.233297,47.655,-122.3035,60.0,14.283333333333333
2026-01-20T23:14:18+00:00,SAT-54791,330.9897880943844,81.73605238165273,785.4934342601466,-0.24885555569089857,8715.974218252131,10.5,10500008715.974218,47.655,-122.3035,60.0,14.3
2026-01-20T23:14:19+00:00,SAT-54791,333.73322716840306,81.38918478372912,785.2452423192708,-0.18717472408619057,6555.650585796261,10.5,10500006555.650585,47.655,-122.3035,60.0,14.316666666666666
2026-01-20T23:14:20+00:00,SAT-54791,336.2599779745138,81.02389235158233,785.0585667277821,-0.12544945177342623,4393.770451760249,10.5,10500004393.770452,47.655,-122.3035,60.0,14.333333333333334
2026-01-20T23:14:21+00:00,SAT-54791,338.5856178405413,80.64234258868159,784.9334518078801,-0.06369429453675522,2230.843621275922,10.5,10500002230.843622,47.655,-122.3035,60.0,14.35
2026-01-20T23:14:22+00:00,SAT-54791,340.72607445665193,80.24647031433138,784.8699273647954,-0.0019238443756866683,67.38116789018761,10.5,10500000067.381168,47.655,-122.3035,60.0,14.366666666666667
2026-01-20T23:14:23+00:00,SAT-54791,342.69698093339986,79.83799201475979,784.8680086506714,0.05984728935837683,-2096.1052271133412,10.5,10499997903.894773,47.655,-122.3035,60.0,14.383333333333333
2026-01-20T23:14:24+00:00,SAT-54791,344.51326260854415,79.41842464130356,784.9276963472581,0.12160449668104502,-4259.103860281144,10.5,10499995740.89614,47.655,-122.3035,60.0,14.4
2026-01-20T23:14:25+00:00,SAT-54791,346.1888963731769,78.98910611177531,785.0489765652815,0.18333318296188203,-6421.103565920132,10.5,10499993578.896435,47.655,-122.3035,60.0,14.416666666666666
2026-01-20T23:14:26+00:00,SAT-54791,347.73679253602666,78.55121576010718,785.2318208597554,0.24501878881943168,-8581.594412905586,10.5,10499991418.405586,47.655,-122.3035,60.0,14.433333333333334
2026-01-20T23:14:27+00:00,SAT-54791,349.1687599835593,78.10579369219502,785.4761862651379,0.3066468045951894,-10740.068211620883,10.5,10499989259.931787,47.655,-122.3035,60.0,14.45
2026-01-20T23:14:28+00:00,SAT-54791,350.495525261983,77.65375851822759,785.7820153449209,0.3682027884424143,-12896.019147504203,10.5,10499987103.980852,47.655,-122.3035,60.0,14.466666666666667
2026-01-20T23:14:29+00:00,SAT-54791,351.7267845536566,77.19592322984404,786.1492362592609,0.42967238274340636,-15048.944356051034,10.5,10499984951.055643,47.655,-122.3035,60.0,14.483333333333333
2026-01-20T23:14:30+00:00,SAT-54791,352.8712738911888,76.73300920350799,786.5777628489836,0.4910413307801316,-17198.344506689966,10.5,10499982801.655493,47.655,-122.3035,60.0,14.5
2026-01-20T23:14:31+00:00,SAT-54791,353.93684776019796,76.26565842009073,787.0674947362149,0.5522954929417312,-19343.72437043822,10.5,10499980656.275629,47.655,-122.3035,60.0,14.516666666666667
2026-01-20T23:14:32+00:00,SAT-54791,354.93055968670905,75.79444405006251,787.6183174411756,0.6134208624086921,-21484.593369227678,10.5,10499978515.406631,47.655,-122.3035,60.0,14.533333333333333
2026-01-20T23:14:33+00:00,SAT-54791,355.8587408224295,75.3198795777509,788.2301025146179,0.6744035817446978,-23620.466157021627,10.5,10499976379.533842,47.655,-122.3035,60.0,14.55
2026-01-20T23:14:34+00:00,SAT-54791,356.72707419743824,74.84242664065582,788.9027076868113,0.73522995435241,-25750.863021044726,10.5,10499974249.136978,47.655,-122.3035,60.0,14.566666666666666
2026-01-20T23:14:35+00:00,SAT-54791,357.5406634108037,74.36250175467266,789.635977027952,0.7958864669869687,-27875.310670301027,10.5,10499972124.68933,47.655,-122.3035,60.0,14.583333333333334
2026-01-20T23:14:36+00:00,SAT-54791,358.3040952675997,73.88048207207257,790.429741131027,0.8563597930162232,-29993.34234976099,10.5,10499970006.65765,47.655,-122.3035,60.0,14.6
2026-01-20T23:14:37+00:00,SAT-54791,359.02149629429283,73.39671032056576,791.2838172979285,0.9166368178601795,-32104.498731358628,10.5,10499967895.501268,47.655,-122.3035,60.0,14.616666666666667
2026-01-20T23:14:38+00:00,SAT-54791,359.69658337952984,72.91149903044149,792.1980097509411,0.9767046440378776,-34208.32809075442,10.5,10499965791.67191,47.655,-122.3035,60.0,14.633333333333333
2026-01-20T23:14:39+00:00,SAT-54791,0.3327089018535483,72.42513416481235,793.1721098492615,1.0365506047998774,-36304.38678480268,10.5,10499963695.613214,47.655,-122.3035,60.0,14.65
2026-01-20T23:14:40+00:00,SAT-54791,0.9329008071444546,71.93787823709928,794.2058963191153,1.0961622790753849,-38392.23977506313,10.5,10499961607.760225,47.655,-122.3035,60.0,14.666666666666666
2026-01-20T23:14:41+00:00,SAT-54791,1.4998981159084817,71.44997299106981,795.2991354987798,1.1555275039911017,-40471.461066263946,10.5,10499959528.538933,47.655,-122.3035,60.0,14.683333333333334
2026-01-20T23:14:42+00:00,SAT-54791,2.036182331572373,70.9616417096822,796.4515815960935,1.214634381247859,-42541.63392963848,10.5,10499957458.36607,47.655,-122.3035,60.0,14.7
2026-01-20T23:14:43+00:00,SAT-54791,2.5440051977505482,70.4730912096977,797.6629769523247,1.2734712873797946,-44602.35126224504,10.5,10499955397.648737,47.655,-122.3035,60.0,14.716666666666667
2026-01-20T23:14:44+00:00,SAT-54791,3.025413223305161,69.98451356669548,798.9330523162715,1.332026888148409,-46653.21609110758,10.5,10499953346.783909,47.655,-122.3035,60.0,14.733333333333333
2026-01-20T23:14:45+00:00,SAT-54791,3.4822693554919404,69.49608760815089,800.2615271327182,1.390290142501469,-48693.841711873305,10.5,10499951306.158289,47.655,-122.3035,60.0,14.75
2026-01-20T23:14:46+00:00,SAT-54791,3.9162721374020837,69.0079802120148,801.6481098348397,1.4482503173957468,-50723.852207967626,10.5,10499949276.147793,47.655,-122.3035,60.0,14.766666666666667
2026-01-20T23:14:47+00:00,SAT-54791,4.328972657105323,68.52034743471738,803.0924981513891,1.5058969823430581,-52742.882259573424,10.5,10499947257.11774,47.655,-122.3035,60.0,14.783333333333333
2026-01-20T23:14:48+00:00,SAT-54791,4.7217895506812235,68.03333549951672,804.5943794084459,1.5632200340786158,-54750.57800762107,10.5,10499945249.421993,47.655,-122.3035,60.0,14.8
2026-01-20T23:14:49+00:00,SAT-54791,5.096022304679833,67.54708165506256,806.1534308557669,1.6202096828032655,-56746.5965719334,10.5,10499943253.403427,47.655,-122.3035,60.0,14.816666666666666
2026-01-20T23:14:50+00:00,SAT-54791,5.45286305495021,67.06171493409505,807.7693199794161,1.6768564799512164,-58730.607023769,10.5,10499941269.392977,47.655,-122.3035,60.0,14.833333333333334
2026-01-20T23:14:51+00:00,SAT-54791,5.793407074543829,66.5773568136221,809.4417048420873,1.73315129340823,-60702.28951785843,10.5,10499939297.710482,47.655,-122.3035,60.0,14.85
2026-01-20T23:14:52+00:00,SAT-54791,6.118662098095963,66.09412180478093,811.1702343987132,1.7890853477736777,-62661.336702551795,10.5,10499937338.663298,47.655,-122.3035,60.0,14.866666666666667
2026-01-20T23:14:53+00:00,SAT-54791,6.429556635405667,65.6121179641219,812.9545488522261,1.8446501985760133,-64607.45281673544,10.5,10499935392.547184,47.655,-122.3035,60.0,14.883333333333333
2026-01-20T23:14:54+00:00,SAT-54791,6.726947382673445,65.13144735419739,814.794279983606,1.8998377444926595,-66540.35411782416,10.5,10499933459.645882,47.655,-122.3035,60.0,14.9
2026-01-20T23:14:55+00:00,SAT-54791,7.011625845530308,64.65220645015214,816.6890514941133,1.9546402263168012,-68459.76884557387,10.5,10499931540.231153,47.655,-122.3035,60.0,14.916666666666666
2026-01-20T23:14:56+00:00,SAT-54791,7.284324264171193,64.1744865027182,818.6384793464932,2.009050246563104,-70365.43790875684,10.5,10499929634.562092,47.655,-122.3035,60.0,14.933333333333334
2026-01-20T23:14:57+00:00,SAT-54791,7.54572092462065,63.69837385829628,820.6421721257321,2.063060739162317,-72257.11382373843,10.5,10499927742.886177,47.655,-122.3035,60.0,14.95
2026-01-20T23:14:58+00:00,SAT-54791,7.79644492031559,63.223950253143,822.69973136959,2.116664995022182,-74134.56160972841,10.5,10499925865.43839,47.655,-122.3035,60.0,14.966666666666667
2026-01-20T23:14:59+00:00,SAT-54791,8.037080434316247,62.75129307206308,824.8107519246256,2.169856643934564,-75997.55815509181,10.5,10499924002.441845,47.655,-122.3035,60.0,14.983333333333333
