satellites_20260121_005943/SAT-56319.csv

timestamp,satellite,azimuth_deg,elevation_deg,distance_km,relative_velocity_kms,doppler_shift_hz,tx_freq_ghz,rx_freq_hz,ue_lat,ue_lon,ue_alt_m,time_minutes
2026-01-20T23:00:00+00:00,SAT-56319,335.76455619681497,35.151671981128835,2416.64492609942,1.5710833119510768,-55025.98326034708,10.5,10499944974.016739,47.655,-122.3035,60.0,0.0
2026-01-20T23:00:01+00:00,SAT-56319,335.56391851231336,35.227310550407545,2418.2118198558724,1.591804293124342,-55751.71967069829,10.5,10499944248.280329,47.655,-122.3035,60.0,0.016666666666666666
2026-01-20T23:00:02+00:00,SAT-56319,335.36305910251195,35.302364722196735,2419.7993793375485,1.6124829286189466,-56475.97295626075,10.5,10499943524.027044,47.655,-122.3035,60.0,0.03333333333333333
2026-01-20T23:00:03+00:00,SAT-56319,335.1619832814736,35.37683295330761,2421.4075623116914,1.6331187708559054,-57198.72744092518,10.5,10499942801.272558,47.655,-122.3035,60.0,0.05
2026-01-20T23:00:04+00:00,SAT-56319,334.96069639689676,35.450713747929456,2423.0363260991585,1.6537113880044387,-57919.968000150984,10.5,10499942080.032,47.655,-122.3035,60.0,0.06666666666666667
2026-01-20T23:00:05+00:00,SAT-56319,334.75920382841446,35.52400565809908,2424.6856275901278,1.6742603413509465,-58639.679268332155,10.5,10499941360.320732,47.655,-122.3035,60.0,0.08333333333333333
2026-01-20T23:00:06+00:00,SAT-56319,334.5575109879585,35.59670728344103,2426.3554232372353,1.694765204386218,-59357.84630731201,10.5,10499940642.153692,47.655,-122.3035,60.0,0.1
2026-01-20T23:00:07+00:00,SAT-56319,334.35562331835325,35.66881727150677,2428.0456690677433,1.7152255537016925,-60074.454287531706,10.5,10499939925.545712,47.655,-122.3035,60.0,0.11666666666666667
2026-01-20T23:00:08+00:00,SAT-56319,334.1535462926751,35.740334317834204,2429.7563206866353,1.7356409715590149,-60789.488578027056,10.5,10499939210.511421,47.655,-122.3035,60.0,0.13333333333333333
2026-01-20T23:00:09+00:00,SAT-56319,333.9512854134813,35.81125716603691,2431.48733328227,1.7560110417404267,-61502.93460109153,10.5,10499938497.0654,47.655,-122.3035,60.0,0.15
2026-01-20T23:00:10+00:00,SAT-56319,333.7488462123051,35.88158460778719,2433.238661627899,1.7763353683686467,-62214.77849142819,10.5,10499937785.221508,47.655,-122.3035,60.0,0.16666666666666666
2026-01-20T23:00:11+00:00,SAT-56319,333.54623424739,35.95131548338592,2435.010260101952,1.796613534429534,-62925.00564343785,10.5,10499937074.994356,47.655,-122.3035,60.0,0.18333333333333332
2026-01-20T23:00:12+00:00,SAT-56319,333.3434551054579,36.020448680941584,2436.8020826669563,1.8168451479870529,-63633.60232986266,10.5,10499936366.39767,47.655,-122.3035,60.0,0.2
2026-01-20T23:00:13+00:00,SAT-56319,333.14051439891966,36.08898313708894,2438.6140828945486,1.8370298239483471,-64340.55506312185,10.5,10499935659.444937,47.655,-122.3035,60.0,0.21666666666666667
2026-01-20T23:00:14+00:00,SAT-56319,332.937417764851,36.15691783708594,2440.4462139723,1.8571671730516326,-65045.85020962115,10.5,10499934954.14979,47.655,-122.3035,60.0,0.23333333333333334
2026-01-20T23:00:15+00:00,SAT-56319,332.73417086512654,36.22425181450788,2442.2984286995566,1.8772568055416443,-65749.47411848254,10.5,10499934250.52588,47.655,-122.3035,60.0,0.25
2026-01-20T23:00:16+00:00,SAT-56319,332.5307793860225,36.29098415112324,2444.1706794869506,1.8972983581764342,-66451.41406743648,10.5,10499933548.585932,47.655,-122.3035,60.0,0.26666666666666666
2026-01-20T23:00:17+00:00,SAT-56319,332.32724903539633,36.35711397753074,2446.0629183828382,1.9172914517854307,-67151.65677632565,10.5,10499932848.343224,47.655,-122.3035,60.0,0.2833333333333333
2026-01-20T23:00:18+00:00,SAT-56319,332.12358554373606,36.422640472533594,2447.9750970574187,1.9372357305680394,-67850.1897835082,10.5,10499932149.810217,47.655,-122.3035,60.0,0.3
2026-01-20T23:00:19+00:00,SAT-56319,331.91979466164906,36.48756286363984,2449.9071668260385,1.9571308243695076,-68547.00012459896,10.5,10499931452.999876,47.655,-122.3035,60.0,0.31666666666666665
2026-01-20T23:00:20+00:00,SAT-56319,331.715882160737,36.55188042647702,2451.859078634877,1.976976384686768,-69242.07559354634,10.5,10499930757.924406,47.655,-122.3035,60.0,0.3333333333333333
2026-01-20T23:00:21+00:00,SAT-56319,331.5118538312289,36.61559248521583,2453.8307830825374,1.9967720677965621,-69935.40415170786,10.5,10499930064.595848,47.655,-122.3035,60.0,0.35
2026-01-20T23:00:22+00:00,SAT-56319,331.30771548103087,36.67869841253348,2455.82223042482,2.01651752031488,-70626.97342208069,10.5,10499929373.026577,47.655,-122.3035,60.0,0.36666666666666664
2026-01-20T23:00:23+00:00,SAT-56319,331.1034729363014,36.74119762908515,2457.8333705650807,2.036212409506175,-71316.7717508585,10.5,10499928683.228249,47.655,-122.3035,60.0,0.38333333333333336
2026-01-20T23:00:24+00:00,SAT-56319,330.89913203901733,36.80308960390884,2459.8641530748278,2.055856406857187,-72004.78763211735,10.5,10499927995.212368,47.655,-122.3035,60.0,0.4
2026-01-20T23:00:25+00:00,SAT-56319,330.69469864620686,36.8643738542839,2461.9145271979337,2.075449179737062,-72691.0094157177,10.5,10499927308.990583,47.655,-122.3035,60.0,0.4166666666666667
2026-01-20T23:00:26+00:00,SAT-56319,330.49017862980605,36.92504994540433,2463.984441846525,2.0949904068030145,-73375.42584687588,10.5,10499926624.574154,47.655,-122.3035,60.0,0.43333333333333335
2026-01-20T23:00:27+00:00,SAT-56319,330.2855778752336,36.98511749042268,2466.0738456122426,2.1144797774382376,-74058.02604647745,10.5,10499925941.973953,47.655,-122.3035,60.0,0.45
2026-01-20T23:00:28+00:00,SAT-56319,330.0809022799067,37.04457615048939,2468.182686776942,2.1339169754695564,-74738.79894080038,10.5,10499925261.20106,47.655,-122.3035,60.0,0.4666666666666667
2026-01-20T23:00:29+00:00,SAT-56319,329.8761577532895,37.10342563434106,2470.310913307143,2.153301697457752,-75417.7339021197,10.5,10499924582.266098,47.655,-122.3035,60.0,0.48333333333333334
2026-01-20T23:00:30+00:00,SAT-56319,329.67135021524484,37.16166569836563,2472.458472866741,2.1726336438474196,-76094.82043873801,10.5,10499923905.179562,47.655,-122.3035,60.0,0.5
2026-01-20T23:00:31+00:00,SAT-56319,329.46648559523413,37.21929614640833,2474.6253128208714,2.1919125198212885,-76770.04822490741,10.5,10499923229.951775,47.655,-122.3035,60.0,0.5166666666666667
2026-01-20T23:00:32+00:00,SAT-56319,329.26156983132734,37.27631682963338,2476.8113802406397,2.2111380366658073,-77443.40714865808,10.5,10499922556.592852,47.655,-122.3035,60.0,0.5333333333333333
2026-01-20T23:00:33+00:00,SAT-56319,329.0566088692249,37.33272764635085,2479.0166219092075,2.2303099128063866,-78114.88734805683,10.5,10499921885.112652,47.655,-122.3035,60.0,0.55
2026-01-20T23:00:34+00:00,SAT-56319,328.85160866111465,37.38852854189511,2481.2409843289133,2.249427861729558,-78784.47878819006,10.5,10499921215.521212,47.655,-122.3035,60.0,0.5666666666666667
2026-01-20T23:00:35+00:00,SAT-56319,328.6465751654852,37.44371950823031,2483.484413716345,2.268491623301509,-79452.17235807129,10.5,10499920547.827642,47.655,-122.3035,60.0,0.5833333333333334
2026-01-20T23:00:36+00:00,SAT-56319,328.44151434451624,37.49830058418192,2485.746856028651,2.28750092561145,-80117.95853423445,10.5,10499919882.041466,47.655,-122.3035,60.0,0.6
2026-01-20T23:00:37+00:00,SAT-56319,328.2364321643731,37.55227185490404,2488.0282569517944,2.3064554925451044,-80781.82764598966,10.5,10499919218.172354,47.655,-122.3035,60.0,0.6166666666666667
2026-01-20T23:00:38+00:00,SAT-56319,328.0313345950583,37.605633451450274,2490.328561896359,2.32535508974455,-81443.77148513115,10.5,10499918556.228516,47.655,-122.3035,60.0,0.6333333333333333
2026-01-20T23:00:39+00:00,SAT-56319,327.8262276064314,37.65838555132437,2492.647716039198,2.3441994579836547,-82103.78097246321,10.5,10499917896.219028,47.655,-122.3035,60.0,0.65
2026-01-20T23:00:40+00:00,SAT-56319,327.6211171697021,37.71052837760479,2494.985664298627,2.3629883425325056,-82761.84718626681,10.5,10499917238.152813,47.655,-122.3035,60.0,0.6666666666666666
2026-01-20T23:00:41+00:00,SAT-56319,327.41600925641023,37.76206219872652,2497.3423513389125,2.3817215116779553,-83417.96201096737,10.5,10499916582.037989,47.655,-122.3035,60.0,0.6833333333333333
2026-01-20T23:00:42+00:00,SAT-56319,327.21090983614283,37.81298732854517,2499.717721593226,2.400398729504896,-84072.11718381991,10.5,10499915927.882816,47.655,-122.3035,60.0,0.7
2026-01-20T23:00:43+00:00,SAT-56319,327.0058248761573,37.86330412593489,2502.111719259452,2.4190197576115,-84724.30435498396,10.5,10499915275.695644,47.655,-122.3035,60.0,0.7166666666666667
2026-01-20T23:00:44+00:00,SAT-56319,326.80076034108004,37.9130129943532,2504.52428829771,2.4375843859810296,-85374.51616878505,10.5,10499914625.483831,47.655,-122.3035,60.0,0.7333333333333333
2026-01-20T23:00:45+00:00,SAT-56319,326.5957221900719,37.962114382007655,2506.9553724586617,2.456092382474451,-86022.74449473221,10.5,10499913977.255505,47.655,-122.3035,60.0,0.75
2026-01-20T23:00:46+00:00,SAT-56319,326.3907163780009,38.01060878105347,2509.40491526145,2.474543532399404,-86668.98181339084,10.5,10499913331.018187,47.655,-122.3035,60.0,0.7666666666666667
2026-01-20T23:00:47+00:00,SAT-56319,326.18574885344543,38.058496727552544,2511.8728600110962,2.492937639879858,-87313.22126435387,10.5,10499912686.778736,47.655,-122.3035,60.0,0.7833333333333333
2026-01-20T23:00:48+00:00,SAT-56319,325.9808255567318,38.10577880138831,2514.3591498172696,2.511274487964927,-87955.45524908345,10.5,10499912044.54475,47.655,-122.3035,60.0,0.8
2026-01-20T23:00:49+00:00,SAT-56319,325.7759524209146,38.152455625507564,2516.8637275732667,2.5295538776830124,-88595.67679875267,10.5,10499911404.323202,47.655,-122.3035,60.0,0.8166666666666667
2026-01-20T23:00:50+00:00,SAT-56319,325.57113536982007,38.1985278658377,2519.3865359739425,2.5477756242377843,-89233.87944101226,10.5,10499910766.12056,47.655,-122.3035,60.0,0.8333333333333334
2026-01-20T23:00:51+00:00,SAT-56319,325.3663803163914,38.24399623110474,2521.927517529849,2.5659395372038687,-89870.05650636023,10.5,10499910129.943493,47.655,-122.3035,60.0,0.85
2026-01-20T23:00:52+00:00,SAT-56319,325.1616931625632,38.28886147231279,2524.48661456162,2.5840454307715452,-90504.2014869541,10.5,10499909495.798513,47.655,-122.3035,60.0,0.8666666666666667
2026-01-20T23:00:53+00:00,SAT-56319,324.9570797982673,38.33312438241391,2527.0637692045766,2.602093122243938,-91136.30798397654,10.5,10499908863.692017,47.655,-122.3035,60.0,0.8833333333333333
2026-01-20T23:00:54+00:00,SAT-56319,324.75254610065883,38.37678579592386,2529.6589234118273,2.62008244502305,-91766.37016246094,10.5,10499908233.629837,47.655,-122.3035,60.0,0.9
2026-01-20T23:00:55+00:00,SAT-56319,324.54809793231516,38.41984658874646,2532.272018970331,2.638013231184937,-92394.38214100049,10.5,10499907605.617859,47.655,-122.3035,60.0,0.9166666666666666
2026-01-20T23:00:56+00:00,SAT-56319,324.3437411407896,38.46230767769981,2534.902997499566,2.6558853125235955,-93020.33802830942,10.5,10499906979.661972,47.655,-122.3035,60.0,0.9333333333333333
2026-01-20T23:00:57+00:00,SAT-56319,324.1394815579836,38.50417002009344,2537.551800451256,2.673698531251525,-93644.23229800201,10.5,10499906355.767702,47.655,-122.3035,60.0,0.95
2026-01-20T23:00:58+00:00,SAT-56319,323.9353249988976,38.545434613407515,2540.218369119758,2.6914527382250277,-94266.05972643511,10.5,10499905733.940273,47.655,-122.3035,60.0,0.9666666666666667
2026-01-20T23:00:59+00:00,SAT-56319,323.7312772603394,38.58610249499258,2542.9026446506805,2.709147788063773,-94885.81522177458,10.5,10499905114.184778,47.655,-122.3035,60.0,0.9833333333333333
2026-01-20T23:01:00+00:00,SAT-56319,323.52734412020175,38.62617474162678,2545.6045680446427,2.7267835200005694,-95503.49315327332,10.5,10499904496.506847,47.655,-122.3035,60.0,1.0
2026-01-20T23:01:01+00:00,SAT-56319,323.32353133781413,38.66565246889565,2548.3240801419233,2.744359819921274,-96119.08952417134,10.5,10499903880.910477,47.655,-122.3035,60.0,1.0166666666666666
2026-01-20T23:01:02+00:00,SAT-56319,323.11984465028974,38.704536831297034,2551.0611216689917,2.7618765319614913,-96732.59887543823,10.5,10499903267.401125,47.655,-122.3035,60.0,1.0333333333333334
2026-01-20T23:01:03+00:00,SAT-56319,322.916289774702,38.74282902126978,2553.815633196868,2.7793335442711973,-97344.01728961297,10.5,10499902655.98271,47.655,-122.3035,60.0,1.05
2026-01-20T23:01:04+00:00,SAT-56319,322.71287240459264,38.780530269254925,2556.587555185021,2.7967307252880502,-97953.3401588259,10.5,10499902046.659842,47.655,-122.3035,60.0,1.0666666666666667
2026-01-20T23:01:05+00:00,SAT-56319,322.509598210715,38.81764184298224,2559.3768279617084,2.814067953141456,-98560.56321465329,10.5,10499901439.436785,47.655,-122.3035,60.0,1.0833333333333333
2026-01-20T23:01:06+00:00,SAT-56319,322.3064728398434,38.85416504710721,2562.183391733641,2.831345112727262,-99165.6824256608,10.5,10499900834.317574,47.655,-122.3035,60.0,1.1
2026-01-20T23:01:07+00:00,SAT-56319,322.1035019137236,38.89010122281879,2565.007186592735,2.848562101881605,-99768.69421363779,10.5,10499900231.305786,47.655,-122.3035,60.0,1.1166666666666667
2026-01-20T23:01:08+00:00,SAT-56319,321.90069102776454,38.92545174747376,2567.8481525290113,2.865718804708525,-100369.59451941753,10.5,10499899630.405481,47.655,-122.3035,60.0,1.1333333333333333
2026-01-20T23:01:09+00:00,SAT-56319,321.6980457512959,38.96021803398222,2570.7062294169073,2.8828151305807475,-100968.3801688495,10.5,10499899031.619831,47.655,-122.3035,60.0,1.15
2026-01-20T23:01:10+00:00,SAT-56319,321.49557162546574,38.9944015305712,2573.5813570404734,2.8998509754961788,-101565.04751934046,10.5,10499898434.95248,47.655,-122.3035,60.0,1.1666666666666667
2026-01-20T23:01:11+00:00,SAT-56319,321.2932741635296,39.028003720154565,2576.473475080035,2.916826247787729,-102159.59336032113,10.5,10499897840.40664,47.655,-122.3035,60.0,1.1833333333333333
2026-01-20T23:01:12+00:00,SAT-56319,321.0911588495752,39.06102611995945,2579.382523124495,2.9337408676028898,-102752.01489501895,10.5,10499897247.985106,47.655,-122.3035,60.0,1.2
2026-01-20T23:01:13+00:00,SAT-56319,320.8892311372158,39.093470281150125,2582.3084406831176,2.9505947447783933,-103342.30896553484,10.5,10499896657.691034,47.655,-122.3035,60.0,1.2166666666666666
2026-01-20T23:01:14+00:00,SAT-56319,320.6874964497936,39.12533778820703,2585.251167175243,2.9673878005650782,-103930.4728137401,10.5,10499896069.527185,47.655,-122.3035,60.0,1.2333333333333334
2026-01-20T23:01:15+00:00,SAT-56319,320.48596017909904,39.1566302585523,2588.2106419416737,2.984119963742042,-104516.50394517742,10.5,10499895483.496056,47.655,-122.3035,60.0,1.25
2026-01-20T23:01:16+00:00,SAT-56319,320.28462768446553,39.18734934209578,2591.1868042521787,3.000791172218043,-105100.40018514892,10.5,10499894899.599815,47.655,-122.3035,60.0,1.2666666666666666
2026-01-20T23:01:17+00:00,SAT-56319,320.0835042916696,39.21749672081787,2594.1795933146045,3.0174013453025204,-105682.15870752982,10.5,10499894317.841293,47.655,-122.3035,60.0,1.2833333333333334
2026-01-20T23:01:18+00:00,SAT-56319,319.8825952936782,39.24707410807666,2597.1889482563192,3.033950437421883,-106261.77791614016,10.5,10499893738.222084,47.655,-122.3035,60.0,1.3
2026-01-20T23:01:19+00:00,SAT-56319,319.68190594795516,39.27608324841685,2600.2148081592413,3.050438376064351,-106839.25527131067,10.5,10499893160.744728,47.655,-122.3035,60.0,1.3166666666666667
2026-01-20T23:01:20+00:00,SAT-56319,319.4814414777087,39.30452591681298,2603.2571120329694,3.0668651164115466,-107414.58920331225,10.5,10499892585.410797,47.655,-122.3035,60.0,1.3333333333333333
2026-01-20T23:01:21+00:00,SAT-56319,319.2812070697265,39.332403918392274,2606.315798842404,3.0832306180828692,-107987.77829784539,10.5,10499892012.221703,47.655,-122.3035,60.0,1.35
2026-01-20T23:01:22+00:00,SAT-56319,319.0812078736989,39.359719087942345,2609.390807512172,3.099534820566623,-108558.82043553457,10.5,10499891441.179564,47.655,-122.3035,60.0,1.3666666666666667
2026-01-20T23:01:23+00:00,SAT-56319,318.8814490029868,39.386473289238175,2612.482076906551,3.115777691729089,-109127.71449092103,10.5,10499890872.28551,47.655,-122.3035,60.0,1.3833333333333333
2026-01-20T23:01:24+00:00,SAT-56319,318.68193553253303,39.412668414738704,2615.5895458577684,3.131959200632897,-109694.4593804472,10.5,10499890305.540619,47.655,-122.3035,60.0,1.4
2026-01-20T23:01:25+00:00,SAT-56319,318.482672498357,39.43830638507532,2618.7131531671994,3.14807930705601,-110259.05369536715,10.5,10499889740.946304,47.655,-122.3035,60.0,1.4166666666666667
2026-01-20T23:01:26+00:00,SAT-56319,318.28366489775357,39.4633891484551,2621.8528375961037,3.1641379826977016,-110821.49644446981,10.5,10499889178.503555,47.655,-122.3035,60.0,1.4333333333333333
2026-01-20T23:01:27+00:00,SAT-56319,318.0849176881739,39.487918680230145,2625.008537877514,3.180135208591719,-111381.78696347674,10.5,10499888618.213036,47.655,-122.3035,60.0,1.45
2026-01-20T23:01:28+00:00,SAT-56319,317.88643578632434,39.51189698243851,2628.1801927255497,3.196070961594241,-111939.92444179344,10.5,10499888060.075558,47.655,-122.3035,60.0,1.4666666666666666
2026-01-20T23:01:29+00:00,SAT-56319,317.6882240680417,39.5353260832493,2631.367740831246,3.211945230753132,-112495.90849582978,10.5,10499887504.091505,47.655,-122.3035,60.0,1.4833333333333334
2026-01-20T23:01:30+00:00,SAT-56319,317.49028736727035,39.55820803651398,2634.5711208747175,3.2277579892287984,-113049.73818554964,10.5,10499886950.261814,47.655,-122.3035,60.0,1.5
2026-01-20T23:01:31+00:00,SAT-56319,317.29263047659083,39.58054492115304,2637.790271509308,3.2435092363681783,-113601.41348808004,10.5,10499886398.586512,47.655,-122.3035,60.0,1.5166666666666666
2026-01-20T23:01:32+00:00,SAT-56319,317.0952581454324,39.602338840790104,2641.0251313877125,3.2591989724573973,-114150.93441344236,10.5,10499885849.065586,47.655,-122.3035,60.0,1.5333333333333334
2026-01-20T23:01:33+00:00,SAT-56319,316.89817507968746,39.62359192323193,2644.27563916291,3.274827190324968,-114698.30071046071,10.5,10499885301.69929,47.655,-122.3035,60.0,1.55
2026-01-20T23:01:34+00:00,SAT-56319,316.70138594185744,39.64430631990074,2647.541733480727,3.290393883286275,-115243.51214501163,10.5,10499884756.487856,47.655,-122.3035,60.0,1.5666666666666667
2026-01-20T23:01:35+00:00,SAT-56319,316.50489535068493,39.664484205325365,2650.823352980325,3.3058990741263354,-115786.56951512277,10.5,10499884213.430485,47.655,-122.3035,60.0,1.5833333333333333
2026-01-20T23:01:36+00:00,SAT-56319,316.30870787928836,39.684127776770815,2654.120436323587,3.3213427633909776,-116327.47283991135,10.5,10499883672.52716,47.655,-122.3035,60.0,1.6
2026-01-20T23:01:37+00:00,SAT-56319,316.1128280560875,39.70323925360292,2657.432922172942,3.336724955143927,-116866.22226170624,10.5,10499883133.777739,47.655,-122.3035,60.0,1.6166666666666667
2026-01-20T23:01:38+00:00,SAT-56319,315.91726036437336,39.72182087679179,2660.7607491948725,3.352045682679676,-117402.81894662138,10.5,10499882597.181053,47.655,-122.3035,60.0,1.6333333333333333
2026-01-20T23:01:39+00:00,SAT-56319,315.7220092404493,39.73987490853709,2664.1038560890647,3.367304951383322,-117937.2630832657,10.5,10499882062.736917,47.655,-122.3035,60.0,1.65
2026-01-20T23:01:40+00:00,SAT-56319,315.52707907495153,39.75740363161024,2667.462181560578,3.3825027955602076,-118469.55587315735,10.5,10499881530.444126,47.655,-122.3035,60.0,1.6666666666666667
2026-01-20T23:01:41+00:00,SAT-56319,315.33247421102396,39.774409348984975,2670.835664348683,3.3976392330010734,-118999.69793940338,10.5,10499881000.302061,47.655,-122.3035,60.0,1.6833333333333333
2026-01-20T23:01:42+00:00,SAT-56319,315.1381989450422,39.79089438323947,2674.2242432103963,3.4127142931303207,-119527.69031257073,10.5,10499880472.309687,47.655,-122.3035,60.0,1.7
2026-01-20T23:01:43+00:00,SAT-56319,314.9442575257513,39.80686107610561,2677.6278569320784,3.427728020724651,-120053.53456092894,10.5,10499879946.465439,47.655,-122.3035,60.0,1.7166666666666666
2026-01-20T23:01:44+00:00,SAT-56319,314.7506541533181,39.822311788011675,2681.0464443447477,3.4426804370916866,-120577.23143076105,10.5,10499879422.76857,47.655,-122.3035,60.0,1.7333333333333334
2026-01-20T23:01:45+00:00,SAT-56319,314.5573929803606,39.837248897487925,2684.479944300674,3.457571581670806,-121098.7823034009,10.5,10499878901.217697,47.655,-122.3035,60.0,1.75
2026-01-20T23:01:46+00:00,SAT-56319,314.3644781108769,39.85167480072799,2687.9282956914603,3.472401511460381,-121618.18917517265,10.5,10499878381.810825,47.655,-122.3035,60.0,1.7666666666666666
2026-01-20T23:01:47+00:00,SAT-56319,314.17191359912914,39.86559191115567,2691.391437465557,3.4871702633276906,-122135.45333732429,10.5,10499877864.546663,47.655,-122.3035,60.0,1.7833333333333334
2026-01-20T23:01:48+00:00,SAT-56319,313.9797034506232,39.87900265884007,2694.869308608182,3.501877879756349,-122650.5762778117,10.5,10499877349.423721,47.655,-122.3035,60.0,1.8
2026-01-20T23:01:49+00:00,SAT-56319,313.78785162164644,39.89190949002845,2698.3618481469257,3.51652442139273,-123163.56012072747,10.5,10499876836.439878,47.655,-122.3035,60.0,1.8166666666666667
2026-01-20T23:01:50+00:00,SAT-56319,313.5963620182582,39.9043148667028,2701.8689951698616,3.531109939659018,-123674.40666709396,10.5,10499876325.593332,47.655,-122.3035,60.0,1.8333333333333333
2026-01-20T23:01:51+00:00,SAT-56319,313.4052384966311,39.91622126606218,2705.3906888163483,3.545634492466855,-124183.11794522188,10.5,10499875816.882055,47.655,-122.3035,60.0,1.85
2026-01-20T23:01:52+00:00,SAT-56319,313.21448486270646,39.92763118003993,2708.926868283502,3.5600981368217286,-124689.69595168451,10.5,10499875310.304049,47.655,-122.3035,60.0,1.8666666666666667
2026-01-20T23:01:53+00:00,SAT-56319,313.02410487208346,39.93854711482957,2712.477472825292,3.574500948444825,-125194.14333855812,10.5,10499874805.85666,47.655,-122.3035,60.0,1.8833333333333333
2026-01-20T23:01:54+00:00,SAT-56319,312.8341022290971,39.94897159043504,2716.042441771208,3.588842971833328,-125696.46166432227,10.5,10499874303.538336,47.655,-122.3035,60.0,1.9
2026-01-20T23:01:55+00:00,SAT-56319,312.6444805882701,39.95890714012171,2719.621714495116,3.6031243036658838,-126196.65431507213,10.5,10499873803.345684,47.655,-122.3035,60.0,1.9166666666666667
2026-01-20T23:01:56+00:00,SAT-56319,312.45524355174354,39.96835631005224,2723.2152304673054,3.6173449845253653,-126694.72271219156,10.5,10499873305.277288,47.655,-122.3035,60.0,1.9333333333333333
2026-01-20T23:01:57+00:00,SAT-56319,312.2663946719741,39.9773216586953,2726.822929198539,3.631505110509524,-127190.67022143032,10.5,10499872809.329779,47.655,-122.3035,60.0,1.95
2026-01-20T23:01:58+00:00,SAT-56319,312.07793744903563,39.98580575646377,2730.4447502954204,3.645604752216183,-127684.49931542281,10.5,10499872315.500685,47.655,-122.3035,60.0,1.9666666666666666
2026-01-20T23:01:59+00:00,SAT-56319,311.8898753318407,39.9938111852007,2734.080633434964,3.6596439892264607,-128176.2127814364,10.5,10499871823.787218,47.655,-122.3035,60.0,1.9833333333333334
2026-01-20T23:02:00+00:00,SAT-56319,311.7022117177368,40.001340537727636,2737.730518373552,3.6736229067825343,-128665.81360501274,10.5,10499871334.186396,47.655,-122.3035,60.0,2.0
2026-01-20T23:02:01+00:00,SAT-56319,311.51494995224266,40.00839641739389,2741.394344952583,3.6875415801812284,-129153.3044233651,10.5,10499870846.695576,47.655,-122.3035,60.0,2.0166666666666666
2026-01-20T23:02:02+00:00,SAT-56319,311.3280933295835,40.01498143760401,2745.072053088551,3.701400102674771,-129638.68850258099,10.5,10499870361.311497,47.655,-122.3035,60.0,2.033333333333333
2026-01-20T23:02:03+00:00,SAT-56319,311.1416450918443,40.02109822139459,2748.7635827909517,3.7151985735098427,-130121.96931869898,10.5,10499869878.030682,47.655,-122.3035,60.0,2.05
2026-01-20T23:02:04+00:00,SAT-56319,310.9556084287962,40.02674940098344,2752.4688741682658,3.728937065595653,-130603.14942530796,10.5,10499869396.850574,47.655,-122.3035,60.0,2.066666666666667
2026-01-20T23:02:05+00:00,SAT-56319,310.7699864791657,40.03193761729884,2756.1878674016866,3.7426156860186803,-131082.23257302938,10.5,10499868917.767427,47.655,-122.3035,60.0,2.0833333333333335
2026-01-20T23:02:06+00:00,SAT-56319,310.58478232913876,40.03666551957436,2759.920502779209,3.7562345314347008,-131559.22214715742,10.5,10499868440.777853,47.655,-122.3035,60.0,2.1
2026-01-20T23:02:07+00:00,SAT-56319,310.3999990129223,40.04093576490014,2763.6667206852267,3.7697936945485924,-132034.12139460898,10.5,10499867965.878605,47.655,-122.3035,60.0,2.1166666666666667
2026-01-20T23:02:08+00:00,SAT-56319,310.2156395130541,40.044751017784876,2767.4264615965894,3.783293273199773,-132506.93374213442,10.5,10499867493.066257,47.655,-122.3035,60.0,2.1333333333333333
2026-01-20T23:02:09+00:00,SAT-56319,310.03170676024024,40.048113949737285,2771.1996660877276,3.7967333903753966,-132977.66349726403,10.5,10499867022.336502,47.655,-122.3035,60.0,2.15
2026-01-20T23:02:10+00:00,SAT-56319,309.84820363237924,40.051027238846444,2774.986274855729,3.8101141354713164,-133446.3137910188,10.5,10499866553.686209,47.655,-122.3035,60.0,2.1666666666666665
2026-01-20T23:02:11+00:00,SAT-56319,309.6651329561844,40.05349356935042,2778.786228686839,3.823435606542951,-133912.88805771418,10.5,10499866087.111942,47.655,-122.3035,60.0,2.183333333333333
2026-01-20T23:02:12+00:00,SAT-56319,309.48249750696135,40.05551563122602,2782.5994684650977,3.836697942714441,-134377.39117006617,10.5,10499865622.60883,47.655,-122.3035,60.0,2.2
2026-01-20T23:02:13+00:00,SAT-56319,309.30030000689163,40.05709611978481,2786.425935213298,3.8499012332047875,-134839.8262529015,10.5,10499865160.173748,47.655,-122.3035,60.0,2.216666666666667
2026-01-20T23:02:14+00:00,SAT-56319,309.11854312746686,40.058237735255815,2790.2655700432147,3.86304559181964,-135300.19729217543,10.5,10499864699.802708,47.655,-122.3035,60.0,2.2333333333333334
2026-01-20T23:02:15+00:00,SAT-56319,308.9372294885258,40.0589431823923,2794.1183141801225,3.8761311543827666,-135758.5090450109,10.5,10499864241.490955,47.655,-122.3035,60.0,2.25
2026-01-20T23:02:16+00:00,SAT-56319,308.7563616575014,40.05921517006396,2797.9841089847605,3.8891580123503453,-136214.76471459007,10.5,10499863785.235285,47.655,-122.3035,60.0,2.2666666666666666
2026-01-20T23:02:17+00:00,SAT-56319,308.5759421515429,40.05905641087688,2801.8628959090775,3.9021263088711153,-136668.96931458733,10.5,10499863331.030685,47.655,-122.3035,60.0,2.283333333333333
2026-01-20T23:02:18+00:00,SAT-56319,308.3959734354841,40.0584696207666,2805.7546165477916,3.91503615884086,-137121.12686913903,10.5,10499862878.87313,47.655,-122.3035,60.0,2.3
2026-01-20T23:02:19+00:00,SAT-56319,308.2164579232444,40.05745751862872,2809.6592126102087,3.9278876693343703,-137571.24112845724,10.5,10499862428.758871,47.655,-122.3035,60.0,2.316666666666667
2026-01-20T23:02:20+00:00,SAT-56319,308.037397978432,40.05602282594218,2813.5766259124252,3.940680988984583,-138019.31729829617,10.5,10499861980.682701,47.655,-122.3035,60.0,2.3333333333333335
2026-01-20T23:02:21+00:00,SAT-56319,307.85879591274653,40.054168266372706,2817.5067984187726,3.9534162349732536,-138465.35948285653,10.5,10499861534.640516,47.655,-122.3035,60.0,2.35
2026-01-20T23:02:22+00:00,SAT-56319,307.68065398759626,40.05189656542148,2821.4496722104527,3.9660935225920717,-138909.37172014097,10.5,10499861090.62828,47.655,-122.3035,60.0,2.3666666666666667
2026-01-20T23:02:23+00:00,SAT-56319,307.50297441439164,40.049210450068976,2825.405189483651,3.9787130129812596,-139351.35965396176,10.5,10499860648.640347,47.655,-122.3035,60.0,2.3833333333333333
2026-01-20T23:02:24+00:00,SAT-56319,307.3257593528999,40.04611264836603,2829.3732925952645,3.9912748145745898,-139791.32708212823,10.5,10499860208.672918,47.655,-122.3035,60.0,2.4
2026-01-20T23:02:25+00:00,SAT-56319,307.14901091369074,40.042605889136716,2833.3539240103337,4.003779068155543,-140229.27893547344,10.5,10499859770.721064,47.655,-122.3035,60.0,2.4166666666666665
2026-01-20T23:02:26+00:00,SAT-56319,306.9727311570809,40.038692901591915,2837.347026334307,4.016225905668137,-140665.21983523495,10.5,10499859334.780165,47.655,-122.3035,60.0,2.433333333333333
2026-01-20T23:02:27+00:00,SAT-56319,306.7969220937462,40.0343764149979,2841.3525423042265,4.028615474546418,-141099.15494517676,10.5,10499858900.845055,47.655,-122.3035,60.0,2.45
2026-01-20T23:02:28+00:00,SAT-56319,306.6215856844105,40.02965915831232,2845.3704148041747,4.040947896095839,-141531.0885139289,10.5,10499858468.911486,47.655,-122.3035,60.0,2.466666666666667
2026-01-20T23:02:29+00:00,SAT-56319,306.44672384116336,40.024543859890976,2849.400586839214,4.053223334702115,-141961.0262989745,10.5,10499858038.973701,47.655,-122.3035,60.0,2.4833333333333334
2026-01-20T23:02:30+00:00,SAT-56319,306.27233842606324,40.01903324708638,2853.443001578357,4.065441911032882,-142388.97252660457,10.5,10499857611.027473,47.655,-122.3035,60.0,2.5
2026-01-20T23:02:31+00:00,SAT-56319,306.0984312531508,40.013130045999795,2857.4976023109607,4.077603771601802,-142814.93232834738,10.5,10499857185.06767,47.655,-122.3035,60.0,2.5166666666666666
2026-01-20T23:02:32+00:00,SAT-56319,305.92500408776743,40.00683698111581,2861.5643324725047,4.0897090711501045,-143238.91112389523,10.5,10499856761.088877,47.655,-122.3035,60.0,2.533333333333333
2026-01-20T23:02:33+00:00,SAT-56319,305.75205864652133,40.00015677497307,2865.6431356527983,4.101757948600679,-143660.91377891542,10.5,10499856339.086222,47.655,-122.3035,60.0,2.55
2026-01-20T23:02:34+00:00,SAT-56319,305.5795965982654,39.99309214788129,2869.7339555802027,4.113750540415618,-144080.94507288767,10.5,10499855919.054928,47.655,-122.3035,60.0,2.566666666666667
2026-01-20T23:02:35+00:00,SAT-56319,305.4076195644929,39.985645817628736,2873.836736119177,4.125687016175656,-144499.01094524664,10.5,10499855500.989056,47.655,-122.3035,60.0,2.5833333333333335
2026-01-20T23:02:36+00:00,SAT-56319,305.2361291184204,39.97782049910747,2877.95142130331,4.1375675112669885,-144915.1161377895,10.5,10499855084.883862,47.655,-122.3035,60.0,2.6
2026-01-20T23:02:37+00:00,SAT-56319,305.06512678660994,39.969618904098205,2882.0779553012135,4.149392180398824,-145329.26606908717,10.5,10499854670.73393,47.655,-122.3035,60.0,2.6166666666666667
2026-01-20T23:02:38+00:00,SAT-56319,304.89461404863175,39.961043740931245,2886.2162824357974,4.161161175412491,-145741.46605726535,10.5,10499854258.533943,47.655,-122.3035,60.0,2.6333333333333333
2026-01-20T23:02:39+00:00,SAT-56319,304.72459233746395,39.95209771421661,2890.3663471814093,4.172874642808436,-146151.72123338934,10.5,10499853848.278767,47.655,-122.3035,60.0,2.65
2026-01-20T23:02:40+00:00,SAT-56319,304.5550630401204,39.94278352457029,2894.528094158504,4.184532761534398,-146560.03786496585,10.5,10499853439.962135,47.655,-122.3035,60.0,2.6666666666666665
2026-01-20T23:02:41+00:00,SAT-56319,304.38602749671765,39.933103868266684,2898.701468166007,4.196135652062349,-146966.42017143292,10.5,10499853033.579828,47.655,-122.3035,60.0,2.683333333333333
2026-01-20T23:02:42+00:00,SAT-56319,304.2174870031273,39.92306143710761,2902.8864141229974,4.207683495696641,-147370.874502836,10.5,10499852629.125498,47.655,-122.3035,60.0,2.7
2026-01-20T23:02:43+00:00,SAT-56319,304.049442808996,39.912658918011104,2907.0828771293723,4.219176450148033,-147773.40638287287,10.5,10499852226.593616,47.655,-122.3035,60.0,2.716666666666667
2026-01-20T23:02:44+00:00,SAT-56319,303.8818961190287,39.90189899280853,2911.2908024423195,4.2306146601193975,-148174.02087965028,10.5,10499851825.97912,47.655,-122.3035,60.0,2.7333333333333334
2026-01-20T23:02:45+00:00,SAT-56319,303.7148480938889,39.890784338023565,2915.5101354633453,4.241998285157185,-148572.72358115975,10.5,10499851427.276419,47.655,-122.3035,60.0,2.75
2026-01-20T23:02:46+00:00,SAT-56319,303.5482998499774,39.87931762458859,2919.740821753076,4.253327504065813,-148969.52074988835,10.5,10499851030.47925,47.655,-122.3035,60.0,2.7666666666666666
2026-01-20T23:02:47+00:00,SAT-56319,303.38225245915595,39.867501517539225,2923.9828070504636,4.264602464120765,-149364.41754404653,10.5,10499850635.582457,47.655,-122.3035,60.0,2.783333333333333
2026-01-20T23:02:48+00:00,SAT-56319,303.21670695027876,39.855338675867834,2928.2360372413473,4.275823331682192,-149757.4197902704,10.5,10499850242.58021,47.655,-122.3035,60.0,2.8
2026-01-20T23:02:49+00:00,SAT-56319,303.0516643089096,39.842831752230445,2932.500458377478,4.286990273717566,-150148.5333364672,10.5,10499849851.466663,47.655,-122.3035,60.0,2.816666666666667
2026-01-20T23:02:50+00:00,SAT-56319,302.8871254776745,39.82998339271824,2936.7760166771322,4.298103443846478,-150537.76356304472,10.5,10499849462.236437,47.655,-122.3035,60.0,2.8333333333333335
2026-01-20T23:02:51+00:00,SAT-56319,302.72309135717694,39.8167962366709,2941.0626585117952,4.309163014453007,-150925.11650762265,10.5,10499849074.883492,47.655,-122.3035,60.0,2.85
2026-01-20T23:02:52+00:00,SAT-56319,302.5595628056972,39.803272916399884,2945.3603304248763,4.320169158977821,-151310.5982448268,10.5,10499848689.401754,47.655,-122.3035,60.0,2.8666666666666667
2026-01-20T23:02:53+00:00,SAT-56319,302.3965406396034,39.78941605696414,2949.6689791327635,4.331122029570229,-151694.2141035696,10.5,10499848305.785896,47.655,-122.3035,60.0,2.8833333333333333
2026-01-20T23:02:54+00:00,SAT-56319,302.2340256344843,39.77522827603412,2953.9885515035885,4.342021808557123,-152075.97046971007,10.5,10499847924.02953,47.655,-122.3035,60.0,2.9
2026-01-20T23:02:55+00:00,SAT-56319,302.0720185245286,39.760712183580424,2958.318994587323,4.352868656874935,-152455.87297992271,10.5,10499847544.12702,47.655,-122.3035,60.0,2.9166666666666665
2026-01-20T23:02:56+00:00,SAT-56319,301.91052000367125,39.745870381747324,2962.660255594446,4.363662732575435,-152833.92716984916,10.5,10499847166.07283,47.655,-122.3035,60.0,2.933333333333333
2026-01-20T23:02:57+00:00,SAT-56319,301.7495307261235,39.73070546466719,2967.012281893068,4.374404231127571,-153210.13988563878,10.5,10499846789.860115,47.655,-122.3035,60.0,2.95
2026-01-20T23:02:58+00:00,SAT-56319,301.5890513054829,39.71522001813315,2971.3750210462454,4.385093297179328,-153584.5161934759,10.5,10499846415.483807,47.655,-122.3035,60.0,2.966666666666667
2026-01-20T23:02:59+00:00,SAT-56319,301.4290823169353,39.69941661959548,2975.7484207612993,4.395730116427096,-153957.06259723354,10.5,10499846042.937403,47.655,-122.3035,60.0,2.9833333333333334
2026-01-20T23:03:00+00:00,SAT-56319,301.2696242962308,39.68329783782954,2980.132428930749,4.4063148607091245,-154327.7851154141,10.5,10499845672.214884,47.655,-122.3035,60.0,3.0
2026-01-20T23:03:01+00:00,SAT-56319,301.11067774063105,39.666866232804466,2984.5269936184964,4.4168476909496475,-154696.68938426496,10.5,10499845303.310616,47.655,-122.3035,60.0,3.0166666666666666
2026-01-20T23:03:02+00:00,SAT-56319,300.9522431096575,39.65012435555574,2988.932063048937,4.427328787481809,-155063.78171981563,10.5,10499844936.21828,47.655,-122.3035,60.0,3.033333333333333
2026-01-20T23:03:03+00:00,SAT-56319,300.79432082490246,39.633074747937755,2993.3475856263185,4.437758334868667,-155429.0685862451,10.5,10499844570.931414,47.655,-122.3035,60.0,3.05
2026-01-20T23:03:04+00:00,SAT-56319,300.63691127028966,39.61571994244096,2997.773509938961,4.448136484553616,-155792.55528774162,10.5,10499844207.444712,47.655,-122.3035,60.0,3.066666666666667
2026-01-20T23:03:05+00:00,SAT-56319,300.4800147936354,39.59806246216406,3002.2097847262226,4.458463425805824,-156154.24845331218,10.5,10499843845.751547,47.655,-122.3035,60.0,3.0833333333333335
2026-01-20T23:03:06+00:00,SAT-56319,300.32363170579094,39.58010482050565,3006.6563589162265,4.468739329892817,-156514.15408146984,10.5,10499843485.845919,47.655,-122.3035,60.0,3.1
2026-01-20T23:03:07+00:00,SAT-56319,300.1677622817029,39.561849521082735,3011.113181607906,4.478964375810104,-156872.27844139462,10.5,10499843127.72156,47.655,-122.3035,60.0,3.1166666666666667
2026-01-20T23:03:08+00:00,SAT-56319,300.01240676056466,39.543299057552076,3015.580202078714,4.489138724217136,-157228.62716005993,10.5,10499842771.37284,47.655,-122.3035,60.0,3.1333333333333333
2026-01-20T23:03:09+00:00,SAT-56319,299.8575653468639,39.52445591354448,3020.057369766333,4.499262577721819,-157583.2073336518,10.5,10499842416.792665,47.655,-122.3035,60.0,3.15
2026-01-20T23:03:10+00:00,SAT-56319,299.703238209429,39.50532256234436,3024.544634310514,4.509336086420765,-157936.02421918843,10.5,10499842063.97578,47.655,-122.3035,60.0,3.1666666666666665
2026-01-20T23:03:11+00:00,SAT-56319,299.54942548359327,39.48590146698061,3029.0419455007045,4.519359446167135,-158287.084676276,10.5,10499841712.915323,47.655,-122.3035,60.0,3.183333333333333
2026-01-20T23:03:12+00:00,SAT-56319,299.39612727011615,39.4661950798967,3033.549253321682,4.5293328190499995,-158636.3943819594,10.5,10499841363.605618,47.655,-122.3035,60.0,3.2
2026-01-20T23:03:13+00:00,SAT-56319,299.24334363672784,39.44620584297107,3038.066507919881,4.539256394074766,-158983.95995600743,10.5,10499841016.040045,47.655,-122.3035,60.0,3.216666666666667
2026-01-20T23:03:14+00:00,SAT-56319,299.0910746176795,39.42593618727387,3042.5936596302386,4.549130349291657,-159329.78763449212,10.5,10499840670.212366,47.655,-122.3035,60.0,3.2333333333333334
2026-01-20T23:03:15+00:00,SAT-56319,298.93932021454333,39.4053885329946,3047.1306589652654,4.558954851262585,-159673.88325111615,10.5,10499840326.116749,47.655,-122.3035,60.0,3.25
2026-01-20T23:03:16+00:00,SAT-56319,298.7880803969763,39.38456528938237,3051.6774566035915,4.568730086203848,-160016.25332796198,10.5,10499839983.746672,47.655,-122.3035,60.0,3.2666666666666666
2026-01-20T23:03:17+00:00,SAT-56319,298.63735510255975,39.36346885454119,3056.234003409565,4.578456244431553,-160356.90453070475,10.5,10499839643.095469,47.655,-122.3035,60.0,3.283333333333333
2026-01-20T23:03:18+00:00,SAT-56319,298.48714423708134,39.342101615301075,3060.800250437345,4.588133489567054,-160695.8425900563,10.5,10499839304.15741,47.655,-122.3035,60.0,3.3
2026-01-20T23:03:19+00:00,SAT-56319,298.3374476758167,39.32046594724018,3065.376148904273,4.597761985181391,-161033.07323496643,10.5,10499838966.926765,47.655,-122.3035,60.0,3.316666666666667
2026-01-20T23:03:20+00:00,SAT-56319,298.1882652639116,39.29856421458827,3069.9616501908276,4.607341957268713,-161368.60438070624,10.5,10499838631.395618,47.655,-122.3035,60.0,3.3333333333333335
2026-01-20T23:03:21+00:00,SAT-56319,298.0395968149429,39.276398769823544,3074.5567059028767,4.616873550451597,-161702.44109257002,10.5,10499838297.558907,47.655,-122.3035,60.0,3.35
2026-01-20T23:03:22+00:00,SAT-56319,297.8914421137897,39.253971953975864,3079.1612677905273,4.626356936702463,-162034.5893937594,10.5,10499837965.410606,47.655,-122.3035,60.0,3.3666666666666667
2026-01-20T23:03:23+00:00,SAT-56319,297.7438009162445,39.23128609640584,3083.7752877753983,4.635792330893581,-162365.05681001025,10.5,10499837634.94319,47.655,-122.3035,60.0,3.3833333333333333
2026-01-20T23:03:24+00:00,SAT-56319,297.596672948124,39.20834351450302,3088.3987179934093,4.645179885833422,-162693.8486933215,10.5,10499837306.151306,47.655,-122.3035,60.0,3.4
2026-01-20T23:03:25+00:00,SAT-56319,297.4500579075721,39.18514651391232,3093.0315107328806,4.654519785471623,-163020.97148638757,10.5,10499836979.028513,47.655,-122.3035,60.0,3.4166666666666665
2026-01-20T23:03:26+00:00,SAT-56319,297.30395546452496,39.16169738829996,3097.673618465591,4.663812221829872,-163346.43191462028,10.5,10499836653.568085,47.655,-122.3035,60.0,3.433333333333333
2026-01-20T23:03:27+00:00,SAT-56319,297.1583652609114,39.13799841923396,3102.3249938548297,4.673057355560508,-163670.23560474406,10.5,10499836329.764395,47.655,-122.3035,60.0,3.45
2026-01-20T23:03:28+00:00,SAT-56319,297.0132869119652,39.11405187627387,3106.9855897241086,4.682255394579285,-163992.3898388481,10.5,10499836007.61016,47.655,-122.3035,60.0,3.466666666666667
2026-01-20T23:03:29+00:00,SAT-56319,296.86872000528234,39.08986001665446,3111.655359104302,4.691406495674543,-164312.9001083233,10.5,10499835687.099892,47.655,-122.3035,60.0,3.4833333333333334
2026-01-20T23:03:30+00:00,SAT-56319,296.72466410269544,39.06542508548685,3116.334255182655,4.7005108432584,-164631.77287206205,10.5,10499835368.227127,47.655,-122.3035,60.0,3.5
2026-01-20T23:03:31+00:00,SAT-56319,296.58111873990134,39.040749315550535,3121.0222313303316,4.709568625599343,-164949.01472402317,10.5,10499835050.985275,47.655,-122.3035,60.0,3.5166666666666666
2026-01-20T23:03:32+00:00,SAT-56319,296.4380834267331,39.01583492721284,3125.7192411062624,4.718580023368993,-165264.6319920911,10.5,10499834735.368008,47.655,-122.3035,60.0,3.533333333333333
2026-01-20T23:03:33+00:00,SAT-56319,296.29555764781503,38.99068412841,3130.4252382495692,4.727545208894508,-165578.63071189178,10.5,10499834421.369287,47.655,-122.3035,60.0,3.55
2026-01-20T23:03:34+00:00,SAT-56319,296.1535408631631,38.96529911464086,3135.14017667124,4.736464362763652,-165891.01720837268,10.5,10499834108.982792,47.655,-122.3035,60.0,3.566666666666667
2026-01-20T23:03:35+00:00,SAT-56319,296.0120325083878,38.939682068868926,3139.864010462369,4.7453376771617615,-166201.79821267715,10.5,10499833798.201788,47.655,-122.3035,60.0,3.5833333333333335
2026-01-20T23:03:36+00:00,SAT-56319,295.87103199472364,38.91383516141265,3144.5966939057257,4.754165320648564,-166510.97962847995,10.5,10499833489.020372,47.655,-122.3035,60.0,3.6
2026-01-20T23:03:37+00:00,SAT-56319,295.7305387101359,38.88776055002677,3149.338181452186,4.762947477291095,-166818.56790258712,10.5,10499833181.432096,47.655,-122.3035,60.0,3.6166666666666667
2026-01-20T23:03:38+00:00,SAT-56319,295.5905520192216,38.861460379777874,3154.0884277362043,4.771684327460616,-167124.56935236332,10.5,10499832875.430647,47.655,-122.3035,60.0,3.6333333333333333
2026-01-20T23:03:39+00:00,SAT-56319,295.4510712637598,38.834936783021845,3158.8473875721247,4.780376043074662,-167428.9899990878,10.5,10499832571.01,47.655,-122.3035,60.0,3.65
2026-01-20T23:03:40+00:00,SAT-56319,295.3120957632789,38.80819187941692,3163.615015945751,4.789022832354427,-167731.83713554757,10.5,10499832268.162865,47.655,-122.3035,60.0,3.6666666666666665
2026-01-20T23:03:41+00:00,SAT-56319,295.17362481448697,38.78122777568197,3168.3912680505528,4.797624838923327,-168033.11579204214,10.5,10499831966.884209,47.655,-122.3035,60.0,3.683333333333333
2026-01-20T23:03:42+00:00,SAT-56319,295.0356576933913,38.75404656593216,3173.176099223239,4.806182258629441,-168332.83282799975,10.5,10499831667.167171,47.655,-122.3035,60.0,3.7
2026-01-20T23:03:43+00:00,SAT-56319,294.8981936542641,38.726650331352985,3177.969464995845,4.814695275066143,-168630.99467363686,10.5,10499831369.005327,47.655,-122.3035,60.0,3.716666666666667
2026-01-20T23:03:44+00:00,SAT-56319,294.7612319303454,38.69904114024323,3182.7713210835113,4.823164071763788,-168927.6077569629,10.5,10499831072.392242,47.655,-122.3035,60.0,3.7333333333333334
2026-01-20T23:03:45+00:00,SAT-56319,294.62477173423304,38.67122104798974,3187.581623384417,4.8315888036963734,-169222.6775058228,10.5,10499830777.322495,47.655,-122.3035,60.0,3.75
2026-01-20T23:03:46+00:00,SAT-56319,294.4888122589955,38.64319209721275,3192.4003279513036,4.839969678294303,-169516.2111853067,10.5,10499830483.788815,47.655,-122.3035,60.0,3.7666666666666666
2026-01-20T23:03:47+00:00,SAT-56319,294.35335267715845,38.614956317441546,3197.2273910437893,4.848306854159756,-169808.2143503338,10.5,10499830191.78565,47.655,-122.3035,60.0,3.783333333333333
2026-01-20T23:03:48+00:00,SAT-56319,294.2183921423438,38.586515725381965,3202.062769079671,4.856600530301426,-170098.69397103039,10.5,10499829901.306028,47.655,-122.3035,60.0,3.8
2026-01-20T23:03:49+00:00,SAT-56319,294.08392978858535,38.55787232466452,3206.906418675225,4.86485086075412,-170387.6554423469,10.5,10499829612.344557,47.655,-122.3035,60.0,3.816666666666667
2026-01-20T23:03:50+00:00,SAT-56319,293.9499647318494,38.52902810609812,3211.75829660035,4.873058036049937,-170675.1054375235,10.5,10499829324.894562,47.655,-122.3035,60.0,3.8333333333333335
2026-01-20T23:03:51+00:00,SAT-56319,293.81649606944904,38.4999850474434,3216.618359814971,4.88122224230912,-170961.05047527832,10.5,10499829038.949524,47.655,-122.3035,60.0,3.85
2026-01-20T23:03:52+00:00,SAT-56319,293.68352288049687,38.470745113430304,3221.486565464634,4.889343645069012,-171245.49635342933,10.5,10499828754.503647,47.655,-122.3035,60.0,3.8666666666666667
2026-01-20T23:03:53+00:00,SAT-56319,293.5510442268011,38.44131025587587,3226.3628708599826,4.897422421795891,-171528.44928759633,10.5,10499828471.550713,47.655,-122.3035,60.0,3.8833333333333333
2026-01-20T23:03:54+00:00,SAT-56319,293.41905915287805,38.411682413609626,3231.247233488654,4.905458766207377,-171809.91606258973,10.5,10499828190.083937,47.655,-122.3035,60.0,3.9
2026-01-20T23:03:55+00:00,SAT-56319,293.2875666859126,38.38186351237119,3236.139611031485,4.913452834686759,-172089.90215561382,10.5,10499827910.097845,47.655,-122.3035,60.0,3.9166666666666665
2026-01-20T23:03:56+00:00,SAT-56319,293.15656583701184,38.35185546503979,3241.039961325279,4.921404799778206,-172368.4136098953,10.5,10499827631.58639,47.655,-122.3035,60.0,3.933333333333333
2026-01-20T23:03:57+00:00,SAT-56319,293.0260556011517,38.32166017153813,3245.9482423789245,4.92931487087233,-172645.45775917906,10.5,10499827354.54224,47.655,-122.3035,60.0,3.95
2026-01-20T23:03:58+00:00,SAT-56319,292.89603495657127,38.291279518608235,3250.864412410141,4.937183195163802,-172921.03975884515,10.5,10499827078.960241,47.655,-122.3035,60.0,3.966666666666667
2026-01-20T23:03:59+00:00,SAT-56319,292.7665028666702,38.26071538020178,3255.7884297834507,4.945009956675953,-173195.1660541691,10.5,10499826804.833946,47.655,-122.3035,60.0,3.9833333333333334
2026-01-20T23:04:00+00:00,SAT-56319,292.6374582794003,38.22996961726048,3260.7202530469094,4.9527953350416025,-173467.84293665196,10.5,10499826532.157063,47.655,-122.3035,60.0,4.0
2026-01-20T23:04:01+00:00,SAT-56319,292.5089001277105,38.199044077752205,3265.659840927724,4.96053949287837,-173739.07610185072,10.5,10499826260.923899,47.655,-122.3035,60.0,4.016666666666667
2026-01-20T23:04:02+00:00,SAT-56319,292.3808273302685,38.16794059678971,3270.6071523152877,4.968242613293262,-174008.8719629473,10.5,10499825991.128036,47.655,-122.3035,60.0,4.033333333333333
2026-01-20T23:04:03+00:00,SAT-56319,292.2532387912898,38.13666099651484,3275.5621462816125,4.975904879019241,-174277.23692002296,10.5,10499825722.76308,47.655,-122.3035,60.0,4.05
2026-01-20T23:04:04+00:00,SAT-56319,292.12613340083874,38.10520708611528,3280.5247820809545,4.983526451701192,-174544.17663456535,10.5,10499825455.823366,47.655,-122.3035,60.0,4.066666666666666
2026-01-20T23:04:05+00:00,SAT-56319,291.99951003567713,38.073580661973686,3285.4950191287844,4.991107509178426,-174809.69733525944,10.5,10499825190.302664,47.655,-122.3035,60.0,4.083333333333333
2026-01-20T23:04:06+00:00,SAT-56319,291.8733675591418,38.04178350758467,3290.4728170179383,4.998648228985323,-175073.80524011012,10.5,10499824926.19476,47.655,-122.3035,60.0,4.1
2026-01-20T23:04:07+00:00,SAT-56319,291.74770482148637,38.00981739357432,3295.4581355183127,5.006148771535353,-175336.5059674757,10.5,10499824663.494032,47.655,-122.3035,60.0,4.116666666666666
2026-01-20T23:04:08+00:00,SAT-56319,291.6225206605608,37.97768407783268,3300.4509345597908,5.013609317785247,-175597.80585522632,10.5,10499824402.194145,47.655,-122.3035,60.0,4.133333333333334
2026-01-20T23:04:09+00:00,SAT-56319,291.4978139016329,37.94538530540348,3305.451174252729,5.021030048286177,-175857.71122702782,10.5,10499824142.288773,47.655,-122.3035,60.0,4.15
2026-01-20T23:04:10+00:00,SAT-56319,291.37358335768306,37.91292280851055,3310.4588148875528,5.028411126509064,-176116.22780832322,10.5,10499823883.772192,47.655,-122.3035,60.0,4.166666666666667
2026-01-20T23:04:11+00:00,SAT-56319,291.2498278301055,37.880298306693206,3315.4738169177244,5.035752715356131,-176373.36130463757,10.5,10499823626.638695,47.655,-122.3035,60.0,4.183333333333334
2026-01-20T23:04:12+00:00,SAT-56319,291.1265461089782,37.84751350683808,3320.496140959173,5.043055002660831,-176629.11829469283,10.5,10499823370.881706,47.655,-122.3035,60.0,4.2
2026-01-20T23:04:13+00:00,SAT-56319,291.00373697279633,37.81457010304369,3325.5257478151602,5.050318137874843,-176883.504012919,10.5,10499823116.495987,47.655,-122.3035,60.0,4.216666666666667
2026-01-20T23:04:14+00:00,SAT-56319,290.8813991896035,37.78146977690175,3330.562598438001,5.05754232070465,-177136.5254538819,10.5,10499822863.474546,47.655,-122.3035,60.0,4.233333333333333
2026-01-20T23:04:15+00:00,SAT-56319,290.75953151614414,37.748214197197115,3335.606653979183,5.06472769121816,-177388.18752335216,10.5,10499822611.812477,47.655,-122.3035,60.0,4.25
2026-01-20T23:04:16+00:00,SAT-56319,290.6381326994639,37.7148050203326,3340.6578757298917,5.071874431395658,-177638.49659504913,10.5,10499822361.503405,47.655,-122.3035,60.0,4.266666666666667
2026-01-20T23:04:17+00:00,SAT-56319,290.51720147625593,37.68124389008539,3345.7162251628038,5.078982722737165,-177887.45902587127,10.5,10499822112.540974,47.655,-122.3035,60.0,4.283333333333333
2026-01-20T23:04:18+00:00,SAT-56319,290.39673657310556,37.64753243764447,3350.7816639316134,5.086052712440401,-178135.07997130541,10.5,10499821864.920029,47.655,-122.3035,60.0,4.3
2026-01-20T23:04:19+00:00,SAT-56319,290.2767367075478,37.61367228187301,3355.854153836821,5.093084572573845,-178381.36545791748,10.5,10499821618.634542,47.655,-122.3035,60.0,4.316666666666666
2026-01-20T23:04:20+00:00,SAT-56319,290.1572005877416,37.57966502918072,3360.9336568505346,5.100078474863429,-178626.32150027607,10.5,10499821373.6785,47.655,-122.3035,60.0,4.333333333333333
2026-01-20T23:04:21+00:00,SAT-56319,290.03812691275255,37.54551227356289,3366.0201351161313,5.107034603363486,-178869.95454474242,10.5,10499821130.045456,47.655,-122.3035,60.0,4.35
2026-01-20T23:04:22+00:00,SAT-56319,289.9195143725168,37.51121559655564,3371.1135509605524,5.113953081877874,-179112.2689274514,10.5,10499820887.731073,47.655,-122.3035,60.0,4.366666666666666
2026-01-20T23:04:23+00:00,SAT-56319,289.8013616494255,37.476776567681036,3376.2138668342122,5.12083412344114,-179353.2721097739,10.5,10499820646.72789,47.655,-122.3035,60.0,4.383333333333334
2026-01-20T23:04:24+00:00,SAT-56319,289.68366741659634,37.44219674388652,3381.321045399991,5.127677855102635,-179592.96854151573,10.5,10499820407.031458,47.655,-122.3035,60.0,4.4
2026-01-20T23:04:25+00:00,SAT-56319,289.56643034001024,37.407477670166905,3386.4350494474797,5.134484480457233,-179831.36535343042,10.5,10499820168.634647,47.655,-122.3035,60.0,4.416666666666667
2026-01-20T23:04:26+00:00,SAT-56319,289.44964907706645,37.37262087908824,3391.5558419693225,5.141254125528188,-180068.46695938552,10.5,10499819931.533041,47.655,-122.3035,60.0,4.433333333333334
2026-01-20T23:04:27+00:00,SAT-56319,289.33332227850445,37.33762789135763,3396.683386083849,5.147986962872373,-180304.27940305264,10.5,10499819695.720596,47.655,-122.3035,60.0,4.45
2026-01-20T23:04:28+00:00,SAT-56319,289.2174485876175,37.302500215552136,3401.8176450814876,5.154683190538463,-180538.80962093401,10.5,10499819461.190378,47.655,-122.3035,60.0,4.466666666666667
2026-01-20T23:04:29+00:00,SAT-56319,289.10202663996114,37.26723934798785,3406.9585824501846,5.161342937173139,-180772.0621187807,10.5,10499819227.937881,47.655,-122.3035,60.0,4.483333333333333
2026-01-20T23:04:30+00:00,SAT-56319,288.987055065031,37.2318467732401,3412.1061618061917,5.167966356684154,-181004.0422870932,10.5,10499818995.957712,47.655,-122.3035,60.0,4.5
2026-01-20T23:04:31+00:00,SAT-56319,288.8725324859567,37.19632396401881,3417.260346919258,5.1745536499296145,-181234.75716077205,10.5,10499818765.24284,47.655,-122.3035,60.0,4.516666666666667
2026-01-20T23:04:32+00:00,SAT-56319,288.7584575187178,37.16067238089203,3422.421101759455,5.18110494825384,-181464.21134005085,10.5,10499818535.78866,47.655,-122.3035,60.0,4.533333333333333
2026-01-20T23:04:33+00:00,SAT-56319,288.64482877384285,37.12489347281171,3427.5883904278467,5.187620412642554,-181692.41046333066,10.5,10499818307.589537,47.655,-122.3035,60.0,4.55
2026-01-20T23:04:34+00:00,SAT-56319,288.53164485596375,37.08898867695971,3432.762177186055,5.1941002295676935,-181919.36106164745,10.5,10499818080.638939,47.655,-122.3035,60.0,4.566666666666666
2026-01-20T23:04:35+00:00,SAT-56319,288.41890436353157,37.05295941861925,3437.942426481677,5.2005445330081805,-182145.06782750983,10.5,10499817854.932173,47.655,-122.3035,60.0,4.583333333333333
2026-01-20T23:04:36+00:00,SAT-56319,288.30660589008204,37.01680711158873,3443.129102895931,5.206953491070411,-182369.5366487149,10.5,10499817630.463352,47.655,-122.3035,60.0,4.6
2026-01-20T23:04:37+00:00,SAT-56319,288.194748023741,36.98053315799645,3448.322171177692,5.213327258276575,-182592.7729372833,10.5,10499817407.227062,47.655,-122.3035,60.0,4.616666666666666
2026-01-20T23:04:38+00:00,SAT-56319,288.08332934769277,36.94413894844563,3453.521596229946,5.219666006071559,-182814.78269794025,10.5,10499817185.217302,47.655,-122.3035,60.0,4.633333333333334
2026-01-20T23:04:39+00:00,SAT-56319,287.972348440055,36.907625861947864,3458.727343126668,5.225969870471239,-183035.570694537,10.5,10499816964.429306,47.655,-122.3035,60.0,4.65
2026-01-20T23:04:40+00:00,SAT-56319,287.8618038747493,36.8709952662237,3463.939377077485,5.232239043687378,-183255.1436591426,10.5,10499816744.85634,47.655,-122.3035,60.0,4.666666666666667
2026-01-20T23:04:41+00:00,SAT-56319,287.7516942206057,36.83424851736103,3469.1576634837224,5.2384736387841375,-183473.50555174222,10.5,10499816526.494448,47.655,-122.3035,60.0,4.683333333333334
2026-01-20T23:04:42+00:00,SAT-56319,287.64201804308937,36.79738696042401,3474.38216785947,5.244673842507379,-183690.66291296587,10.5,10499816309.337088,47.655,-122.3035,60.0,4.7
2026-01-20T23:04:43+00:00,SAT-56319,287.53277390304527,36.7604119289897,3479.612855905064,5.25083980616226,-183906.62104216017,10.5,10499816093.378958,47.655,-122.3035,60.0,4.716666666666667
2026-01-20T23:04:44+00:00,SAT-56319,287.4239603575652,36.72332474545079,3484.8496934717427,5.256971676060676,-184121.3850637867,10.5,10499815878.614937,47.655,-122.3035,60.0,4.733333333333333
2026-01-20T23:04:45+00:00,SAT-56319,287.3155759602761,36.686126721105786,3490.0926465566677,5.263069606705504,-184334.96038918963,10.5,10499815665.03961,47.655,-122.3035,60.0,4.75
2026-01-20T23:04:46+00:00,SAT-56319,287.207619261334,36.648819156156726,3495.3416813110885,5.269133765271063,-184547.35287352078,10.5,10499815452.647127,47.655,-122.3035,60.0,4.766666666666667
2026-01-20T23:04:47+00:00,SAT-56319,287.1000888073768,36.61140333967436,3500.5967640529857,5.2751642875531655,-184758.56727292397,10.5,10499815241.432728,47.655,-122.3035,60.0,4.783333333333333
2026-01-20T23:04:48+00:00,SAT-56319,286.99298314226485,36.57388054987677,3505.857861235772,5.281161348426677,-184968.6097122567,10.5,10499815031.390287,47.655,-122.3035,60.0,4.8
2026-01-20T23:04:49+00:00,SAT-56319,286.886300806537,36.53625205390775,3511.12493948727,5.287125073749682,-185177.48459960145,10.5,10499814822.5154,47.655,-122.3035,60.0,4.816666666666666
2026-01-20T23:04:50+00:00,SAT-56319,286.7800403384683,36.49851910824232,3516.3979655608223,5.293055628422215,-185385.19771045496,10.5,10499814614.80229,47.655,-122.3035,60.0,4.833333333333333
2026-01-20T23:04:51+00:00,SAT-56319,286.6742002735198,36.46068295846557,3521.676906374236,5.29895317685998,-185591.75480335063,10.5,10499814408.245197,47.655,-122.3035,60.0,4.85
2026-01-20T23:04:52+00:00,SAT-56319,286.5687791444842,36.422744839332616,3526.9617290092906,5.304817838710107,-185797.1600688371,10.5,10499814202.839931,47.655,-122.3035,60.0,4.866666666666666
2026-01-20T23:04:53+00:00,SAT-56319,286.46377548249615,36.384705975146716,3532.2524006670974,5.310649790504764,-186001.4196898176,10.5,10499813998.58031,47.655,-122.3035,60.0,4.883333333333334
2026-01-20T23:04:54+00:00,SAT-56319,286.3591878161146,36.346567579409516,3537.5488887248275,5.316449177246167,-186204.53874488315,10.5,10499813795.461256,47.655,-122.3035,60.0,4.9
2026-01-20T23:04:55+00:00,SAT-56319,286.2550146720548,36.30833085510444,3542.851160704268,5.322216143391719,-186406.52229354298,10.5,10499813593.477707,47.655,-122.3035,60.0,4.916666666666667
2026-01-20T23:04:56+00:00,SAT-56319,286.15125457536107,36.26999699475946,3548.159184271277,5.327950823879867,-186607.37506191237,10.5,10499813392.624939,47.655,-122.3035,60.0,4.933333333333334
2026-01-20T23:04:57+00:00,SAT-56319,286.04790604969867,36.23156718057363,3553.4729272262935,5.333653393051339,-186807.10315614095,10.5,10499813192.896843,47.655,-122.3035,60.0,4.95
2026-01-20T23:04:58+00:00,SAT-56319,285.9449676168008,36.19304258419234,3558.79235754363,5.339323975819436,-187005.71095122106,10.5,10499812994.28905,47.655,-122.3035,60.0,4.966666666666667
2026-01-20T23:04:59+00:00,SAT-56319,285.84243779748994,36.15442436712207,3564.1174433221804,5.344962736508382,-187203.204202482,10.5,10499812796.795797,47.655,-122.3035,60.0,4.983333333333333
2026-01-20T23:05:00+00:00,SAT-56319,285.74031511110934,36.115713680504406,3569.4481528247247,5.350569807753879,-187399.58755538717,10.5,10499812600.412445,47.655,-122.3035,60.0,5.0
2026-01-20T23:05:01+00:00,SAT-56319,285.6385980762243,36.07691166540481,3574.7844544463246,5.356145334890011,-187594.86610015092,10.5,10499812405.1339,47.655,-122.3035,60.0,5.016666666666667
2026-01-20T23:05:02+00:00,SAT-56319,285.5372852105302,36.03801945277956,3580.126316726988,5.361689476117968,-187789.04537764812,10.5,10499812210.954622,47.655,-122.3035,60.0,5.033333333333333
2026-01-20T23:05:03+00:00,SAT-56319,285.4363750307379,35.999038163442044,3585.473708364503,5.3672023667395745,-187982.13012672096,10.5,10499812017.869873,47.655,-122.3035,60.0,5.05
2026-01-20T23:05:04+00:00,SAT-56319,285.3358660531326,35.9599689082879,3590.826598191598,5.3726841324629895,-188174.12475020098,10.5,10499811825.87525,47.655,-122.3035,60.0,5.066666666666666
2026-01-20T23:05:05+00:00,SAT-56319,285.23575679383293,35.92081278842483,3596.1849551663745,5.378134961069319,-188365.03582497683,10.5,10499811634.964174,47.655,-122.3035,60.0,5.083333333333333
2026-01-20T23:05:06+00:00,SAT-56319,285.1360457678562,35.88157089478007,3601.5487484342143,5.383554954770199,-188554.86693093224,10.5,10499811445.13307,47.655,-122.3035,60.0,5.1
2026-01-20T23:05:07+00:00,SAT-56319,285.0367314907079,35.84224430878337,3606.9179472424385,5.388944259833312,-188743.62319098026,10.5,10499811256.376808,47.655,-122.3035,60.0,5.116666666666666
2026-01-20T23:05:08+00:00,SAT-56319,284.93781247774996,35.802834102105905,3612.2925209842456,5.394303039999442,-188931.31034001577,10.5,10499811068.68966,47.655,-122.3035,60.0,5.133333333333334
2026-01-20T23:05:09+00:00,SAT-56319,284.83928724399647,35.763341336592,3617.672439216138,5.399631418015353,-189117.93267714963,10.5,10499810882.067324,47.655,-122.3035,60.0,5.15
2026-01-20T23:05:10+00:00,SAT-56319,284.74115430494794,35.723767064618414,3623.057671617039,5.40492953846398,-189303.49526628782,10.5,10499810696.504734,47.655,-122.3035,60.0,5.166666666666667
2026-01-20T23:05:11+00:00,SAT-56319,284.64341217631454,35.684112328994665,3628.448188010067,5.410197540845549,-189488.00299331834,10.5,10499810511.997007,47.655,-122.3035,60.0,5.183333333333334
2026-01-20T23:05:12+00:00,SAT-56319,284.5460593742241,35.644378163059855,3633.84395835747,5.415435564113444,-189671.4607249765,10.5,10499810328.539274,47.655,-122.3035,60.0,5.2
2026-01-20T23:05:13+00:00,SAT-56319,284.4490944153169,35.60456559074634,3639.2449527600793,5.420643742063127,-189853.87314734524,10.5,10499810146.126852,47.655,-122.3035,60.0,5.216666666666667
2026-01-20T23:05:14+00:00,SAT-56319,284.35251581696343,35.56467562667777,3644.6511414521638,5.425822235029293,-190035.2458760239,10.5,10499809964.754124,47.655,-122.3035,60.0,5.233333333333333
