satellites_20260121_005943/SAT-64115.csv

timestamp,satellite,azimuth_deg,elevation_deg,distance_km,relative_velocity_kms,doppler_shift_hz,tx_freq_ghz,rx_freq_hz,ue_lat,ue_lon,ue_alt_m,time_minutes
2026-01-20T23:05:03+00:00,SAT-64115,211.52395622319764,30.150583270154304,1488.00731938247,-5.959453691221712,208725.27673070406,10.5,10500208725.276731,47.655,-122.3035,60.0,5.05
2026-01-20T23:05:04+00:00,SAT-64115,211.54950584672898,30.31446375470599,1482.063757567758,-5.9505501061277295,208413.43551858517,10.5,10500208413.435518,47.655,-122.3035,60.0,5.066666666666666
2026-01-20T23:05:05+00:00,SAT-64115,211.5755792873552,30.479434323031537,1476.1290755952468,-5.941531837438993,208097.5776018669,10.5,10500208097.577602,47.655,-122.3035,60.0,5.083333333333333
2026-01-20T23:05:06+00:00,SAT-64115,211.60218554275676,30.64550610188022,1470.2033878427076,-5.9323972827647475,207777.64685804688,10.5,10500207777.646858,47.655,-122.3035,60.0,5.1
2026-01-20T23:05:07+00:00,SAT-64115,211.62933381720669,30.812690333989995,1464.2868102860305,-5.923144705321108,207453.58245760683,10.5,10500207453.582458,47.655,-122.3035,60.0,5.116666666666666
2026-01-20T23:05:08+00:00,SAT-64115,211.65703352695377,30.980998375530334,1458.3794606332567,-5.913772423310012,207125.32549686465,10.5,10500207125.325497,47.655,-122.3035,60.0,5.133333333333334
2026-01-20T23:05:09+00:00,SAT-64115,211.6852943067182,31.150441698783183,1452.4814582697422,-5.904278687934785,206792.8147255634,10.5,10500206792.814726,47.655,-122.3035,60.0,5.15
2026-01-20T23:05:10+00:00,SAT-64115,211.71412601580525,31.32103189138027,1446.5929243249755,-5.8946617672724155,206455.9894844331,10.5,10500206455.989485,47.655,-122.3035,60.0,5.166666666666667
2026-01-20T23:05:11+00:00,SAT-64115,211.74353874487412,31.49278065789336,1440.7139816557487,-5.88491982180747,206114.78534586227,10.5,10500206114.785345,47.655,-122.3035,60.0,5.183333333333334
2026-01-20T23:05:12+00:00,SAT-64115,211.77354282227026,31.66569981779787,1434.8447549534665,-5.875051088201839,205769.1405502913,10.5,10500205769.14055,47.655,-122.3035,60.0,5.2
2026-01-20T23:05:13+00:00,SAT-64115,211.8041488215809,31.839801308713465,1428.9853706681663,-5.86505368541981,205418.98921589283,10.5,10500205418.989216,47.655,-122.3035,60.0,5.216666666666667
2026-01-20T23:05:14+00:00,SAT-64115,211.83536756839985,32.01509718396852,1423.1359571259075,-5.854925766505873,205064.26665447222,10.5,10500205064.266655,47.655,-122.3035,60.0,5.233333333333333
2026-01-20T23:05:15+00:00,SAT-64115,211.86721014817445,32.19159961456018,1417.296644494779,-5.844665371549368,204704.9042216678,10.5,10500204704.904222,47.655,-122.3035,60.0,5.25
2026-01-20T23:05:16+00:00,SAT-64115,211.89968791349187,32.36932088668604,1411.4675648975538,-5.834270619664002,204340.8360408854,10.5,10500204340.83604,47.655,-122.3035,60.0,5.266666666666667
2026-01-20T23:05:17+00:00,SAT-64115,211.93281249275256,32.54827340497406,1405.6488523328755,-5.823739525208457,203971.99256656683,10.5,10500203971.992567,47.655,-122.3035,60.0,5.283333333333333
2026-01-20T23:05:18+00:00,SAT-64115,211.96659579807337,32.728469690147996,1399.8406427797345,-5.8130700859826,203598.30367319417,10.5,10500203598.303673,47.655,-122.3035,60.0,5.3
2026-01-20T23:05:19+00:00,SAT-64115,212.00105003400034,32.90992237926747,1394.0430742139808,-5.802260279829779,203219.69853628767,10.5,10500203219.698536,47.655,-122.3035,60.0,5.316666666666666
2026-01-20T23:05:20+00:00,SAT-64115,212.03618770652815,33.09264422580303,1388.2562866282308,-5.791308060813993,202836.1054985143,10.5,10500202836.1055,47.655,-122.3035,60.0,5.333333333333333
2026-01-20T23:05:21+00:00,SAT-64115,212.07202163242977,33.27664809955849,1382.480422055579,-5.780211293867147,202447.44978075815,10.5,10500202447.449781,47.655,-122.3035,60.0,5.35
2026-01-20T23:05:22+00:00,SAT-64115,212.10856494849932,33.46194698441936,1376.7156246584955,-5.768967913146272,202053.6590284598,10.5,10500202053.659029,47.655,-122.3035,60.0,5.366666666666666
2026-01-20T23:05:23+00:00,SAT-64115,212.14583112219742,33.648553981055194,1370.9620406597844,-5.7575757130327165,201654.6559915244,10.5,10500201654.65599,47.655,-122.3035,60.0,5.383333333333334
2026-01-20T23:05:24+00:00,SAT-64115,212.18383396128687,33.83648230288991,1365.2198184819865,-5.746032532391286,201250.36497785582,10.5,10500201250.364979,47.655,-122.3035,60.0,5.4
2026-01-20T23:05:25+00:00,SAT-64115,212.22258762508199,34.02574527786396,1359.4891087030146,-5.734336132537027,200840.7075792373,10.5,10500200840.707579,47.655,-122.3035,60.0,5.416666666666667
2026-01-20T23:05:26+00:00,SAT-64115,212.2621066352994,34.216356346184305,1353.770064133498,-5.722484275041377,200425.60539643216,10.5,10500200425.605396,47.655,-122.3035,60.0,5.433333333333334
2026-01-20T23:05:27+00:00,SAT-64115,212.3024058878522,34.40832906050241,1348.0628398165231,-5.710474623509051,200004.9765989945,10.5,10500200004.976599,47.655,-122.3035,60.0,5.45
2026-01-20T23:05:28+00:00,SAT-64115,212.3435006643814,34.6016770827281,1342.3675931253435,-5.698304903817437,199578.7415375309,10.5,10500199578.741537,47.655,-122.3035,60.0,5.466666666666667
2026-01-20T23:05:29+00:00,SAT-64115,212.38540664544985,34.7964141860826,1336.6844837012695,-5.68597272427236,199146.81644479456,10.5,10500199146.816444,47.655,-122.3035,60.0,5.483333333333333
2026-01-20T23:05:30+00:00,SAT-64115,212.42813992286545,34.99255425101568,1331.0136735709286,-5.673475686231268,198709.117310177,10.5,10500198709.11731,47.655,-122.3035,60.0,5.5
2026-01-20T23:05:31+00:00,SAT-64115,212.47171701332846,35.190111264692874,1325.355327153194,-5.660811355401261,198265.55887444384,10.5,10500198265.558874,47.655,-122.3035,60.0,5.516666666666667
2026-01-20T23:05:32+00:00,SAT-64115,212.51615487242046,35.38909931939168,1319.7096112947404,-5.647977285071088,197816.05544341754,10.5,10500197816.055443,47.655,-122.3035,60.0,5.533333333333333
2026-01-20T23:05:33+00:00,SAT-64115,212.5614709093074,35.589532611585874,1314.0766952824295,-5.634970933786662,197360.51800462557,10.5,10500197360.518005,47.655,-122.3035,60.0,5.55
2026-01-20T23:05:34+00:00,SAT-64115,212.60768300136738,35.79142543798098,1308.4567509377996,-5.62178976588252,196898.85774833753,10.5,10500196898.857748,47.655,-122.3035,60.0,5.566666666666666
2026-01-20T23:05:35+00:00,SAT-64115,212.6548095102236,35.99479219491194,1302.8499526112928,-5.608431214182808,196430.98476119598,10.5,10500196430.98476,47.655,-122.3035,60.0,5.583333333333333
2026-01-20T23:05:36+00:00,SAT-64115,212.7028692981277,36.19964737629523,1297.2564772136811,-5.594892648059675,195956.80690748594,10.5,10500195956.806908,47.655,-122.3035,60.0,5.6
2026-01-20T23:05:37+00:00,SAT-64115,212.7518817447187,36.40600557025423,1291.6765042793497,-5.581171404636944,195476.23092201975,10.5,10500195476.230923,47.655,-122.3035,60.0,5.616666666666666
2026-01-20T23:05:38+00:00,SAT-64115,212.80186676473502,36.613881456658135,1286.1102159984584,-5.567264796460932,194989.16267880154,10.5,10500194989.16268,47.655,-122.3035,60.0,5.633333333333334
2026-01-20T23:05:39+00:00,SAT-64115,212.852844826519,36.82328980477432,1280.5577972414546,-5.5531700785551,194495.50603714172,10.5,10500194495.506037,47.655,-122.3035,60.0,5.65
2026-01-20T23:05:40+00:00,SAT-64115,212.90483697099765,37.0342454694931,1275.0194356164425,-5.538884489395784,193995.16427680023,10.5,10500193995.164276,47.655,-122.3035,60.0,5.666666666666667
2026-01-20T23:05:41+00:00,SAT-64115,212.9578648318159,37.24676338887781,1269.495321485685,-5.5244051919889365,193488.0380342451,10.5,10500193488.038034,47.655,-122.3035,60.0,5.683333333333334
2026-01-20T23:05:42+00:00,SAT-64115,213.01195065574618,37.460858579240444,1263.9856480408746,-5.50972935030511,192974.02797972877,10.5,10500192974.027979,47.655,-122.3035,60.0,5.7
2026-01-20T23:05:43+00:00,SAT-64115,213.0671173247081,37.67654613290943,1258.4906113021705,-5.494854066540494,192453.03261990397,10.5,10500192453.03262,47.655,-122.3035,60.0,5.716666666666667
2026-01-20T23:05:44+00:00,SAT-64115,213.12338837809526,37.893841213342284,1253.0104101798074,-5.479776419644285,191924.94964721557,10.5,10500191924.949648,47.655,-122.3035,60.0,5.733333333333333
2026-01-20T23:05:45+00:00,SAT-64115,213.18078803644255,38.11275905148207,1247.545246497282,-5.464493403404567,191389.67377140603,10.5,10500191389.67377,47.655,-122.3035,60.0,5.75
2026-01-20T23:05:46+00:00,SAT-64115,213.23934122542326,38.33331493936183,1242.0953250762866,-5.449002034776872,190847.10051363986,10.5,10500190847.100513,47.655,-122.3035,60.0,5.766666666666667
2026-01-20T23:05:47+00:00,SAT-64115,213.29907360208372,38.55552422774339,1236.6608537136026,-5.433299220820312,190297.12154604396,10.5,10500190297.121546,47.655,-122.3035,60.0,5.783333333333333
2026-01-20T23:05:48+00:00,SAT-64115,213.36001158071983,38.77940231811489,1231.2420432907045,-5.417381920458583,189739.63035726242,10.5,10500189739.630358,47.655,-122.3035,60.0,5.8
2026-01-20T23:05:49+00:00,SAT-64115,213.4221823617313,39.004964660935464,1225.8391077220338,-5.401246931478714,189174.51479225172,10.5,10500189174.514791,47.655,-122.3035,60.0,5.816666666666666
2026-01-20T23:05:50+00:00,SAT-64115,213.48561395923986,39.23222674481274,1220.4522641157057,-5.384891134441237,188601.6655950464,10.5,10500188601.665594,47.655,-122.3035,60.0,5.833333333333333
2026-01-20T23:05:51+00:00,SAT-64115,213.5503352328479,39.46120409539667,1215.0817326909562,-5.368311268619807,188020.968561217,10.5,10500188020.968561,47.655,-122.3035,60.0,5.85
2026-01-20T23:05:52+00:00,SAT-64115,213.61637591806812,39.691912264585206,1209.7277369190526,-5.351504094928075,187432.31024425838,10.5,10500187432.310244,47.655,-122.3035,60.0,5.866666666666666
2026-01-20T23:05:53+00:00,SAT-64115,213.68376666013668,39.92436682616627,1204.3905035017112,-5.33446628849525,186835.57419313103,10.5,10500186835.574194,47.655,-122.3035,60.0,5.883333333333334
2026-01-20T23:05:54+00:00,SAT-64115,213.7525390479692,40.15858336648876,1199.0702624566518,-5.317194523544377,186230.6439250582,10.5,10500186230.643925,47.655,-122.3035,60.0,5.9
2026-01-20T23:05:55+00:00,SAT-64115,213.8227256507747,40.39457747835915,1193.7672471185035,-5.2996854153810995,185617.4008937261,10.5,10500185617.400894,47.655,-122.3035,60.0,5.916666666666667
2026-01-20T23:05:56+00:00,SAT-64115,213.89436005556354,40.63236475199068,1188.4816941975635,-5.281935533239665,184995.72493920603,10.5,10500184995.72494,47.655,-122.3035,60.0,5.933333333333334
2026-01-20T23:05:57+00:00,SAT-64115,213.96747690652026,40.87196076601744,1183.213843825746,-5.263941397586059,184365.49419349842,10.5,10500184365.494194,47.655,-122.3035,60.0,5.95
2026-01-20T23:05:58+00:00,SAT-64115,214.04211194617082,41.113381077862165,1177.96393960522,-5.2456995355561435,183726.5870222109,10.5,10500183726.587023,47.655,-122.3035,60.0,5.966666666666667
2026-01-20T23:05:59+00:00,SAT-64115,214.1183020592636,41.356641216151864,1172.7322286017586,-5.227206368524997,183078.87808676116,10.5,10500183078.878086,47.655,-122.3035,60.0,5.983333333333333
2026-01-20T23:06:00+00:00,SAT-64115,214.19608531703412,41.601756667429164,1167.5189614502165,-5.208458307911158,182422.24169984675,10.5,10500182422.2417,47.655,-122.3035,60.0,6.0
2026-01-20T23:06:01+00:00,SAT-64115,214.27550102495948,41.8487428666555,1162.3243923644595,-5.189451739081062,181756.55126171038,10.5,10500181756.551262,47.655,-122.3035,60.0,6.016666666666667
2026-01-20T23:06:02+00:00,SAT-64115,214.3565897725823,42.09761518642271,1157.1487791633494,-5.170182993793105,181081.67829501434,10.5,10500181081.678295,47.655,-122.3035,60.0,6.033333333333333
2026-01-20T23:06:03+00:00,SAT-64115,214.43939348523614,42.348388924246905,1151.9923833242067,-5.150648361457509,180397.49283920892,10.5,10500180397.49284,47.655,-122.3035,60.0,6.05
2026-01-20T23:06:04+00:00,SAT-64115,214.52395547843912,42.601079289697736,1146.8554700250463,-5.130844091233745,179703.8635239927,10.5,10500179703.863523,47.655,-122.3035,60.0,6.066666666666666
2026-01-20T23:06:05+00:00,SAT-64115,214.61032051492762,42.85570139093889,1141.7383081847224,-5.11076640480997,179000.65801690277,10.5,10500179000.658016,47.655,-122.3035,60.0,6.083333333333333
2026-01-20T23:06:06+00:00,SAT-64115,214.6985348647018,43.112270221161296,1136.6411704903253,-5.090411488912763,178287.74276097372,10.5,10500178287.742762,47.655,-122.3035,60.0,6.1
2026-01-20T23:06:07+00:00,SAT-64115,214.7886463678662,43.37080064392055,1131.5643334320498,-5.069775473358887,177564.9822060177,10.5,10500177564.982206,47.655,-122.3035,60.0,6.116666666666666
2026-01-20T23:06:08+00:00,SAT-64115,214.8807045001677,43.63130737653768,1126.508077359953,-5.048854459283343,176832.23979729036,10.5,10500176832.239798,47.655,-122.3035,60.0,6.133333333333334
2026-01-20T23:06:09+00:00,SAT-64115,214.97476044227122,43.89380497406745,1121.472686512561,-5.0276445263831455,176089.37822919825,10.5,10500176089.37823,47.655,-122.3035,60.0,6.15
2026-01-20T23:06:10+00:00,SAT-64115,215.07086715267005,44.158307812782844,1116.4584490382483,-5.006141732289559,175336.25942331203,10.5,10500175336.259424,47.655,-122.3035,60.0,6.166666666666667
2026-01-20T23:06:11+00:00,SAT-64115,215.16907944424432,44.42483007275592,1111.465657017245,-4.984342033087341,174572.74174461412,10.5,10500174572.741745,47.655,-122.3035,60.0,6.183333333333334
2026-01-20T23:06:12+00:00,SAT-64115,215.26945406306447,44.69338571521297,1106.4946065629124,-4.962241437451827,173798.6854000316,10.5,10500173798.6854,47.655,-122.3035,60.0,6.2
2026-01-20T23:06:13+00:00,SAT-64115,215.37204977437042,44.963988467041844,1101.5455977692936,-4.939835863789254,173013.9474348857,10.5,10500173013.947435,47.655,-122.3035,60.0,6.216666666666667
2026-01-20T23:06:14+00:00,SAT-64115,215.47692744998622,45.236651796644466,1096.6189348011412,-4.917121246319749,172218.385448367,10.5,10500172218.385448,47.655,-122.3035,60.0,6.233333333333333
2026-01-20T23:06:15+00:00,SAT-64115,215.58415016250277,45.5113888943776,1091.714925878145,-4.894093436335438,171411.85413517675,10.5,10500171411.854136,47.655,-122.3035,60.0,6.25
2026-01-20T23:06:16+00:00,SAT-64115,215.6937832821826,45.788212646395294,1086.83388335764,-4.870748299868985,170594.2087062922,10.5,10500170594.208706,47.655,-122.3035,60.0,6.266666666666667
2026-01-20T23:06:17+00:00,SAT-64115,215.80589458110086,46.06713561263501,1081.9761237199039,-4.847081664218571,169765.30301604516,10.5,10500169765.303017,47.655,-122.3035,60.0,6.283333333333333
2026-01-20T23:06:18+00:00,SAT-64115,215.92055434159758,46.34817000057053,1077.1419676067899,-4.8230893406347075,168924.99035671013,10.5,10500168924.990356,47.655,-122.3035,60.0,6.3
2026-01-20T23:06:19+00:00,SAT-64115,216.0378354709745,46.63132763887269,1072.3317398377303,-4.798767089706015,168073.1222461679,10.5,10500168073.122246,47.655,-122.3035,60.0,6.316666666666666
2026-01-20T23:06:20+00:00,SAT-64115,216.15781362147303,46.91661994760415,1067.5457694602635,-4.77411069135367,167209.55087940715,10.5,10500167209.550879,47.655,-122.3035,60.0,6.333333333333333
2026-01-20T23:06:21+00:00,SAT-64115,216.2805673184576,47.204057911007986,1062.7843897307534,-4.749115871182349,166334.126549023,10.5,10500166334.126549,47.655,-122.3035,60.0,6.35
2026-01-20T23:06:22+00:00,SAT-64115,216.40617809364431,47.493652044376105,1058.047938168561,-4.723778377531689,165446.700343885,10.5,10500165446.700344,47.655,-122.3035,60.0,6.366666666666666
2026-01-20T23:06:23+00:00,SAT-64115,216.5347306276363,47.78541236386495,1053.3367565333692,-4.698093888901765,164547.12090678586,10.5,10500164547.120907,47.655,-122.3035,60.0,6.383333333333334
2026-01-20T23:06:24+00:00,SAT-64115,216.66631289773116,48.079348348917975,1048.6511908948378,-4.672058126442582,163635.23837429928,10.5,10500163635.238375,47.655,-122.3035,60.0,6.4
2026-01-20T23:06:25+00:00,SAT-64115,216.80101633704456,48.37546890973787,1043.9915915900658,-4.64566676699437,162710.90133108312,10.5,10500162710.90133,47.655,-122.3035,60.0,6.416666666666667
2026-01-20T23:06:26+00:00,SAT-64115,216.93893600001104,48.6737823474668,1039.3583132677834,-4.618915502526681,161773.95889168815,10.5,10500161773.95889,47.655,-122.3035,60.0,6.433333333333334
2026-01-20T23:06:27+00:00,SAT-64115,217.08017073888192,48.974296316031634,1034.7517148732636,-4.591799986518659,160824.25882256823,10.5,10500160824.258823,47.655,-122.3035,60.0,6.45
2026-01-20T23:06:28+00:00,SAT-64115,217.22482338852183,49.27701777838926,1030.1721596867087,-4.564315924126506,159861.6507001264,10.5,10500159861.6507,47.655,-122.3035,60.0,6.466666666666667
2026-01-20T23:06:29+00:00,SAT-64115,217.37300096456863,49.58195296637627,1025.6200152717133,-4.536458968668009,158885.98228516505,10.5,10500158885.982285,47.655,-122.3035,60.0,6.483333333333333
2026-01-20T23:06:30+00:00,SAT-64115,217.5248148695379,49.88910733138977,1021.0956535269618,-4.508224811514416,157897.1026712799,10.5,10500157897.10267,47.655,-122.3035,60.0,6.5
2026-01-20T23:06:31+00:00,SAT-64115,217.68038111376137,50.198485498459675,1016.5994506482781,-4.479609129473938,156894.86044200737,10.5,10500156894.860441,47.655,-122.3035,60.0,6.516666666666667
2026-01-20T23:06:32+00:00,SAT-64115,217.8398205473176,50.5100912141473,1012.1317871431494,-4.450607644337196,155879.10575635813,10.5,10500155879.105757,47.655,-122.3035,60.0,6.533333333333333
2026-01-20T23:06:33+00:00,SAT-64115,218.00325910760787,50.823927295722875,1007.6930477858638,-4.42121604000956,154849.68744644127,10.5,10500154849.687447,47.655,-122.3035,60.0,6.55
2026-01-20T23:06:34+00:00,SAT-64115,218.17082807837684,51.13999557159687,1003.2836216552942,-4.391430067563743,153806.45669685025,10.5,10500153806.456697,47.655,-122.3035,60.0,6.566666666666666
2026-01-20T23:06:35+00:00,SAT-64115,218.3426643679657,51.45829682595166,998.9039020679106,-4.361245482298818,152749.26484020354,10.5,10500152749.264841,47.655,-122.3035,60.0,6.583333333333333
2026-01-20T23:06:36+00:00,SAT-64115,218.51891080172533,51.77883073567591,994.5542865735646,-4.330658061284212,151677.9639716094,10.5,10500151677.963972,47.655,-122.3035,60.0,6.6
2026-01-20T23:06:37+00:00,SAT-64115,218.69971643251918,52.10159580497653,990.2351769337772,-4.299663613401621,150592.4073003765,10.5,10500150592.4073,47.655,-122.3035,60.0,6.616666666666666
2026-01-20T23:06:38+00:00,SAT-64115,218.885236870308,52.42658929698693,985.9469790900114,-4.268257989503308,149492.44950580024,10.5,10500149492.449505,47.655,-122.3035,60.0,6.633333333333334
2026-01-20T23:06:39+00:00,SAT-64115,219.07563463211204,52.753807162206684,981.6901031218133,-4.236437080617455,148377.94667430653,10.5,10500148377.946674,47.655,-122.3035,60.0,6.65
2026-01-20T23:06:40+00:00,SAT-64115,219.2710795131962,53.083243962640246,977.4649632067442,-4.204196814757809,147248.75618771234,10.5,10500147248.756187,47.655,-122.3035,60.0,6.666666666666667
2026-01-20T23:06:41+00:00,SAT-64115,219.4717489807558,53.41489279123221,973.2719775834925,-4.171533166032633,146104.73704225957,10.5,10500146104.737041,47.655,-122.3035,60.0,6.683333333333334
2026-01-20T23:06:42+00:00,SAT-64115,219.6778285922274,53.74874518724383,969.1115685059026,-4.138442192160093,144945.7511625625,10.5,10500144945.751163,47.655,-122.3035,60.0,6.7
2026-01-20T23:06:43+00:00,SAT-64115,219.88951244133762,54.08479104964239,964.9841621595882,-4.104919957411212,143771.66070274435,10.5,10500143771.660704,47.655,-122.3035,60.0,6.716666666666667
2026-01-20T23:06:44+00:00,SAT-64115,220.10700362785968,54.42301853894464,960.8901886553967,-4.070962658084889,142582.33244110277,10.5,10500142582.332441,47.655,-122.3035,60.0,6.733333333333333
2026-01-20T23:06:45+00:00,SAT-64115,220.33051476330357,54.76341398354309,956.8300818977334,-4.0365664894673925,141377.63312046902,10.5,10500141377.63312,47.655,-122.3035,60.0,6.75
2026-01-20T23:06:46+00:00,SAT-64115,220.5602685010127,55.10596176906914,952.8042795855713,-4.001727805539789,140157.43504183748,10.5,10500140157.435041,47.655,-122.3035,60.0,6.766666666666667
2026-01-20T23:06:47+00:00,SAT-64115,220.7964981086568,55.45064423460095,948.8132230541796,-3.9664429520532924,138921.61021795808,10.5,10500138921.610218,47.655,-122.3035,60.0,6.783333333333333
2026-01-20T23:06:48+00:00,SAT-64115,221.03944806702276,55.797441547874094,944.8573572833318,-3.9307084551203357,137670.0369785938,10.5,10500137670.036978,47.655,-122.3035,60.0,6.8
2026-01-20T23:06:49+00:00,SAT-64115,221.28937471819017,56.14633158926332,940.937130717425,-3.8945208592349028,136402.5942973071,10.5,10500136402.594297,47.655,-122.3035,60.0,6.816666666666666
2026-01-20T23:06:50+00:00,SAT-64115,221.5465469446982,56.49728981388382,937.0529952471481,-3.8578768678572914,135119.16671533333,10.5,10500135119.166716,47.655,-122.3035,60.0,6.833333333333333
2026-01-20T23:06:51+00:00,SAT-64115,221.81124690100455,56.850289117584495,933.2054060509384,-3.820773250773527,133819.64109691523,10.5,10500133819.641096,47.655,-122.3035,60.0,6.85
2026-01-20T23:06:52+00:00,SAT-64115,222.0837707853554,57.205299685686896,929.3948215288337,-3.7832069325688034,132503.90972801737,10.5,10500132503.909727,47.655,-122.3035,60.0,6.866666666666666
2026-01-20T23:06:53+00:00,SAT-64115,222.3644296670743,57.56228884008667,925.6217031480851,-3.7451749283613154,131171.86806545284,10.5,10500131171.868065,47.655,-122.3035,60.0,6.883333333333334
2026-01-20T23:06:54+00:00,SAT-64115,222.65355036197272,57.92122087008635,921.886515352866,-3.706674390408802,129823.41636924175,10.5,10500129823.416368,47.655,-122.3035,60.0,6.9
2026-01-20T23:06:55+00:00,SAT-64115,222.9514763669097,58.282056856355446,918.1897254274984,-3.6677026365495453,128458.46069873522,10.5,10500128458.4607,47.655,-122.3035,60.0,6.916666666666667
2026-01-20T23:06:56+00:00,SAT-64115,223.25856885633237,58.64475448580181,914.531803331313,-3.628257091599165,127076.9108600832,10.5,10500127076.91086,47.655,-122.3035,60.0,6.933333333333334
2026-01-20T23:06:57+00:00,SAT-64115,223.57520773711755,59.009267847878384,910.913221591958,-3.588335346248594,125678.68246909078,10.5,10500125678.682468,47.655,-122.3035,60.0,6.95
2026-01-20T23:06:58+00:00,SAT-64115,223.90179277493368,59.375547222738284,907.334455139966,-3.5479351663182404,124263.69727533814,10.5,10500124263.697275,47.655,-122.3035,60.0,6.966666666666667
2026-01-20T23:06:59+00:00,SAT-64115,224.23874479240342,59.74353885555802,903.7959811340913,-3.5070544706001296,122831.88238611846,10.5,10500122831.882385,47.655,-122.3035,60.0,6.983333333333333
2026-01-20T23:07:00+00:00,SAT-64115,224.5865069399571,60.11318471259009,900.2982788087461,-3.465691339810056,121383.17057998032,10.5,10500121383.17058,47.655,-122.3035,60.0,7.0
2026-01-20T23:07:01+00:00,SAT-64115,224.94554604574932,60.48442222071185,896.8418293125089,-3.423844088583905,119917.50282834333,10.5,10500119917.502829,47.655,-122.3035,60.0,7.016666666666667
2026-01-20T23:07:02+00:00,SAT-64115,225.3163540557281,60.85718399607094,893.4271154748279,-3.3815111652257155,118434.8247842513,10.5,10500118434.824783,47.655,-122.3035,60.0,7.033333333333333
2026-01-20T23:07:03+00:00,SAT-64115,225.6994495496254,61.23139754193671,890.0546216727095,-3.3386912566551885,116935.09045807777,10.5,10500116935.090458,47.655,-122.3035,60.0,7.05
2026-01-20T23:07:04+00:00,SAT-64115,226.0953793580312,61.60698493612615,886.7248335927387,-3.295383238649284,115418.26047477647,10.5,10500115418.260475,47.655,-122.3035,60.0,7.066666666666666
2026-01-20T23:07:05+00:00,SAT-64115,226.5047202674789,61.98386248968546,883.4382380427259,-3.2515862262999335,113884.30384112365,10.5,10500113884.30384,47.655,-122.3035,60.0,7.083333333333333
2026-01-20T23:07:06+00:00,SAT-64115,226.92808082779743,62.36194038600988,880.1953227130293,-3.207299532279669,112333.19648400403,10.5,10500112333.196484,47.655,-122.3035,60.0,7.1
2026-01-20T23:07:07+00:00,SAT-64115,227.36610325275845,62.74112228799196,876.9965759795024,-3.1625227250331664,110764.92328852465,10.5,10500110764.923288,47.655,-122.3035,60.0,7.116666666666666
2026-01-20T23:07:08+00:00,SAT-64115,227.81946542799764,63.121304922532794,873.8424866484027,-3.1172555987096926,109179.4770449221,10.5,10500109179.477045,47.655,-122.3035,60.0,7.133333333333334
2026-01-20T23:07:09+00:00,SAT-64115,228.28888301514309,63.502377629944505,870.7335437312896,-3.0714982212499717,107576.86013276792,10.5,10500107576.860132,47.655,-122.3035,60.0,7.15
2026-01-20T23:07:10+00:00,SAT-64115,228.77511166180082,63.88422188510404,867.6702361719629,-3.025250882424145,105957.0827010382,10.5,10500105957.0827,47.655,-122.3035,60.0,7.166666666666667
2026-01-20T23:07:11+00:00,SAT-64115,229.27894929927498,64.26671077559429,864.6530526252252,-2.978514172193413,104320.16541266971,10.5,10500104320.165413,47.655,-122.3035,60.0,7.183333333333334
2026-01-20T23:07:12+00:00,SAT-64115,229.80123854264545,64.64970845016099,861.682481157491,-2.9312889393587347,102666.13799626245,10.5,10500102666.137997,47.655,-122.3035,60.0,7.2
2026-01-20T23:07:13+00:00,SAT-64115,230.342869166072,65.03306951988792,858.7590089886372,-2.883576320024438,100995.04024299572,10.5,10500100995.040243,47.655,-122.3035,60.0,7.216666666666667
2026-01-20T23:07:14+00:00,SAT-64115,230.9047806519601,65.41663841777212,855.8831222054662,-2.83537773724234,99306.9219941636,10.5,10500099306.921993,47.655,-122.3035,60.0,7.233333333333333
2026-01-20T23:07:15+00:00,SAT-64115,231.4879647922735,65.80024871003552,853.0553054755231,-2.786694900204436,97601.84311289972,10.5,10500097601.843113,47.655,-122.3035,60.0,7.25
2026-01-20T23:07:16+00:00,SAT-64115,232.0934683185476,66.18372235592453,850.2760417617193,-2.737529851339251,95879.87513369042,10.5,10500095879.875134,47.655,-122.3035,60.0,7.266666666666667
2026-01-20T23:07:17+00:00,SAT-64115,232.7223955415669,66.56686891956662,847.5458119899836,-2.687884922943533,94141.0997434335,10.5,10500094141.099743,47.655,-122.3035,60.0,7.283333333333333
2026-01-20T23:07:18+00:00,SAT-64115,233.37591094312626,66.94948471856131,844.8650947601678,-2.637762764429955,92385.60973576769,10.5,10500092385.609735,47.655,-122.3035,60.0,7.3
2026-01-20T23:07:19+00:00,SAT-64115,234.05524168566805,67.33135191603819,842.2343660297764,-2.5871663637687754,90613.50976205058,10.5,10500090613.509762,47.655,-122.3035,60.0,7.316666666666666
2026-01-20T23:07:20+00:00,SAT-64115,234.76167997898966,67.71223755322342,839.654098776311,-2.5360990293291468,88824.91569536428,10.5,10500088824.915695,47.655,-122.3035,60.0,7.333333333333333
2026-01-20T23:07:21+00:00,SAT-64115,235.49658521827166,68.09189251483572,837.1247626777267,-2.4845644108347944,87019.95536447197,10.5,10500087019.955364,47.655,-122.3035,60.0,7.35
2026-01-20T23:07:22+00:00,SAT-64115,236.26138580995803,68.47005043169663,834.6468237719874,-2.432566511556468,85198.76898084913,10.5,10500085198.76898,47.655,-122.3035,60.0,7.366666666666666
2026-01-20T23:07:23+00:00,SAT-64115,237.0575805707919,68.84642651924047,832.2207441044619,-2.380109654963824,83361.50797069135,10.5,10500083361.50797,47.655,-122.3035,60.0,7.383333333333334
2026-01-20T23:07:24+00:00,SAT-64115,237.88673954679925,69.22071634586656,829.846981408578,-2.327198542799958,81508.33700893022,10.5,10500081508.33701,47.655,-122.3035,60.0,7.4
2026-01-20T23:07:25+00:00,SAT-64115,238.75050411652586,69.59259454814301,827.5259887285588,-2.273838231956384,79639.43320929719,10.5,10500079639.433208,47.655,-122.3035,60.0,7.416666666666667
2026-01-20T23:07:26+00:00,SAT-64115,239.65058615624994,69.96171348553749,825.258214065221,-2.220034119102059,77754.985585967,10.5,10500077754.985586,47.655,-122.3035,60.0,7.433333333333334
2026-01-20T23:07:27+00:00,SAT-64115,240.5887660337301,70.32770184352404,823.0441000371031,-2.165791981782224,75855.19649301302,10.5,10500075855.196493,47.655,-122.3035,60.0,7.45
2026-01-20T23:07:28+00:00,SAT-64115,241.56688918033944,70.69016320582966,820.8840835006057,-2.111117965705415,73940.28117914445,10.5,10500073940.28118,47.655,-122.3035,60.0,7.466666666666667
2026-01-20T23:07:29+00:00,SAT-64115,242.58686090666123,71.04867460334286,818.7785951828088,-2.0560185768790133,72010.46751226023,10.5,10500072010.467512,47.655,-122.3035,60.0,7.483333333333333
2026-01-20T23:07:30+00:00,SAT-64115,243.65063909952522,71.40278506168954,816.7280593221349,-2.000500685232857,70065.996106363,10.5,10500070065.996107,47.655,-122.3035,60.0,7.5
2026-01-20T23:07:31+00:00,SAT-64115,244.76022439665235,71.75201417741874,814.7328933053959,-1.9445715548888047,68107.12138172751,10.5,10500068107.121382,47.655,-122.3035,60.0,7.516666666666667
2026-01-20T23:07:32+00:00,SAT-64115,245.91764740199386,72.09585076340528,812.7935072746535,-1.8882387910191212,66134.1097036563,10.5,10500066134.109703,47.655,-122.3035,60.0,7.533333333333333
2026-01-20T23:07:33+00:00,SAT-64115,247.12495240123798,72.43375159373156,810.910303787077,-1.8315103954059524,64147.2413284076,10.5,10500064147.24133,47.655,-122.3035,60.0,7.55
2026-01-20T23:07:34+00:00,SAT-64115,248.3841771145389,72.7651403224334,809.0836774193922,-1.7743947173577082,62146.80868407949,10.5,10500062146.808683,47.655,-122.3035,60.0,7.566666666666666
2026-01-20T23:07:35+00:00,SAT-64115,249.69732788625123,73.08940662458352,807.3140144212808,-1.7169004981446303,60133.11792693136,10.5,10500060133.117928,47.655,-122.3035,60.0,7.583333333333333
2026-01-20T23:07:36+00:00,SAT-64115,251.06634984478367,73.40590565616868,805.6016923244646,-1.659036817315659,58106.487061173575,10.5,10500058106.48706,47.655,-122.3035,60.0,7.6
2026-01-20T23:07:37+00:00,SAT-64115,252.49309148188303,73.71395790799298,803.9470796053284,-1.6008131383701152,56067.24753858287,10.5,10500056067.24754,47.655,-122.3035,60.0,7.616666666666666
2026-01-20T23:07:38+00:00,SAT-64115,253.97926333792384,74.0128495783872,802.350535301994,-1.5422392711557875,54015.742941524455,10.5,10500054015.74294,47.655,-122.3035,60.0,7.633333333333334
2026-01-20T23:07:39+00:00,SAT-64115,255.526390495515,74.30183356840745,800.8124086688946,-1.483325378913494,51952.32922968225,10.5,10500051952.32923,47.655,-122.3035,60.0,7.65
2026-01-20T23:07:40+00:00,SAT-64115,257.13575891090613,74.58013123719076,799.3330388243248,-1.4240819814234726,49877.374850258784,10.5,10500049877.37485,47.655,-122.3035,60.0,7.666666666666667
2026-01-20T23:07:41+00:00,SAT-64115,258.8083558966121,74.84693505276267,797.9127543948518,-1.3645199260759855,47791.25972474547,10.5,10500047791.259726,47.655,-122.3035,60.0,7.683333333333334
2026-01-20T23:07:42+00:00,SAT-64115,260.544805441341,75.10141226864992,796.5518731885787,-1.3046504080270611,45694.375954861884,10.5,10500045694.375956,47.655,-122.3035,60.0,7.7
2026-01-20T23:07:43+00:00,SAT-64115,262.34529965523177,75.3427097643571,795.2507018483063,-1.2444849402990363,43587.126775350305,10.5,10500043587.126776,47.655,-122.3035,60.0,7.716666666666667
2026-01-20T23:07:44+00:00,SAT-64115,264.20952810868596,75.56996015022906,794.0095355345148,-1.1840353555257825,41469.92661510089,10.5,10500041469.926615,47.655,-122.3035,60.0,7.733333333333333
2026-01-20T23:07:45+00:00,SAT-64115,266.13660758687195,75.7822892208423,792.8286576066038,-1.1233137977656678,39343.20081040701,10.5,10500039343.20081,47.655,-122.3035,60.0,7.75
2026-01-20T23:07:46+00:00,SAT-64115,268.1250154075847,75.9788247857164,791.7083393122988,-1.0623327048520983,37207.384986806544,10.5,10500037207.384987,47.655,-122.3035,60.0,7.766666666666667
2026-01-20T23:07:47+00:00,SAT-64115,270.172530067729,76.15870684299824,790.6488394946597,-1.0011048094644668,35062.92509659099,10.5,10500035062.925097,47.655,-122.3035,60.0,7.783333333333333
2026-01-20T23:07:48+00:00,SAT-64115,272.27618352085324,76.32109898769846,789.6504042980204,-0.9396431125012471,32910.27648621865,10.5,10500032910.276485,47.655,-122.3035,60.0,7.8
2026-01-20T23:07:49+00:00,SAT-64115,274.4322295542214,76.46520084639825,788.7132669004858,-0.8779608825011319,30749.90387604042,10.5,10500030749.903875,47.655,-122.3035,60.0,7.816666666666666
2026-01-20T23:07:50+00:00,SAT-64115,276.63613274271904,76.59026124087363,787.8376472470047,-0.8160716385486804,28582.280761583213,10.5,10500028582.280762,47.655,-122.3035,60.0,7.833333333333333
2026-01-20T23:07:51+00:00,SAT-64115,278.8825818607203,76.695591678113,787.0237517994922,-0.7539891421524572,26407.889129088097,10.5,10500026407.88913,47.655,-122.3035,60.0,7.85
2026-01-20T23:07:52+00:00,SAT-64115,281.16553068633743,76.78057968202486,786.2717732950521,-0.691727368764143,24227.21845798903,10.5,10500024227.218458,47.655,-122.3035,60.0,7.866666666666666
2026-01-20T23:07:53+00:00,SAT-64115,283.4782675803758,76.84470141534376,785.5818905326047,-0.6293005081454691,22040.765733764474,10.5,10500022040.765734,47.655,-122.3035,60.0,7.883333333333334
2026-01-20T23:07:54+00:00,SAT-64115,285.81351350269745,76.88753301785876,784.9542681591475,-0.5667229421793427,19849.034670789144,10.5,10500019849.03467,47.655,-122.3035,60.0,7.9
2026-01-20T23:07:55+00:00,SAT-64115,288.1635458930788,76.90876009483837,784.3890564781474,-0.5040092338568505,17652.535326612287,10.5,10500017652.535326,47.655,-122.3035,60.0,7.916666666666667
2026-01-20T23:07:56+00:00,SAT-64115,290.520343844716,76.90818485591643,783.8863912689142,-0.44117409821483977,15451.783084068837,10.5,10500015451.783085,47.655,-122.3035,60.0,7.933333333333334
2026-01-20T23:07:57+00:00,SAT-64115,292.8757480297338,76.88573051221604,783.4463936349612,-0.3782324052135842,13247.29875206745,10.5,10500013247.298752,47.655,-122.3035,60.0,7.95
2026-01-20T23:07:58+00:00,SAT-64115,295.22162772421757,76.84144268711096,783.069169849495,-0.31519914344252464,11039.607294412019,10.5,10500011039.607294,47.655,-122.3035,60.0,7.966666666666667
2026-01-20T23:07:59+00:00,SAT-64115,297.55004628155626,76.77548776815189,782.7548112371015,-0.2520894167785963,8829.237712762144,10.5,10500008829.237713,47.655,-122.3035,60.0,7.983333333333333
2026-01-20T23:08:00+00:00,SAT-64115,299.853416911257,76.68814830527496,782.5033940587678,-0.18891841697615794,6616.72208661653,10.5,10500006616.722086,47.655,-122.3035,60.0,8.0
2026-01-20T23:08:01+00:00,SAT-64115,302.1246411966445,76.57981573185889,782.3149794242368,-0.12570141246468475,4402.59518096079,10.5,10500004402.59518,47.655,-122.3035,60.0,8.016666666666667
2026-01-20T23:08:02+00:00,SAT-64115,304.35722460142307,76.45098081881922,782.1896132155387,-0.062453725745059065,2187.3936545899373,10.5,10500002187.393654,47.655,-122.3035,60.0,8.033333333333333
2026-01-20T23:08:03+00:00,SAT-64115,306.54536496112945,76.30222237664348,782.1273260330623,0.0008092836041555257,-28.344535083777924,10.5,10499999971.655464,47.655,-122.3035,60.0,8.05
2026-01-20T23:08:04+00:00,SAT-64115,308.6840122142035,76.13419476812201,782.1281331585768,0.06407223734713943,-2244.0807771920804,10.5,10499997755.919222,47.655,-122.3035,60.0,8.066666666666666
2026-01-20T23:08:05+00:00,SAT-64115,310.7688996261402,75.94761479956115,782.1920345366243,0.12731975723231825,-4459.276460314895,10.5,10499995540.72354,47.655,-122.3035,60.0,8.083333333333334
2026-01-20T23:08:06+00:00,SAT-64115,312.796548472561,75.74324852468894,782.3190147745041,0.19053648422555886,-6673.393646108229,10.5,10499993326.606354,47.655,-122.3035,60.0,8.1
2026-01-20T23:08:07+00:00,SAT-64115,314.7642495162033,75.52189842341713,782.5090431614383,0.2537070960676374,-8885.895684240972,10.5,10499991114.104317,47.655,-122.3035,60.0,8.116666666666667
2026-01-20T23:08:08+00:00,SAT-64115,316.6700253881356,75.28439133441783,782.7620737052498,0.3168163257658159,-11096.247860048124,10.5,10499988903.75214,47.655,-122.3035,60.0,8.133333333333333
2026-01-20T23:08:09+00:00,SAT-64115,318.5125783944316,75.03156741951072,783.0780451874803,0.3798489819223789,-13303.918106522142,10.5,10499986696.081894,47.655,-122.3035,60.0,8.15
2026-01-20T23:08:10+00:00,SAT-64115,320.29122821993593,74.76427034222266,783.4568812387841,0.442789963883648,-15508.377534895504,10.5,10499984491.622465,47.655,-122.3035,60.0,8.166666666666666
2026-01-20T23:08:11+00:00,SAT-64115,322.00584362388287,74.48333876042992,783.8984904294308,0.5056242809644113,-17709.101107961556,10.5,10499982290.898891,47.655,-122.3035,60.0,8.183333333333334
2026-01-20T23:08:12+00:00,SAT-64115,323.65677173698657,74.189599150678,784.4027663789793,0.5683370686551786,-19905.568207721142,10.5,10499980094.431793,47.655,-122.3035,60.0,8.2
2026-01-20T23:08:13+00:00,SAT-64115,325.24476787097296,73.88385992917429,784.969587882118,0.630913611661944,-22097.26344233254,10.5,10499977902.736557,47.655,-122.3035,60.0,8.216666666666667
2026-01-20T23:08:14+00:00,SAT-64115,326.7709281180425,73.56690678453292,785.5988190574823,0.6933393505760616,-24283.676879718725,10.5,10499975716.32312,47.655,-122.3035,60.0,8.233333333333333
2026-01-20T23:08:15+00:00,SAT-64115,328.2366263099201,73.23949912153334,786.2903095031234,0.7555999059933393,-26464.304892320077,10.5,10499973535.695108,47.655,-122.3035,60.0,8.25
2026-01-20T23:08:16+00:00,SAT-64115,329.64345643636506,72.90236748043179,787.0438944760341,0.8176810897262563,-28638.650549793656,10.5,10499971361.349451,47.655,-122.3035,60.0,8.266666666666667
2026-01-20T23:08:17+00:00,SAT-64115,330.9931810583492,72.5562118070227,787.8593950828545,0.8795689290989015,-30806.22446992468,10.5,10499969193.77553,47.655,-122.3035,60.0,8.283333333333333
2026-01-20T23:08:18+00:00,SAT-64115,332.2876859361602,72.20170043705745,788.7366184948091,0.9412496668834451,-32966.54481640153,10.5,10499967033.455183,47.655,-122.3035,60.0,8.3
2026-01-20T23:08:19+00:00,SAT-64115,333.5289407401415,71.83946968199587,789.6753581625809,1.0027097874899744,-35119.13821609459,10.5,10499964880.861784,47.655,-122.3035,60.0,8.316666666666666
2026-01-20T23:08:20+00:00,SAT-64115,334.7189655950819,71.47012389189858,790.6753940573042,1.0639360229805122,-37263.53996969256,10.5,10499962736.46003,47.655,-122.3035,60.0,8.333333333333334
2026-01-20T23:08:21+00:00,SAT-64115,335.85980300054473,71.09423590294715,791.7364929175568,1.1249153788569777,-39399.29495490599,10.5,10499960600.705046,47.655,-122.3035,60.0,8.35
2026-01-20T23:08:22+00:00,SAT-64115,336.9534946495164,70.712347774504,792.8584085220701,1.1856351262654752,-41525.95735342845,10.5,10499958474.042646,47.655,-122.3035,60.0,8.366666666666667
2026-01-20T23:08:23+00:00,SAT-64115,338.00206257546427,70.32497175224032,794.0408819546656,1.2460828279904665,-43643.091561362424,10.5,10499956356.908438,47.655,-122.3035,60.0,8.383333333333333
2026-01-20T23:08:24+00:00,SAT-64115,339.00749412953803,69.93259138227208,795.2836418951147,1.3062463458566087,-45750.27244846297,10.5,10499954249.727552,47.655,-122.3035,60.0,8.4
2026-01-20T23:08:25+00:00,SAT-64115,339.97173025078206,69.53566273108252,796.5864049173824,1.3661138562096387,-47847.08590034379,10.5,10499952152.914099,47.655,-122.3035,60.0,8.416666666666666
2026-01-20T23:08:26+00:00,SAT-64115,340.89665655631035,69.13461566623234,797.9488758033087,1.425673838482951,-49933.1284180304,10.5,10499950066.871582,47.655,-122.3035,60.0,8.433333333333334
2026-01-20T23:08:27+00:00,SAT-64115,341.7840967952046,68.72985517195436,799.370747844889,1.484915114714354,-52008.00850200414,10.5,10499947991.991499,47.655,-122.3035,60.0,8.45
2026-01-20T23:08:28+00:00,SAT-64115,342.6358083087486,68.32176265831978,800.8517031859643,1.5438268296909405,-54071.34595679146,10.5,10499945928.654043,47.655,-122.3035,60.0,8.466666666666667
2026-01-20T23:08:29+00:00,SAT-64115,343.4534791113005,67.91069726096514,802.3914131441093,1.6023984823898472,-56122.772992152444,10.5,10499943877.227007,47.655,-122.3035,60.0,8.483333333333333
2026-01-20T23:08:30+00:00,SAT-64115,344.23872632387963,67.4969971016189,803.9895385638795,1.6606199005767994,-58161.93333341426,10.5,10499941838.066666,47.655,-122.3035,60.0,8.5
2026-01-20T23:08:31+00:00,SAT-64115,344.99309567078274,67.08098051363457,805.6457301447214,1.7184812827837896,-60188.48369170711,10.5,10499939811.516308,47.655,-122.3035,60.0,8.516666666666667
2026-01-20T23:08:32+00:00,SAT-64115,345.71806185363505,66.66294720734558,807.359628810751,1.7759731777867835,-62202.0930451867,10.5,10499937797.906956,47.655,-122.3035,60.0,8.533333333333333
2026-01-20T23:08:33+00:00,SAT-64115,346.4150295857779,66.2431793864541,809.1308660600637,1.833086503399942,-64202.44329728732,10.5,10499935797.556704,47.655,-122.3035,60.0,8.55
2026-01-20T23:08:34+00:00,SAT-64115,347.0853351509296,65.82194280251555,810.959064332788,1.8898125193769606,-66189.22832761219,10.5,10499933810.771673,47.655,-122.3035,60.0,8.566666666666666
2026-01-20T23:08:35+00:00,SAT-64115,347.7302483391231,65.39948775711399,812.8438373521133,1.9461428892962285,-68162.15615941345,10.5,10499931837.84384,47.655,-122.3035,60.0,8.583333333333334
2026-01-20T23:08:36+00:00,SAT-64115,348.3509746857761,64.97605003159286,814.784790527038,2.0020696142382772,-70120.94663669594,10.5,10499929879.053364,47.655,-122.3035,60.0,8.6
2026-01-20T23:08:37+00:00,SAT-64115,348.9486578818059,64.55185177419058,816.7815212889717,2.0575850907778466,-72065.3334553446,10.5,10499927934.666544,47.655,-122.3035,60.0,8.616666666666667
2026-01-20T23:08:38+00:00,SAT-64115,349.5243823273128,64.12710231859965,818.833619486174,2.112682060680041,-73995.06240127105,10.5,10499926004.9376,47.655,-122.3035,60.0,8.633333333333333
2026-01-20T23:08:39+00:00,SAT-64115,350.07917573797397,63.70199895946884,820.9406677280257,2.167353658915151,-75909.89303209586,10.5,10499924090.106968,47.655,-122.3035,60.0,8.65
2026-01-20T23:08:40+00:00,SAT-64115,350.61401178853873,63.2767276666748,823.1022417771837,2.221593384063749,-77809.59764060963,10.5,10499922190.402359,47.655,-122.3035,60.0,8.666666666666666
2026-01-20T23:08:41+00:00,SAT-64115,351.1298127358,62.85146375718948,825.3179109122233,2.2753950926513062,-79693.96105634757,10.5,10499920306.038944,47.655,-122.3035,60.0,8.683333333333334
2026-01-20T23:08:42+00:00,SAT-64115,351.627452002173,62.426372521882335,827.5872382846276,2.328753015761899,-81562.78122747153,10.5,10499918437.218773,47.655,-122.3035,60.0,8.7
2026-01-20T23:08:43+00:00,SAT-64115,352.1077567036053,62.001609806101925,829.9097812923474,2.381661761469278,-83415.86930591636,10.5,10499916584.130693,47.655,-122.3035,60.0,8.716666666666667
2026-01-20T23:08:44+00:00,SAT-64115,352.57151010276783,61.577322549600694,832.2850919557861,2.4341162686957216,-85253.04803133199,10.5,10499914746.95197,47.655,-122.3035,60.0,8.733333333333333
2026-01-20T23:08:45+00:00,SAT-64115,353.01945396755116,61.15364929700809,834.7127172477652,2.486111854598193,-87074.15339074683,10.5,10499912925.84661,47.655,-122.3035,60.0,8.75
2026-01-20T23:08:46+00:00,SAT-64115,353.45229084632547,60.7307206645813,837.1921994707512,2.537644185348753,-88879.0335951744,10.5,10499911120.966404,47.655,-122.3035,60.0,8.766666666666667
2026-01-20T23:08:47+00:00,SAT-64115,353.8706862396719,60.308659779565545,839.723076604939,2.5887092701944896,-90667.54887156682,10.5,10499909332.451128,47.655,-122.3035,60.0,8.783333333333333
2026-01-20T23:08:48+00:00,SAT-64115,354.2752706715081,59.88758269004409,842.304882650413,2.6393034613345248,-92439.57145850718,10.5,10499907560.428541,47.655,-122.3035,60.0,8.8
2026-01-20T23:08:49+00:00,SAT-64115,354.6666416598161,59.46759874657977,844.937147969184,2.6894234519572713,-94194.9855374659,10.5,10499905805.014463,47.655,-122.3035,60.0,8.816666666666666
2026-01-20T23:08:50+00:00,SAT-64115,355.04536558727295,59.04881095800389,847.6193996252694,2.7390662649080237,-95933.68683589181,10.5,10499904066.313164,47.655,-122.3035,60.0,8.833333333333334
2026-01-20T23:08:51+00:00,SAT-64115,355.41197947211214,58.63131632480797,850.3511617134709,2.788229252535981,-97655.58262185434,10.5,10499902344.417377,47.655,-122.3035,60.0,8.85
2026-01-20T23:08:52+00:00,SAT-64115,355.76699264355057,58.215206150054335,853.1319556880002,2.836910069150007,-99360.59073932766,10.5,10499900639.40926,47.655,-122.3035,60.0,8.866666666666667
2026-01-20T23:08:53+00:00,SAT-64115,356.11088832138495,57.80056633352972,855.9613006636324,2.8851067093621596,-101048.6409511432,10.5,10499898951.359049,47.655,-122.3035,60.0,8.883333333333333
2026-01-20T23:08:54+00:00,SAT-64115,356.4441251114821,57.38747764095957,858.838713755103,2.9328174314639077,-102719.6722553008,10.5,10499897280.327745,47.655,-122.3035,60.0,8.9
2026-01-20T23:08:55+00:00,SAT-64115,356.76713840700717,56.9760159663948,861.763710340083,2.980040847386614,-104373.63603576527,10.5,10499895626.363964,47.655,-122.3035,60.0,8.916666666666666
2026-01-20T23:08:56+00:00,SAT-64115,357.08034171880166,56.56625256520038,864.7358044118766,3.026775791396738,-106010.49146361697,10.5,10499893989.508537,47.655,-122.3035,60.0,8.933333333333334
2026-01-20T23:08:57+00:00,SAT-64115,357.3841279141062,56.158254289936124,867.754508801163,3.0730214485186504,-107630.209994962,10.5,10499892369.790005,47.655,-122.3035,60.0,8.95
2026-01-20T23:08:58+00:00,SAT-64115,357.67887039571957,55.75208379427437,870.8193355258188,3.118777218852531,-109232.77061877112,10.5,10499890767.229382,47.655,-122.3035,60.0,8.966666666666667
2026-01-20T23:08:59+00:00,SAT-64115,357.9649241980101,55.34779974191498,873.929796005421,3.164042812841311,-110818.16319353093,10.5,10499889181.836807,47.655,-122.3035,60.0,8.983333333333333
2026-01-20T23:09:00+00:00,SAT-64115,358.24262702696495,54.94545699041027,877.0854013707616,3.208818168102792,-112386.38553435297,10.5,10499887613.614466,47.655,-122.3035,60.0,9.0
2026-01-20T23:09:01+00:00,SAT-64115,358.51230023064613,54.54510677432306,880.2856626904161,3.2531034869259763,-113937.44472625376,10.5,10499886062.555273,47.655,-122.3035,60.0,9.016666666666667
2026-01-20T23:09:02+00:00,SAT-64115,358.77424971515654,54.14679687268794,883.5300912347102,3.2968992202764977,-115471.3565639574,10.5,10499884528.643436,47.655,-122.3035,60.0,9.033333333333333
2026-01-20T23:09:03+00:00,SAT-64115,359.02876680432007,53.75057176862956,886.8181987237326,3.340206044123114,-116988.14472274914,10.5,10499883011.855278,47.655,-122.3035,60.0,9.05
2026-01-20T23:09:04+00:00,SAT-64115,359.2761290461751,53.3564728024267,890.149497551738,3.3830248394302336,-118487.84005772904,10.5,10499881512.159943,47.655,-122.3035,60.0,9.066666666666666
2026-01-20T23:09:05+00:00,SAT-64115,359.5166009700059,52.964538318016956,893.5235009915965,3.4253567467178536,-119970.48251473178,10.5,10499880029.517485,47.655,-122.3035,60.0,9.083333333333334
2026-01-20T23:09:06+00:00,SAT-64115,359.75043480200776,52.574803794995915,896.9397234536564,3.4672030818107875,-121436.11817950825,10.5,10499878563.88182,47.655,-122.3035,60.0,9.1
2026-01-20T23:09:07+00:00,SAT-64115,359.9778711324266,52.18730198272724,900.3976806605824,3.5085653769361125,-122884.80071713205,10.5,10499877115.199284,47.655,-122.3035,60.0,9.116666666666667
2026-01-20T23:09:08+00:00,SAT-64115,0.19913954599783434,51.8020630223775,903.89688986318,3.5494453488955293,-124316.59025726076,10.5,10499875683.409742,47.655,-122.3035,60.0,9.133333333333333
2026-01-20T23:09:09+00:00,SAT-64115,0.41445921290213844,51.41911456580964,907.4368700244785,3.5898448915402734,-125731.55313057564,10.5,10499874268.446869,47.655,-122.3035,60.0,9.15
2026-01-20T23:09:10+00:00,SAT-64115,0.6240394445112437,51.03848188876586,911.0171419963079,3.629766112446287,-127129.76315330126,10.5,10499872870.236847,47.655,-122.3035,60.0,9.166666666666666
2026-01-20T23:09:11+00:00,SAT-64115,0.8280802184708841,50.66018799427707,914.6372287324544,3.669211221735181,-128511.29773324517,10.5,10499871488.702267,47.655,-122.3035,60.0,9.183333333333334
2026-01-20T23:09:12+00:00,SAT-64115,1.026772666849968,50.28425372193165,918.2966553909316,3.708182655453465,-129876.24219106066,10.5,10499870123.757809,47.655,-122.3035,60.0,9.2
2026-01-20T23:09:13+00:00,SAT-64115,1.2202995426040073,49.91069783899908,921.9949495593039,3.746682964670871,-131224.68587600076,10.5,10499868775.314123,47.655,-122.3035,60.0,9.216666666666667
2026-01-20T23:09:14+00:00,SAT-64115,1.4088356529837343,49.53953713790444,925.7316413694023,3.7847148545633438,-132556.72353476987,10.5,10499867443.276464,47.655,-122.3035,60.0,9.233333333333333
2026-01-20T23:09:15+00:00,SAT-64115,1.5925482700630926,49.17078652482785,929.5062636510202,3.8222811610444536,-133872.45449305722,10.5,10499866127.545507,47.655,-122.3035,60.0,9.25
2026-01-20T23:09:16+00:00,SAT-64115,1.7715975165002196,48.80445910606003,933.3183520623019,3.8593848733212113,-135171.98344553658,10.5,10499864828.016554,47.655,-122.3035,60.0,9.266666666666667
2026-01-20T23:09:17+00:00,SAT-64115,1.9461367302657113,48.44056626792722,937.1674452426275,3.896029067288819,-136455.418123069,10.5,10499863544.581877,47.655,-122.3035,60.0,9.283333333333333
2026-01-20T23:09:18+00:00,SAT-64115,2.1163128056758036,48.07911775888818,941.0530848990702,3.9322169738289214,-137722.87168479626,10.5,10499862277.128315,47.655,-122.3035,60.0,9.3
2026-01-20T23:09:19+00:00,SAT-64115,2.2822665181414075,47.72012176131009,944.974815960969,3.9679518936732725,-138974.4597363065,10.5,10499861025.540264,47.655,-122.3035,60.0,9.316666666666666
2026-01-20T23:09:20+00:00,SAT-64115,2.444132827039257,47.363584967424984,948.9321866495924,4.003237268936427,-140210.30283501156,10.5,10499859789.697165,47.655,-122.3035,60.0,9.333333333333334
2026-01-20T23:09:21+00:00,SAT-64115,2.6020411646424546,47.009512645185545,952.924748619145,4.0380765975100585,-141430.5234918739,10.5,10499858569.476507,47.655,-122.3035,60.0,9.35
2026-01-20T23:09:22+00:00,SAT-64115,2.756115705578403,46.65790870844415,956.952057012395,4.072473507092284,-142635.2487642267,10.5,10499857364.751236,47.655,-122.3035,60.0,9.366666666666667
2026-01-20T23:09:23+00:00,SAT-64115,2.9064756242803464,46.30877577735716,961.013670590135,4.106431667366782,-143824.60717991515,10.5,10499856175.39282,47.655,-122.3035,60.0,9.383333333333333
2026-01-20T23:09:24+00:00,SAT-64115,3.0532353350420687,45.962115243344286,965.1091517730556,4.1399548665244215,-144998.7314174075,10.5,10499855001.268583,47.655,-122.3035,60.0,9.4
2026-01-20T23:09:25+00:00,SAT-64115,3.1965047217596254,45.61792732455361,969.2380667599359,4.173046925161182,-146157.75529013612,10.5,10499853842.244709,47.655,-122.3035,60.0,9.416666666666666
2026-01-20T23:09:26+00:00,SAT-64115,3.3363893522234784,45.27621112576925,973.3999855599633,4.2057117543831755,-147301.81578158095,10.5,10499852698.18422,47.655,-122.3035,60.0,9.433333333333334
2026-01-20T23:09:27+00:00,SAT-64115,3.472990682837026,44.93696469077325,977.5944820830015,4.237953318260631,-148431.05173024943,10.5,10499851568.948269,47.655,-122.3035,60.0,9.45
2026-01-20T23:09:28+00:00,SAT-64115,3.606406251166762,44.60018505525022,981.8211341924134,4.2697756382354415,-149545.60398404734,10.5,10499850454.396015,47.655,-122.3035,60.0,9.466666666666667
2026-01-20T23:09:29+00:00,SAT-64115,3.736729858392884,44.265868296830746,986.0795237622802,4.3011827794801585,-150645.61492251305,10.5,10499849354.385078,47.655,-122.3035,60.0,9.483333333333333
2026-01-20T23:09:30+00:00,SAT-64115,3.8640517416955276,43.934009583889015,990.3692367210151,4.332178853681636,-151731.2285543127,10.5,10499848268.771446,47.655,-122.3035,60.0,9.5
2026-01-20T23:09:31+00:00,SAT-64115,3.988458737735259,43.604603221775186,994.6898630977536,4.3627680025228806,-152802.58993870433,10.5,10499847197.41006,47.655,-122.3035,60.0,9.516666666666667
2026-01-20T23:09:32+00:00,SAT-64115,4.110034437090967,43.277642698178404,999.0409970522697,4.392954439239282,-153859.84664101343,10.5,10499846140.153358,47.655,-122.3035,60.0,9.533333333333333
2026-01-20T23:09:33+00:00,SAT-64115,4.228859331876105,42.953120723301204,1003.4222369463378,4.422742359695281,-154903.14561816113,10.5,10499845096.854382,47.655,-122.3035,60.0,9.55
2026-01-20T23:09:34+00:00,SAT-64115,4.345010953333344,42.63102927464066,1007.8331853264071,4.452136019634407,-155932.6359242876,10.5,10499844067.364077,47.655,-122.3035,60.0,9.566666666666666
2026-01-20T23:09:35+00:00,SAT-64115,4.458564004461814,42.31135963411646,1012.2734489833225,4.481139678594939,-156948.46674644118,10.5,10499843051.533253,47.655,-122.3035,60.0,9.583333333333334
2026-01-20T23:09:36+00:00,SAT-64115,4.569590484466179,41.9941024274697,1016.742638956108,4.509757629395294,-157950.78843728142,10.5,10499842049.211563,47.655,-122.3035,60.0,9.6
2026-01-20T23:09:37+00:00,SAT-64115,4.678159807647907,41.679247659755774,1021.2403705651581,4.537994168695388,-158939.75148401354,10.5,10499841060.248516,47.655,-122.3035,60.0,9.616666666666667
2026-01-20T23:09:38+00:00,SAT-64115,4.784338915635473,41.366784751237844,1025.7662634160704,4.56585359992044,-159915.50661079213,10.5,10499840084.49339,47.655,-122.3035,60.0,9.633333333333333
2026-01-20T23:09:39+00:00,SAT-64115,4.888192384095543,41.05670257137773,1030.319941406391,4.593340257520324,-160878.2056283864,10.5,10499839121.794373,47.655,-122.3035,60.0,9.65
2026-01-20T23:09:40+00:00,SAT-64115,4.989782524733092,40.74898946965646,1034.901032756558,4.620458460861327,-161827.99981927473,10.5,10499838172.000181,47.655,-122.3035,60.0,9.666666666666666
2026-01-20T23:09:41+00:00,SAT-64115,5.089169481210083,40.44363330799676,1039.5091699948568,4.647212514935128,-162765.0399624758,10.5,10499837234.960037,47.655,-122.3035,60.0,9.683333333333334
2026-01-20T23:09:42+00:00,SAT-64115,5.1864113204513425,40.14062149160821,1044.1439899430857,4.673606778104483,-163689.4787062891,10.5,10499836310.521294,47.655,-122.3035,60.0,9.7
2026-01-20T23:09:43+00:00,SAT-64115,5.281564120909777,39.83994099407026,1048.8051337697818,4.699645529007458,-164601.4659067184,10.5,10499835398.534094,47.655,-122.3035,60.0,9.716666666666667
2026-01-20T23:09:44+00:00,SAT-64115,5.374682053860229,39.54157838966424,1053.492246910712,4.7253331185015455,-165501.1539491972,10.5,10499834498.84605,47.655,-122.3035,60.0,9.733333333333333
2026-01-20T23:09:45+00:00,SAT-64115,5.465817463826756,39.24551987469112,1058.2049791408974,4.750673807936959,-166388.6920842354,10.5,10499833611.307917,47.655,-122.3035,60.0,9.75
2026-01-20T23:09:46+00:00,SAT-64115,5.555020942047666,38.951751297778465,1062.9429844853466,4.775671922350829,-167264.23179292824,10.5,10499832735.768208,47.655,-122.3035,60.0,9.766666666666667
2026-01-20T23:09:47+00:00,SAT-64115,5.642341399360596,38.660258179419856,1067.7059212825711,4.800331711992956,-168127.9219370023,10.5,10499831872.078062,47.655,-122.3035,60.0,9.783333333333333
2026-01-20T23:09:48+00:00,SAT-64115,5.7278261331072375,38.37102573893706,1072.4934521099988,4.824657446485336,-168979.9120566803,10.5,10499831020.087944,47.655,-122.3035,60.0,9.8
2026-01-20T23:09:49+00:00,SAT-64115,5.811520892615215,38.08403891455806,1077.3052438032935,4.848653357332717,-169820.35035715785,10.5,10499830179.649643,47.655,-122.3035,60.0,9.816666666666666
2026-01-20T23:09:50+00:00,SAT-64115,5.8934699406102435,37.79928238594446,1082.14096741834,4.872323674233636,-170649.3849803692,10.5,10499829350.615019,47.655,-122.3035,60.0,9.833333333333334
2026-01-20T23:09:51+00:00,SAT-64115,5.9737161124589315,37.51674059350887,1087.0002982294423,4.8956725647876365,-171467.16189327944,10.5,10499828532.838106,47.655,-122.3035,60.0,9.85
2026-01-20T23:09:52+00:00,SAT-64115,6.052300871653951,37.23639776028626,1091.8829156673905,4.918704249957336,-172273.828931854,10.5,10499827726.171068,47.655,-122.3035,60.0,9.866666666666667
2026-01-20T23:09:53+00:00,SAT-64115,6.129264364658083,36.95823790624576,1096.7885033726814,4.941422816989686,-173069.52924877018,10.5,10499826930.47075,47.655,-122.3035,60.0,9.883333333333333
2026-01-20T23:09:54+00:00,SAT-64115,6.204645470318806,36.68224487231116,1101.7167490621591,4.963832438905538,-173854.40900087002,10.5,10499826145.591,47.655,-122.3035,60.0,9.9
2026-01-20T23:09:55+00:00,SAT-64115,6.278481850424399,36.40840233118625,1106.6673446145608,4.985937171791997,-174628.61024948125,10.5,10499825371.389751,47.655,-122.3035,60.0,9.916666666666666
2026-01-20T23:09:56+00:00,SAT-64115,6.3508099949613666,36.13669380864808,1111.6399859538947,5.00774107910345,-175392.27531396478,10.5,10499824607.724686,47.655,-122.3035,60.0,9.933333333333334
2026-01-20T23:09:57+00:00,SAT-64115,6.421665267196694,35.86710269712363,1116.6343730567874,5.02924818512299,-176145.54514173733,10.5,10499823854.454859,47.655,-122.3035,60.0,9.95
2026-01-20T23:09:58+00:00,SAT-64115,6.491081946098618,35.599612271089974,1121.6502099134166,5.05046251567476,-176888.5607341896,10.5,10499823111.439266,47.655,-122.3035,60.0,9.966666666666667
2026-01-20T23:09:59+00:00,SAT-64115,6.5590932674333455,35.33420569960206,1126.6872045290495,5.071388003520752,-177621.45983328205,10.5,10499822378.540167,47.655,-122.3035,60.0,9.983333333333333
2026-01-20T23:10:00+00:00,SAT-64115,6.625731461808327,35.070866063069545,1131.7450688312274,5.0920285807424435,-178344.38015714075,10.5,10499821655.619843,47.655,-122.3035,60.0,10.0
2026-01-20T23:10:01+00:00,SAT-64115,6.691027792301447,34.80957636447872,1136.823518669088,5.112388136030022,-179057.45790414527,10.5,10499820942.542095,47.655,-122.3035,60.0,10.016666666666667
2026-01-20T23:10:02+00:00,SAT-64115,6.7550125899067766,34.55031954222849,1141.9222737700886,5.132470556573413,-179760.82922012947,10.5,10499820239.17078,47.655,-122.3035,60.0,10.033333333333333
2026-01-20T23:10:03+00:00,SAT-64115,6.817715287962653,34.29307848024604,1147.0410577385112,5.152279623414739,-180454.62653318237,10.5,10499819545.373466,47.655,-122.3035,60.0,10.05
2026-01-20T23:10:04+00:00,SAT-64115,6.879164453854088,34.03783602272005,1152.1795979495969,5.171819149307513,-181138.98338205987,10.5,10499818861.016619,47.655,-122.3035,60.0,10.066666666666666
2026-01-20T23:10:05+00:00,SAT-64115,6.939387821025704,33.78457498138924,1157.3376255811727,5.191092852559085,-181814.02999761386,10.5,10499818185.970003,47.655,-122.3035,60.0,10.083333333333334
2026-01-20T23:10:06+00:00,SAT-64115,6.998412318164344,33.53327814852743,1162.5148755194584,5.210104460787645,-182479.8969368011,10.5,10499817520.103064,47.655,-122.3035,60.0,10.1
2026-01-20T23:10:07+00:00,SAT-64115,7.0562640983456495,33.283928304327574,1167.7110863683506,5.228857636699012,-183136.71248307262,10.5,10499816863.287518,47.655,-122.3035,60.0,10.116666666666667
2026-01-20T23:10:08+00:00,SAT-64115,7.112968566124655,33.036508227403225,1172.926000384685,5.24735597939454,-183784.60269218206,10.5,10499816215.397308,47.655,-122.3035,60.0,10.133333333333333
2026-01-20T23:10:09+00:00,SAT-64115,7.1685504035646845,32.79100070463448,1178.1593634148012,5.2656031273760835,-184423.69499985513,10.5,10499815576.305,47.655,-122.3035,60.0,10.15
2026-01-20T23:10:10+00:00,SAT-64115,7.223033596238166,32.54738853585336,1183.4109249338378,5.283602590434518,-185054.11233381473,10.5,10499814945.887667,47.655,-122.3035,60.0,10.166666666666666
2026-01-20T23:10:11+00:00,SAT-64115,7.276441456428393,32.30565454582455,1188.6804379173643,5.301357879788056,-185675.97767177515,10.5,10499814324.022327,47.655,-122.3035,60.0,10.183333333333334
2026-01-20T23:10:12+00:00,SAT-64115,7.328796646755287,32.065781589787555,1193.9676588428063,5.318872460747925,-186289.4123835938,10.5,10499813710.587616,47.655,-122.3035,60.0,10.2
2026-01-20T23:10:13+00:00,SAT-64115,7.380121202327303,31.82775256078491,1199.272347643659,5.336149777234896,-186894.53708994377,10.5,10499813105.46291,47.655,-122.3035,60.0,10.216666666666667
2026-01-20T23:10:14+00:00,SAT-64115,7.430436552244306,31.59155039555147,1204.5942676881546,5.353193189357433,-187491.46947603681,10.5,10499812508.530523,47.655,-122.3035,60.0,10.233333333333333
2026-01-20T23:10:15+00:00,SAT-64115,7.479763539671033,31.357158082718893,1209.9331856956735,5.370006054272261,-188080.32712370215,10.5,10499811919.672876,47.655,-122.3035,60.0,10.25
2026-01-20T23:10:16+00:00,SAT-64115,7.528122441846107,31.12455866716937,1215.2888717338012,5.386591668470421,-188661.22549000024,10.5,10499811338.77451,47.655,-122.3035,60.0,10.266666666666667
2026-01-20T23:10:17+00:00,SAT-64115,7.575532988781597,30.893735256534672,1220.6610991578223,5.4029532738609145,-189234.27812029747,10.5,10499810765.72188,47.655,-122.3035,60.0,10.283333333333333
2026-01-20T23:10:18+00:00,SAT-64115,7.622014381294107,30.664671027090915,1226.0496445562862,5.419094144806636,-189799.59969663306,10.5,10499810200.400303,47.655,-122.3035,60.0,10.3
