satellites_20260121_005943/SAT-47351.csv

timestamp,satellite,azimuth_deg,elevation_deg,distance_km,relative_velocity_kms,doppler_shift_hz,tx_freq_ghz,rx_freq_hz,ue_lat,ue_lon,ue_alt_m,time_minutes
2026-01-20T23:00:34+00:00,SAT-47351,212.4245291263264,30.041231622859183,1672.8332644140112,-6.247779152716392,218823.65400774064,10.5,10500218823.654007,47.655,-122.3035,60.0,0.5666666666666667
2026-01-20T23:00:35+00:00,SAT-47351,212.40592485641287,30.17027131294935,1666.6021460057023,-6.242786054792897,218648.77459767656,10.5,10500218648.774597,47.655,-122.3035,60.0,0.5833333333333334
2026-01-20T23:00:36+00:00,SAT-47351,212.38733045015115,30.300084832129038,1660.3760073803887,-6.237729582432732,218471.67554676672,10.5,10500218471.675547,47.655,-122.3035,60.0,0.6
2026-01-20T23:00:37+00:00,SAT-47351,212.36874606669414,30.43068029013125,1654.154911743509,-6.232608829509272,218292.32511862376,10.5,10500218292.325119,47.655,-122.3035,60.0,0.6166666666666667
2026-01-20T23:00:38+00:00,SAT-47351,212.35017186868103,30.56206589865755,1647.938923204212,-6.227422928325187,218110.69292281682,10.5,10500218110.692923,47.655,-122.3035,60.0,0.6333333333333333
2026-01-20T23:00:39+00:00,SAT-47351,212.33160802219788,30.694249973873802,1641.7281067370288,-6.222170975289867,217926.7473117806,10.5,10500217926.747313,47.655,-122.3035,60.0,0.65
2026-01-20T23:00:40+00:00,SAT-47351,212.31305469692415,30.827240937382978,1635.522528217673,-6.216852034528299,217740.45550721337,10.5,10500217740.455507,47.655,-122.3035,60.0,0.6666666666666666
2026-01-20T23:00:41+00:00,SAT-47351,212.2945120662524,30.96104731728029,1629.322254455237,-6.211465151014222,217551.78406005577,10.5,10500217551.78406,47.655,-122.3035,60.0,0.6833333333333333
2026-01-20T23:00:42+00:00,SAT-47351,212.27598030741171,31.095677749497806,1623.127353211292,-6.206009405614143,217360.70077836484,10.5,10500217360.700779,47.655,-122.3035,60.0,0.7
2026-01-20T23:00:43+00:00,SAT-47351,212.2574596014269,31.231140980375212,1616.9378931640929,-6.200483789318192,217167.17032234685,10.5,10500217167.170322,47.655,-122.3035,60.0,0.7166666666666667
2026-01-20T23:00:44+00:00,SAT-47351,212.23895013341237,31.367445866526214,1610.753943998213,-6.194887335097735,216971.15882256854,10.5,10500216971.158823,47.655,-122.3035,60.0,0.7333333333333333
2026-01-20T23:00:45+00:00,SAT-47351,212.22045209252767,31.504601377587374,1604.5755763626755,-6.189219027926342,216772.63072851082,10.5,10500216772.630728,47.655,-122.3035,60.0,0.75
2026-01-20T23:00:46+00:00,SAT-47351,212.2019656721663,31.642616597030504,1598.4028619188236,-6.183477866993502,216571.5509875561,10.5,10500216571.550987,47.655,-122.3035,60.0,0.7666666666666667
2026-01-20T23:00:47+00:00,SAT-47351,212.18349106999364,31.781500724371124,1592.2358733261422,-6.177662786683574,216367.8822773371,10.5,10500216367.882277,47.655,-122.3035,60.0,0.7833333333333333
2026-01-20T23:00:48+00:00,SAT-47351,212.16502848818,31.921263075635125,1586.0746843068896,-6.171772730586552,216161.5875979068,10.5,10500216161.587599,47.655,-122.3035,60.0,0.8
2026-01-20T23:00:49+00:00,SAT-47351,212.14657813344556,32.06191308549308,1579.919369636918,-6.1658066507199845,215952.6302444868,10.5,10500215952.630245,47.655,-122.3035,60.0,0.8166666666666667
2026-01-20T23:00:50+00:00,SAT-47351,212.128140217141,32.20346030942763,1573.7700051372665,-6.159763432857008,215740.9711921391,10.5,10500215740.971191,47.655,-122.3035,60.0,0.8333333333333334
2026-01-20T23:00:51+00:00,SAT-47351,212.10971495546843,32.34591442421418,1567.6266677402305,-6.153641976677174,215526.5719029874,10.5,10500215526.571903,47.655,-122.3035,60.0,0.85
2026-01-20T23:00:52+00:00,SAT-47351,212.09130256955785,32.48928523025323,1561.4894354754913,-6.147441141068286,215309.3924104555,10.5,10500215309.39241,47.655,-122.3035,60.0,0.8666666666666667
2026-01-20T23:00:53+00:00,SAT-47351,212.07290328563494,32.63358265266656,1555.358387510799,-6.14115977167419,215089.3922841081,10.5,10500215089.392284,47.655,-122.3035,60.0,0.8833333333333333
2026-01-20T23:00:54+00:00,SAT-47351,212.05451733516773,32.778816743047955,1549.2336041651827,-6.134796725760451,214866.53150055144,10.5,10500214866.5315,47.655,-122.3035,60.0,0.9
2026-01-20T23:00:55+00:00,SAT-47351,212.03614495492693,32.924997681838754,1543.1151668973575,-6.128350793565053,214640.76768880244,10.5,10500214640.767689,47.655,-122.3035,60.0,0.9166666666666666
2026-01-20T23:00:56+00:00,SAT-47351,212.0177863872514,33.072135778861984,1537.0031583725754,-6.121820781186755,214412.05903338947,10.5,10500214412.059032,47.655,-122.3035,60.0,0.9333333333333333
2026-01-20T23:00:57+00:00,SAT-47351,211.99944188011958,33.22024147584128,1530.897662446805,-6.115205422561938,214180.36119140912,10.5,10500214180.36119,47.655,-122.3035,60.0,0.95
2026-01-20T23:00:58+00:00,SAT-47351,211.98111168743594,33.36932534682776,1524.7987642387034,-6.1085035188159225,213945.63217319892,10.5,10500213945.632174,47.655,-122.3035,60.0,0.9666666666666667
2026-01-20T23:00:59+00:00,SAT-47351,211.9627960689802,33.519398102026656,1518.7065500626043,-6.101713756264644,213707.82596798602,10.5,10500213707.825968,47.655,-122.3035,60.0,0.9833333333333333
2026-01-20T23:01:00+00:00,SAT-47351,211.94449529081575,33.67047058722345,1512.621107543023,-6.094834860971398,213466.8979571183,10.5,10500213466.897957,47.655,-122.3035,60.0,1.0
2026-01-20T23:01:01+00:00,SAT-47351,211.92620962530532,33.82255378699437,1506.542525575014,-6.087865512469414,213222.80189226393,10.5,10500213222.801891,47.655,-122.3035,60.0,1.0166666666666666
2026-01-20T23:01:02+00:00,SAT-47351,211.90793935137236,33.97565882583306,1500.470894370578,-6.080804376303436,212975.491035155,10.5,10500212975.491035,47.655,-122.3035,60.0,1.0333333333333334
2026-01-20T23:01:03+00:00,SAT-47351,211.88968475465876,34.129796970095065,1494.4063054726114,-6.073650075343999,212724.91715289245,10.5,10500212724.917152,47.655,-122.3035,60.0,1.05
2026-01-20T23:01:04+00:00,SAT-47351,211.87144612777468,34.28497962923937,1488.3488517974683,-6.0664012451404625,212471.03245664324,10.5,10500212471.032457,47.655,-122.3035,60.0,1.0666666666666667
2026-01-20T23:01:05+00:00,SAT-47351,211.85322377041936,34.441218358496386,1482.298627622315,-6.059056445344635,212213.78649932102,10.5,10500212213.786499,47.655,-122.3035,60.0,1.0833333333333333
2026-01-20T23:01:06+00:00,SAT-47351,211.83501798971957,34.59852485929009,1476.2557286608244,-6.051614305073335,211953.13126679798,10.5,10500211953.131268,47.655,-122.3035,60.0,1.1
2026-01-20T23:01:07+00:00,SAT-47351,211.81682910022172,34.756910983436626,1470.220251993898,-6.044073278301445,211689.01261073476,10.5,10500211689.012611,47.655,-122.3035,60.0,1.1166666666666667
2026-01-20T23:01:08+00:00,SAT-47351,211.79865742448402,34.916388730996424,1464.1922962443386,-6.036431959634862,211421.3813082851,10.5,10500211421.381308,47.655,-122.3035,60.0,1.1333333333333333
2026-01-20T23:01:09+00:00,SAT-47351,211.78050329291455,35.07697025638964,1458.1719614365961,-6.028688788699898,211150.1827085621,10.5,10500211150.182709,47.655,-122.3035,60.0,1.15
2026-01-20T23:01:10+00:00,SAT-47351,211.7623670443323,35.238667866778734,1452.159349151333,-6.020842272334425,210875.36451471192,10.5,10500210875.364515,47.655,-122.3035,60.0,1.1666666666666667
2026-01-20T23:01:11+00:00,SAT-47351,211.744249025989,35.40149402633577,1446.1545624583914,-6.012890818536968,210596.87096810873,10.5,10500210596.870968,47.655,-122.3035,60.0,1.1833333333333333
2026-01-20T23:01:12+00:00,SAT-47351,211.72614959401844,35.565461356098396,1440.1577060153704,-6.004832839067895,210314.64644188245,10.5,10500210314.646442,47.655,-122.3035,60.0,1.2
2026-01-20T23:01:13+00:00,SAT-47351,211.70806911362496,35.73058263657972,1434.1688860638733,-5.996666760656427,210028.63583343543,10.5,10500210028.635834,47.655,-122.3035,60.0,1.2166666666666666
2026-01-20T23:01:14+00:00,SAT-47351,211.69000795928014,35.896870810746535,1428.1882104145786,-5.988390867015946,209738.7790311504,10.5,10500209738.779032,47.655,-122.3035,60.0,1.2333333333333334
2026-01-20T23:01:15+00:00,SAT-47351,211.67196651527485,36.06433898262815,1422.2157885898748,-5.980003554497344,209445.0198684522,10.5,10500209445.019869,47.655,-122.3035,60.0,1.25
2026-01-20T23:01:16+00:00,SAT-47351,211.65394517571386,36.23300042302443,1416.2517317115228,-5.971503096341626,209147.29786693657,10.5,10500209147.297867,47.655,-122.3035,60.0,1.2666666666666666
2026-01-20T23:01:17+00:00,SAT-47351,211.6359443450321,36.402868568684504,1410.296152623438,-5.962887758306007,208845.55228608544,10.5,10500208845.552286,47.655,-122.3035,60.0,1.2833333333333334
2026-01-20T23:01:18+00:00,SAT-47351,211.61796443829655,36.573957024695076,1404.3491658991543,-5.9541557806330365,208539.72149174908,10.5,10500208539.72149,47.655,-122.3035,60.0,1.3
2026-01-20T23:01:19+00:00,SAT-47351,211.6000058815179,36.74627956638315,1398.4108878672696,-5.945305384087234,208229.7431675748,10.5,10500208229.743168,47.655,-122.3035,60.0,1.3166666666666667
2026-01-20T23:01:20+00:00,SAT-47351,211.58206911200259,36.9198501414123,1392.4814366308733,-5.9363347428901,207915.55336707653,10.5,10500207915.553368,47.655,-122.3035,60.0,1.3333333333333333
2026-01-20T23:01:21+00:00,SAT-47351,211.5641545787446,37.09468287109906,1386.560932113964,-5.927242010286866,207597.08740909054,10.5,10500207597.08741,47.655,-122.3035,60.0,1.35
2026-01-20T23:01:22+00:00,SAT-47351,211.54626274279474,37.27079205247311,1380.6494960823713,-5.918025286928381,207274.27877037518,10.5,10500207274.27877,47.655,-122.3035,60.0,1.3666666666666667
2026-01-20T23:01:23+00:00,SAT-47351,211.5283940777031,37.44819215940484,1374.7472521962081,-5.908682682501375,206947.06124416392,10.5,10500206947.061245,47.655,-122.3035,60.0,1.3833333333333333
2026-01-20T23:01:24+00:00,SAT-47351,211.51054906985223,37.626897845575876,1368.8543260008603,-5.899212206760064,206615.36512363053,10.5,10500206615.365124,47.655,-122.3035,60.0,1.4
2026-01-20T23:01:25+00:00,SAT-47351,211.49272821902392,37.80692394416989,1362.9708450266514,-5.889611928318892,206279.12276348317,10.5,10500206279.122763,47.655,-122.3035,60.0,1.4166666666666667
2026-01-20T23:01:26+00:00,SAT-47351,211.47493203866523,37.98828547237311,1357.0969387301413,-5.879879794921386,205938.26228501907,10.5,10500205938.262285,47.655,-122.3035,60.0,1.4333333333333333
2026-01-20T23:01:27+00:00,SAT-47351,211.45716105653125,38.17099763040148,1351.232738614673,-5.870013760344653,205592.71202085694,10.5,10500205592.71202,47.655,-122.3035,60.0,1.45
2026-01-20T23:01:28+00:00,SAT-47351,211.4394158151027,38.3550758043822,1345.378378224356,-5.860011758595035,205242.3996111599,10.5,10500205242.39961,47.655,-122.3035,60.0,1.4666666666666666
2026-01-20T23:01:29+00:00,SAT-47351,211.42169687204253,38.54053556847255,1339.5339931637839,-5.8498716375003035,204887.2496777527,10.5,10500204887.249678,47.655,-122.3035,60.0,1.4833333333333334
2026-01-20T23:01:30+00:00,SAT-47351,211.40400480085682,38.72739268486062,1333.6997211839837,-5.8395912487507,204527.18697774026,10.5,10500204527.186977,47.655,-122.3035,60.0,1.5
2026-01-20T23:01:31+00:00,SAT-47351,211.3863401913431,38.91566310658252,1327.875702178563,-5.829168417717542,204162.1353464275,10.5,10500204162.135347,47.655,-122.3035,60.0,1.5166666666666666
2026-01-20T23:01:32+00:00,SAT-47351,211.36870365015787,39.10536297940981,1322.0620782099593,-5.818600901764718,203792.0162372115,10.5,10500203792.016237,47.655,-122.3035,60.0,1.5333333333333334
2026-01-20T23:01:33+00:00,SAT-47351,211.351095801469,39.29650864235488,1316.258993577266,-5.8078864105289485,203416.74943188185,10.5,10500203416.749432,47.655,-122.3035,60.0,1.55
2026-01-20T23:01:34+00:00,SAT-47351,211.33351728762344,39.48911662877686,1310.4665948638317,-5.7970226500167366,203036.25458508276,10.5,10500203036.254585,47.655,-122.3035,60.0,1.5666666666666667
2026-01-20T23:01:35+00:00,SAT-47351,211.31596876970224,39.68320366892831,1304.6850309408817,-5.7860072825469935,202650.44982133416,10.5,10500202650.449821,47.655,-122.3035,60.0,1.5833333333333333
2026-01-20T23:01:36+00:00,SAT-47351,211.29845092823706,39.878786691178334,1298.914453011088,-5.774837900199873,202259.25080509752,10.5,10500202259.250805,47.655,-122.3035,60.0,1.6
2026-01-20T23:01:37+00:00,SAT-47351,211.28096446396592,40.075882822277514,1293.1550146786221,-5.7635120901064765,201862.57302749756,10.5,10500201862.573027,47.655,-122.3035,60.0,1.6166666666666667
2026-01-20T23:01:38+00:00,SAT-47351,211.2635100985212,40.2745093897975,1287.4068719540892,-5.752027388246607,201460.33018812427,10.5,10500201460.330189,47.655,-122.3035,60.0,1.6333333333333333
2026-01-20T23:01:39+00:00,SAT-47351,211.2460885752136,40.47468392297844,1281.6701833055447,-5.740381255029055,201052.43333975092,10.5,10500201052.43334,47.655,-122.3035,60.0,1.65
2026-01-20T23:01:40+00:00,SAT-47351,211.22870065992666,40.67642415264813,1275.9451097338624,-5.7285711724599215,200638.79429158012,10.5,10500200638.794292,47.655,-122.3035,60.0,1.6666666666666667
2026-01-20T23:01:41+00:00,SAT-47351,211.2113471418232,40.87974801449478,1270.2318147511958,-5.716594526217585,200219.32147901013,10.5,10500200219.32148,47.655,-122.3035,60.0,1.6833333333333333
2026-01-20T23:01:42+00:00,SAT-47351,211.19402883435714,41.08467364816211,1264.530464477048,-5.704448682913033,199793.92266961848,10.5,10500199793.92267,47.655,-122.3035,60.0,1.7
2026-01-20T23:01:43+00:00,SAT-47351,211.1767465761334,41.29121939898878,1258.8412276572894,-5.692130961003688,199362.50394444118,10.5,10500199362.503944,47.655,-122.3035,60.0,1.7166666666666666
2026-01-20T23:01:44+00:00,SAT-47351,211.15950123191092,41.4994038186674,1253.1642757121817,-5.679638629244347,198924.96964371813,10.5,10500198924.969645,47.655,-122.3035,60.0,1.7333333333333334
2026-01-20T23:01:45+00:00,SAT-47351,211.14229369360706,41.70924566576367,1247.4997827859486,-5.666968931813316,198481.22324691643,10.5,10500198481.223248,47.655,-122.3035,60.0,1.75
2026-01-20T23:01:46+00:00,SAT-47351,211.12512488134362,41.92076390710016,1241.847925771287,-5.654119031974978,198031.1653995554,10.5,10500198031.1654,47.655,-122.3035,60.0,1.7666666666666666
2026-01-20T23:01:47+00:00,SAT-47351,211.10799574460972,42.13397771695593,1236.2088843900638,-5.641086092029114,197574.69671336995,10.5,10500197574.696712,47.655,-122.3035,60.0,1.7833333333333334
2026-01-20T23:01:48+00:00,SAT-47351,211.0909072633609,42.34890647917804,1230.5828411942803,-5.627867168532252,197111.7140965189,10.5,10500197111.714096,47.655,-122.3035,60.0,1.8
2026-01-20T23:01:49+00:00,SAT-47351,211.07386044934745,42.56556978523272,1224.9699816715306,-5.614459339425027,196642.11520612298,10.5,10500196642.115206,47.655,-122.3035,60.0,1.8166666666666667
2026-01-20T23:01:50+00:00,SAT-47351,211.0568563472708,42.78398743700528,1219.3704942236773,-5.600859576096501,196165.79396741613,10.5,10500196165.793968,47.655,-122.3035,60.0,1.8333333333333333
2026-01-20T23:01:51+00:00,SAT-47351,211.03989603623373,43.00417944458347,1213.7845702731172,-5.587064851368145,195682.64435580137,10.5,10500195682.644356,47.655,-122.3035,60.0,1.85
2026-01-20T23:01:52+00:00,SAT-47351,211.0229806310763,43.22616602811856,1208.2124042613527,-5.573072034645321,195192.55672461202,10.5,10500195192.556725,47.655,-122.3035,60.0,1.8666666666666667
2026-01-20T23:01:53+00:00,SAT-47351,211.0061112839445,43.4499676154253,1202.654193752133,-5.558877990795495,194695.42126824518,10.5,10500194695.421268,47.655,-122.3035,60.0,1.8833333333333333
2026-01-20T23:01:54+00:00,SAT-47351,210.98928918578122,43.675604843377606,1197.1101394359798,-5.544479524448877,194191.12607133432,10.5,10500194191.126072,47.655,-122.3035,60.0,1.9
2026-01-20T23:01:55+00:00,SAT-47351,210.9725155679607,43.90309855696332,1191.5804451902627,-5.529873390614873,193679.55748058268,10.5,10500193679.55748,47.655,-122.3035,60.0,1.9166666666666667
2026-01-20T23:01:56+00:00,SAT-47351,210.9557917040314,44.132469808614694,1186.0653181286893,-5.515056259633485,193160.59887721256,10.5,10500193160.598877,47.655,-122.3035,60.0,1.9333333333333333
2026-01-20T23:01:57+00:00,SAT-47351,210.93911891157387,44.363739855896526,1180.5649686857482,-5.500024818294763,192634.1342185967,10.5,10500192634.134218,47.655,-122.3035,60.0,1.95
2026-01-20T23:01:58+00:00,SAT-47351,210.92249855397918,44.596930163265355,1175.0796106003022,-5.4847756248988615,192100.0429618481,10.5,10500192100.042961,47.655,-122.3035,60.0,1.9666666666666666
2026-01-20T23:01:59+00:00,SAT-47351,210.90593204259793,44.832062397561025,1169.6094610437365,-5.4693052669164794,191558.2055857557,10.5,10500191558.205585,47.655,-122.3035,60.0,1.9833333333333334
2026-01-20T23:02:00+00:00,SAT-47351,210.88942083869574,45.06915842999844,1164.1547405908652,-5.453610184808121,191008.4974201895,10.5,10500191008.49742,47.655,-122.3035,60.0,2.0
2026-01-20T23:02:01+00:00,SAT-47351,210.87296645584615,45.30824033039203,1158.71567336655,-5.437686856367609,190450.79510259023,10.5,10500190450.795103,47.655,-122.3035,60.0,2.0166666666666666
2026-01-20T23:02:02+00:00,SAT-47351,210.8565704621132,45.54933036914822,1153.292487008466,-5.421531677346593,189884.97239693478,10.5,10500189884.972397,47.655,-122.3035,60.0,2.033333333333333
2026-01-20T23:02:03+00:00,SAT-47351,210.84023448255232,45.792451013893235,1147.8854127489255,-5.405140944026429,189310.89958332942,10.5,10500189310.899584,47.655,-122.3035,60.0,2.05
2026-01-20T23:02:04+00:00,SAT-47351,210.8239602019263,46.03762492498448,1142.4946855140831,-5.38851095974853,188728.44718915364,10.5,10500188728.44719,47.655,-122.3035,60.0,2.066666666666667
2026-01-20T23:02:05+00:00,SAT-47351,210.80774936730887,46.284874955565776,1137.1205439168941,-5.371637946072983,188137.4828774589,10.5,10500188137.482878,47.655,-122.3035,60.0,2.0833333333333335
2026-01-20T23:02:06+00:00,SAT-47351,210.79160379105855,46.534224147384904,1131.7632303386772,-5.35451807511759,187537.8725796187,10.5,10500187537.87258,47.655,-122.3035,60.0,2.1
2026-01-20T23:02:07+00:00,SAT-47351,210.77552535385448,46.785695727777636,1126.4229909784265,-5.337147465200261,186929.48034270678,10.5,10500186929.480343,47.655,-122.3035,60.0,2.1166666666666667
2026-01-20T23:02:08+00:00,SAT-47351,210.75951600794724,47.0393131061749,1121.1000759064668,-5.319522179982283,186312.16829949062,10.5,10500186312.168299,47.655,-122.3035,60.0,2.1333333333333333
2026-01-20T23:02:09+00:00,SAT-47351,210.74357778056222,47.295099870251754,1115.7947391189646,-5.301638229321368,185685.79669830907,10.5,10500185685.796698,47.655,-122.3035,60.0,2.15
2026-01-20T23:02:10+00:00,SAT-47351,210.72771277754023,47.553079781805195,1110.507238591588,-5.2834915727507985,185050.22402492655,10.5,10500185050.224026,47.655,-122.3035,60.0,2.1666666666666665
2026-01-20T23:02:11+00:00,SAT-47351,210.71192318713724,47.81327677246123,1105.2378363296978,-5.265078093336097,184405.306086883,10.5,10500184405.306087,47.655,-122.3035,60.0,2.183333333333333
2026-01-20T23:02:12+00:00,SAT-47351,210.69621128414795,48.07571493772676,1099.9867984446107,-5.246393664890132,183750.89836765133,10.5,10500183750.898367,47.655,-122.3035,60.0,2.2
2026-01-20T23:02:13+00:00,SAT-47351,210.68057943409676,48.34041853401552,1094.7543951628268,-5.22743406215532,183086.85288083818,10.5,10500183086.85288,47.655,-122.3035,60.0,2.216666666666667
2026-01-20T23:02:14+00:00,SAT-47351,210.66503009790236,48.607411970808926,1089.5409009248374,-5.208195032810229,182413.02069215965,10.5,10500182413.020693,47.655,-122.3035,60.0,2.2333333333333334
2026-01-20T23:02:15+00:00,SAT-47351,210.64956583664707,48.876719806002185,1084.3465944121147,-5.188672248798901,181729.25021478845,10.5,10500181729.250216,47.655,-122.3035,60.0,2.25
2026-01-20T23:02:16+00:00,SAT-47351,210.63418931675858,49.14836673834666,1079.171758622646,-5.168861351054948,181035.38877578088,10.5,10500181035.388775,47.655,-122.3035,60.0,2.2666666666666666
2026-01-20T23:02:17+00:00,SAT-47351,210.618903315417,49.42237760175017,1074.0166809018604,-5.148757932309119,180331.2820139249,10.5,10500180331.282015,47.655,-122.3035,60.0,2.283333333333333
2026-01-20T23:02:18+00:00,SAT-47351,210.60371072635516,49.69877735826359,1068.8816529907042,-5.128357487692491,179616.77214965547,10.5,10500179616.77215,47.655,-122.3035,60.0,2.3
2026-01-20T23:02:19+00:00,SAT-47351,210.58861456606962,49.97759108786555,1063.7669711229787,-5.107655528118276,178891.70195616427,10.5,10500178891.701956,47.655,-122.3035,60.0,2.316666666666667
2026-01-20T23:02:20+00:00,SAT-47351,210.5736179802974,50.25884398387855,1058.6729360096022,-5.086647446213943,178155.91006377622,10.5,10500178155.910065,47.655,-122.3035,60.0,2.3333333333333335
2026-01-20T23:02:21+00:00,SAT-47351,210.5587242510794,50.542561340542534,1053.5998529565782,-5.065328637442324,177409.23520212242,10.5,10500177409.235203,47.655,-122.3035,60.0,2.35
2026-01-20T23:02:22+00:00,SAT-47351,210.54393680413406,50.82876854667675,1048.548031862169,-5.043694399278301,176651.51266888165,10.5,10500176651.512669,47.655,-122.3035,60.0,2.3666666666666667
2026-01-20T23:02:23+00:00,SAT-47351,210.52925921685045,51.11749107313495,1043.5177873146222,-5.021740050717324,175882.57851547387,10.5,10500175882.578516,47.655,-122.3035,60.0,2.3833333333333333
2026-01-20T23:02:24+00:00,SAT-47351,210.51469522665457,51.40875446645668,1038.5094385707066,-4.99946077533841,175102.26405046292,10.5,10500175102.26405,47.655,-122.3035,60.0,2.4
2026-01-20T23:02:25+00:00,SAT-47351,210.5002487401672,51.70258433284636,1033.523309690769,-4.976851776153891,174310.4012630493,10.5,10500174310.401262,47.655,-122.3035,60.0,2.4166666666666665
2026-01-20T23:02:26+00:00,SAT-47351,210.4859238427741,51.9990063304305,1028.5597295193518,-4.95390819279588,173506.81992259037,10.5,10500173506.819923,47.655,-122.3035,60.0,2.433333333333333
2026-01-20T23:02:27+00:00,SAT-47351,210.47172480895685,52.29804615605656,1023.6190317484034,-4.930625083325946,172691.3469414979,10.5,10500172691.346941,47.655,-122.3035,60.0,2.45
2026-01-20T23:02:28+00:00,SAT-47351,210.45765611341847,52.59972953016406,1018.7015549986329,-4.906997556355359,171863.8110026479,10.5,10500171863.811003,47.655,-122.3035,60.0,2.466666666666667
2026-01-20T23:02:29+00:00,SAT-47351,210.44372244275533,52.90408218900656,1013.8076427690944,-4.883020561804781,171024.03523090028,10.5,10500171024.03523,47.655,-122.3035,60.0,2.4833333333333334
2026-01-20T23:02:30+00:00,SAT-47351,210.4299287083373,53.21112986324669,1008.9376435954545,-4.858689102594953,170171.8446074017,10.5,10500170171.844608,47.655,-122.3035,60.0,2.5
2026-01-20T23:02:31+00:00,SAT-47351,210.41628005974027,53.52089826878165,1004.0919109971331,-4.833998107303468,169307.0615094874,10.5,10500169307.06151,47.655,-122.3035,60.0,2.5166666666666666
2026-01-20T23:02:32+00:00,SAT-47351,210.40278189943535,53.83341308889026,999.270803551449,-4.808942456742756,168429.50664155447,10.5,10500168429.506641,47.655,-122.3035,60.0,2.533333333333333
2026-01-20T23:02:33+00:00,SAT-47351,210.38943989846976,54.1486999570528,994.4746849412577,-4.783517044750665,167539.00116420534,10.5,10500167539.001163,47.655,-122.3035,60.0,2.55
2026-01-20T23:02:34+00:00,SAT-47351,210.3762600132949,54.466784442900575,989.7039239419597,-4.75771667618974,166635.36312175094,10.5,10500166635.363121,47.655,-122.3035,60.0,2.566666666666667
2026-01-20T23:02:35+00:00,SAT-47351,210.3632485039815,54.78769203049487,984.9588945102398,-4.7315361743440905,165718.41120370332,10.5,10500165718.411203,47.655,-122.3035,60.0,2.5833333333333335
2026-01-20T23:02:36+00:00,SAT-47351,210.35041195375504,55.11144810276378,980.2399757656939,-4.704970319250489,164787.96258486973,10.5,10500164787.962585,47.655,-122.3035,60.0,2.6
2026-01-20T23:02:37+00:00,SAT-47351,210.3377572900696,55.438077920832384,975.5475520339616,-4.678013853878058,163843.83314179175,10.5,10500163843.833141,47.655,-122.3035,60.0,2.6166666666666667
2026-01-20T23:02:38+00:00,SAT-47351,210.325291807442,55.76760660267667,970.8820128836938,-4.6506615449233095,162885.83958204428,10.5,10500162885.839582,47.655,-122.3035,60.0,2.6333333333333333
2026-01-20T23:02:39+00:00,SAT-47351,210.31302319196186,56.10005910498047,966.2437531028902,-4.622908087838344,161913.79611792174,10.5,10500161913.796118,47.655,-122.3035,60.0,2.65
2026-01-20T23:02:40+00:00,SAT-47351,210.30095954799864,56.43546019719129,961.6331727699528,-4.594748212213657,160927.5181573894,10.5,10500160927.518158,47.655,-122.3035,60.0,2.6666666666666665
2026-01-20T23:02:41+00:00,SAT-47351,210.28910942692116,56.77383444191128,957.0506772196384,-4.566176604186572,159926.81958649875,10.5,10500159926.819586,47.655,-122.3035,60.0,2.683333333333333
2026-01-20T23:02:42+00:00,SAT-47351,210.27748185838544,57.11520616855879,952.4966770863963,-4.537187971266321,158911.5150398359,10.5,10500158911.51504,47.655,-122.3035,60.0,2.7
2026-01-20T23:02:43+00:00,SAT-47351,210.2660863841616,57.4595994505326,947.9715882830534,-4.507777008131753,157881.4187026126,10.5,10500157881.418703,47.655,-122.3035,60.0,2.716666666666667
2026-01-20T23:02:44+00:00,SAT-47351,210.254933094934,57.80703807863814,943.47583201361,-4.477938401735883,156836.34448944932,10.5,10500156836.34449,47.655,-122.3035,60.0,2.7333333333333334
2026-01-20T23:02:45+00:00,SAT-47351,210.2440326703516,58.15754553355396,939.0098347809453,-4.447666873044715,155776.1075062452,10.5,10500155776.107506,47.655,-122.3035,60.0,2.75
2026-01-20T23:02:46+00:00,SAT-47351,210.23339642253669,58.51114496022553,934.5740283528954,-4.4169571251307245,154700.5222321924,10.5,10500154700.522232,47.655,-122.3035,60.0,2.7666666666666666
2026-01-20T23:02:47+00:00,SAT-47351,210.22303634361901,58.86785913684994,930.1688497800984,-4.385803905004657,153609.40468538704,10.5,10500153609.404686,47.655,-122.3035,60.0,2.783333333333333
2026-01-20T23:02:48+00:00,SAT-47351,210.212965157535,59.227710447360295,925.7947413521738,-4.354201967497742,152502.57115783176,10.5,10500152502.571157,47.655,-122.3035,60.0,2.8
2026-01-20T23:02:49+00:00,SAT-47351,210.20319637669976,59.59072084962976,921.4521505899227,-4.322146102342565,151379.8391639223,10.5,10500151379.839165,47.655,-122.3035,60.0,2.816666666666667
2026-01-20T23:02:50+00:00,SAT-47351,210.19374436396976,59.956911844387825,917.1415302105197,-4.289631119019988,150241.02690972254,10.5,10500150241.026909,47.655,-122.3035,60.0,2.8333333333333335
2026-01-20T23:02:51+00:00,SAT-47351,210.1846244006042,60.32630444137583,912.8633381078171,-4.256651895983922,149085.95501702445,10.5,10500149085.955017,47.655,-122.3035,60.0,2.85
2026-01-20T23:02:52+00:00,SAT-47351,210.17585276078248,60.698919128196366,908.6180372835559,-4.223203310426365,147914.44406342215,10.5,10500147914.444063,47.655,-122.3035,60.0,2.8666666666666667
2026-01-20T23:02:53+00:00,SAT-47351,210.16744679356137,61.0747758314874,904.4060958486239,-4.1892803574820086,146726.31875736208,10.5,10500146726.318758,47.655,-122.3035,60.0,2.8833333333333333
2026-01-20T23:02:54+00:00,SAT-47351,210.1594250130304,61.45389388701792,900.2279869054285,-4.154878023080152,145521.40348487883,10.5,10500145521.403484,47.655,-122.3035,60.0,2.9
2026-01-20T23:02:55+00:00,SAT-47351,210.15180719773645,61.83629199684085,896.0841885570766,-4.11999142395761,144299.52721343946,10.5,10500144299.527214,47.655,-122.3035,60.0,2.9166666666666665
2026-01-20T23:02:56+00:00,SAT-47351,210.14461450044934,62.22198819744819,891.9751837769161,-4.08461568678829,143060.51925855002,10.5,10500143060.519258,47.655,-122.3035,60.0,2.933333333333333
2026-01-20T23:02:57+00:00,SAT-47351,210.13786956954542,62.610999815132075,887.9014603986259,-4.048746062188704,141804.2132767109,10.5,10500141804.213276,47.655,-122.3035,60.0,2.95
2026-01-20T23:02:58+00:00,SAT-47351,210.1315966835149,63.00334343020947,883.8635109926031,-4.012377900190266,140530.4464063529,10.5,10500140530.446405,47.655,-122.3035,60.0,2.966666666666667
2026-01-20T23:02:59+00:00,SAT-47351,210.12582190028434,63.399034837461954,879.8618327668133,-3.975506589092829,139239.0571262293,10.5,10500139239.057127,47.655,-122.3035,60.0,2.9833333333333334
2026-01-20T23:03:00+00:00,SAT-47351,210.12057322310858,63.79808899862532,875.8969275286248,-3.9381277027451227,137929.89041380017,10.5,10500137929.890413,47.655,-122.3035,60.0,3.0
2026-01-20T23:03:01+00:00,SAT-47351,210.1158807856347,64.20052000778398,871.9693014997536,-3.900236853563026,136602.79259731,10.5,10500136602.792597,47.655,-122.3035,60.0,3.0166666666666666
2026-01-20T23:03:02+00:00,SAT-47351,210.11177705817545,64.60634104019285,868.0794652778001,-3.861829825790759,135257.61602315883,10.5,10500135257.616024,47.655,-122.3035,60.0,3.033333333333333
2026-01-20T23:03:03+00:00,SAT-47351,210.10829707872207,65.01556431280167,864.2279336648782,-3.822902525521658,133894.21730541805,10.5,10500133894.217306,47.655,-122.3035,60.0,3.05
2026-01-20T23:03:04+00:00,SAT-47351,210.10547871172565,65.42820103793728,860.4152255460912,-3.7834509945697894,132512.45781167314,10.5,10500132512.457811,47.655,-122.3035,60.0,3.066666666666667
2026-01-20T23:03:05+00:00,SAT-47351,210.10336293889327,65.8442613765367,856.6418637541736,-3.743471436061855,131112.20455936046,10.5,10500131112.20456,47.655,-122.3035,60.0,3.0833333333333335
2026-01-20T23:03:06+00:00,SAT-47351,210.10199418661136,66.26375439229749,852.9083749086079,-3.7029601929938782,129693.32946473162,10.5,10500129693.329464,47.655,-122.3035,60.0,3.1
2026-01-20T23:03:07+00:00,SAT-47351,210.10142069550378,66.6866880015522,849.2152892761286,-3.6619138088437824,128255.71146576249,10.5,10500128255.711466,47.655,-122.3035,60.0,3.1166666666666667
2026-01-20T23:03:08+00:00,SAT-47351,210.1016949386782,67.113068928071,845.5631405707751,-3.62032898749153,126799.23511838667,10.5,10500126799.235119,47.655,-122.3035,60.0,3.1333333333333333
2026-01-20T23:03:09+00:00,SAT-47351,210.10287409613952,67.54290265147091,841.952465793917,-3.578202647567249,125323.79249999714,10.5,10500125323.7925,47.655,-122.3035,60.0,3.15
2026-01-20T23:03:10+00:00,SAT-47351,210.10502059457775,67.97619336004541,838.3838050200766,-3.535531905082317,123829.2826011131,10.5,10500123829.2826,47.655,-122.3035,60.0,3.1666666666666665
2026-01-20T23:03:11+00:00,SAT-47351,210.1082027231385,68.41294389976056,834.8577012000744,-3.4923140516169555,122315.61056141723,10.5,10500122315.610561,47.655,-122.3035,60.0,3.183333333333333
2026-01-20T23:03:12+00:00,SAT-47351,210.11249533771849,68.8531557183263,831.3746999859285,-3.4485466746449323,120782.69188403596,10.5,10500120782.691883,47.655,-122.3035,60.0,3.2
2026-01-20T23:03:13+00:00,SAT-47351,210.11798066995567,69.29682882247795,827.9353494357492,-3.4042275357421388,119230.44816988843,10.5,10500119230.44817,47.655,-122.3035,60.0,3.216666666666667
2026-01-20T23:03:14+00:00,SAT-47351,210.124749257995,69.74396171795242,824.5401998401024,-3.359354693037683,117658.81140644196,10.5,10500117658.811407,47.655,-122.3035,60.0,3.2333333333333334
2026-01-20T23:03:15+00:00,SAT-47351,210.13290102258367,70.19455136317276,821.1898034262462,-3.313926429381103,116067.72145182379,10.5,10500116067.721453,47.655,-122.3035,60.0,3.25
2026-01-20T23:03:16+00:00,SAT-47351,210.1425465142258,70.64859311152752,817.88471413401,-3.267941326113252,114457.12861858968,10.5,10500114457.128618,47.655,-122.3035,60.0,3.2666666666666666
2026-01-20T23:03:17+00:00,SAT-47351,210.1538083652504,71.10608066145929,814.6254873180998,-3.221398233545849,112826.99263979288,10.5,10500112826.99264,47.655,-122.3035,60.0,3.283333333333333
2026-01-20T23:03:18+00:00,SAT-47351,210.16682298611872,71.56700600043666,811.4126794798434,-3.174296281612497,111177.28304202776,10.5,10500111177.283043,47.655,-122.3035,60.0,3.3
2026-01-20T23:03:19+00:00,SAT-47351,210.18174255578398,72.03135934791254,808.2468479883152,-3.126634956376589,109507.98182506041,10.5,10500109507.981825,47.655,-122.3035,60.0,3.316666666666667
2026-01-20T23:03:20+00:00,SAT-47351,210.198737367883,72.49912910718223,805.1285507251556,-3.0784140190218454,107819.0806245345,10.5,10500107819.080624,47.655,-122.3035,60.0,3.3333333333333335
2026-01-20T23:03:21+00:00,SAT-47351,210.217998607706,72.97030180289703,802.0583458101845,-3.029633572154533,106110.58303415556,10.5,10500106110.583035,47.655,-122.3035,60.0,3.35
2026-01-20T23:03:22+00:00,SAT-47351,210.23974165654792,73.44486202536439,799.036791260889,-2.9802940684935177,104382.50491005326,10.5,10500104382.50491,47.655,-122.3035,60.0,3.3666666666666667
2026-01-20T23:03:23+00:00,SAT-47351,210.26421004373145,73.92279237329278,796.0644446432449,-2.9303962961269368,102634.87385440776,10.5,10500102634.873854,47.655,-122.3035,60.0,3.3833333333333333
2026-01-20T23:03:24+00:00,SAT-47351,210.29168019866444,74.4040733905308,793.1418627372409,-2.8799414407717863,100867.73139604385,10.5,10500100867.731396,47.655,-122.3035,60.0,3.4
2026-01-20T23:03:25+00:00,SAT-47351,210.32246720000774,74.88868350888094,790.2696011403112,-2.8289310355304256,99081.13123069116,10.5,10500099081.131231,47.655,-122.3035,60.0,3.4166666666666665
2026-01-20T23:03:26+00:00,SAT-47351,210.35693177255925,75.3765989777553,787.4482139208754,-2.777366998434553,97275.14053593304,10.5,10500097275.140535,47.655,-122.3035,60.0,3.433333333333333
2026-01-20T23:03:27+00:00,SAT-47351,210.39548886141418,75.86779379385811,784.6782532344367,-2.725251665882631,95449.84114232661,10.5,10500095449.841143,47.655,-122.3035,60.0,3.45
2026-01-20T23:03:28+00:00,SAT-47351,210.4386182141428,76.36223962947608,781.9602689063299,-2.6725877600375947,93605.3283915326,10.5,10500093605.328392,47.655,-122.3035,60.0,3.466666666666667
2026-01-20T23:03:29+00:00,SAT-47351,210.48687754025656,76.85990574570951,779.2948080469856,-2.6193784317306337,91741.71263898724,10.5,10500091741.712639,47.655,-122.3035,60.0,3.4833333333333334
2026-01-20T23:03:30+00:00,SAT-47351,210.54091901283485,77.36075890138376,776.6824146244064,-2.5656272665194253,89859.11946608732,10.5,10500089859.119467,47.655,-122.3035,60.0,3.5
2026-01-20T23:03:31+00:00,SAT-47351,210.6015101452562,77.86476324789315,774.1236290305976,-2.5113382603918004,87957.68882922966,10.5,10500087957.68883,47.655,-122.3035,60.0,3.5166666666666666
2026-01-20T23:03:32+00:00,SAT-47351,210.6695604567714,78.37188019849741,771.6189876722335,-2.4565158730801575,86037.57692710754,10.5,10500086037.576927,47.655,-122.3035,60.0,3.533333333333333
2026-01-20T23:03:33+00:00,SAT-47351,210.74615589315584,78.88206828053525,769.1690225081483,-2.4011650001993297,84098.95522486081,10.5,10500084098.955225,47.655,-122.3035,60.0,3.55
2026-01-20T23:03:34+00:00,SAT-47351,210.83260376206445,79.39528294435527,766.7742606146161,-2.3452910149465245,82142.01191458428,10.5,10500082142.011915,47.655,-122.3035,60.0,3.566666666666667
2026-01-20T23:03:35+00:00,SAT-47351,210.93049213389313,79.91147632922353,764.4352237090428,-2.28889974228465,80166.95101111858,10.5,10500080166.951012,47.655,-122.3035,60.0,3.5833333333333335
2026-01-20T23:03:36+00:00,SAT-47351,211.04176944037638,80.43059695077336,762.1524276994041,-2.23199747855947,78173.99303912587,10.5,10500078173.993038,47.655,-122.3035,60.0,3.6
2026-01-20T23:03:37+00:00,SAT-47351,211.16885276300172,80.95258928865591,759.926382214121,-2.174590993934104,76163.37511835636,10.5,10500076163.375118,47.655,-122.3035,60.0,3.6166666666666667
2026-01-20T23:03:38+00:00,SAT-47351,211.31477763393536,81.47739322330749,757.757590129504,-2.116687548483458,74135.35152734333,10.5,10500074135.351528,47.655,-122.3035,60.0,3.6333333333333333
2026-01-20T23:03:39+00:00,SAT-47351,211.48340916814234,82.0049432524872,755.6465470811497,-2.058294876162179,72090.1931418931,10.5,10500072090.193142,47.655,-122.3035,60.0,3.65
2026-01-20T23:03:40+00:00,SAT-47351,211.67974592963958,82.53516736328223,753.5937409913241,-1.9994212077275226,70028.18823794089,10.5,10500070028.188238,47.655,-122.3035,60.0,3.6666666666666665
2026-01-20T23:03:41+00:00,SAT-47351,211.91036775028397,83.06798537985232,751.5996515734838,-1.9400752428577868,67949.64151502024,10.5,10500067949.641516,47.655,-122.3035,60.0,3.683333333333333
2026-01-20T23:03:42+00:00,SAT-47351,212.1841137510689,83.60330645341419,749.664749864607,-1.8802661949742419,65854.87566611679,10.5,10500065854.875666,47.655,-122.3035,60.0,3.7
2026-01-20T23:03:43+00:00,SAT-47351,212.51314132126296,84.14102515407865,747.7894977128194,-1.820003740886081,63744.22961402135,10.5,10500063744.229614,47.655,-122.3035,60.0,3.716666666666667
2026-01-20T23:03:44+00:00,SAT-47351,212.91464098190707,84.68101511450395,745.9743473152423,-1.7592980620986531,61618.05995811896,10.5,10500061618.059958,47.655,-122.3035,60.0,3.7333333333333334
2026-01-20T23:03:45+00:00,SAT-47351,213.41373427665525,85.22311828427829,744.2197407146425,-1.698159815080062,59476.73993299942,10.5,10500059476.739933,47.655,-122.3035,60.0,3.75
2026-01-20T23:03:46+00:00,SAT-47351,214.04862692639733,85.76712576255096,742.5261093257361,-1.6366001444658604,57320.65987094157,10.5,10500057320.65987,47.655,-122.3035,60.0,3.7666666666666666
2026-01-20T23:03:47+00:00,SAT-47351,214.88035968201385,86.31274142444784,740.8938734483221,-1.5746306639771779,55150.22653358534,10.5,10500055150.226534,47.655,-122.3035,60.0,3.783333333333333
2026-01-20T23:03:48+00:00,SAT-47351,216.01274379679577,86.85950723896568,739.3234417994488,-1.512263458468717,52965.863183661306,10.5,10500052965.863184,47.655,-122.3035,60.0,3.8
2026-01-20T23:03:49+00:00,SAT-47351,217.63736891273595,87.40663363578922,737.8152110435361,-1.4495110830415299,50768.009553916345,10.5,10500050768.009554,47.655,-122.3035,60.0,3.816666666666667
2026-01-20T23:03:50+00:00,SAT-47351,220.14952379815196,87.9525582317198,736.3695653233826,-1.3863865420518915,48557.12111191556,10.5,10500048557.121113,47.655,-122.3035,60.0,3.8333333333333335
2026-01-20T23:03:51+00:00,SAT-47351,224.50668452140755,88.49355515091727,734.9868758121096,-1.322903293343878,46333.66920828515,10.5,10500046333.669209,47.655,-122.3035,60.0,3.85
2026-01-20T23:03:52+00:00,SAT-47351,233.67295722058972,89.01786935399025,733.6675002608813,-1.2590752196614992,44098.140075444266,10.5,10500044098.140076,47.655,-122.3035,60.0,3.8666666666666667
2026-01-20T23:03:53+00:00,SAT-47351,260.56073484130604,89.46684425725017,732.4117825751389,-1.1949166397067965,41851.03521490645,10.5,10500041851.035215,47.655,-122.3035,60.0,3.8833333333333333
2026-01-20T23:03:54+00:00,SAT-47351,327.52593281167304,89.5155661891506,731.2200523798045,-1.1304422776040945,39592.87032778854,10.5,10500039592.870327,47.655,-122.3035,60.0,3.9
2026-01-20T23:03:55+00:00,SAT-47351,0.3926717867336095,89.09349020247843,730.0926246149407,-1.065667261352853,37324.17526062299,10.5,10500037324.17526,47.655,-122.3035,60.0,3.9166666666666665
2026-01-20T23:03:56+00:00,SAT-47351,10.987569012686022,88.56785149033125,729.0297991329516,-1.0006070938742588,35045.49299128705,10.5,10500035045.49299,47.655,-122.3035,60.0,3.933333333333333
2026-01-20T23:03:57+00:00,SAT-47351,15.814610354177809,88.01815725410874,728.0318603246609,-0.9352776504525938,32757.37953938866,10.5,10500032757.37954,47.655,-122.3035,60.0,3.95
2026-01-20T23:03:58+00:00,SAT-47351,18.53171502850086,87.45904103040559,727.0990767479428,-0.8696951612616232,30460.403354266648,10.5,10500030460.403355,47.655,-122.3035,60.0,3.966666666666667
2026-01-20T23:03:59+00:00,SAT-47351,20.262823409128625,86.89488904019214,726.2317007737779,-0.8038761758916179,28155.144072576997,10.5,10500028155.144073,47.655,-122.3035,60.0,3.9833333333333334
2026-01-20T23:04:00+00:00,SAT-47351,21.457298703402223,86.32748657866323,725.4299682676888,-0.737837568144535,25842.19268624035,10.5,10500025842.192686,47.655,-122.3035,60.0,4.0
2026-01-20T23:04:01+00:00,SAT-47351,22.328297877464284,85.75772531890915,724.6940982663926,-0.6715965032750606,23522.150395084776,10.5,10500023522.150394,47.655,-122.3035,60.0,4.016666666666667
2026-01-20T23:04:02+00:00,SAT-47351,22.989556760511018,85.18612484938633,724.0242926871261,-0.6051704110557247,21195.62766347214,10.5,10500021195.627663,47.655,-122.3035,60.0,4.033333333333333
2026-01-20T23:04:03+00:00,SAT-47351,23.507187065619497,84.61302800805498,723.4207360638334,-0.538576977638524,18863.24393525771,10.5,10500018863.243935,47.655,-122.3035,60.0,4.05
2026-01-20T23:04:04+00:00,SAT-47351,23.92220078995463,84.03868522830197,722.8835952914685,-0.4718341160306565,16525.626599725514,10.5,10500016525.6266,47.655,-122.3035,60.0,4.066666666666666
2026-01-20T23:04:05+00:00,SAT-47351,24.261373182041126,83.46329500108698,722.4130193997472,-0.40495994214835035,14183.4101528921,10.5,10500014183.410152,47.655,-122.3035,60.0,4.083333333333333
2026-01-20T23:04:06+00:00,SAT-47351,24.542920002710083,82.88702491338843,722.009139350778,-0.3379727528394065,11837.235427763057,10.5,10500011837.235428,47.655,-122.3035,60.0,4.1
2026-01-20T23:04:07+00:00,SAT-47351,24.779661413200493,82.31002329878267,721.6720678586129,-0.27089100001862604,9487.748688446236,10.5,10500009487.748688,47.655,-122.3035,60.0,4.116666666666666
2026-01-20T23:04:08+00:00,SAT-47351,24.980880293785418,81.7324260262432,721.4018992345942,-0.20373326688871418,7135.600797307246,10.5,10500007135.600798,47.655,-122.3035,60.0,4.133333333333334
2026-01-20T23:04:09+00:00,SAT-47351,25.153462598916573,81.1543606164195,721.1987092564173,-0.13651824318133843,4781.446347806566,10.5,10500004781.446348,47.655,-122.3035,60.0,4.15
2026-01-20T23:04:10+00:00,SAT-47351,25.302623571966233,80.57594881322788,721.0625550618844,-0.06926469569918574,2425.9426327577935,10.5,10500002425.942633,47.655,-122.3035,60.0,4.166666666666667
2026-01-20T23:04:11+00:00,SAT-47351,25.43238516590407,79.99730824754117,720.9934750720404,-0.001991446695023393,69.74888707088698,10.5,10500000069.748888,47.655,-122.3035,60.0,4.183333333333334
2026-01-20T23:04:12+00:00,SAT-47351,25.54589869182818,79.41855350611597,720.9914889358699,0.06528265474628347,-2286.474714570626,10.5,10499997713.525286,47.655,-122.3035,60.0,4.2
2026-01-20T23:04:13+00:00,SAT-47351,25.6456681980621,78.83979685109054,721.0565975035369,0.13253875945791924,-4642.067994612967,10.5,10499995357.932005,47.655,-122.3035,60.0,4.216666666666667
2026-01-20T23:04:14+00:00,SAT-47351,25.733708463485215,78.26114867986588,721.1887828263029,0.19975804058010455,-6996.371556789122,10.5,10499993003.628443,47.655,-122.3035,60.0,4.233333333333333
2026-01-20T23:04:15+00:00,SAT-47351,25.81165888256753,77.68271784289604,721.3880081787747,0.2669217264391198,-9348.727937681335,10.5,10499990651.272062,47.655,-122.3035,60.0,4.25
2026-01-20T23:04:16+00:00,SAT-47351,25.880866968922746,77.10461182468636,721.6542181139433,0.3340111215737552,-11698.48234315631,10.5,10499988301.517656,47.655,-122.3035,60.0,4.266666666666667
2026-01-20T23:04:17+00:00,SAT-47351,25.942450523614223,76.52693686657639,721.9873385391929,0.4010076318455594,-14044.983527832357,10.5,10499985955.016472,47.655,-122.3035,60.0,4.283333333333333
2026-01-20T23:04:18+00:00,SAT-47351,25.9973445685898,75.94979802859129,722.3872768173536,0.46789279370988457,-16387.58482027519,10.5,10499983612.41518,47.655,-122.3035,60.0,4.3
2026-01-20T23:04:19+00:00,SAT-47351,26.04633722803855,75.37329920801477,722.8539218969469,0.5346482982559517,-18725.64496498272,10.5,10499981274.355036,47.655,-122.3035,60.0,4.316666666666666
2026-01-20T23:04:20+00:00,SAT-47351,26.09009747876822,74.7975431315088,723.3871444664074,0.6012560113502687,-21058.528827892736,10.5,10499978941.471172,47.655,-122.3035,60.0,4.333333333333333
2026-01-20T23:04:21+00:00,SAT-47351,26.12919683997644,74.22263133155224,723.9867971283941,0.6676980074338795,-23385.60858010556,10.5,10499976614.39142,47.655,-122.3035,60.0,4.35
2026-01-20T23:04:22+00:00,SAT-47351,26.164126492866966,73.64866409850627,724.6527146078083,0.7339565794557743,-25706.264045794072,10.5,10499974293.735954,47.655,-122.3035,60.0,4.366666666666666
2026-01-20T23:04:23+00:00,SAT-47351,26.195310914337455,73.07574043471406,725.3847139697187,0.800014272983075,-28019.883896886717,10.5,10499971980.116102,47.655,-122.3035,60.0,4.383333333333334
2026-01-20T23:04:24+00:00,SAT-47351,26.223118826256027,72.50395799112938,726.1825948713073,0.8658539020667677,-30325.866208752526,10.5,10499969674.133791,47.655,-122.3035,60.0,4.4
2026-01-20T23:04:25+00:00,SAT-47351,26.247872056767342,71.933413004667,727.0461398296352,0.9314585738371249,-32623.619321636877,10.5,10499967376.380678,47.655,-122.3035,60.0,4.416666666666667
2026-01-20T23:04:26+00:00,SAT-47351,26.26985276407243,71.36420023000588,727.975114513942,0.9968117059356444,-34912.56245120171,10.5,10499965087.43755,47.655,-122.3035,60.0,4.433333333333334
2026-01-20T23:04:27+00:00,SAT-47351,26.289309364810393,70.79641287234072,728.9692680553285,1.0618970421339118,-37192.12623556419,10.5,10499962807.873764,47.655,-122.3035,60.0,4.45
2026-01-20T23:04:28+00:00,SAT-47351,26.3064614304509,70.23014252120089,730.0283333720167,1.1266986876541132,-39461.75397237041,10.5,10499960538.246027,47.655,-122.3035,60.0,4.466666666666667
2026-01-20T23:04:29+00:00,SAT-47351,26.321503755187752,69.66547907664334,731.1520275298371,1.191201091762763,-41720.90100915417,10.5,10499958279.098991,47.655,-122.3035,60.0,4.483333333333333
2026-01-20T23:04:30+00:00,SAT-47351,26.33460975431734,69.10251069414755,732.3400520853552,1.255389106431206,-43969.03679787589,10.5,10499956030.963202,47.655,-122.3035,60.0,4.5
2026-01-20T23:04:31+00:00,SAT-47351,26.345934318426977,68.54132371070843,733.5920934875026,1.3192479777014736,-46205.644592518314,10.5,10499953794.355408,47.655,-122.3035,60.0,4.516666666666667
2026-01-20T23:04:32+00:00,SAT-47351,26.3556162221889,67.98200258585901,734.9078234705968,1.3827633502615324,-48430.221609331114,10.5,10499951569.77839,47.655,-122.3035,60.0,4.533333333333333
2026-01-20T23:04:33+00:00,SAT-47351,26.363780166832342,67.42462984890587,736.2868994519243,1.445921299219945,-50642.28013971393,10.5,10499949357.71986,47.655,-122.3035,60.0,4.55
2026-01-20T23:04:34+00:00,SAT-47351,26.370538519799748,66.86928604104597,737.728964961013,1.50870833666953,-52841.347780103475,10.5,10499947158.65222,47.655,-122.3035,60.0,4.566666666666666
2026-01-20T23:04:35+00:00,SAT-47351,26.375992802530966,66.31604966387344,739.2336500754515,1.5711114235204948,-55026.967846419924,10.5,10499944973.032154,47.655,-122.3035,60.0,4.583333333333333
2026-01-20T23:04:36+00:00,SAT-47351,26.380234967975102,65.76499713131845,740.8005718685092,1.6331179749307663,-57198.69956426004,10.5,10499942801.300436,47.655,-122.3035,60.0,4.6
2026-01-20T23:04:37+00:00,SAT-47351,26.38334850174313,65.21620272702114,742.4293348621735,1.6947158493956545,-59356.11768677106,10.5,10499940643.882313,47.655,-122.3035,60.0,4.616666666666666
2026-01-20T23:04:38+00:00,SAT-47351,26.385409374721064,64.66973857146654,744.1195314693041,1.7558934083535187,-61498.81458229328,10.5,10499938501.185417,47.655,-122.3035,60.0,4.633333333333334
2026-01-20T23:04:39+00:00,SAT-47351,26.38648686964181,64.12567457659706,745.8707424952354,1.8166394631117426,-63626.398375483135,10.5,10499936373.601625,47.655,-122.3035,60.0,4.65
2026-01-20T23:04:40+00:00,SAT-47351,26.38664430125105,63.58407842336276,747.6825375864455,1.8769433235358386,-65738.49465261165,10.5,10499934261.505348,47.655,-122.3035,60.0,4.666666666666667
2026-01-20T23:04:41+00:00,SAT-47351,26.38593964509219,63.045015530031876,749.5544757277853,1.936794761600816,-67834.74518497917,10.5,10499932165.254814,47.655,-122.3035,60.0,4.683333333333334
2026-01-20T23:04:42+00:00,SAT-47351,26.384426088703325,62.50854903619381,751.4861057033551,1.9961840664604793,-69914.80985767505,10.5,10499930085.190142,47.655,-122.3035,60.0,4.7
2026-01-20T23:04:43+00:00,SAT-47351,26.38215251564719,61.97473977644156,753.476966612305,2.055101988013049,-71978.36469300711,10.5,10499928021.635307,47.655,-122.3035,60.0,4.716666666666667
2026-01-20T23:04:44+00:00,SAT-47351,26.379163932257004,61.443646274073124,755.5265883283499,2.113539771307772,-74025.10305556656,10.5,10499925974.896944,47.655,-122.3035,60.0,4.733333333333333
2026-01-20T23:04:45+00:00,SAT-47351,26.375501844403498,60.91532472944528,757.6344919936009,2.1714891633684044,-76054.73589121527,10.5,10499923945.264109,47.655,-122.3035,60.0,4.75
2026-01-20T23:04:46+00:00,SAT-47351,26.371204591234502,60.38982901084429,759.8001905192004,2.2289423759919043,-78066.99042413867,10.5,10499921933.009577,47.655,-122.3035,60.0,4.766666666666667
2026-01-20T23:04:47+00:00,SAT-47351,26.36630764148415,59.867210658089014,762.0231890488562,2.2858921287848677,-80061.6116641637,10.5,10499919938.388336,47.655,-122.3035,60.0,4.783333333333333
2026-01-20T23:04:48+00:00,SAT-47351,26.36084385703312,59.34751887890001,764.3029854652978,2.342331597407438,-82038.36059404169,10.5,10499917961.639406,47.655,-122.3035,60.0,4.8
2026-01-20T23:04:49+00:00,SAT-47351,26.35484372806552,58.83080056040329,766.6390708451121,2.398254448184348,-83997.01538167332,10.5,10499916002.98462,47.655,-122.3035,60.0,4.816666666666666
2026-01-20T23:04:50+00:00,SAT-47351,26.348335583158978,58.317100275039884,769.0309299481013,2.453654815527379,-85937.37058934779,10.5,10499914062.62941,47.655,-122.3035,60.0,4.833333333333333
2026-01-20T23:04:51+00:00,SAT-47351,26.34134577742011,57.806460294149936,771.4780416841206,2.5085272987784335,-87859.23706317371,10.5,10499912140.762938,47.655,-122.3035,60.0,4.85
2026-01-20T23:04:52+00:00,SAT-47351,26.333898861339893,57.298920604108595,773.979879576769,2.562866953826312,-89762.44163946337,10.5,10499910237.558361,47.655,-122.3035,60.0,4.866666666666666
2026-01-20T23:04:53+00:00,SAT-47351,26.326017732628603,56.79451892595973,776.5359122187184,2.616669298006979,-91646.82731636056,10.5,10499908353.172684,47.655,-122.3035,60.0,4.883333333333334
2026-01-20T23:04:54+00:00,SAT-47351,26.317723772844584,56.2932907357954,779.1456037319307,2.669930276017004,-93512.25205998526,10.5,10499906487.74794,47.655,-122.3035,60.0,4.9
2026-01-20T23:04:55+00:00,SAT-47351,26.309036970906888,55.795269292849305,781.8084141938783,2.7226462919912504,-95358.58992792983,10.5,10499904641.410072,47.655,-122.3035,60.0,4.916666666666667
2026-01-20T23:04:56+00:00,SAT-47351,26.29997603447769,55.300485662788894,784.5238000957576,2.774814135933234,-97185.72849253919,10.5,10499902814.271507,47.655,-122.3035,60.0,4.933333333333334
2026-01-20T23:04:57+00:00,SAT-47351,26.29055849116514,54.80896875511825,787.2912147273283,2.8264310737569325,-98993.57199455562,10.5,10499901006.428005,47.655,-122.3035,60.0,4.95
2026-01-20T23:04:58+00:00,SAT-47351,26.280800779769613,54.32074534536069,790.1101086515553,2.87749473041796,-100782.03724987831,10.5,10499899217.96275,47.655,-122.3035,60.0,4.966666666666667
2026-01-20T23:04:59+00:00,SAT-47351,26.27071833374663,53.83584011819057,792.9799300626921,2.928003140393007,-102551.05541756682,10.5,10499897448.944582,47.655,-122.3035,60.0,4.983333333333333
2026-01-20T23:05:00+00:00,SAT-47351,26.260325656791206,53.354275701802486,795.9001251947107,2.9779547459870854,-104300.57194055362,10.5,10499895699.428059,47.655,-122.3035,60.0,5.0
2026-01-20T23:05:01+00:00,SAT-47351,26.249636391671483,52.87607270300166,798.8701387280419,3.0273483350792767,-106030.54436523686,10.5,10499893969.455635,47.655,-122.3035,60.0,5.016666666666667
2026-01-20T23:05:02+00:00,SAT-47351,26.2386633832908,52.401249752212934,801.8894141342275,3.076183097792666,-107740.94432630119,10.5,10499892259.055674,47.655,-122.3035,60.0,5.033333333333333
2026-01-20T23:05:03+00:00,SAT-47351,26.227418735942845,51.92982353929857,804.9573940770928,3.1244585335494572,-109431.75429139481,10.5,10499890568.245708,47.655,-122.3035,60.0,5.05
2026-01-20T23:05:04+00:00,SAT-47351,26.2159138661163,51.46180886332775,808.0735207212194,3.172174521425365,-111102.9700252377,10.5,10499888897.029974,47.655,-122.3035,60.0,5.066666666666666
2026-01-20T23:05:05+00:00,SAT-47351,26.20415955045824,50.99721867100901,811.2372361105877,3.2193312566606354,-112754.59836596914,10.5,10499887245.401634,47.655,-122.3035,60.0,5.083333333333333
2026-01-20T23:05:06+00:00,SAT-47351,26.192165969998776,50.53606410416,814.4479824838972,3.265929259036402,-114386.6575185231,10.5,10499885613.342482,47.655,-122.3035,60.0,5.1
2026-01-20T23:05:07+00:00,SAT-47351,26.17994275069348,50.07835454498061,817.7052025982429,3.3119693426775347,-115999.17599699627,10.5,10499884000.824003,47.655,-122.3035,60.0,5.116666666666666
2026-01-20T23:05:08+00:00,SAT-47351,26.16749900076456,49.62409766470143,821.0083400226732,3.3574526432087293,-117592.1935757692,10.5,10499882407.806425,47.655,-122.3035,60.0,5.133333333333334
2026-01-20T23:05:09+00:00,SAT-47351,26.154843344911818,49.17329946749777,824.3568394588334,3.4023805645421183,-119165.7594257833,10.5,10499880834.240574,47.655,-122.3035,60.0,5.15
2026-01-20T23:05:10+00:00,SAT-47351,26.141983955996796,48.72596434066152,827.7501470085367,3.4467547826749434,-120719.93224755142,10.5,10499879280.067753,47.655,-122.3035,60.0,5.166666666666667
2026-01-20T23:05:11+00:00,SAT-47351,26.128928584244566,48.28209510287742,831.1877104451246,3.490577229099103,-122254.77969009006,10.5,10499877745.22031,47.655,-122.3035,60.0,5.183333333333334
2026-01-20T23:05:12+00:00,SAT-47351,26.115684584199816,47.84169305339855,834.6689794682794,3.533850111985528,-123770.3790928858,10.5,10499876229.620907,47.655,-122.3035,60.0,5.2
2026-01-20T23:05:13+00:00,SAT-47351,26.102258939510612,47.40475801730268,838.1934059799663,3.5765758514653223,-125266.815219167,10.5,10499874733.18478,47.655,-122.3035,60.0,5.216666666666667
2026-01-20T23:05:14+00:00,SAT-47351,26.088658286087103,46.97128839749938,841.7604442958277,3.618757095819224,-126744.18082292734,10.5,10499873255.819178,47.655,-122.3035,60.0,5.233333333333333
2026-01-20T23:05:15+00:00,SAT-47351,26.074888933487085,46.54128122301013,845.3695513727248,3.6603967260987256,-128202.57681077693,10.5,10499871797.42319,47.655,-122.3035,60.0,5.25
2026-01-20T23:05:16+00:00,SAT-47351,26.060956884599616,46.11473219543712,849.0201870408872,3.701497811669292,-129642.11068487774,10.5,10499870357.889315,47.655,-122.3035,60.0,5.266666666666667
2026-01-20T23:05:17+00:00,SAT-47351,26.046867854107948,45.69163573903738,852.7118141917255,3.7420636356824653,-131062.89743508452,10.5,10499868937.102566,47.655,-122.3035,60.0,5.283333333333333
2026-01-20T23:05:18+00:00,SAT-47351,26.03262728545504,45.27198504634117,856.443898991046,3.7820976279372376,-132465.05718746598,10.5,10499867534.942812,47.655,-122.3035,60.0,5.3
2026-01-20T23:05:19+00:00,SAT-47351,26.018240366912238,44.85577212958512,860.2159110253087,3.8216034381135016,-133848.7177692501,10.5,10499866151.28223,47.655,-122.3035,60.0,5.316666666666666
2026-01-20T23:05:20+00:00,SAT-47351,26.003712046080246,44.44298786253525,864.0273235209207,3.860584840649828,-135214.0113772415,10.5,10499864785.988623,47.655,-122.3035,60.0,5.333333333333333
2026-01-20T23:05:21+00:00,SAT-47351,25.989047043878593,44.03362203093043,867.8776134686622,3.899045784333392,-136561.07631467038,10.5,10499863438.923685,47.655,-122.3035,60.0,5.35
2026-01-20T23:05:22+00:00,SAT-47351,25.974249867212905,43.627663376003234,871.7662617975707,3.9369903422100845,-137890.05523683285,10.5,10499862109.944763,47.655,-122.3035,60.0,5.366666666666666
2026-01-20T23:05:23+00:00,SAT-47351,25.959324821065167,43.225099641444615,875.6927534988681,3.9744227390785687,-139201.0961140489,10.5,10499860798.903887,47.655,-122.3035,60.0,5.383333333333334
2026-01-20T23:05:24+00:00,SAT-47351,25.944276019546272,42.82591761596407,879.6565777773092,4.011347319834155,-140494.3511229313,10.5,10499859505.648876,47.655,-122.3035,60.0,5.4
2026-01-20T23:05:25+00:00,SAT-47351,25.92910739636195,42.43010317734615,883.6572281709571,4.047768548618942,-141769.97661661953,10.5,10499858230.023384,47.655,-122.3035,60.0,5.416666666666667
2026-01-20T23:05:26+00:00,SAT-47351,25.913822714557867,42.0376413349396,887.6942026701131,4.083690960491626,-143028.13143205247,10.5,10499856971.868568,47.655,-122.3035,60.0,5.433333333333334
2026-01-20T23:05:27+00:00,SAT-47351,25.89842557580255,41.64851627500343,891.7670037880434,4.11911923802919,-144268.97957288337,10.5,10499855731.020428,47.655,-122.3035,60.0,5.45
2026-01-20T23:05:28+00:00,SAT-47351,25.882919428713898,41.26271139710176,895.8751387081045,4.154058139740338,-145492.68770221548,10.5,10499854507.312298,47.655,-122.3035,60.0,5.466666666666667
2026-01-20T23:05:29+00:00,SAT-47351,25.867307576945496,40.880209355742146,900.0181193594722,4.188512477469147,-146699.42435118245,10.5,10499853300.57565,47.655,-122.3035,60.0,5.483333333333333
2026-01-20T23:05:30+00:00,SAT-47351,25.851593186822765,40.50099210226837,904.1954624703347,4.2224871730994415,-147889.3619049754,10.5,10499852110.638096,47.655,-122.3035,60.0,5.5
2026-01-20T23:05:31+00:00,SAT-47351,25.83577929423412,40.125040919962444,908.4066896776393,4.255987201621977,-149062.67460881473,10.5,10499850937.325392,47.655,-122.3035,60.0,5.516666666666667
2026-01-20T23:05:32+00:00,SAT-47351,25.819868811324348,39.75233646275902,912.6513275800569,4.2890175866680815,-150219.53841151952,10.5,10499849780.461588,47.655,-122.3035,60.0,5.533333333333333
2026-01-20T23:05:33+00:00,SAT-47351,25.80386453274779,39.382858792625626,916.9289077864939,4.321583423358069,-151360.1317657555,10.5,10499848639.868235,47.655,-122.3035,60.0,5.55
2026-01-20T23:05:34+00:00,SAT-47351,25.78776914145966,39.01658741342932,921.2389669873896,4.353689861056581,-152484.63502405418,10.5,10499847515.364977,47.655,-122.3035,60.0,5.566666666666666
2026-01-20T23:05:35+00:00,SAT-47351,25.771585214187706,38.653501304829035,925.5810470088168,4.385342037239098,-153593.22812253845,10.5,10499846406.771877,47.655,-122.3035,60.0,5.583333333333333
2026-01-20T23:05:36+00:00,SAT-47351,25.755315226813867,38.29357896004933,929.9546948006232,4.416545202424672,-154686.09495659513,10.5,10499845313.905043,47.655,-122.3035,60.0,5.6
2026-01-20T23:05:37+00:00,SAT-47351,25.73896155895017,37.93679841190741,934.3594625491746,4.447304563881076,-155763.41790676836,10.5,10499844236.582092,47.655,-122.3035,60.0,5.616666666666666
2026-01-20T23:05:38+00:00,SAT-47351,25.722526498834185,37.58313727014383,938.7949076342188,4.477625393983104,-156825.38163392554,10.5,10499843174.618366,47.655,-122.3035,60.0,5.633333333333334
2026-01-20T23:05:39+00:00,SAT-47351,25.70601224747745,37.232572748536064,943.2605926938179,4.507512983598392,-157872.17144663166,10.5,10499842127.828554,47.655,-122.3035,60.0,5.65
2026-01-20T23:05:40+00:00,SAT-47351,25.689420922767606,36.88508169445086,947.7560856427934,4.536972603891788,-158903.97196337665,10.5,10499841096.028036,47.655,-122.3035,60.0,5.666666666666667
2026-01-20T23:05:41+00:00,SAT-47351,25.672754563489125,36.54064061982115,952.2809596530749,4.566009559184525,-159920.9689639274,10.5,10499840079.031036,47.655,-122.3035,60.0,5.683333333333334
2026-01-20T23:05:42+00:00,SAT-47351,25.656015132834014,36.19922572683337,956.8347931867681,4.594629159727612,-160923.3484357366,10.5,10499839076.651564,47.655,-122.3035,60.0,5.7
2026-01-20T23:05:43+00:00,SAT-47351,25.63920452187939,35.860812934348154,961.4171700020698,4.622836708883529,-161911.29612499144,10.5,10499838088.703875,47.655,-122.3035,60.0,5.716666666666667
2026-01-20T23:05:44+00:00,SAT-47351,25.62232455284386,35.52537790409088,966.0276791463964,4.650637491088011,-162884.9971149845,10.5,10499837115.002886,47.655,-122.3035,60.0,5.733333333333333
2026-01-20T23:05:45+00:00,SAT-47351,25.60537698227505,35.19289606631775,970.6659149375082,4.6780368083651345,-163844.63710502654,10.5,10499836155.362894,47.655,-122.3035,60.0,5.75
2026-01-20T23:05:46+00:00,SAT-47351,25.58836350381556,34.86334264182189,975.331476981051,4.705039928312426,-164790.40058866484,10.5,10499835209.599411,47.655,-122.3035,60.0,5.766666666666667
2026-01-20T23:05:47+00:00,SAT-47351,25.571285751100444,34.53669266635344,980.0239701362212,4.731652132223299,-165722.47253913453,10.5,10499834277.52746,47.655,-122.3035,60.0,5.783333333333333
2026-01-20T23:05:48+00:00,SAT-47351,25.554145300255293,34.21292101065456,984.7430045294253,4.757878620394276,-166641.0350928171,10.5,10499833358.964907,47.655,-122.3035,60.0,5.8
