satellites_20260121_005943/SAT-60276.csv

timestamp,satellite,azimuth_deg,elevation_deg,distance_km,relative_velocity_kms,doppler_shift_hz,tx_freq_ghz,rx_freq_hz,ue_lat,ue_lon,ue_alt_m,time_minutes
2026-01-20T23:05:10+00:00,SAT-60276,188.91567113559225,30.191718256490475,964.6267588876627,-5.092947398509624,178376.5610419427,10.5,10500178376.561043,47.655,-122.3035,60.0,5.166666666666667
2026-01-20T23:05:11+00:00,SAT-60276,188.92338821184887,30.506437108114756,959.5473926822159,-5.068336232016891,177514.57388623618,10.5,10500177514.573887,47.655,-122.3035,60.0,5.183333333333334
2026-01-20T23:05:12+00:00,SAT-60276,188.93160726937927,30.824216152090074,954.4925720134844,-5.043326397317101,176638.62368355365,10.5,10500176638.623684,47.655,-122.3035,60.0,5.2
2026-01-20T23:05:13+00:00,SAT-60276,188.9403414256051,31.14508877894898,949.46269448656,-5.0179114623952215,175748.4851575213,10.5,10500175748.485157,47.655,-122.3035,60.0,5.216666666666667
2026-01-20T23:05:14+00:00,SAT-60276,188.94960426298002,31.46908842747998,944.458164121398,-4.992084858977291,174843.92825940126,10.5,10500174843.928259,47.655,-122.3035,60.0,5.233333333333333
2026-01-20T23:05:15+00:00,SAT-60276,188.95940984968965,31.796248559602102,939.4793914887113,-4.965840031091191,173924.72337131813,10.5,10500173924.723372,47.655,-122.3035,60.0,5.25
2026-01-20T23:05:16+00:00,SAT-60276,188.96977276159436,32.12660264314647,934.5267936977029,-4.939170280477625,172990.6358918978,10.5,10500172990.635891,47.655,-122.3035,60.0,5.266666666666667
2026-01-20T23:05:17+00:00,SAT-60276,188.98070810518252,32.46018412346229,929.6007945379732,-4.912068903906142,172041.43104565522,10.5,10500172041.431046,47.655,-122.3035,60.0,5.283333333333333
2026-01-20T23:05:18+00:00,SAT-60276,188.99223154195838,32.797026402329344,924.7018244844775,-4.884529126276395,171076.87153991763,10.5,10500171076.87154,47.655,-122.3035,60.0,5.3
2026-01-20T23:05:19+00:00,SAT-60276,189.00435931410834,33.137162811118124,919.8303207692045,-4.856544139980521,170096.71894346146,10.5,10500170096.718943,47.655,-122.3035,60.0,5.316666666666666
2026-01-20T23:05:20+00:00,SAT-60276,189.01710827161153,33.48062658495355,914.9867274135972,-4.828107058921577,169100.73207604364,10.5,10500169100.732077,47.655,-122.3035,60.0,5.333333333333333
2026-01-20T23:05:21+00:00,SAT-60276,189.03049590086638,33.82745083219771,910.1714953068329,-4.799210985343046,168088.66934905338,10.5,10500168088.66935,47.655,-122.3035,60.0,5.35
2026-01-20T23:05:22+00:00,SAT-60276,189.04454035498168,34.17766850671244,905.3850822174508,-4.769848967840722,167060.28729491116,10.5,10500167060.287294,47.655,-122.3035,60.0,5.366666666666666
2026-01-20T23:05:23+00:00,SAT-60276,189.059260485801,34.531312375614114,900.6279528468576,-4.740014017933111,166015.34114743362,10.5,10500166015.341148,47.655,-122.3035,60.0,5.383333333333334
2026-01-20T23:05:24+00:00,SAT-60276,189.07467587774894,34.88841498622233,895.9005788663056,-4.709699108421004,164953.58478437952,10.5,10500164953.584784,47.655,-122.3035,60.0,5.4
2026-01-20T23:05:25+00:00,SAT-60276,189.0908068836753,35.24900863103169,891.2034389555072,-4.678897220411666,163874.77237443542,10.5,10500163874.772375,47.655,-122.3035,60.0,5.416666666666667
2026-01-20T23:05:26+00:00,SAT-60276,189.10767466293836,35.613125314210194,886.5370187943498,-4.647601291373691,162778.65655787697,10.5,10500162778.656557,47.655,-122.3035,60.0,5.433333333333334
2026-01-20T23:05:27+00:00,SAT-60276,189.12530122158716,35.98079671224659,881.9018111064199,-4.61580424544456,161664.98950806787,10.5,10500161664.989508,47.655,-122.3035,60.0,5.45
2026-01-20T23:05:28+00:00,SAT-60276,189.14370945506357,36.352054134707934,877.2983156722964,-4.583498987711768,160533.52273116077,10.5,10500160533.522732,47.655,-122.3035,60.0,5.466666666666667
2026-01-20T23:05:29+00:00,SAT-60276,189.16292319346005,36.72692848233997,872.7270393485519,-4.55067847078365,159384.0093976891,10.5,10500159384.009398,47.655,-122.3035,60.0,5.483333333333333
2026-01-20T23:05:30+00:00,SAT-60276,189.18296724976022,37.10545020824435,868.188496020357,-4.517335605340789,158216.20120969915,10.5,10500158216.20121,47.655,-122.3035,60.0,5.5
2026-01-20T23:05:31+00:00,SAT-60276,189.20386747077401,37.487649269676446,863.6832066432971,-4.483463332327493,157029.85092920077,10.5,10500157029.85093,47.655,-122.3035,60.0,5.516666666666667
2026-01-20T23:05:32+00:00,SAT-60276,189.2256507914946,37.87355508312508,859.2116992131891,-4.449054598948829,155824.711537482,10.5,10500155824.711538,47.655,-122.3035,60.0,5.533333333333333
2026-01-20T23:05:33+00:00,SAT-60276,189.2483452927652,38.26319647498034,854.7745087598375,-4.414102431905601,154600.5388001082,10.5,10500154600.5388,47.655,-122.3035,60.0,5.55
2026-01-20T23:05:34+00:00,SAT-60276,189.2719802629751,38.65660163594672,850.3721772677504,-4.3785998344083135,153357.08765991472,10.5,10500153357.08766,47.655,-122.3035,60.0,5.566666666666666
2026-01-20T23:05:35+00:00,SAT-60276,189.29658626326153,39.05379806406287,846.0052536995672,-4.3425398930894605,152094.11598152792,10.5,10500152094.115982,47.655,-122.3035,60.0,5.583333333333333
2026-01-20T23:05:36+00:00,SAT-60276,189.32219519737026,39.45481251412423,841.6742939128593,-4.305915742363466,150811.3833030996,10.5,10500150811.383303,47.655,-122.3035,60.0,5.6
2026-01-20T23:05:37+00:00,SAT-60276,189.34884038605114,39.85967094145057,837.3798606124755,-4.268720581103923,149508.6514204143,10.5,10500149508.65142,47.655,-122.3035,60.0,5.616666666666666
2026-01-20T23:05:38+00:00,SAT-60276,189.37655664638476,40.268398444200045,833.1225232862545,-4.230947707352327,148185.68560253587,10.5,10500148185.685602,47.655,-122.3035,60.0,5.633333333333334
2026-01-20T23:05:39+00:00,SAT-60276,189.40538037665587,40.681019206122514,828.9028581061218,-4.192590449421654,146842.2521787635,10.5,10500146842.252178,47.655,-122.3035,60.0,5.65
2026-01-20T23:05:40+00:00,SAT-60276,189.4353496466033,41.09755642977283,824.7214478978985,-4.153642318420598,145478.12388067576,10.5,10500145478.12388,47.655,-122.3035,60.0,5.666666666666667
2026-01-20T23:05:41+00:00,SAT-60276,189.4665042947685,41.51803228133449,820.5788819589937,-4.114096873138656,144093.07510983443,10.5,10500144093.07511,47.655,-122.3035,60.0,5.683333333333334
2026-01-20T23:05:42+00:00,SAT-60276,189.49888603174432,41.94246781937641,816.4757560108501,-4.073947830811982,142686.88581727367,10.5,10500142686.885817,47.655,-122.3035,60.0,5.7
2026-01-20T23:05:43+00:00,SAT-60276,189.53253855144604,42.37088293134113,812.4126720409204,-4.033189001550846,141259.33920687184,10.5,10500141259.339207,47.655,-122.3035,60.0,5.716666666666667
2026-01-20T23:05:44+00:00,SAT-60276,189.56750764974717,42.8032962601207,808.3902382100403,-3.9918144074442328,139810.2259068987,10.5,10500139810.225906,47.655,-122.3035,60.0,5.733333333333333
2026-01-20T23:05:45+00:00,SAT-60276,189.6038413526076,43.239725139794565,804.4090686410159,-3.94981819418374,138339.3408747103,10.5,10500138339.340876,47.655,-122.3035,60.0,5.75
2026-01-20T23:05:46+00:00,SAT-60276,189.6415900527683,43.68018551891762,800.4697832953499,-3.907194701635468,136846.4858684751,10.5,10500136846.485868,47.655,-122.3035,60.0,5.766666666666667
2026-01-20T23:05:47+00:00,SAT-60276,189.68080665715934,44.1246918879769,796.5730077795855,-3.863938439799968,135331.46860518973,10.5,10500135331.468605,47.655,-122.3035,60.0,5.783333333333333
2026-01-20T23:05:48+00:00,SAT-60276,189.72154674503975,44.573257200775785,792.719373175625,-3.8200441543498402,133794.1050560829,10.5,10500133794.105057,47.655,-122.3035,60.0,5.8
2026-01-20T23:05:49+00:00,SAT-60276,189.7638687386304,45.025892799723024,788.9095158056869,-3.775506811175281,132234.218905335,10.5,10500132234.218904,47.655,-122.3035,60.0,5.816666666666666
2026-01-20T23:05:50+00:00,SAT-60276,189.80783408673034,45.482608336148104,785.1440770126746,-3.7303216024067445,130651.64176101728,10.5,10500130651.641762,47.655,-122.3035,60.0,5.833333333333333
2026-01-20T23:05:51+00:00,SAT-60276,189.8535074625734,45.943411687808286,781.4237029345409,-3.684483974972319,129046.21415529189,10.5,10500129046.214155,47.655,-122.3035,60.0,5.85
2026-01-20T23:05:52+00:00,SAT-60276,189.90095697744977,46.408308876112194,777.7490442501686,-3.637989679741557,127417.78726563677,10.5,10500127417.787266,47.655,-122.3035,60.0,5.866666666666666
2026-01-20T23:05:53+00:00,SAT-60276,189.95025441196105,46.877303986098866,774.1207558762396,-3.5908347176586304,125766.22102820085,10.5,10500125766.221027,47.655,-122.3035,60.0,5.883333333333334
2026-01-20T23:05:54+00:00,SAT-60276,190.00147546518858,47.350399076210536,770.5394967178281,-3.543015419664338,124091.38693701076,10.5,10500124091.386936,47.655,-122.3035,60.0,5.9
2026-01-20T23:05:55+00:00,SAT-60276,190.05470002522264,47.827594094508335,767.0059293392829,-3.494528442964118,122393.16791326099,10.5,10500122393.167913,47.655,-122.3035,60.0,5.916666666666667
2026-01-20T23:05:56+00:00,SAT-60276,190.11001246203756,48.308886791093066,763.5207196388333,-3.4453707912048808,120671.45901199173,10.5,10500120671.459011,47.655,-122.3035,60.0,5.933333333333334
2026-01-20T23:05:57+00:00,SAT-60276,190.16750194526026,48.79427262979404,760.0845365030717,-3.395539819156857,118926.16758606715,10.5,10500118926.167585,47.655,-122.3035,60.0,5.95
2026-01-20T23:05:58+00:00,SAT-60276,190.2272627890356,49.283744696914866,756.6980514567658,-3.345033258610573,117157.214193197,10.5,10500117157.214193,47.655,-122.3035,60.0,5.966666666666667
2026-01-20T23:05:59+00:00,SAT-60276,190.28939482713278,49.77729361008661,753.361938286845,-3.2938492660408727,115364.5342653322,10.5,10500115364.534266,47.655,-122.3035,60.0,5.983333333333333
2026-01-20T23:06:00+00:00,SAT-60276,190.35400382161004,50.274907430404085,750.0768726188468,-3.2419864002631686,113548.07732609227,10.5,10500113548.077326,47.655,-122.3035,60.0,6.0
2026-01-20T23:06:01+00:00,SAT-60276,190.42120190761386,50.77657156826621,746.8435315156511,-3.1894436414764296,111707.80765773138,10.5,10500111707.807657,47.655,-122.3035,60.0,6.016666666666667
2026-01-20T23:06:02+00:00,SAT-60276,190.49110807857525,51.28226868824804,743.6625930572186,-3.1362204645547034,109843.70686811737,10.5,10500109843.706867,47.655,-122.3035,60.0,6.033333333333333
2026-01-20T23:06:03+00:00,SAT-60276,190.56384871738865,51.79197862191958,740.534735847236,-3.0823167759150376,107955.7716795794,10.5,10500107955.771679,47.655,-122.3035,60.0,6.05
2026-01-20T23:06:04+00:00,SAT-60276,190.6395581757465,52.30567826758203,737.4606385827235,-3.0277330201151775,106044.01766241019,10.5,10500106044.017662,47.655,-122.3035,60.0,6.066666666666666
2026-01-20T23:06:05+00:00,SAT-60276,190.71837941069845,52.82334150362777,734.4409795173285,-2.9724701043745476,104108.47659127152,10.5,10500104108.476591,47.655,-122.3035,60.0,6.083333333333333
2026-01-20T23:06:06+00:00,SAT-60276,190.80046468056804,53.34493908627595,731.4764359998991,-2.916529509488386,102149.20032987637,10.5,10500102149.20033,47.655,-122.3035,60.0,6.1
2026-01-20T23:06:07+00:00,SAT-60276,190.88597631168219,53.870438562461466,728.567683902436,-2.859913239017329,100166.25905139332,10.5,10500100166.259052,47.655,-122.3035,60.0,6.116666666666666
2026-01-20T23:06:08+00:00,SAT-60276,190.97508753992133,54.39980417092892,725.7153970987226,-2.8026238803680616,98159.74337774918,10.5,10500098159.743378,47.655,-122.3035,60.0,6.133333333333334
2026-01-20T23:06:09+00:00,SAT-60276,191.06798343907974,54.93299675074899,722.9202468820355,-2.7446645668985408,96129.76305239365,10.5,10500096129.763052,47.655,-122.3035,60.0,6.15
2026-01-20T23:06:10+00:00,SAT-60276,191.16486194337548,55.46997363933022,720.1829014206488,-2.6860390786709165,94076.45046909293,10.5,10500094076.45047,47.655,-122.3035,60.0,6.166666666666667
2026-01-20T23:06:11+00:00,SAT-60276,191.26593498004559,56.01068858568677,717.5040251128543,-2.626751772886918,91999.95823548248,10.5,10500091999.958235,47.655,-122.3035,60.0,6.183333333333334
2026-01-20T23:06:12+00:00,SAT-60276,191.37142972025728,56.55509164724054,714.8842780113617,-2.5668076539859674,89900.46162819967,10.5,10500089900.461628,47.655,-122.3035,60.0,6.2
2026-01-20T23:06:13+00:00,SAT-60276,191.48158996786094,57.10312909615583,712.3243151777864,-2.5062123467662043,87778.15765146817,10.5,10500087778.157652,47.655,-122.3035,60.0,6.216666666666667
2026-01-20T23:06:14+00:00,SAT-60276,191.59667770023103,57.65474331622575,709.8247860639449,-2.4449721665435833,85633.26749436648,10.5,10500085633.267494,47.655,-122.3035,60.0,6.233333333333333
2026-01-20T23:06:15+00:00,SAT-60276,191.71697478507645,58.20987271011517,707.3863338231788,-2.383094065090892,83466.0346373836,10.5,10500083466.034637,47.655,-122.3035,60.0,6.25
2026-01-20T23:06:16+00:00,SAT-60276,191.84278489139038,58.76845159051858,705.0095946755948,-2.320585687676265,81276.72685014905,10.5,10500081276.72685,47.655,-122.3035,60.0,6.266666666666667
2026-01-20T23:06:17+00:00,SAT-60276,191.97443562568824,59.33041007819731,702.695197216419,-2.257455358742192,79065.6356898512,10.5,10500079065.63569,47.655,-122.3035,60.0,6.283333333333333
2026-01-20T23:06:18+00:00,SAT-60276,192.11228092155733,59.89567399106816,700.4437617386334,-2.19371210124798,76833.07717869202,10.5,10500076833.077179,47.655,-122.3035,60.0,6.3
2026-01-20T23:06:19+00:00,SAT-60276,192.25670371969156,60.464164730882594,698.2558995363221,-2.129365652792385,74579.39236857,10.5,10500074579.392368,47.655,-122.3035,60.0,6.316666666666666
2026-01-20T23:06:20+00:00,SAT-60276,192.40811898024413,61.03579916632456,696.1322121919371,-2.064426444723627,72304.94660942431,10.5,10500072304.94661,47.655,-122.3035,60.0,6.333333333333333
2026-01-20T23:06:21+00:00,SAT-60276,192.5669770738901,61.610489502016485,694.0732908843994,-1.9989056169865178,70010.13006924423,10.5,10500070010.13007,47.655,-122.3035,60.0,6.35
2026-01-20T23:06:22+00:00,SAT-60276,192.73376760997328,62.18814314007489,692.0797156823916,-1.9328150429399766,67695.35860328333,10.5,10500067695.358603,47.655,-122.3035,60.0,6.366666666666666
2026-01-20T23:06:23+00:00,SAT-60276,192.90902376990454,62.76866253641852,690.1520548128995,-1.8661672988480895,65361.07268550745,10.5,10500065361.072685,47.655,-122.3035,60.0,6.383333333333334
2026-01-20T23:06:24+00:00,SAT-60276,193.09332721974002,63.351945033913765,688.2908639601816,-1.798975672353404,63007.737705365296,10.5,10500063007.737705,47.655,-122.3035,60.0,6.4
2026-01-20T23:06:25+00:00,SAT-60276,193.28731369716138,63.937882680102206,686.4966855562878,-1.7312541665336645,60635.84410987243,10.5,10500060635.84411,47.655,-122.3035,60.0,6.416666666666667
2026-01-20T23:06:26+00:00,SAT-60276,193.49167938164112,64.52636202476641,684.7700480675315,-1.6630174905041952,58245.907074466995,10.5,10500058245.907074,47.655,-122.3035,60.0,6.433333333333334
2026-01-20T23:06:27+00:00,SAT-60276,193.7071881769213,65.11726388972319,683.1114652903353,-1.594281057001569,55838.46641837959,10.5,10500055838.46642,47.655,-122.3035,60.0,6.45
2026-01-20T23:06:28+00:00,SAT-60276,193.934680060513,65.71046310719402,681.5214356494857,-1.5250609491974916,53414.085442315096,10.5,10500053414.085442,47.655,-122.3035,60.0,6.466666666666667
2026-01-20T23:06:29+00:00,SAT-60276,194.1750806813467,66.30582820981958,680.0004415294862,-1.4553739543847501,50973.352108277104,10.5,10500050973.352108,47.655,-122.3035,60.0,6.483333333333333
2026-01-20T23:06:30+00:00,SAT-60276,194.42941243519653,66.90322108760226,678.5489485723132,-1.3852375055961053,48516.876994814535,10.5,10500048516.876995,47.655,-122.3035,60.0,6.5
2026-01-20T23:06:31+00:00,SAT-60276,194.6988072732053,67.50249656977029,677.1674050333986,-1.314669705137786,46045.294121264225,10.5,10500046045.29412,47.655,-122.3035,60.0,6.516666666666667
2026-01-20T23:06:32+00:00,SAT-60276,194.9845215768701,68.10350194926018,675.8562411141412,-1.2436892647918452,43559.25885338441,10.5,10500043559.258854,47.655,-122.3035,60.0,6.533333333333333
2026-01-20T23:06:33+00:00,SAT-60276,195.28795347723255,68.70607640217823,674.6158683540555,-1.1723155426284217,41059.449192675915,10.5,10500041059.449192,47.655,-122.3035,60.0,6.55
2026-01-20T23:06:34+00:00,SAT-60276,195.6106631128555,69.31005032467115,673.4466789862074,-1.1005684574672736,38546.56278046319,10.5,10500038546.56278,47.655,-122.3035,60.0,6.566666666666666
2026-01-20T23:06:35+00:00,SAT-60276,195.95439638464285,69.91524451047434,672.3490453779601,-1.0284685240533173,36021.31812989049,10.5,10500036021.31813,47.655,-122.3035,60.0,6.583333333333333
2026-01-20T23:06:36+00:00,SAT-60276,196.3211129497972,70.5214691955002,671.3233194366376,-0.9560367874246206,33484.452327211366,10.5,10500033484.452328,47.655,-122.3035,60.0,6.6
2026-01-20T23:06:37+00:00,SAT-60276,196.71301931543434,71.12852288671253,670.3698320806461,-0.8832948200273643,30936.720930742442,10.5,10500030936.72093,47.655,-122.3035,60.0,6.616666666666666
2026-01-20T23:06:38+00:00,SAT-60276,197.13260814233536,71.73619096090788,669.4888927134722,-0.8102646780708193,28378.896442230052,10.5,10500028378.896442,47.655,-122.3035,60.0,6.633333333333334
2026-01-20T23:06:39+00:00,SAT-60276,197.5827051102879,72.34424395576269,668.6807887412094,-0.7369688763738982,25811.7674258701,10.5,10500025811.767426,47.655,-122.3035,60.0,6.65
2026-01-20T23:06:40+00:00,SAT-60276,198.06652505330803,72.95243549040215,667.9457851151725,-0.6634303652270525,23236.137697913837,10.5,10500023236.137697,47.655,-122.3035,60.0,6.666666666666667
2026-01-20T23:06:41+00:00,SAT-60276,198.58773950858242,73.56049972821735,667.2841238975861,-0.5896724767048257,20652.82444630635,10.5,10500020652.824446,47.655,-122.3035,60.0,6.683333333333334
2026-01-20T23:06:42+00:00,SAT-60276,199.15055835754416,74.16814824043749,666.6960238808192,-0.5157189072457311,18062.65762056021,10.5,10500018062.657621,47.655,-122.3035,60.0,6.7
2026-01-20T23:06:43+00:00,SAT-60276,199.75982899229118,74.7750661454099,666.1816802239928,-0.4415936723267998,15466.47834426641,10.5,10500015466.478344,47.655,-122.3035,60.0,6.716666666666667
2026-01-20T23:06:44+00:00,SAT-60276,200.42115732659883,75.38090730546588,665.7412641347921,-0.36732107194859615,12865.137706233623,10.5,10500012865.137707,47.655,-122.3035,60.0,6.733333333333333
2026-01-20T23:06:45+00:00,SAT-60276,201.14105617874083,75.98528833154363,665.3749225857022,-0.2929256497746035,10259.495329376621,10.5,10500010259.495329,47.655,-122.3035,60.0,6.75
2026-01-20T23:06:46+00:00,SAT-60276,201.92712806370173,76.5877810490212,665.0827780709936,-0.21843215304335659,7650.417966669609,10.5,10500007650.417967,47.655,-122.3035,60.0,6.766666666666667
2026-01-20T23:06:47+00:00,SAT-60276,202.78829138642413,77.18790297587122,664.8649284036916,-0.14386549446339392,5038.778166546259,10.5,10500005038.778166,47.655,-122.3035,60.0,6.783333333333333
2026-01-20T23:06:48+00:00,SAT-60276,203.7350614945861,77.78510521603113,664.7214465505468,-0.06925070857369695,2425.452744457694,10.5,10500002425.452744,47.655,-122.3035,60.0,6.8
2026-01-20T23:06:49+00:00,SAT-60276,204.77990110296656,78.37875695870049,664.6523805105293,0.00538708868201626,-188.67863300674074,10.5,10499999811.321367,47.655,-122.3035,60.0,6.816666666666666
2026-01-20T23:06:50+00:00,SAT-60276,205.93765830700733,78.96812550902676,664.6577532336415,0.08002274331431455,-2802.734966735897,10.5,10499997197.265034,47.655,-122.3035,60.0,6.833333333333333
2026-01-20T23:06:51+00:00,SAT-60276,207.2261145681852,79.55235038389387,664.7375625829736,0.15463110400433464,-5415.835351153209,10.5,10499994584.164648,47.655,-122.3035,60.0,6.85
2026-01-20T23:06:52+00:00,SAT-60276,208.66666927392146,80.13040951383522,664.8917813373673,0.22918706571310293,-8027.100501599612,10.5,10499991972.899498,47.655,-122.3035,60.0,6.866666666666666
2026-01-20T23:06:53+00:00,SAT-60276,210.2851903561422,80.70107489478788,665.1203572375719,0.3036656107650051,-10635.654193250431,10.5,10499989364.345806,47.655,-122.3035,60.0,6.883333333333334
2026-01-20T23:06:54+00:00,SAT-60276,212.11305912496087,81.26285414661966,665.4232130733748,0.3780418498378707,-13240.624696761526,10.5,10499986759.375303,47.655,-122.3035,60.0,6.9
2026-01-20T23:06:55+00:00,SAT-60276,214.1884257098575,81.81391334867033,665.8002468116131,0.4522910665663722,-15841.146340469006,10.5,10499984158.853659,47.655,-122.3035,60.0,6.916666666666667
2026-01-20T23:06:56+00:00,SAT-60276,216.55765663692648,82.35197530729474,666.2513317686686,0.5263887532420505,-18436.36076075513,10.5,10499981563.639238,47.655,-122.3035,60.0,6.933333333333334
2026-01-20T23:06:57+00:00,SAT-60276,219.2768737142617,82.87418640443585,666.7763168185687,0.6003106540390575,-21025.418415996653,10.5,10499978974.581585,47.655,-122.3035,60.0,6.95
2026-01-20T23:06:58+00:00,SAT-60276,222.41330957295202,83.37694533660529,667.3750266441971,0.6740328019387358,-23607.47987981981,10.5,10499976392.52012,47.655,-122.3035,60.0,6.966666666666667
2026-01-20T23:06:59+00:00,SAT-60276,226.04586673254002,83.85569034829736,668.0472620253306,0.7475315597805636,-26181.717278878037,10.5,10499973818.28272,47.655,-122.3035,60.0,6.983333333333333
2026-01-20T23:07:00+00:00,SAT-60276,230.2636665865957,84.30465235397536,668.7928001676185,0.8207836469914639,-28747.315229025444,10.5,10499971252.68477,47.655,-122.3035,60.0,7.0
2026-01-20T23:07:01+00:00,SAT-60276,235.1604485108202,84.71660714273251,669.6113950582179,0.8937661940660752,-31303.472743446364,10.5,10499968696.527256,47.655,-122.3035,60.0,7.016666666666667
2026-01-20T23:07:02+00:00,SAT-60276,240.82161620039153,85.0827110915084,670.5027778757664,0.9664567463219864,-33849.403364179554,10.5,10499966150.596636,47.655,-122.3035,60.0,7.033333333333333
2026-01-20T23:07:03+00:00,SAT-60276,247.30047709131037,85.39258636790056,671.4666574040982,1.0388333297308423,-36384.33746780195,10.5,10499963615.662533,47.655,-122.3035,60.0,7.05
2026-01-20T23:07:04+00:00,SAT-60276,254.58311549274032,85.63490740906217,672.5027205116164,1.1108744565329,-38907.522462074245,10.5,10499961092.477537,47.655,-122.3035,60.0,7.066666666666666
2026-01-20T23:07:05+00:00,SAT-60276,262.55032042441184,85.79873038492802,673.6106326362652,1.1825591633007853,-41418.22411909457,10.5,10499958581.77588,47.655,-122.3035,60.0,7.083333333333333
2026-01-20T23:07:06+00:00,SAT-60276,270.9584321265287,85.87553523715361,674.7900383084639,1.2538670298569556,-43915.72723786812,10.5,10499956084.272762,47.655,-122.3035,60.0,7.1
2026-01-20T23:07:07+00:00,SAT-60276,279.46521591172007,85.8613812745235,676.0405616929079,1.3247782252602212,-46399.33725494963,10.5,10499953600.662745,47.655,-122.3035,60.0,7.116666666666666
2026-01-20T23:07:08+00:00,SAT-60276,287.70430933345654,85.75812462064523,677.361807176234,1.3952735020605729,-48868.38004322315,10.5,10499951131.619957,47.655,-122.3035,60.0,7.133333333333334
2026-01-20T23:07:09+00:00,SAT-60276,295.37303583038533,85.57295781618456,678.7533599489558,1.4653342366640318,-51322.20332564982,10.5,10499948677.796675,47.655,-122.3035,60.0,7.15
2026-01-20T23:07:10+00:00,SAT-60276,302.28615226275195,85.31654666836161,680.2147866276555,1.534942440000561,-53760.17704890325,10.5,10499946239.82295,47.655,-122.3035,60.0,7.166666666666667
2026-01-20T23:07:11+00:00,SAT-60276,308.37805269004866,85.00078752601289,681.7456358878161,1.604080782945981,-56181.69427375255,10.5,10499943818.305727,47.655,-122.3035,60.0,7.183333333333334
2026-01-20T23:07:12+00:00,SAT-60276,313.6712780492031,84.63707587004667,683.3454391220074,1.672732594504959,-58586.171111422926,10.5,10499941413.828888,47.655,-122.3035,60.0,7.2
2026-01-20T23:07:13+00:00,SAT-60276,318.23793554833463,84.2353758495537,685.0137110962604,1.7408818848686827,-60973.04753117294,10.5,10499939026.952469,47.655,-122.3035,60.0,7.216666666666667
2026-01-20T23:07:14+00:00,SAT-60276,322.16957040586664,83.80393589035211,686.7499506294362,1.8085133715000046,-63341.78827390663,10.5,10499936658.211725,47.655,-122.3035,60.0,7.233333333333333
2026-01-20T23:07:15+00:00,SAT-60276,325.5588340763078,83.3493743626735,688.5536412986121,1.8756124537422723,-65691.88196286732,10.5,10499934308.118036,47.655,-122.3035,60.0,7.25
2026-01-20T23:07:16+00:00,SAT-60276,328.490434275869,82.8769183510404,690.4242521191444,1.9421652476543656,-68022.84232370796,10.5,10499931977.157677,47.655,-122.3035,60.0,7.266666666666667
2026-01-20T23:07:17+00:00,SAT-60276,331.03781800854813,82.39067192072172,692.3612382594717,2.0081585709732335,-70334.20765781555,10.5,10499929665.792341,47.655,-122.3035,60.0,7.283333333333333
2026-01-20T23:07:18+00:00,SAT-60276,333.2628662297313,81.89385879965455,694.3640417409224,2.073579972060186,-72625.54185613287,10.5,10499927374.458143,47.655,-122.3035,60.0,7.3
2026-01-20T23:07:19+00:00,SAT-60276,335.21693385031296,81.38902224559367,696.4320921663904,2.13841769793756,-74896.43327966704,10.5,10499925103.566721,47.655,-122.3035,60.0,7.316666666666666
2026-01-20T23:07:20+00:00,SAT-60276,336.9423420812633,80.87818213755106,698.5648074171335,2.2026607200862025,-77146.49566302676,10.5,10499922853.504337,47.655,-122.3035,60.0,7.333333333333333
2026-01-20T23:07:21+00:00,SAT-60276,338.4738952451845,80.36295554055745,700.7615943752994,2.2662987106402053,-79375.36728066107,10.5,10499920624.632719,47.655,-122.3035,60.0,7.35
2026-01-20T23:07:22+00:00,SAT-60276,339.8402442032217,79.84464823655726,703.0218496227112,2.3293220702989723,-81582.71192445813,10.5,10499918417.288076,47.655,-122.3035,60.0,7.366666666666666
2026-01-20T23:07:23+00:00,SAT-60276,341.06504241374824,79.32432396129825,705.3449601674894,2.391721874973415,-83768.21703506917,10.5,10499916231.782965,47.655,-122.3035,60.0,7.383333333333334
2026-01-20T23:07:24+00:00,SAT-60276,342.1678965061456,78.8028568481344,707.730304117463,2.4534899167562183,-85931.59513686062,10.5,10499914068.404863,47.655,-122.3035,60.0,7.4
2026-01-20T23:07:25+00:00,SAT-60276,343.1651352497667,78.28097128716698,710.1772513944411,2.514618666242553,-88072.582518226,10.5,10499911927.417482,47.655,-122.3035,60.0,7.416666666666667
2026-01-20T23:07:26+00:00,SAT-60276,344.07042647500043,77.75927240099148,712.685164410907,2.575101264423462,-90190.93894765808,10.5,10499909809.061052,47.655,-122.3035,60.0,7.433333333333334
2026-01-20T23:07:27+00:00,SAT-60276,344.89527039051563,77.2382694943032,715.2533987386254,2.6349315322208287,-92286.44800770372,10.5,10499907713.551992,47.655,-122.3035,60.0,7.45
2026-01-20T23:07:28+00:00,SAT-60276,345.64939397518526,76.71839422239775,717.8813037867602,2.6941039271504565,-94358.91557712166,10.5,10499905641.084423,47.655,-122.3035,60.0,7.466666666666667
2026-01-20T23:07:29+00:00,SAT-60276,346.3410668170473,76.20001478112043,720.5682234367716,2.7526135618427428,-96408.1704795549,10.5,10499903591.829521,47.655,-122.3035,60.0,7.483333333333333
2026-01-20T23:07:30+00:00,SAT-60276,346.97735482177796,75.68344706279211,723.3134966957828,2.810456169080081,-98434.0632589925,10.5,10499901565.93674,47.655,-122.3035,60.0,7.5
2026-01-20T23:07:31+00:00,SAT-60276,347.5643247769417,75.16896350067877,726.1164583150786,2.8676280828692327,-100436.46551684412,10.5,10499899563.534483,47.655,-122.3035,60.0,7.516666666666667
2026-01-20T23:07:32+00:00,SAT-60276,348.1072100059687,74.65680013102359,728.9764393897269,2.924126261897064,-102415.27073345911,10.5,10499897584.729267,47.655,-122.3035,60.0,7.533333333333333
2026-01-20T23:07:33+00:00,SAT-60276,348.6105451377021,74.14716226546541,731.8927679815922,2.979948195109289,-104370.39096109461,10.5,10499895629.60904,47.655,-122.3035,60.0,7.55
2026-01-20T23:07:34+00:00,SAT-60276,349.0782762486114,73.64022909852591,734.8647696481813,3.0350919981262368,-106301.7602008036,10.5,10499893698.2398,47.655,-122.3035,60.0,7.566666666666666
2026-01-20T23:07:35+00:00,SAT-60276,349.5138513403985,73.13615744692665,737.8917680676458,3.08955627177251,-108209.32944754518,10.5,10499891790.670553,47.655,-122.3035,60.0,7.583333333333333
2026-01-20T23:07:36+00:00,SAT-60276,349.9202949819944,72.63508484003067,740.9730855226936,3.143340173588969,-110093.0691948367,10.5,10499889906.930805,47.655,-122.3035,60.0,7.6
2026-01-20T23:07:37+00:00,SAT-60276,350.3002702073004,72.1371320608063,744.1080434558197,3.1964433732528406,-111952.96787337733,10.5,10499888047.032127,47.655,-122.3035,60.0,7.616666666666666
2026-01-20T23:07:38+00:00,SAT-60276,350.6561300648612,71.64240526406779,747.2959629800771,3.24886601532533,-113789.03054631203,10.5,10499886210.969454,47.655,-122.3035,60.0,7.633333333333334
2026-01-20T23:07:39+00:00,SAT-60276,350.9899607434203,71.1509977531974,750.536165352695,3.3006087234424095,-115601.27905601048,10.5,10499884398.720943,47.655,-122.3035,60.0,7.65
2026-01-20T23:07:40+00:00,SAT-60276,351.30361781113834,70.66299147413372,753.8279724528749,3.351672580503385,-117389.75133018705,10.5,10499882610.24867,47.655,-122.3035,60.0,7.666666666666667
2026-01-20T23:07:41+00:00,SAT-60276,351.5987567939107,70.17845828221819,757.1707072398303,3.402059095047214,-119154.50020425714,10.5,10499880845.499796,47.655,-122.3035,60.0,7.683333333333334
2026-01-20T23:07:42+00:00,SAT-60276,351.8768590805328,69.69746102504936,760.5636941772907,3.4517702001959076,-120895.59338433067,10.5,10499879104.406616,47.655,-122.3035,60.0,7.7
2026-01-20T23:07:43+00:00,SAT-60276,352.13925395808826,69.22005446923319,764.0062596569527,3.500808198773282,-122613.11152503864,10.5,10499877386.888475,47.655,-122.3035,60.0,7.716666666666667
2026-01-20T23:07:44+00:00,SAT-60276,352.38713742189213,68.74628610530198,767.4977323671959,3.5491758249886023,-124307.1503899552,10.5,10499875692.84961,47.655,-122.3035,60.0,7.733333333333333
2026-01-20T23:07:45+00:00,SAT-60276,352.6215882994358,68.27619683577137,771.0374437233179,3.5968761042516637,-125977.81594172883,10.5,10499874022.18406,47.655,-122.3035,60.0,7.75
2026-01-20T23:07:46+00:00,SAT-60276,352.8435821060227,67.80982159167108,774.6247281579582,3.6439124750933054,-127625.22861225452,10.5,10499872374.771387,47.655,-122.3035,60.0,7.766666666666667
2026-01-20T23:07:47+00:00,SAT-60276,353.05400300874095,67.34718985585748,778.258923533118,3.690288625738463,-129249.51757877064,10.5,10499870750.482422,47.655,-122.3035,60.0,7.783333333333333
2026-01-20T23:07:48+00:00,SAT-60276,353.25365417280136,66.88832614301167,781.9393713891877,3.7360086253718245,-130850.82536133766,10.5,10499869149.174639,47.655,-122.3035,60.0,7.8
2026-01-20T23:07:49+00:00,SAT-60276,353.44326675415215,66.43325040710883,785.6654173248919,3.781076750307369,-132429.3017345599,10.5,10499867570.698265,47.655,-122.3035,60.0,7.816666666666666
2026-01-20T23:07:50+00:00,SAT-60276,353.6235077220899,65.98197842356294,789.4364112038652,3.8254976412006845,-133985.109233826,10.5,10499866014.890766,47.655,-122.3035,60.0,7.833333333333333
2026-01-20T23:07:51+00:00,SAT-60276,353.794986701034,65.53452211090767,793.2517075180226,3.8692760831510373,-135518.41545355317,10.5,10499864481.584547,47.655,-122.3035,60.0,7.85
2026-01-20T23:07:52+00:00,SAT-60276,353.9582619526646,65.09088984388994,797.1106655316187,3.9124172050471513,-137029.40002911977,10.5,10499862970.599972,47.655,-122.3035,60.0,7.866666666666666
2026-01-20T23:07:53+00:00,SAT-60276,354.1138456397625,64.65108671190478,801.0126496241189,3.9549262826632985,-138518.24774045727,10.5,10499861481.75226,47.655,-122.3035,60.0,7.883333333333334
2026-01-20T23:07:54+00:00,SAT-60276,354.2622084526211,64.2151147738695,804.9570294366952,3.9968088303176286,-139985.15172231285,10.5,10499860014.848278,47.655,-122.3035,60.0,7.9
2026-01-20T23:07:55+00:00,SAT-60276,354.40378369744855,63.782973278667086,808.943180110132,4.038070539437162,-141430.3113125354,10.5,10499858569.688688,47.655,-122.3035,60.0,7.916666666666667
2026-01-20T23:07:56+00:00,SAT-60276,354.53897091178766,63.354658871852784,812.9704824614639,4.078717308583414,-142853.93310370017,10.5,10499857146.066896,47.655,-122.3035,60.0,7.933333333333334
2026-01-20T23:07:57+00:00,SAT-60276,354.6681390725512,62.930165780689116,817.0383231905578,4.1187551433475855,-144256.2274370146,10.5,10499855743.772564,47.655,-122.3035,60.0,7.95
2026-01-20T23:07:58+00:00,SAT-60276,354.7916294444609,62.50948599346609,821.1460949868565,4.158190245237313,-145637.41151550846,10.5,10499854362.588484,47.655,-122.3035,60.0,7.966666666666667
2026-01-20T23:07:59+00:00,SAT-60276,354.909758120852,62.09260941466946,825.2931967247731,4.1970289265968646,-146997.70642417922,10.5,10499853002.293575,47.655,-122.3035,60.0,7.983333333333333
2026-01-20T23:08:00+00:00,SAT-60276,355.02281828928176,61.67952401596892,829.4790335742324,4.235277636056119,-148337.3380213229,10.5,10499851662.661978,47.655,-122.3035,60.0,8.0
2026-01-20T23:08:01+00:00,SAT-60276,355.13108225920445,61.27021597267035,833.7030171365924,4.272942924795953,-149656.5357570053,10.5,10499850343.464243,47.655,-122.3035,60.0,8.016666666666667
2026-01-20T23:08:02+00:00,SAT-60276,355.2348032784436,60.86466979284724,837.9645655469221,4.310031438529553,-150955.53239221347,10.5,10499849044.467607,47.655,-122.3035,60.0,8.033333333333333
2026-01-20T23:08:03+00:00,SAT-60276,355.3342171643583,60.4628684374176,842.2631035682823,4.346549898596762,-152234.56333670006,10.5,10499847765.436663,47.655,-122.3035,60.0,8.05
2026-01-20T23:08:04+00:00,SAT-60276,355.429543770915,60.06479343307198,846.5980626671495,4.382505149414784,-153493.86831090736,10.5,10499846506.13169,47.655,-122.3035,60.0,8.066666666666666
2026-01-20T23:08:05+00:00,SAT-60276,355.5209883120536,59.670424972738935,850.9688811361658,4.41790404588057,-154733.68740232277,10.5,10499845266.312597,47.655,-122.3035,60.0,8.083333333333334
2026-01-20T23:08:06+00:00,SAT-60276,355.6087425538225,59.27974201901725,855.3750041045907,4.452753513335665,-155954.2631657014,10.5,10499844045.736834,47.655,-122.3035,60.0,8.1
2026-01-20T23:08:07+00:00,SAT-60276,355.69298589398153,58.89272239501216,859.8158836085576,4.48706054848698,-157155.84065531526,10.5,10499842844.159346,47.655,-122.3035,60.0,8.116666666666667
2026-01-20T23:08:08+00:00,SAT-60276,355.77388633975534,58.50934286894973,864.2909786622486,4.520832167294694,-158338.66559976732,10.5,10499841661.3344,47.655,-122.3035,60.0,8.133333333333333
2026-01-20T23:08:09+00:00,SAT-60276,355.85160139388523,58.1295792375052,868.7997552770971,4.554075394376512,-159502.9840308837,10.5,10499840497.015968,47.655,-122.3035,60.0,8.15
2026-01-20T23:08:10+00:00,SAT-60276,355.92627885946473,57.75340640442945,873.341686470422,4.5867973096394925,-160649.04391695763,10.5,10499839350.956083,47.655,-122.3035,60.0,8.166666666666666
2026-01-20T23:08:11+00:00,SAT-60276,355.998057573228,57.380798450145384,877.9162523205691,4.619004981405953,-161777.09282053556,10.5,10499838222.907179,47.655,-122.3035,60.0,8.183333333333334
2026-01-20T23:08:12+00:00,SAT-60276,356.0670680724068,57.0117287022949,882.522939955358,4.650705507998042,-162887.37935488502,10.5,10499837112.620646,47.655,-122.3035,60.0,8.2
2026-01-20T23:08:13+00:00,SAT-60276,356.1334332040881,56.646169798364696,887.1612435820014,4.681905941671979,-163980.1505198499,10.5,10499836019.84948,47.655,-122.3035,60.0,8.216666666666667
2026-01-20T23:08:14+00:00,SAT-60276,356.19726868063213,56.28409375030863,891.8306644411622,4.712613386770539,-165055.65513956547,10.5,10499834944.34486,47.655,-122.3035,60.0,8.233333333333333
2026-01-20T23:08:15+00:00,SAT-60276,356.2586835894866,55.92547199744581,896.5307108589013,4.742834864719551,-166114.13913406484,10.5,10499833885.860867,47.655,-122.3035,60.0,8.25
2026-01-20T23:08:16+00:00,SAT-60276,356.31778085807036,55.570275466335666,901.2608981639817,4.772577462089854,-167155.85070503494,10.5,10499832844.149296,47.655,-122.3035,60.0,8.266666666666667
2026-01-20T23:08:17+00:00,SAT-60276,356.3746576824152,55.21847461576545,906.0207487528393,4.801848134278091,-168181.03345988764,10.5,10499831818.96654,47.655,-122.3035,60.0,8.283333333333333
2026-01-20T23:08:18+00:00,SAT-60276,356.42940591795195,54.87003949343074,910.8097919587593,4.830653911811296,-169189.9336374186,10.5,10499830810.066362,47.655,-122.3035,60.0,8.3
2026-01-20T23:08:19+00:00,SAT-60276,356.48211244167925,54.52493977406287,915.6275641268057,4.859001704361324,-170182.7932435642,10.5,10499829817.206757,47.655,-122.3035,60.0,8.316666666666666
2026-01-20T23:08:20+00:00,SAT-60276,356.53285948286975,54.183144809235365,920.4736084932888,4.886898451266481,-171159.85532330515,10.5,10499828840.144676,47.655,-122.3035,60.0,8.333333333333334
2026-01-20T23:08:21+00:00,SAT-60276,356.58172492975143,53.84462366345917,925.3474752153519,4.91435098227941,-172121.359083469,10.5,10499827878.640917,47.655,-122.3035,60.0,8.35
2026-01-20T23:08:22+00:00,SAT-60276,356.6287826106922,53.50934515768459,930.2487212616785,4.9413661377089975,-173067.54410060734,10.5,10499826932.4559,47.655,-122.3035,60.0,8.366666666666667
2026-01-20T23:08:23+00:00,SAT-60276,356.6741025552744,53.17727790189171,935.1769104230202,4.9679506852138555,-173998.64740675193,10.5,10499826001.352592,47.655,-122.3035,60.0,8.383333333333333
2026-01-20T23:08:24+00:00,SAT-60276,356.7177512346211,52.848390331296166,940.1316132397402,4.99411129646513,-174914.90267204744,10.5,10499825085.097328,47.655,-122.3035,60.0,8.4
2026-01-20T23:08:25+00:00,SAT-60276,356.75979178362195,52.52265074175607,945.1124069060814,5.019854669318973,-175816.54448374818,10.5,10499824183.455517,47.655,-122.3035,60.0,8.416666666666666
2026-01-20T23:08:26+00:00,SAT-60276,356.8002842079205,52.20002731506806,950.1188752962822,5.045187357257351,-176703.80237251395,10.5,10499823296.197628,47.655,-122.3035,60.0,8.433333333333334
2026-01-20T23:08:27+00:00,SAT-60276,356.8392855741726,51.880488153594214,955.150608820587,5.070115926729975,-177576.90632318953,10.5,10499822423.093678,47.655,-122.3035,60.0,8.45
2026-01-20T23:08:28+00:00,SAT-60276,356.87685018802995,51.56400130278583,960.2072044381789,5.094646794334135,-178436.0810721543,10.5,10499821563.918928,47.655,-122.3035,60.0,8.466666666666667
2026-01-20T23:08:29+00:00,SAT-60276,356.9130297580288,51.25053478237688,965.2882655077282,5.118786403138389,-179281.5522829233,10.5,10499820718.447718,47.655,-122.3035,60.0,8.483333333333333
2026-01-20T23:08:30+00:00,SAT-60276,356.9478735494133,50.94005660481214,970.3934018137916,5.142541045391363,-180113.54033665956,10.5,10499819886.459663,47.655,-122.3035,60.0,8.5
2026-01-20T23:08:31+00:00,SAT-60276,356.9814285257895,50.63253480320015,975.5222294163951,5.1659169940267855,-180932.26493803674,10.5,10499819067.735062,47.655,-122.3035,60.0,8.516666666666667
2026-01-20T23:08:32+00:00,SAT-60276,357.0137394820813,50.32793744961767,980.6743706317712,5.188920428710912,-181737.94252510706,10.5,10499818262.057474,47.655,-122.3035,60.0,8.533333333333333
2026-01-20T23:08:33+00:00,SAT-60276,357.04484916786816,50.026232676569094,985.8494539393389,5.211557462860629,-182530.7872155897,10.5,10499817469.212784,47.655,-122.3035,60.0,8.55
2026-01-20T23:08:34+00:00,SAT-60276,357.07479840258856,49.72738869549176,991.0471139156319,5.2338341140507065,-183311.00977040728,10.5,10499816688.990229,47.655,-122.3035,60.0,8.566666666666666
2026-01-20T23:08:35+00:00,SAT-60276,357.10362618290964,49.43137381568561,996.2669911387118,5.255756376153942,-184078.82012033934,10.5,10499815921.17988,47.655,-122.3035,60.0,8.583333333333334
2026-01-20T23:08:36+00:00,SAT-60276,357.13136978345796,49.13815645795659,1001.5087321645294,5.277330082235281,-184834.4225639941,10.5,10499815165.577436,47.655,-122.3035,60.0,8.6
2026-01-20T23:08:37+00:00,SAT-60276,357.15806485012195,48.84770517491024,1006.7719893665453,5.29856108088909,-185578.02194388577,10.5,10499814421.978056,47.655,-122.3035,60.0,8.616666666666667
2026-01-20T23:08:38+00:00,SAT-60276,357.18374548843605,48.55998866022804,1012.0564209512187,5.319455080621751,-186309.81819605472,10.5,10499813690.181805,47.655,-122.3035,60.0,8.633333333333333
2026-01-20T23:08:39+00:00,SAT-60276,357.2084443453716,48.27497576568437,1017.3616908182922,5.340017719439141,-187030.00878731572,10.5,10499812969.991213,47.655,-122.3035,60.0,8.65
2026-01-20T23:08:40+00:00,SAT-60276,357.23219268636467,47.99263551326351,1022.6874684904795,5.36025457490914,-187738.78906768886,10.5,10499812261.210932,47.655,-122.3035,60.0,8.666666666666666
2026-01-20T23:08:41+00:00,SAT-60276,357.2550204676073,47.71293710587721,1028.033429053189,5.380171148941964,-188436.35173734298,10.5,10499811563.648262,47.655,-122.3035,60.0,8.683333333333334
2026-01-20T23:08:42+00:00,SAT-60276,357.2769564037384,47.43584993810629,1033.399253079067,5.399772824668357,-189122.88533628738,10.5,10499810877.114664,47.655,-122.3035,60.0,8.7
2026-01-20T23:08:43+00:00,SAT-60276,357.29802803120526,47.1613436083141,1038.784626509536,5.4190649586161745,-189798.5774727856,10.5,10499810201.422527,47.655,-122.3035,60.0,8.716666666666667
2026-01-20T23:08:44+00:00,SAT-60276,357.3182617681999,46.88938792524472,1044.1892406282627,5.438052764821149,-190463.61076442443,10.5,10499809536.389236,47.655,-122.3035,60.0,8.733333333333333
2026-01-20T23:08:45+00:00,SAT-60276,357.3376829704743,46.619952919827696,1049.6127919190444,5.4567414600141095,-191118.1679231842,10.5,10499808881.832077,47.655,-122.3035,60.0,8.75
2026-01-20T23:08:46+00:00,SAT-60276,357.3563159844799,46.35300884897179,1055.0549820684985,5.475136099317964,-191762.42600085228,10.5,10499808237.574,47.655,-122.3035,60.0,8.766666666666667
2026-01-20T23:08:47+00:00,SAT-60276,357.3741841966484,46.088526206952,1060.515517804885,5.493241718359425,-192396.56136637685,10.5,10499807603.438633,47.655,-122.3035,60.0,8.783333333333333
2026-01-20T23:08:48+00:00,SAT-60276,357.3913100804025,45.82647572911655,1065.994110878662,5.511063233183885,-193020.74620046245,10.5,10499806979.2538,47.655,-122.3035,60.0,8.8
2026-01-20T23:08:49+00:00,SAT-60276,357.4077152400518,45.56682839994444,1071.490477943224,5.52860551325751,-193635.15105241194,10.5,10499806364.848948,47.655,-122.3035,60.0,8.816666666666666
2026-01-20T23:08:50+00:00,SAT-60276,357.4234204524388,45.30955545703337,1077.0043405084464,5.545873341877928,-194239.9434535416,10.5,10499805760.056547,47.655,-122.3035,60.0,8.833333333333334
2026-01-20T23:08:51+00:00,SAT-60276,357.4384457060854,45.054628396498664,1082.5354248547458,5.562871391521764,-194835.28705374745,10.5,10499805164.712946,47.655,-122.3035,60.0,8.85
2026-01-20T23:08:52+00:00,SAT-60276,357.4528102380339,44.8020189789956,1088.0834619225568,5.579604314738469,-195421.34480499147,10.5,10499804578.655195,47.655,-122.3035,60.0,8.866666666666667
2026-01-20T23:08:53+00:00,SAT-60276,357.46653256898986,44.5516992310967,1093.648187292456,5.596076659351319,-195998.2759912821,10.5,10499804001.724009,47.655,-122.3035,60.0,8.883333333333333
2026-01-20T23:08:54+00:00,SAT-60276,357.4796305361757,44.30364145020181,1099.2293410807156,5.612292865484068,-196566.2361245349,10.5,10499803433.763876,47.655,-122.3035,60.0,8.9
2026-01-20T23:08:55+00:00,SAT-60276,357.4921213244398,44.05781820907289,1104.8266678318919,5.628257373066585,-197125.3807098748,10.5,10499802874.61929,47.655,-122.3035,60.0,8.916666666666666
2026-01-20T23:08:56+00:00,SAT-60276,357.50402149597306,43.81420235526564,1110.4399165186303,5.643974482430935,-197675.860363121,10.5,10499802324.139637,47.655,-122.3035,60.0,8.933333333333334
2026-01-20T23:08:57+00:00,SAT-60276,357.5153470180226,43.57276701638717,1116.0688404024413,5.659448458168877,-198217.8244483162,10.5,10499801782.175552,47.655,-122.3035,60.0,8.95
2026-01-20T23:08:58+00:00,SAT-60276,357.52611328942237,43.33348560044929,1121.713196998055,5.674683449577566,-198751.41829139827,10.5,10499801248.581709,47.655,-122.3035,60.0,8.966666666666667
2026-01-20T23:08:59+00:00,SAT-60276,357.53633516550565,43.096331799344114,1127.3727479584338,5.68968359600588,-199276.78686987428,10.5,10499800723.21313,47.655,-122.3035,60.0,8.983333333333333
2026-01-20T23:09:00+00:00,SAT-60276,357.54602698199835,42.86127958756557,1133.0472590648503,5.70445290449873,-199794.07052740688,10.5,10499800205.929472,47.655,-122.3035,60.0,9.0
2026-01-20T23:09:01+00:00,SAT-60276,357.55520257735145,42.628303225830386,1138.7365000949371,5.718995382923714,-200303.40963647256,10.5,10499799696.590364,47.655,-122.3035,60.0,9.016666666666667
2026-01-20T23:09:02+00:00,SAT-60276,357.56387531423684,42.3973772589134,1144.4402448235064,5.733314859653971,-200804.9382828927,10.5,10499799195.061718,47.655,-122.3035,60.0,9.033333333333333
2026-01-20T23:09:03+00:00,SAT-60276,357.57205809953774,42.16847652063133,1150.1582708435344,5.747415234976629,-201298.79307122066,10.5,10499798701.206928,47.655,-122.3035,60.0,9.05
2026-01-20T23:09:04+00:00,SAT-60276,357.57976340390184,41.94157612839834,1155.8903596378846,5.761300205864479,-201785.10348508178,10.5,10499798214.896515,47.655,-122.3035,60.0,9.066666666666666
2026-01-20T23:09:05+00:00,SAT-60276,357.58700327968734,41.71665148869163,1161.6362963765334,5.774973523980095,-202264.0009235689,10.5,10499797735.999077,47.655,-122.3035,60.0,9.083333333333334
2026-01-20T23:09:06+00:00,SAT-60276,357.5937893785744,41.493678292023894,1167.3958699711163,5.788438764270416,-202735.6105964459,10.5,10499797264.389404,47.655,-122.3035,60.0,9.1
2026-01-20T23:09:07+00:00,SAT-60276,357.6001329678362,41.2726325168762,1173.168872898682,5.801699528187567,-203200.0586418003,10.5,10499796799.941359,47.655,-122.3035,60.0,9.116666666666667
2026-01-20T23:09:08+00:00,SAT-60276,357.6060449461981,41.05349042553285,1178.9551012281277,5.814759300930685,-203657.46712604826,10.5,10499796342.532873,47.655,-122.3035,60.0,9.133333333333333
2026-01-20T23:09:09+00:00,SAT-60276,357.61153585867345,40.83622856531697,1184.7543545042558,5.827621503820007,-204107.95587829658,10.5,10499795892.04412,47.655,-122.3035,60.0,9.15
2026-01-20T23:09:10+00:00,SAT-60276,357.61661591075324,40.62082376763114,1190.5664356840657,5.840289531456873,-204551.64379184335,10.5,10499795448.356209,47.655,-122.3035,60.0,9.166666666666666
2026-01-20T23:09:11+00:00,SAT-60276,357.6212949820227,40.4072531455119,1196.3911511101055,5.852766707099749,-204988.64726125755,10.5,10499795011.35274,47.655,-122.3035,60.0,9.183333333333334
2026-01-20T23:09:12+00:00,SAT-60276,357.62558263900087,40.19549409277058,1202.2283104393196,5.865056259673385,-205419.07937714213,10.5,10499794580.920624,47.655,-122.3035,60.0,9.2
2026-01-20T23:09:13+00:00,SAT-60276,357.6294881473881,39.985524283822826,1208.0777265489671,5.877161393456916,-205843.0523669065,10.5,10499794156.947634,47.655,-122.3035,60.0,9.216666666666667
2026-01-20T23:09:14+00:00,SAT-60276,357.6330204838121,39.77732167088155,1213.9392155120415,5.889085239589541,-206260.67589629017,10.5,10499793739.324104,47.655,-122.3035,60.0,9.233333333333333
2026-01-20T23:09:15+00:00,SAT-60276,357.6361883469885,39.570864482840065,1219.8125965243255,5.900830891856303,-206672.058322732,10.5,10499793327.941677,47.655,-122.3035,60.0,9.25
2026-01-20T23:09:16+00:00,SAT-60276,357.6390001683889,39.36613122280349,1225.6976918671369,5.912401363045992,-207077.3051668395,10.5,10499792922.694834,47.655,-122.3035,60.0,9.266666666666667
2026-01-20T23:09:17+00:00,SAT-60276,357.6414641223718,39.16310066708943,1231.594326826548,5.923799610436586,-207476.52000499677,10.5,10499792523.479996,47.655,-122.3035,60.0,9.283333333333333
2026-01-20T23:09:18+00:00,SAT-60276,357.643588135907,38.96175186324866,1237.5023296380234,5.935028556317929,-207869.80518815535,10.5,10499792130.194813,47.655,-122.3035,60.0,9.3
2026-01-20T23:09:19+00:00,SAT-60276,357.6453798978485,38.76206412734313,1243.4215314515245,5.946091070697508,-208257.2612361177,10.5,10499791742.738764,47.655,-122.3035,60.0,9.316666666666666
2026-01-20T23:09:20+00:00,SAT-60276,357.64684686781635,38.564017041783956,1249.3517662793668,5.956989944225581,-208638.9858892601,10.5,10499791361.01411,47.655,-122.3035,60.0,9.333333333333334
2026-01-20T23:09:21+00:00,SAT-60276,357.6479962846036,38.3675904540308,1255.2928709170744,5.967727937106215,-209015.07582160475,10.5,10499790984.92418,47.655,-122.3035,60.0,9.35
2026-01-20T23:09:22+00:00,SAT-60276,357.64883517432,38.17276447359567,1261.244684913015,5.978307747821464,-209385.62554540773,10.5,10499790614.374454,47.655,-122.3035,60.0,9.366666666666667
2026-01-20T23:09:23+00:00,SAT-60276,357.6493703581026,37.97951947007372,1267.2070505068423,5.988732055976321,-209750.7289117706,10.5,10499790249.271088,47.655,-122.3035,60.0,9.383333333333333
2026-01-20T23:09:24+00:00,SAT-60276,357.64960845955716,37.78783606975372,1273.1798126106694,5.999003415332685,-210110.47536423747,10.5,10499789889.524635,47.655,-122.3035,60.0,9.4
2026-01-20T23:09:25+00:00,SAT-60276,357.6495559117718,37.59769515565411,1279.1628186835612,6.009124427986442,-210464.95603921308,10.5,10499789535.04396,47.655,-122.3035,60.0,9.416666666666666
2026-01-20T23:09:26+00:00,SAT-60276,357.6492189641938,37.40907786193752,1285.1559187797397,6.019097588131306,-210814.25829391181,10.5,10499789185.741707,47.655,-122.3035,60.0,9.433333333333334
2026-01-20T23:09:27+00:00,SAT-60276,357.6486036890574,37.22196557334022,1291.1589654409693,6.028925368873431,-211158.46874697236,10.5,10499788841.531254,47.655,-122.3035,60.0,9.45
2026-01-20T23:09:28+00:00,SAT-60276,357.64771598764696,37.03633992181433,1297.1718136755255,6.038610160786871,-211497.67112641022,10.5,10499788502.328873,47.655,-122.3035,60.0,9.466666666666667
2026-01-20T23:09:29+00:00,SAT-60276,357.6465615962096,36.8521827850831,1303.1943208758837,6.048154362450655,-211831.94944060894,10.5,10499788168.05056,47.655,-122.3035,60.0,9.483333333333333
2026-01-20T23:09:30+00:00,SAT-60276,357.6451460917317,36.66947628239362,1309.2263468267013,6.057560270137389,-212161.38411474842,10.5,10499787838.615885,47.655,-122.3035,60.0,9.5
2026-01-20T23:09:31+00:00,SAT-60276,357.6434748973599,36.48820277366755,1315.267753602785,6.066830225998967,-212486.05718089532,10.5,10499787513.94282,47.655,-122.3035,60.0,9.516666666666667
2026-01-20T23:09:32+00:00,SAT-60276,357.6415532877189,36.308344854161696,1321.318405614848,6.075966399872322,-212806.04463591738,10.5,10499787193.955364,47.655,-122.3035,60.0,9.533333333333333
2026-01-20T23:09:33+00:00,SAT-60276,357.63938639387555,36.129885355691584,1327.378169437654,6.0849710544664655,-213121.42572945546,10.5,10499786878.57427,47.655,-122.3035,60.0,9.55
2026-01-20T23:09:34+00:00,SAT-60276,357.63697920825297,35.95280733994107,1333.4469139026417,6.093846308093484,-213432.27465375926,10.5,10499786567.725346,47.655,-122.3035,60.0,9.566666666666666
2026-01-20T23:09:35+00:00,SAT-60276,357.63433658920843,35.77709409883691,1339.5245099539138,6.102594306463338,-213738.66656066797,10.5,10499786261.333439,47.655,-122.3035,60.0,9.583333333333334
2026-01-20T23:09:36+00:00,SAT-60276,357.6314632655416,35.60272914987082,1345.6108306755598,6.11121710361712,-214040.6733913892,10.5,10499785959.326609,47.655,-122.3035,60.0,9.6
2026-01-20T23:09:37+00:00,SAT-60276,357.6283638407338,35.42969623490998,1351.705751200234,6.119716772686686,-214338.36775576987,10.5,10499785661.632244,47.655,-122.3035,60.0,9.616666666666667
2026-01-20T23:09:38+00:00,SAT-60276,357.6250427971016,35.25797931584551,1357.8091487281936,6.128095301948726,-214631.8192916702,10.5,10499785368.180708,47.655,-122.3035,60.0,9.633333333333333
2026-01-20T23:09:39+00:00,SAT-60276,357.6215044997113,35.08756257323171,1363.9209024426705,6.136354647409499,-214921.09650670312,10.5,10499785078.903494,47.655,-122.3035,60.0,9.65
2026-01-20T23:09:40+00:00,SAT-60276,357.61775320020126,34.91843040343455,1370.0408934776867,6.144496749434295,-215206.2673606689,10.5,10499784793.73264,47.655,-122.3035,60.0,9.666666666666666
2026-01-20T23:09:41+00:00,SAT-60276,357.61379304042214,34.75056741535531,1376.169004902456,6.152523513125319,-215487.39857830526,10.5,10499784512.601421,47.655,-122.3035,60.0,9.683333333333334
2026-01-20T23:09:42+00:00,SAT-60276,357.60962805595557,34.58395842774235,1382.305121686213,6.16043678696782,-215764.55490138484,10.5,10499784235.445099,47.655,-122.3035,60.0,9.7
2026-01-20T23:09:43+00:00,SAT-60276,357.6052621794833,34.4185884671008,1388.4491306417488,6.168238385598855,-216037.79988617316,10.5,10499783962.200113,47.655,-122.3035,60.0,9.716666666666667
2026-01-20T23:09:44+00:00,SAT-60276,357.6006992440485,34.254442764996014,1394.6009203916528,6.1759301101322555,-216307.19661529537,10.5,10499783692.803385,47.655,-122.3035,60.0,9.733333333333333
2026-01-20T23:09:45+00:00,SAT-60276,357.59594298616776,34.09150675485333,1400.7603813548246,6.183513740078451,-216572.807414734,10.5,10499783427.192585,47.655,-122.3035,60.0,9.75
2026-01-20T23:09:46+00:00,SAT-60276,357.5909970488598,33.92976606902347,1406.9274057249295,6.190990947863422,-216834.69085992128,10.5,10499783165.30914,47.655,-122.3035,60.0,9.766666666666667
2026-01-20T23:09:47+00:00,SAT-60276,357.5858649845263,33.7692065381103,1413.1018873635987,6.19836348517968,-217092.90830253853,10.5,10499782907.091698,47.655,-122.3035,60.0,9.783333333333333
2026-01-20T23:09:48+00:00,SAT-60276,357.58055025775764,33.609814185446375,1419.2837218794846,6.205632971910904,-217347.51647776444,10.5,10499782652.483522,47.655,-122.3035,60.0,9.8
2026-01-20T23:09:49+00:00,SAT-60276,357.5750562480134,33.451575227119456,1425.4728064968037,6.212801061638796,-217598.57330102468,10.5,10499782401.426699,47.655,-122.3035,60.0,9.816666666666666
2026-01-20T23:09:50+00:00,SAT-60276,357.5693862522159,33.29447606772452,1431.669040088945,6.2198693551123085,-217846.13483731882,10.5,10499782153.865162,47.655,-122.3035,60.0,9.833333333333334
2026-01-20T23:09:51+00:00,SAT-60276,357.56354348724363,33.13850329839924,1437.8723231257768,6.226839409799127,-218090.25563575327,10.5,10499781909.744364,47.655,-122.3035,60.0,9.85
2026-01-20T23:09:52+00:00,SAT-60276,357.55753109235087,32.98364369462429,1444.082557630483,6.2337127841178175,-218330.99027873835,10.5,10499781669.009722,47.655,-122.3035,60.0,9.866666666666667
2026-01-20T23:09:53+00:00,SAT-60276,357.55135213146525,32.82988421295676,1450.29964718051,6.240490993631821,-218568.3918477166,10.5,10499781431.608152,47.655,-122.3035,60.0,9.883333333333333
2026-01-20T23:09:54+00:00,SAT-60276,357.54500959544873,32.67721198890206,1456.5234968648256,6.247175514748026,-218802.5120527024,10.5,10499781197.487947,47.655,-122.3035,60.0,9.9
2026-01-20T23:09:55+00:00,SAT-60276,357.5385064042391,32.52561433471413,1462.7540132448673,6.253767802543335,-219033.40185664382,10.5,10499780966.598143,47.655,-122.3035,60.0,9.916666666666666
2026-01-20T23:09:56+00:00,SAT-60276,357.5318454089521,32.375078736789845,1468.9911043332706,6.260269311380096,-219261.11219746232,10.5,10499780738.887802,47.655,-122.3035,60.0,9.933333333333334
2026-01-20T23:09:57+00:00,SAT-60276,357.5250293938606,32.225592852617055,1475.2346795931537,6.2666814542198015,-219485.69256304612,10.5,10499780514.307438,47.655,-122.3035,60.0,9.95
2026-01-20T23:09:58+00:00,SAT-60276,357.51806107835876,32.077144508747914,1481.4846498968288,6.2730055696927405,-219707.18983789036,10.5,10499780292.810162,47.655,-122.3035,60.0,9.966666666666667
2026-01-20T23:09:59+00:00,SAT-60276,357.5109431188374,31.92972169956296,1487.7409274516692,6.279243051873941,-219925.65284839948,10.5,10499780074.34715,47.655,-122.3035,60.0,9.983333333333333
2026-01-20T23:10:00+00:00,SAT-60276,357.50367811047516,31.7833125829996,1494.0034258554047,6.285395226956283,-220141.1280434579,10.5,10499779858.871956,47.655,-122.3035,60.0,10.0
2026-01-20T23:10:01+00:00,SAT-60276,357.4962685889843,31.637905479252776,1500.2720600284224,6.291463392173267,-220353.66085767013,10.5,10499779646.339142,47.655,-122.3035,60.0,10.016666666666667
2026-01-20T23:10:02+00:00,SAT-60276,357.48871703232,31.493488868570683,1506.5467461848834,6.2974488256877,-220563.29605770417,10.5,10499779436.703941,47.655,-122.3035,60.0,10.033333333333333
2026-01-20T23:10:03+00:00,SAT-60276,357.4810258622896,31.350051388860603,1512.8274018137024,6.303352826250879,-220770.07913132434,10.5,10499779229.920868,47.655,-122.3035,60.0,10.05
2026-01-20T23:10:04+00:00,SAT-60276,357.47319744612173,31.207581832438265,1519.1139456990834,6.309176572271728,-220974.0513513957,10.5,10499779025.948648,47.655,-122.3035,60.0,10.066666666666666
2026-01-20T23:10:05+00:00,SAT-60276,357.46523409802336,31.06606914601532,1525.4062978004958,6.314921349442836,-221175.25774831124,10.5,10499778824.742252,47.655,-122.3035,60.0,10.083333333333334
2026-01-20T23:10:06+00:00,SAT-60276,357.457138080596,30.925502425566222,1531.7043793596736,6.320588270616844,-221373.73729887782,10.5,10499778626.262701,47.655,-122.3035,60.0,10.1
2026-01-20T23:10:07+00:00,SAT-60276,357.44891160633375,30.7858709175352,1538.0081127282353,6.326178578239381,-221569.53351879687,10.5,10499778430.46648,47.655,-122.3035,60.0,10.116666666666667
2026-01-20T23:10:08+00:00,SAT-60276,357.4405568389152,30.64716401331617,1544.3174214969326,6.3316934013907975,-221762.68595323828,10.5,10499778237.314047,47.655,-122.3035,60.0,10.133333333333333
2026-01-20T23:10:09+00:00,SAT-60276,357.4320758945857,30.509371249188067,1550.6322303825864,6.337133849699075,-221953.2334660677,10.5,10499778046.766535,47.655,-122.3035,60.0,10.15
2026-01-20T23:10:10+00:00,SAT-60276,357.42347084345494,30.372482304173683,1556.9524652086861,6.342501044061212,-222141.21531583936,10.5,10499777858.784683,47.655,-122.3035,60.0,10.166666666666666
2026-01-20T23:10:11+00:00,SAT-60276,357.41474371070643,30.236486997277037,1563.27805291663,6.347796101968367,-222326.67064182064,10.5,10499777673.32936,47.655,-122.3035,60.0,10.183333333333334
2026-01-20T23:10:12+00:00,SAT-60276,357.4058964778107,30.101375285099245,1569.6089215623265,6.353020067038399,-222509.63599592348,10.5,10499777490.364004,47.655,-122.3035,60.0,10.2
