satellites_20260121_005943/SAT-65522.csv

timestamp,satellite,azimuth_deg,elevation_deg,distance_km,relative_velocity_kms,doppler_shift_hz,tx_freq_ghz,rx_freq_hz,ue_lat,ue_lon,ue_alt_m,time_minutes
2026-01-20T23:00:12+00:00,SAT-65522,300.24748431267136,30.00477341989853,4301.174857194919,-3.3678598527886043,117956.6980777093,10.5,10500117956.698078,47.655,-122.3035,60.0,0.2
2026-01-20T23:00:13+00:00,SAT-65522,300.1455137826571,30.03991911944038,4297.815978301737,-3.359624168621295,117668.24958126062,10.5,10500117668.24958,47.655,-122.3035,60.0,0.21666666666666667
2026-01-20T23:00:14+00:00,SAT-65522,300.0432938073895,30.074942309500862,4294.4653131309,-3.351364982270917,117378.97793894677,10.5,10500117378.97794,47.655,-122.3035,60.0,0.23333333333333334
2026-01-20T23:00:15+00:00,SAT-65522,299.9408243522515,30.109842163153438,4291.122885121915,-3.343082268687317,117088.88227340538,10.5,10500117088.882273,47.655,-122.3035,60.0,0.25
2026-01-20T23:00:16+00:00,SAT-65522,299.83810539027104,30.14461785098541,4287.788717739278,-3.334776027624009,116797.96257600348,10.5,10500116797.962576,47.655,-122.3035,60.0,0.26666666666666666
2026-01-20T23:00:17+00:00,SAT-65522,299.7351369014797,30.179268541378725,4284.462834447727,-3.326446248538991,116506.21847751555,10.5,10500116506.218477,47.655,-122.3035,60.0,0.2833333333333333
2026-01-20T23:00:18+00:00,SAT-65522,299.6319188732813,30.213793400421697,4281.145258722518,-3.318092910273548,116213.64923687391,10.5,10500116213.649237,47.655,-122.3035,60.0,0.3
2026-01-20T23:00:19+00:00,SAT-65522,299.52845130087104,30.248191591819953,4277.836014060004,-3.309716024739844,115920.25527129292,10.5,10500115920.255272,47.655,-122.3035,60.0,0.31666666666666665
2026-01-20T23:00:20+00:00,SAT-65522,299.4247341862988,30.282462277262134,4274.535123944664,-3.3013155608297464,115626.0354912342,10.5,10500115626.035492,47.655,-122.3035,60.0,0.3333333333333333
2026-01-20T23:00:21+00:00,SAT-65522,299.3207675398681,30.3166046159936,4271.242611891996,-3.292891509841009,115330.98959190826,10.5,10500115330.989592,47.655,-122.3035,60.0,0.35
2026-01-20T23:00:22+00:00,SAT-65522,299.2165513795356,30.350617765072343,4267.958501426182,-3.284443887250447,115035.11811537866,10.5,10500115035.118114,47.655,-122.3035,60.0,0.36666666666666664
2026-01-20T23:00:23+00:00,SAT-65522,299.1120857302422,30.38450087964274,4264.6828160559635,-3.2759726635574293,114738.42002840848,10.5,10500114738.420029,47.655,-122.3035,60.0,0.38333333333333336
2026-01-20T23:00:24+00:00,SAT-65522,299.0073706253794,30.418253112491218,4261.415579319509,-3.2674778258196295,114440.89487770274,10.5,10500114440.894878,47.655,-122.3035,60.0,0.4
2026-01-20T23:00:25+00:00,SAT-65522,298.90240610637375,30.45187361424284,4258.156814767892,-3.2589593935867387,114142.54334797428,10.5,10500114142.543348,47.655,-122.3035,60.0,0.4166666666666667
2026-01-20T23:00:26+00:00,SAT-65522,298.7971922217388,30.48536153372064,4254.906545932688,-3.2504173333950264,113843.3642671817,10.5,10500113843.364267,47.655,-122.3035,60.0,0.43333333333333335
2026-01-20T23:00:27+00:00,SAT-65522,298.69172902882826,30.518716017422154,4251.664796378848,-3.2418516523448293,113543.3578840089,10.5,10500113543.357883,47.655,-122.3035,60.0,0.45
2026-01-20T23:00:28+00:00,SAT-65522,298.5860165926333,30.551936209964015,4248.431589664243,-3.233262347173887,113242.52408419763,10.5,10500113242.524084,47.655,-122.3035,60.0,0.4666666666666667
2026-01-20T23:00:29+00:00,SAT-65522,298.4800549862017,30.58502125399953,4245.206949349996,-3.2246493940690515,112940.86203371082,10.5,10500112940.862034,47.655,-122.3035,60.0,0.48333333333333334
2026-01-20T23:00:30+00:00,SAT-65522,298.37384429136466,30.617970290034112,4241.990899020977,-3.2160128170492994,112638.37257379452,10.5,10500112638.372574,47.655,-122.3035,60.0,0.5
2026-01-20T23:00:31+00:00,SAT-65522,298.26738459729745,30.650782456942494,4238.783462238107,-3.2073525880888507,112335.05472286741,10.5,10500112335.054724,47.655,-122.3035,60.0,0.5166666666666667
2026-01-20T23:00:32+00:00,SAT-65522,298.1606760022673,30.683456891461248,4235.584662590252,-3.198668705822119,112030.9084331009,10.5,10500112030.908434,47.655,-122.3035,60.0,0.5333333333333333
2026-01-20T23:00:33+00:00,SAT-65522,298.0537186128573,30.715992728490587,4232.394523667645,-3.1899611798285386,111725.9340400073,10.5,10500111725.93404,47.655,-122.3035,60.0,0.55
2026-01-20T23:00:34+00:00,SAT-65522,297.9465125437052,30.748389101232952,4229.213069050964,-3.1812300019069673,111420.13125634787,10.5,10500111420.131256,47.655,-122.3035,60.0,0.5666666666666667
2026-01-20T23:00:35+00:00,SAT-65522,297.83905791814163,30.780645141039535,4226.040322329062,-3.1724751563513816,111113.49953203127,10.5,10500111113.499533,47.655,-122.3035,60.0,0.5833333333333334
2026-01-20T23:00:36+00:00,SAT-65522,297.7313548685392,30.812759977363633,4222.87630710646,-3.163696656896928,110806.03934812044,10.5,10500110806.039349,47.655,-122.3035,60.0,0.6
2026-01-20T23:00:37+00:00,SAT-65522,297.62340353542146,30.844732738088762,4219.721046973982,-3.1548944992461014,110497.75055409854,10.5,10500110497.750555,47.655,-122.3035,60.0,0.6166666666666667
2026-01-20T23:00:38+00:00,SAT-65522,297.5152040681356,30.876562549375258,4216.574565526734,-3.1460686823468853,110188.63311311953,10.5,10500110188.633114,47.655,-122.3035,60.0,0.6333333333333333
2026-01-20T23:00:39+00:00,SAT-65522,297.4067566248291,30.908248535722915,4213.436886360873,-3.137219187615209,109878.68637429063,10.5,10500109878.686375,47.655,-122.3035,60.0,0.65
2026-01-20T23:00:40+00:00,SAT-65522,297.29806137312704,30.93978981982543,4210.308033091092,-3.1283460510005052,109567.91159671303,10.5,10500109567.911596,47.655,-122.3035,60.0,0.6666666666666666
2026-01-20T23:00:41+00:00,SAT-65522,297.1891184883727,30.97118552315129,4207.188029296228,-3.1194492419287814,109256.3077095562,10.5,10500109256.307709,47.655,-122.3035,60.0,0.6833333333333333
2026-01-20T23:00:42+00:00,SAT-65522,297.0799281559572,31.002434765305104,4204.07689858561,-3.110528764160355,108943.87484452236,10.5,10500108943.874844,47.655,-122.3035,60.0,0.7
2026-01-20T23:00:43+00:00,SAT-65522,296.9704905702404,31.033536664405677,4200.974664564821,-3.101584641946457,108630.61385099222,10.5,10500108630.613852,47.655,-122.3035,60.0,0.7166666666666667
2026-01-20T23:00:44+00:00,SAT-65522,296.8608059339419,31.06449033732378,4197.881350815253,-3.0926168543702874,108316.52399637092,10.5,10500108316.523996,47.655,-122.3035,60.0,0.7333333333333333
2026-01-20T23:00:45+00:00,SAT-65522,296.75087445975157,31.095294899262434,4194.796980939161,-3.0836254089514648,108001.60554402732,10.5,10500108001.605543,47.655,-122.3035,60.0,0.75
2026-01-20T23:00:46+00:00,SAT-65522,296.6406963694495,31.125949464075692,4191.7215785313,-3.0746103162929783,107685.858865323,10.5,10500107685.858866,47.655,-122.3035,60.0,0.7666666666666667
2026-01-20T23:00:47+00:00,SAT-65522,296.5302718938755,31.156453144333383,4188.655167175851,-3.0655715723031514,107369.28381695009,10.5,10500107369.283817,47.655,-122.3035,60.0,0.7833333333333333
2026-01-20T23:00:48+00:00,SAT-65522,296.41960127352536,31.186805051208452,4185.597770461073,-3.0565091810192806,107051.88054031182,10.5,10500107051.88054,47.655,-122.3035,60.0,0.8
2026-01-20T23:00:49+00:00,SAT-65522,296.308684758339,31.217004294594076,4182.549411971204,-3.0474231595155183,106733.6496334172,10.5,10500106733.649633,47.655,-122.3035,60.0,0.8166666666666667
2026-01-20T23:00:50+00:00,SAT-65522,296.1975226073404,31.247049983267527,4179.510115273447,-3.0383134904366673,106414.59048841384,10.5,10500106414.590488,47.655,-122.3035,60.0,0.8333333333333334
2026-01-20T23:00:51+00:00,SAT-65522,296.0861150899138,31.27694122458584,4176.479903952319,-3.029180196856413,106094.70391343981,10.5,10500106094.703913,47.655,-122.3035,60.0,0.85
2026-01-20T23:00:52+00:00,SAT-65522,295.9744624844781,31.306677124922526,4173.458801569321,-3.0200232824588413,105773.99003752734,10.5,10500105773.990038,47.655,-122.3035,60.0,0.8666666666666667
2026-01-20T23:00:53+00:00,SAT-65522,295.8625650792307,31.336256789512092,4170.446831682281,-3.0108427514291414,105452.4490072595,10.5,10500105452.449007,47.655,-122.3035,60.0,0.8833333333333333
2026-01-20T23:00:54+00:00,SAT-65522,295.75042317223114,31.365679322493317,4167.444017844856,-3.00163860616916,105130.0809067591,10.5,10500105130.080906,47.655,-122.3035,60.0,0.9
2026-01-20T23:00:55+00:00,SAT-65522,295.63803707153653,31.394943826929786,4164.450383608303,-2.9924108618335024,104806.88626680453,10.5,10500104806.886267,47.655,-122.3035,60.0,0.9166666666666666
2026-01-20T23:00:56+00:00,SAT-65522,295.5254070948255,31.42404940497374,4161.465952508767,-2.9831595293036615,104482.86546851172,10.5,10500104482.865469,47.655,-122.3035,60.0,0.9333333333333333
2026-01-20T23:00:57+00:00,SAT-65522,295.4125335696293,31.452995157862258,4158.490748071543,-2.9738846027157995,104158.0183065042,10.5,10500104158.018307,47.655,-122.3035,60.0,0.95
2026-01-20T23:00:58+00:00,SAT-65522,295.29941683403064,31.481780185794886,4155.524793827767,-2.964586106368917,103832.34563183584,10.5,10500103832.345633,47.655,-122.3035,60.0,0.9666666666666667
2026-01-20T23:00:59+00:00,SAT-65522,295.1860572356286,31.51040358826644,4152.568113284348,-2.9552640501382355,103505.8477903786,10.5,10500103505.84779,47.655,-122.3035,60.0,0.9833333333333333
2026-01-20T23:01:00+00:00,SAT-65522,295.0724551321579,31.538864463967005,4149.620729938344,-2.945918435061029,103178.52481846226,10.5,10500103178.524818,47.655,-122.3035,60.0,1.0
2026-01-20T23:01:01+00:00,SAT-65522,294.95861089188287,31.567161910738452,4146.682667285776,-2.9365492746605177,102850.37718972717,10.5,10500102850.37719,47.655,-122.3035,60.0,1.0166666666666666
2026-01-20T23:01:02+00:00,SAT-65522,294.8445248932311,31.595295025736434,4143.753948809182,-2.9271565880366195,102521.4055731332,10.5,10500102521.405573,47.655,-122.3035,60.0,1.0333333333333334
2026-01-20T23:01:03+00:00,SAT-65522,294.7301975246488,31.623262905525447,4140.834597972046,-2.917740375460212,102191.60997816772,10.5,10500102191.609978,47.655,-122.3035,60.0,1.05
2026-01-20T23:01:04+00:00,SAT-65522,294.6156291853921,31.65106464594168,4137.924638237588,-2.908300671432813,101860.99161321975,10.5,10500101860.991613,47.655,-122.3035,60.0,1.0666666666666667
2026-01-20T23:01:05+00:00,SAT-65522,294.5008202843069,31.67869934246219,4135.024093034612,-2.8988374607596668,101529.54994610471,10.5,10500101529.549946,47.655,-122.3035,60.0,1.0833333333333333
2026-01-20T23:01:06+00:00,SAT-65522,294.3857712418029,31.7061660897752,4132.13298580708,-2.889350774358323,101197.28605968598,10.5,10500101197.28606,47.655,-122.3035,60.0,1.1
2026-01-20T23:01:07+00:00,SAT-65522,294.27048248816334,31.733463982263522,4129.251339968121,-2.879840631475573,100864.20062806756,10.5,10500100864.200628,47.655,-122.3035,60.0,1.1166666666666667
2026-01-20T23:01:08+00:00,SAT-65522,294.15495446407533,31.76059211393725,4126.379178911663,-2.8703070403923494,100530.29394128277,10.5,10500100530.293941,47.655,-122.3035,60.0,1.1333333333333333
2026-01-20T23:01:09+00:00,SAT-65522,294.0391876211144,31.787549578374552,4123.516526023378,-2.8607500028305006,100195.56605963802,10.5,10500100195.56606,47.655,-122.3035,60.0,1.15
2026-01-20T23:01:10+00:00,SAT-65522,293.92318242210297,31.814335468707608,4120.663404687221,-2.8511695682509917,99860.01871546553,10.5,10500099860.018715,47.655,-122.3035,60.0,1.1666666666666667
2026-01-20T23:01:11+00:00,SAT-65522,293.8069393392963,31.840948878115377,4117.81983823782,-2.8415657184864895,99523.65127246844,10.5,10500099523.651272,47.655,-122.3035,60.0,1.1833333333333333
2026-01-20T23:01:12+00:00,SAT-65522,293.6904588571276,31.867388899237287,4114.985850027915,-2.831938497066526,99186.46525523509,10.5,10500099186.465256,47.655,-122.3035,60.0,1.2
2026-01-20T23:01:13+00:00,SAT-65522,293.5737414698442,31.893654624796326,4112.161463366841,-2.822287915159739,98848.46105493841,10.5,10500098848.461056,47.655,-122.3035,60.0,1.2166666666666666
2026-01-20T23:01:14+00:00,SAT-65522,293.456787682858,31.91974514734468,4109.3467015527885,-2.812613980188678,98509.6389315475,10.5,10500098509.638931,47.655,-122.3035,60.0,1.2333333333333334
2026-01-20T23:01:15+00:00,SAT-65522,293.33959801297834,31.94565955927775,4106.541587876547,-2.8029167301544593,98170.00021602219,10.5,10500098170.000216,47.655,-122.3035,60.0,1.25
2026-01-20T23:01:16+00:00,SAT-65522,293.2221729872609,31.971396953165225,4103.746145591006,-2.7931961714194866,97829.54513120076,10.5,10500097829.545132,47.655,-122.3035,60.0,1.2666666666666666
2026-01-20T23:01:17+00:00,SAT-65522,293.1045131443398,31.996956421507925,4100.960397942711,-2.7834523247531773,97488.27440451608,10.5,10500097488.274405,47.655,-122.3035,60.0,1.2833333333333334
2026-01-20T23:01:18+00:00,SAT-65522,292.98661903394225,32.022337056920506,4098.18436815749,-2.7736852253548325,97146.18926879656,10.5,10500097146.189268,47.655,-122.3035,60.0,1.3
2026-01-20T23:01:19+00:00,SAT-65522,292.8684912163451,32.04753795231253,4095.418079426069,-2.763894881477433,96803.29001309648,10.5,10500096803.290012,47.655,-122.3035,60.0,1.3166666666666667
2026-01-20T23:01:20+00:00,SAT-65522,292.750130263567,32.072558200693145,4092.6615549309427,-2.7540813204128884,96459.57759329399,10.5,10500096459.577593,47.655,-122.3035,60.0,1.3333333333333333
2026-01-20T23:01:21+00:00,SAT-65522,292.6315367586482,32.09739689539507,4089.914817827384,-2.7442445654447787,96115.05282487854,10.5,10500096115.052824,47.655,-122.3035,60.0,1.35
2026-01-20T23:01:22+00:00,SAT-65522,292.5127112958886,32.12205313009015,4087.177891247447,-2.7343846405605703,95769.71654799263,10.5,10500095769.716549,47.655,-122.3035,60.0,1.3666666666666667
2026-01-20T23:01:23+00:00,SAT-65522,292.39365448088574,32.146525998846684,4084.4507982992614,-2.7245015725591983,95423.5697012484,10.5,10500095423.569702,47.655,-122.3035,60.0,1.3833333333333333
2026-01-20T23:01:24+00:00,SAT-65522,292.27436693049077,32.17081459620707,4081.733562064229,-2.7145953822121136,95076.61301214987,10.5,10500095076.613012,47.655,-122.3035,60.0,1.4
2026-01-20T23:01:25+00:00,SAT-65522,292.1548492731174,32.194918017186836,4079.026205603036,-2.704666097632001,94728.8474653222,10.5,10500094728.847466,47.655,-122.3035,60.0,1.4166666666666667
2026-01-20T23:01:26+00:00,SAT-65522,292.03510214851894,32.21883535739321,4076.328751948331,-2.6947137453601284,94380.27399035286,10.5,10500094380.27399,47.655,-122.3035,60.0,1.4333333333333333
2026-01-20T23:01:27+00:00,SAT-65522,291.9151262078999,32.24256571306467,4073.641224106292,-2.6847383526040436,94030.89354016523,10.5,10500094030.89354,47.655,-122.3035,60.0,1.45
2026-01-20T23:01:28+00:00,SAT-65522,291.79492211397434,32.26610818113077,4070.963645055962,-2.674739949402581,93680.7071668464,10.5,10500093680.707167,47.655,-122.3035,60.0,1.4666666666666666
2026-01-20T23:01:29+00:00,SAT-65522,291.67449054088695,32.28946185929158,4068.296037746424,-2.664718557641719,93329.7156369359,10.5,10500093329.715637,47.655,-122.3035,60.0,1.4833333333333334
2026-01-20T23:01:30+00:00,SAT-65522,291.55383217465237,32.31262584600141,4065.6384251049362,-2.654674215307328,92977.92028085957,10.5,10500092977.92028,47.655,-122.3035,60.0,1.5
2026-01-20T23:01:31+00:00,SAT-65522,291.43294771250163,32.33559924066459,4062.9908300208695,-2.6446069478058205,92625.32198845748,10.5,10500092625.32199,47.655,-122.3035,60.0,1.5166666666666666
2026-01-20T23:01:32+00:00,SAT-65522,291.3118378635062,32.35838114358136,4060.3532753582576,-2.6345167791378765,92271.92160033494,10.5,10500092271.9216,47.655,-122.3035,60.0,1.5333333333333334
2026-01-20T23:01:33+00:00,SAT-65522,291.1905033486918,32.38097065599333,4057.725783957198,-2.6244037535292883,91917.72066546626,10.5,10500091917.720665,47.655,-122.3035,60.0,1.55
2026-01-20T23:01:34+00:00,SAT-65522,291.06894490022273,32.40336688031339,4055.108378613678,-2.614267898433579,91562.72014538998,10.5,10500091562.720146,47.655,-122.3035,60.0,1.5666666666666667
2026-01-20T23:01:35+00:00,SAT-65522,290.94716326218077,32.42556892003824,4052.5010820963066,-2.6041092334659997,91206.92072711514,10.5,10500091206.920727,47.655,-122.3035,60.0,1.5833333333333333
2026-01-20T23:01:36+00:00,SAT-65522,290.8251591910065,32.447575879741095,4049.90391715413,-2.5939278154938004,90850.3244023734,10.5,10500090850.324402,47.655,-122.3035,60.0,1.6
2026-01-20T23:01:37+00:00,SAT-65522,290.7029334538579,32.469386865444186,4047.3169064794774,-2.583723656922118,90492.93160564514,10.5,10500090492.931606,47.655,-122.3035,60.0,1.6166666666666667
2026-01-20T23:01:38+00:00,SAT-65522,290.5804868306945,32.49100098430174,4044.7400727523072,-2.573496803053662,90134.74392362284,10.5,10500090134.743923,47.655,-122.3035,60.0,1.6333333333333333
2026-01-20T23:01:39+00:00,SAT-65522,290.457820112832,32.51241734493627,4042.1734386073954,-2.563247289085702,89775.76258906377,10.5,10500089775.762589,47.655,-122.3035,60.0,1.65
2026-01-20T23:01:40+00:00,SAT-65522,290.3349341034619,32.53363505741166,4039.6170266444133,-2.5529751467484303,89415.9887132935,10.5,10500089415.988714,47.655,-122.3035,60.0,1.6666666666666667
2026-01-20T23:01:41+00:00,SAT-65522,290.211829617864,32.55465323326495,4037.0708594313896,-2.5426804126870324,89055.42357978145,10.5,10500089055.42358,47.655,-122.3035,60.0,1.6833333333333333
2026-01-20T23:01:42+00:00,SAT-65522,290.0885074832444,32.575470985607005,4034.5349594998033,-2.5323631326280753,88694.06879006539,10.5,10500088694.06879,47.655,-122.3035,60.0,1.7
2026-01-20T23:01:43+00:00,SAT-65522,289.9649685383465,32.596087429256606,4032.009349335529,-2.5220233299288304,88331.92516221579,10.5,10500088331.925161,47.655,-122.3035,60.0,1.7166666666666666
2026-01-20T23:01:44+00:00,SAT-65522,289.8412136345727,32.616501680618974,4029.494051401147,-2.5116610579605045,87968.99456551805,10.5,10500087968.994566,47.655,-122.3035,60.0,1.7333333333333334
2026-01-20T23:01:45+00:00,SAT-65522,289.7172436346055,32.63671285799069,4026.9890881060073,-2.5012763518873324,87605.27823157243,10.5,10500087605.27823,47.655,-122.3035,60.0,1.75
2026-01-20T23:01:46+00:00,SAT-65522,289.5930594133321,32.65672008147284,4024.4944818243916,-2.4908692415682423,87240.77720616489,10.5,10500087240.777206,47.655,-122.3035,60.0,1.7666666666666666
2026-01-20T23:01:47+00:00,SAT-65522,289.46866185813303,32.67652247299209,4022.010254900801,-2.480439782277723,86875.49342524185,10.5,10500086875.493425,47.655,-122.3035,60.0,1.7833333333333334
2026-01-20T23:01:48+00:00,SAT-65522,289.34405186773665,32.69611915656483,4019.5364296246094,-2.469988007309761,86509.42805489954,10.5,10500086509.428055,47.655,-122.3035,60.0,1.8
2026-01-20T23:01:49+00:00,SAT-65522,289.21923035329985,32.71550925818487,4017.0730282519858,-2.4595139630089164,86142.5827183205,10.5,10500086142.582718,47.655,-122.3035,60.0,1.8166666666666667
2026-01-20T23:01:50+00:00,SAT-65522,289.09419823784174,32.734691905989436,4014.6200729928782,-2.4490176862536486,85774.95870714437,10.5,10500085774.958708,47.655,-122.3035,60.0,1.8333333333333333
2026-01-20T23:01:51+00:00,SAT-65522,288.96895645673357,32.753666230248406,4012.1775860204543,-2.4384992268118872,85406.55776445456,10.5,10500085406.557764,47.655,-122.3035,60.0,1.85
2026-01-20T23:01:52+00:00,SAT-65522,288.84350595713533,32.77243136352807,4009.745589458247,-2.427958629058332,85037.38144444076,10.5,10500085037.381445,47.655,-122.3035,60.0,1.8666666666666667
2026-01-20T23:01:53+00:00,SAT-65522,288.7178476982752,32.7909864407129,4007.324105385533,-2.4173959360757893,84667.4312560451,10.5,10500084667.431255,47.655,-122.3035,60.0,1.8833333333333333
2026-01-20T23:01:54+00:00,SAT-65522,288.59198265158125,32.8093305990594,4004.9131558386202,-2.4068111877462983,84296.70859610528,10.5,10500084296.708595,47.655,-122.3035,60.0,1.9
2026-01-20T23:01:55+00:00,SAT-65522,288.46591180086466,32.82746297823719,4002.5127628140413,-2.39620444457952,83925.2155839256,10.5,10500083925.215584,47.655,-122.3035,60.0,1.9166666666666667
2026-01-20T23:01:56+00:00,SAT-65522,288.33963614134336,32.84538272054943,4000.1229482479807,-2.3855757399304265,83552.95338773826,10.5,10500083552.953388,47.655,-122.3035,60.0,1.9333333333333333
2026-01-20T23:01:57+00:00,SAT-65522,288.2131566810307,32.863088970793115,3997.7437340433567,-2.374925131730989,83179.92403656595,10.5,10500083179.924036,47.655,-122.3035,60.0,1.95
2026-01-20T23:01:58+00:00,SAT-65522,288.0864744395415,32.88058087650835,3995.3751420453104,-2.3642526647396145,82806.12909803737,10.5,10500082806.129099,47.655,-122.3035,60.0,1.9666666666666666
2026-01-20T23:01:59+00:00,SAT-65522,287.9595904487901,32.89785758794598,3993.0171940543432,-2.353558380644046,82431.5700322337,10.5,10500082431.570032,47.655,-122.3035,60.0,1.9833333333333334
2026-01-20T23:02:00+00:00,SAT-65522,287.8325057531989,32.91491825811177,3990.669911829381,-2.3428423511108933,82056.24934922274,10.5,10500082056.24935,47.655,-122.3035,60.0,2.0
2026-01-20T23:02:01+00:00,SAT-65522,287.7052214081638,32.931762043049844,3988.333317057873,-2.33210460367398,81680.16801335539,10.5,10500081680.168013,47.655,-122.3035,60.0,2.0166666666666666
2026-01-20T23:02:02+00:00,SAT-65522,287.57773848239617,32.94838810158951,3986.007431399809,-2.321345197873792,81303.3281099914,10.5,10500081303.32811,47.655,-122.3035,60.0,2.033333333333333
2026-01-20T23:02:03+00:00,SAT-65522,287.4500580562753,32.96479559564397,3983.692276455796,-2.310564195704502,80925.73181042892,10.5,10500080925.73181,47.655,-122.3035,60.0,2.05
2026-01-20T23:02:04+00:00,SAT-65522,287.32218122175925,32.98098369029222,3981.3878737646137,-2.299761640676837,80547.38063859762,10.5,10500080547.380638,47.655,-122.3035,60.0,2.066666666666667
2026-01-20T23:02:05+00:00,SAT-65522,287.19410908336846,32.996951553715306,3979.094244821645,-2.288937586704275,80168.27648277559,10.5,10500080168.276484,47.655,-122.3035,60.0,2.0833333333333335
2026-01-20T23:02:06+00:00,SAT-65522,287.06584275768796,33.01269835733785,3976.8114110685055,-2.278092086576619,79788.42119188503,10.5,10500079788.421192,47.655,-122.3035,60.0,2.1
2026-01-20T23:02:07+00:00,SAT-65522,286.9373833734404,33.02822327588831,3974.5393938941597,-2.267225207009403,79407.81710258614,10.5,10500079407.817102,47.655,-122.3035,60.0,2.1166666666666667
2026-01-20T23:02:08+00:00,SAT-65522,286.8087320707707,33.04352548756036,3972.278214621035,-2.256336994629759,79026.46584795829,10.5,10500079026.465847,47.655,-122.3035,60.0,2.1333333333333333
2026-01-20T23:02:09+00:00,SAT-65522,286.67989000233524,33.05860417394415,3970.027894525058,-2.245427502633557,78644.36929114591,10.5,10500078644.369291,47.655,-122.3035,60.0,2.15
2026-01-20T23:02:10+00:00,SAT-65522,286.55085833300313,33.0734585201403,3967.788454829098,-2.234496799848492,78261.52984278598,10.5,10500078261.529842,47.655,-122.3035,60.0,2.1666666666666665
2026-01-20T23:02:11+00:00,SAT-65522,286.42163823899034,33.08808771493165,3965.559916687383,-2.2235449390069393,77877.94934978939,10.5,10500077877.94935,47.655,-122.3035,60.0,2.183333333333333
2026-01-20T23:02:12+00:00,SAT-65522,286.2922309087876,33.10249095074404,3963.3423012015464,-2.2125719737235436,77493.62968996774,10.5,10500077493.62969,47.655,-122.3035,60.0,2.2
2026-01-20T23:02:13+00:00,SAT-65522,286.1626375431145,33.11666742372229,3961.135629419753,-2.20157797857549,77108.57347532954,10.5,10500077108.573475,47.655,-122.3035,60.0,2.216666666666667
2026-01-20T23:02:14+00:00,SAT-65522,286.03285935378466,33.13061633393365,3958.939922315787,-2.1905629976544008,76722.7822501499,10.5,10500076722.78225,47.655,-122.3035,60.0,2.2333333333333334
2026-01-20T23:02:15+00:00,SAT-65522,285.90289756541574,33.14433688524077,3956.75520081946,-2.1795270997147878,76336.25842250264,10.5,10500076336.258423,47.655,-122.3035,60.0,2.25
2026-01-20T23:02:16+00:00,SAT-65522,285.7727534140709,33.15782828552904,3954.5814857920104,-2.1684703522827946,75949.00435743899,10.5,10500075949.004358,47.655,-122.3035,60.0,2.2666666666666666
2026-01-20T23:02:17+00:00,SAT-65522,285.64242814732563,33.17108974676543,3952.4187980273337,-2.157392809184485,75561.02194017534,10.5,10500075561.02194,47.655,-122.3035,60.0,2.283333333333333
2026-01-20T23:02:18+00:00,SAT-65522,285.5119230250759,33.18412048498355,3950.2671582656403,-2.146294534125716,75172.31340196029,10.5,10500075172.313402,47.655,-122.3035,60.0,2.3
2026-01-20T23:02:19+00:00,SAT-65522,285.3812393189694,33.196919720414655,3948.126587183606,-2.1351756039981047,74782.88143586353,10.5,10500074782.881435,47.655,-122.3035,60.0,2.316666666666667
2026-01-20T23:02:20+00:00,SAT-65522,285.25037831166765,33.209486677634885,3945.9971053812187,-2.1240360661407984,74392.72769990226,10.5,10500074392.7277,47.655,-122.3035,60.0,2.3333333333333335
2026-01-20T23:02:21+00:00,SAT-65522,285.1193412985545,33.22182058545833,3943.878733411254,-2.112876000681251,74001.85500047881,10.5,10500074001.855,47.655,-122.3035,60.0,2.35
2026-01-20T23:02:22+00:00,SAT-65522,284.9881295858456,33.23392067720144,3941.7714917465746,-2.1016954689646363,73610.2654861607,10.5,10500073610.265486,47.655,-122.3035,60.0,2.3666666666666667
2026-01-20T23:02:23+00:00,SAT-65522,284.8567444916798,33.24578619064037,3939.6754007988607,-2.0904945366829346,73217.96145775894,10.5,10500073217.961458,47.655,-122.3035,60.0,2.3833333333333333
2026-01-20T23:02:24+00:00,SAT-65522,284.72518734587976,33.25741636810805,3937.5904809142758,-2.0792732720722737,72824.94530519134,10.5,10500072824.945305,47.655,-122.3035,60.0,2.4
2026-01-20T23:02:25+00:00,SAT-65522,284.59345948979785,33.268810456577334,3935.5167523709288,-2.0680317492925884,72431.21962585255,10.5,10500072431.219625,47.655,-122.3035,60.0,2.4166666666666665
2026-01-20T23:02:26+00:00,SAT-65522,284.46156227596805,33.27996770776338,3933.4542353729676,-2.056770034564916,72036.7867390834,10.5,10500072036.78674,47.655,-122.3035,60.0,2.433333333333333
2026-01-20T23:02:27+00:00,SAT-65522,284.32949706856573,33.29088737814865,3931.4029500584948,-2.045488194983413,71641.64899480506,10.5,10500071641.648994,47.655,-122.3035,60.0,2.45
2026-01-20T23:02:28+00:00,SAT-65522,284.1972652433833,33.30156872905895,3929.3629164986983,-2.0341863052380904,71245.80900897764,10.5,10500071245.80901,47.655,-122.3035,60.0,2.466666666666667
2026-01-20T23:02:29+00:00,SAT-65522,284.06486818733686,33.31201102677323,3927.334154690274,-2.022864442432493,70849.26948209344,10.5,10500070849.269482,47.655,-122.3035,60.0,2.4833333333333334
2026-01-20T23:02:30+00:00,SAT-65522,283.9323072983337,33.32221354260427,3925.316684553021,-2.0115226741623924,70452.0327816423,10.5,10500070452.032782,47.655,-122.3035,60.0,2.5
2026-01-20T23:02:31+00:00,SAT-65522,283.79958398582335,33.33217555291876,3923.3105259393233,-2.000161063985751,70054.10113369292,10.5,10500070054.101133,47.655,-122.3035,60.0,2.5166666666666666
2026-01-20T23:02:32+00:00,SAT-65522,283.6666996710885,33.34189633918958,3921.3156986381746,-1.9887797079810097,69655.47790331871,10.5,10500069655.477903,47.655,-122.3035,60.0,2.533333333333333
2026-01-20T23:02:33+00:00,SAT-65522,283.5336557851603,33.35137518822478,3919.3322223427485,-1.977378662824835,69256.16507557628,10.5,10500069256.165075,47.655,-122.3035,60.0,2.55
2026-01-20T23:02:34+00:00,SAT-65522,283.40045377130855,33.360611392043346,3917.3601166896915,-1.965958012671816,68856.1655979153,10.5,10500068856.165598,47.655,-122.3035,60.0,2.566666666666667
2026-01-20T23:02:35+00:00,SAT-65522,283.2670950832812,33.36960424807832,3915.39940123172,-1.95451783413913,68455.48215379342,10.5,10500068455.482153,47.655,-122.3035,60.0,2.5833333333333335
2026-01-20T23:02:36+00:00,SAT-65522,283.1335811857853,33.378353059208884,3913.4500954451382,-1.9430582012296747,68054.11733510515,10.5,10500068054.117334,47.655,-122.3035,60.0,2.6
2026-01-20T23:02:37+00:00,SAT-65522,282.99991355461253,33.38685713381775,3911.5122187324455,-1.931579192175244,67652.07388185884,10.5,10500067652.073881,47.655,-122.3035,60.0,2.6166666666666667
2026-01-20T23:02:38+00:00,SAT-65522,282.8660936763909,33.395115785880066,3909.5857904181157,-1.9200808938595655,67249.35483709013,10.5,10500067249.354837,47.655,-122.3035,60.0,2.6333333333333333
2026-01-20T23:02:39+00:00,SAT-65522,282.73212304795493,33.40312833506816,3907.670829739973,-1.9085633715029886,66845.96248509153,10.5,10500066845.962484,47.655,-122.3035,60.0,2.65
2026-01-20T23:02:40+00:00,SAT-65522,282.5980031777975,33.410894106728705,3905.7673558707943,-1.8970267167126353,66441.900034332,10.5,10500066441.900034,47.655,-122.3035,60.0,2.6666666666666665
2026-01-20T23:02:41+00:00,SAT-65522,282.4637355842702,33.418412432062695,3903.875387891993,-1.8854710107015176,66037.17032923468,10.5,10500066037.17033,47.655,-122.3035,60.0,2.683333333333333
2026-01-20T23:02:42+00:00,SAT-65522,282.32932179627244,33.42568264814858,3901.9949448039865,-1.8738963274232336,65631.77595996746,10.5,10500065631.775959,47.655,-122.3035,60.0,2.7
2026-01-20T23:02:43+00:00,SAT-65522,282.1947633537061,33.43270409798298,3900.1260455334364,-1.8623027543607016,65225.719990552156,10.5,10500065225.71999,47.655,-122.3035,60.0,2.716666666666667
2026-01-20T23:02:44+00:00,SAT-65522,282.0600618065381,33.43947613060206,3898.2687089197543,-1.8506903781262602,64819.00545451924,10.5,10500064819.005455,47.655,-122.3035,60.0,2.7333333333333334
2026-01-20T23:02:45+00:00,SAT-65522,281.92521871484894,33.44599810114454,3896.4229537159695,-1.8390592812898658,64411.63524381787,10.5,10500064411.635244,47.655,-122.3035,60.0,2.75
2026-01-20T23:02:46+00:00,SAT-65522,281.79023564904867,33.45226937090305,3894.588798592763,-1.8274095411542866,64003.61206591797,10.5,10500064003.612066,47.655,-122.3035,60.0,2.7666666666666666
2026-01-20T23:02:47+00:00,SAT-65522,281.6551141902517,33.45828930737572,3892.7662621437184,-1.815741252735274,63594.93924867309,10.5,10500063594.939249,47.655,-122.3035,60.0,2.783333333333333
2026-01-20T23:02:48+00:00,SAT-65522,281.51985592899325,33.46405728439375,3890.955362867657,-1.8040545024993069,63185.61982050503,10.5,10500063185.61982,47.655,-122.3035,60.0,2.8
2026-01-20T23:02:49+00:00,SAT-65522,281.38446246579997,33.4695726821574,3889.1561191771643,-1.792349371553178,62775.65662211678,10.5,10500062775.656622,47.655,-122.3035,60.0,2.816666666666667
2026-01-20T23:02:50+00:00,SAT-65522,281.24893541152767,33.47483488728605,3887.3685494039355,-1.7806259495310994,62365.05279287761,10.5,10500062365.052794,47.655,-122.3035,60.0,2.8333333333333335
2026-01-20T23:02:51+00:00,SAT-65522,281.11327638674675,33.47984329291306,3885.59267179027,-1.768884329650233,61953.81159764681,10.5,10500061953.811598,47.655,-122.3035,60.0,2.85
2026-01-20T23:02:52+00:00,SAT-65522,280.97748702141786,33.48459729876061,3883.828504485499,-1.7571245940287283,61541.93591254937,10.5,10500061541.935913,47.655,-122.3035,60.0,2.8666666666666667
2026-01-20T23:02:53+00:00,SAT-65522,280.84156895568833,33.489096311173995,3882.0760655570543,-1.745346844740494,61129.429312645305,10.5,10500061129.429312,47.655,-122.3035,60.0,2.8833333333333333
2026-01-20T23:02:54+00:00,SAT-65522,280.70552383836866,33.49333974324095,3880.3353729705664,-1.733551161015467,60716.294572902174,10.5,10500060716.294573,47.655,-122.3035,60.0,2.9
2026-01-20T23:02:55+00:00,SAT-65522,280.569353328593,33.49732701479595,3878.606444612647,-1.7217376361480576,60302.534960884856,10.5,10500060302.534962,47.655,-122.3035,60.0,2.9166666666666665
2026-01-20T23:02:56+00:00,SAT-65522,280.4330590947324,33.50105755252371,3876.8892982768616,-1.709906372856597,59888.15407422381,10.5,10500059888.154074,47.655,-122.3035,60.0,2.933333333333333
2026-01-20T23:02:57+00:00,SAT-65522,280.296642813652,33.504530790042715,3875.1839516543328,-1.6980574513254587,59473.15472131496,10.5,10500059473.154722,47.655,-122.3035,60.0,2.95
2026-01-20T23:02:58+00:00,SAT-65522,280.1601061723464,33.50774616791805,3873.4904223562107,-1.6861909714432053,59057.540400678314,10.5,10500059057.540401,47.655,-122.3035,60.0,2.966666666666667
2026-01-20T23:02:59+00:00,SAT-65522,280.02345086643487,33.51070313377039,3871.8087278940247,-1.6743070307555066,58641.31452877583,10.5,10500058641.31453,47.655,-122.3035,60.0,2.9833333333333334
2026-01-20T23:03:00+00:00,SAT-65522,279.8866786002571,33.51340114233097,3870.138885682018,-1.6624057205554035,58224.480303075994,10.5,10500058224.480303,47.655,-122.3035,60.0,3.0
2026-01-20T23:03:01+00:00,SAT-65522,279.7497910873384,33.51583965549376,3868.480913043384,-1.6504871398537642,57807.0411913582,10.5,10500057807.041191,47.655,-122.3035,60.0,3.0166666666666666
2026-01-20T23:03:02+00:00,SAT-65522,279.61279004971243,33.51801814239069,3866.8348272025696,-1.6385513815033557,57389.00044571913,10.5,10500057389.000446,47.655,-122.3035,60.0,3.033333333333333
2026-01-20T23:03:03+00:00,SAT-65522,279.47567721838504,33.519936079445294,3865.2006452914175,-1.6265985487718944,56970.36168303104,10.5,10500056970.361683,47.655,-122.3035,60.0,3.05
2026-01-20T23:03:04+00:00,SAT-65522,279.33845433243766,33.52159295044816,3863.5783843387753,-1.6146287373414077,56551.12825448324,10.5,10500056551.128254,47.655,-122.3035,60.0,3.066666666666667
2026-01-20T23:03:05+00:00,SAT-65522,279.20112313959163,33.5229882466073,3861.968061278067,-1.6026420436501545,56131.30353775151,10.5,10500056131.303537,47.655,-122.3035,60.0,3.0833333333333335
2026-01-20T23:03:06+00:00,SAT-65522,279.0636853960818,33.524121466611234,3860.369692946533,-1.5906385704810087,55710.89113272686,10.5,10500055710.891132,47.655,-122.3035,60.0,3.1
2026-01-20T23:03:07+00:00,SAT-65522,278.9261428661158,33.52499211669638,3858.783296078907,-1.5786184224428779,55289.89470325573,10.5,10500055289.894703,47.655,-122.3035,60.0,3.1166666666666667
2026-01-20T23:03:08+00:00,SAT-65522,278.7884973216412,33.52559971070511,3857.2088873055905,-1.5665816955339023,54868.31761159907,10.5,10500054868.317612,47.655,-122.3035,60.0,3.1333333333333333
2026-01-20T23:03:09+00:00,SAT-65522,278.6507505430051,33.52594377013908,3855.6464831612448,-1.5545284892340365,54446.16334196567,10.5,10500054446.163342,47.655,-122.3035,60.0,3.15
2026-01-20T23:03:10+00:00,SAT-65522,278.5129043186024,33.52602382422299,3854.0961000813154,-1.5424589156972184,54023.43582246086,10.5,10500054023.435822,47.655,-122.3035,60.0,3.1666666666666665
2026-01-20T23:03:11+00:00,SAT-65522,278.3749604437887,33.525839409965826,3852.5577543893933,-1.5303730691890673,53600.13835466537,10.5,10500053600.138355,47.655,-122.3035,60.0,3.183333333333333
2026-01-20T23:03:12+00:00,SAT-65522,278.2369207222746,33.525390072212886,3851.0314623150553,-1.5182710592944706,53176.2747767055,10.5,10500053176.274776,47.655,-122.3035,60.0,3.2
2026-01-20T23:03:13+00:00,SAT-65522,278.0987869648152,33.5246753637068,3849.517239978585,-1.5061529909323503,52751.84876328569,10.5,10500052751.848763,47.655,-122.3035,60.0,3.216666666666667
2026-01-20T23:03:14+00:00,SAT-65522,277.9605609895118,33.5236948451414,3848.015103395629,-1.4940189660388865,52326.86388464218,10.5,10500052326.863884,47.655,-122.3035,60.0,3.2333333333333334
2026-01-20T23:03:15+00:00,SAT-65522,277.8222446220246,33.522448085220866,3846.5250684801663,-1.4818690972894508,51901.32408714309,10.5,10500051901.324087,47.655,-122.3035,60.0,3.25
2026-01-20T23:03:16+00:00,SAT-65522,277.6838396945576,33.52093466070797,3845.047151033803,-1.4697034842651335,51475.23285853943,10.5,10500051475.232859,47.655,-122.3035,60.0,3.2666666666666666
2026-01-20T23:03:17+00:00,SAT-65522,277.54534804695567,33.51915415648846,3843.581366758829,-1.4575222398359537,51048.5941520167,10.5,10500051048.594152,47.655,-122.3035,60.0,3.283333333333333
2026-01-20T23:03:18+00:00,SAT-65522,277.40677152545555,33.517106165615516,3842.127731244966,-1.4453254713069261,50621.411725850434,10.5,10500050621.411726,47.655,-122.3035,60.0,3.3
2026-01-20T23:03:19+00:00,SAT-65522,277.26811198312794,33.51479028936723,3840.686259974916,-1.4331132902775208,50193.68948872612,10.5,10500050193.68949,47.655,-122.3035,60.0,3.316666666666667
2026-01-20T23:03:20+00:00,SAT-65522,277.1293712793897,33.51220613729335,3839.256968320079,-1.4208858006354816,49765.43107923202,10.5,10500049765.43108,47.655,-122.3035,60.0,3.3333333333333335
2026-01-20T23:03:21+00:00,SAT-65522,276.99055128067215,33.509353327280465,3837.8398715482454,-1.4086431154246406,49336.64045664126,10.5,10500049336.640457,47.655,-122.3035,60.0,3.35
2026-01-20T23:03:22+00:00,SAT-65522,276.8516538594856,33.506231485590035,3836.4349848144616,-1.3963853532040296,48907.32177339268,10.5,10500048907.321774,47.655,-122.3035,60.0,3.3666666666666667
2026-01-20T23:03:23+00:00,SAT-65522,276.71268089386484,33.50284024689729,3835.0423231555333,-1.3841126174507505,48477.47865369209,10.5,10500048477.478653,47.655,-122.3035,60.0,3.3833333333333333
2026-01-20T23:03:24+00:00,SAT-65522,276.5736342686541,33.4991792543687,3833.6619015050624,-1.3718250186309446,48047.114966531015,10.5,10500048047.114967,47.655,-122.3035,60.0,3.4
2026-01-20T23:03:25+00:00,SAT-65522,276.4345158748263,33.49524815970352,3832.293734686481,-1.3595226793612705,47616.2350064635,10.5,10500047616.235006,47.655,-122.3035,60.0,3.4166666666666665
2026-01-20T23:03:26+00:00,SAT-65522,276.2953276082415,33.491046623151156,3830.9378374009316,-1.3472057116442173,47184.842696290514,10.5,10500047184.842697,47.655,-122.3035,60.0,3.433333333333333
2026-01-20T23:03:27+00:00,SAT-65522,276.1560713705787,33.4865743135821,3829.5942242378514,-1.3348742205709931,46752.94171675068,10.5,10500046752.941717,47.655,-122.3035,60.0,3.45
2026-01-20T23:03:28+00:00,SAT-65522,276.01674906990877,33.48183090855971,3828.2629096818687,-1.3225283332453293,46320.536519554335,10.5,10500046320.53652,47.655,-122.3035,60.0,3.466666666666667
2026-01-20T23:03:29+00:00,SAT-65522,275.87736261853655,33.47681609432274,3826.943908090845,-1.3101681598690922,45887.63096443697,10.5,10500045887.630964,47.655,-122.3035,60.0,3.4833333333333334
2026-01-20T23:03:30+00:00,SAT-65522,275.73791393450836,33.47152956588009,3825.637233712736,-1.2977938205986486,45454.22925978281,10.5,10500045454.22926,47.655,-122.3035,60.0,3.5
2026-01-20T23:03:31+00:00,SAT-65522,275.5984049406012,33.465971027025326,3824.3429006756587,-1.2854054271025874,45020.33531669822,10.5,10500045020.335318,47.655,-122.3035,60.0,3.5166666666666666
2026-01-20T23:03:32+00:00,SAT-65522,275.45883756504963,33.46014019041068,3823.0609229963616,-1.2730031020549961,44585.95343174864,10.5,10500044585.953432,47.655,-122.3035,60.0,3.533333333333333
2026-01-20T23:03:33+00:00,SAT-65522,275.31921374041224,33.454036777553696,3821.7913145692455,-1.2605869617091139,44151.087676614254,10.5,10500044151.087677,47.655,-122.3035,60.0,3.55
2026-01-20T23:03:34+00:00,SAT-65522,275.1795354040781,33.4476605188994,3820.534089172768,-1.2481571309889172,43715.74242666115,10.5,10500043715.742426,47.655,-122.3035,60.0,3.566666666666667
2026-01-20T23:03:35+00:00,SAT-65522,275.03980449735667,33.44101115382955,3819.289260460795,-1.2357137199275436,43279.92153571525,10.5,10500043279.921535,47.655,-122.3035,60.0,3.5833333333333335
2026-01-20T23:03:36+00:00,SAT-65522,274.90002296686623,33.434088430768085,3818.0568419774536,-1.2232568579558627,42843.62953699308,10.5,10500042843.629538,47.655,-122.3035,60.0,3.6
2026-01-20T23:03:37+00:00,SAT-65522,274.7601927625168,33.42689210713657,3816.836847137786,-1.2107866617712975,42406.870517732044,10.5,10500042406.870518,47.655,-122.3035,60.0,3.6166666666666667
2026-01-20T23:03:38+00:00,SAT-65522,274.6203158386668,33.419421949448044,3815.629289240446,-1.198303255563955,41969.64882759501,10.5,10500041969.648829,47.655,-122.3035,60.0,3.6333333333333333
2026-01-20T23:03:39+00:00,SAT-65522,274.48039415333415,33.41167773331562,3814.4341814602303,-1.1858067585698169,41531.96864273042,10.5,10500041531.968643,47.655,-122.3035,60.0,3.65
2026-01-20T23:03:40+00:00,SAT-65522,274.34042966857214,33.40365924351264,3813.251536853016,-1.1732972981020002,41093.83442218217,10.5,10500041093.834423,47.655,-122.3035,60.0,3.6666666666666665
2026-01-20T23:03:41+00:00,SAT-65522,274.20042434956133,33.39536627396679,3812.0813683477095,-1.160774994735137,40655.25038898389,10.5,10500040655.25039,47.655,-122.3035,60.0,3.683333333333333
2026-01-20T23:03:42+00:00,SAT-65522,274.0603801652182,33.38679862783416,3810.9236887529605,-1.1482399729078543,40216.220901502704,10.5,10500040216.220901,47.655,-122.3035,60.0,3.7
2026-01-20T23:03:43+00:00,SAT-65522,273.9202990877165,33.37795611751515,3809.7785107533136,-1.135692361479782,39776.75047294789,10.5,10500039776.750473,47.655,-122.3035,60.0,3.716666666666667
2026-01-20T23:03:44+00:00,SAT-65522,273.78018309187905,33.36883856465494,3808.6458469047975,-1.1231322790790708,39336.843258179106,10.5,10500039336.843258,47.655,-122.3035,60.0,3.7333333333333334
2026-01-20T23:03:45+00:00,SAT-65522,273.64003415626087,33.35944580025226,3807.525709645129,-1.1105598597822264,38896.50395312272,10.5,10500038896.503954,47.655,-122.3035,60.0,3.75
2026-01-20T23:03:46+00:00,SAT-65522,273.49985426130183,33.34977766458072,3806.4181112783067,-1.0979752253424433,38455.736822090614,10.5,10500038455.736822,47.655,-122.3035,60.0,3.7666666666666666
2026-01-20T23:03:47+00:00,SAT-65522,273.3596453906419,33.33983400731026,3805.3230639868984,-1.0853785012432473,38014.54626004666,10.5,10500038014.54626,47.655,-122.3035,60.0,3.783333333333333
2026-01-20T23:03:48+00:00,SAT-65522,273.2194095306072,33.32961468751532,3804.2405798283253,-1.0727698201660814,37572.93691405624,10.5,10500037572.936914,47.655,-122.3035,60.0,3.8
2026-01-20T23:03:49+00:00,SAT-65522,273.0791486692891,33.319119573644144,3803.1706707276794,-1.0601493114300073,37130.91331341991,10.5,10500037130.913313,47.655,-122.3035,60.0,3.816666666666667
2026-01-20T23:03:50+00:00,SAT-65522,272.9388647968205,33.30834854357335,3802.11334848108,-1.047517096801432,36688.47972291229,10.5,10500036688.479723,47.655,-122.3035,60.0,3.8333333333333335
2026-01-20T23:03:51+00:00,SAT-65522,272.7985599062322,33.29730148471016,3801.0686247632034,-1.0348733123038516,36245.640906651635,10.5,10500036245.640907,47.655,-122.3035,60.0,3.85
2026-01-20T23:03:52+00:00,SAT-65522,272.65823599160836,33.2859782938873,3800.036511113066,-1.0222180872354907,35802.401393208675,10.5,10500035802.401394,47.655,-122.3035,60.0,3.8666666666666667
2026-01-20T23:03:53+00:00,SAT-65522,272.5178950488316,33.2743788774519,3799.0170189407295,-1.0095515495818412,35358.76566517672,10.5,10500035358.765665,47.655,-122.3035,60.0,3.8833333333333333
2026-01-20T23:03:54+00:00,SAT-65522,272.37753907563246,33.26250315130579,3798.0101595286133,-0.9968738352073272,34914.7384811026,10.5,10500034914.738482,47.655,-122.3035,60.0,3.9
2026-01-20T23:03:55+00:00,SAT-65522,272.23717007055416,33.25035104085172,3797.015944023633,-0.9841850714143934,34470.32429965644,10.5,10500034470.324299,47.655,-122.3035,60.0,3.9166666666666665
2026-01-20T23:03:56+00:00,SAT-65522,272.0967900338895,33.23792248110461,3796.0343834457426,-0.9714853916153033,34025.52779350001,10.5,10500034025.527794,47.655,-122.3035,60.0,3.933333333333333
2026-01-20T23:03:57+00:00,SAT-65522,271.9564009668707,33.225217416654665,3795.065488681838,-0.9587749313151689,33580.35370859554,10.5,10500033580.353708,47.655,-122.3035,60.0,3.95
2026-01-20T23:03:58+00:00,SAT-65522,271.8160048712644,33.21223580166175,3794.1092704836733,-0.9460538213633012,33134.80662783939,10.5,10500033134.806627,47.655,-122.3035,60.0,3.966666666666667
2026-01-20T23:03:59+00:00,SAT-65522,271.67560374989944,33.19897759993026,3793.1657394725003,-0.9333221957731871,32688.891244950748,10.5,10500032688.891245,47.655,-122.3035,60.0,3.9833333333333334
2026-01-20T23:04:00+00:00,SAT-65522,271.53519960615813,33.18544278489517,3792.234906135916,-0.9205801924390802,32242.61238956966,10.5,10500032242.61239,47.655,-122.3035,60.0,4.0
2026-01-20T23:04:01+00:00,SAT-65522,271.3947944433737,33.171631339591016,3791.3167808239896,-0.9078279413386943,31795.97461406547,10.5,10500031795.974613,47.655,-122.3035,60.0,4.016666666666667
2026-01-20T23:04:02+00:00,SAT-65522,271.2543902657845,33.15754325677154,3790.411373757161,-0.8950655814061003,31348.982784497042,10.5,10500031348.982784,47.655,-122.3035,60.0,4.033333333333333
2026-01-20T23:04:03+00:00,SAT-65522,271.1139890772612,33.1431785388134,3789.5186950173056,-0.8822932493000695,30901.6416872326,10.5,10500030901.641687,47.655,-122.3035,60.0,4.05
2026-01-20T23:04:04+00:00,SAT-65522,270.97359288146447,33.12853719775573,3788.6387545500033,-0.8695110777645558,30453.955971526928,10.5,10500030453.95597,47.655,-122.3035,60.0,4.066666666666666
2026-01-20T23:04:05+00:00,SAT-65522,270.83320368238066,33.11361925538127,3787.7715621684465,-0.8567192060827773,30005.93051566748,10.5,10500030005.930515,47.655,-122.3035,60.0,4.083333333333333
2026-01-20T23:04:06+00:00,SAT-65522,270.69282348323696,33.09842474312993,3786.9171275469134,-0.8439177748913412,29557.570245343137,10.5,10500029557.570246,47.655,-122.3035,60.0,4.1
2026-01-20T23:04:07+00:00,SAT-65522,270.5524542862524,33.08295370209201,3786.0754602194215,-0.8311069144886479,29108.87972415505,10.5,10500029108.879725,47.655,-122.3035,60.0,4.116666666666666
2026-01-20T23:04:08+00:00,SAT-65522,270.41209809402835,33.06720618318384,3785.2465695900382,-0.8182867717385219,28659.86409589557,10.5,10500028659.864096,47.655,-122.3035,60.0,4.133333333333334
2026-01-20T23:04:09+00:00,SAT-65522,270.2717569070445,33.0511822468958,3784.430464916358,-0.805457480939053,28210.528064251892,10.5,10500028210.528065,47.655,-122.3035,60.0,4.15
2026-01-20T23:04:10+00:00,SAT-65522,270.13143272539594,33.03488196350335,3783.6271553220345,-0.7926191801740606,27760.87646550347,10.5,10500027760.876465,47.655,-122.3035,60.0,4.166666666666667
2026-01-20T23:04:11+00:00,SAT-65522,269.99112754819544,33.018305413024834,3782.8366497930074,-0.7797720142470457,27310.914371281415,10.5,10500027310.914371,47.655,-122.3035,60.0,4.183333333333334
2026-01-20T23:04:12+00:00,SAT-65522,269.8508433723866,33.001452685101086,3782.0589571707983,-0.7669161192094568,26860.64654668296,10.5,10500026860.646547,47.655,-122.3035,60.0,4.2
2026-01-20T23:04:13+00:00,SAT-65522,269.71058219406314,32.9843238791684,3781.2940861612406,-0.7540516364754772,26410.077944630986,10.5,10500026410.077944,47.655,-122.3035,60.0,4.216666666666667
2026-01-20T23:04:14+00:00,SAT-65522,269.570346007502,32.96691910436407,3780.542045329129,-0.7411787086769852,25959.213560697197,10.5,10500025959.21356,47.655,-122.3035,60.0,4.233333333333333
2026-01-20T23:04:15+00:00,SAT-65522,269.4301368049145,32.94923847951114,3779.8028430970085,-0.7282974779000304,25508.058371336076,10.5,10500025508.05837,47.655,-122.3035,60.0,4.25
2026-01-20T23:04:16+00:00,SAT-65522,269.28995657637574,32.93128213312453,3779.076487745716,-0.7154080830583552,25056.61724189449,10.5,10500025056.617243,47.655,-122.3035,60.0,4.266666666666667
2026-01-20T23:04:17+00:00,SAT-65522,269.1498073103638,32.91305020349767,3778.362987417546,-0.7025106683242516,24604.89522189595,10.5,10500024604.895222,47.655,-122.3035,60.0,4.283333333333333
2026-01-20T23:04:18+00:00,SAT-65522,269.0096909926816,32.89454283857713,3777.6623501110034,-0.6896053793540136,24152.89741283999,10.5,10500024152.897413,47.655,-122.3035,60.0,4.3
2026-01-20T23:04:19+00:00,SAT-65522,268.86960960620524,32.87576019594456,3776.9745836793277,-0.6766923540205488,23700.628643619057,10.5,10500023700.628643,47.655,-122.3035,60.0,4.316666666666666
2026-01-20T23:04:20+00:00,SAT-65522,268.7295651320572,32.85670244298224,3776.2996958382514,-0.6637717380675654,23248.094018794283,10.5,10500023248.094019,47.655,-122.3035,60.0,4.333333333333333
2026-01-20T23:04:21+00:00,SAT-65522,268.589559548232,32.837369756706,3775.637694158152,-0.6508436797361626,22795.298730396036,10.5,10500022795.29873,47.655,-122.3035,60.0,4.35
2026-01-20T23:04:22+00:00,SAT-65522,268.4495948289757,32.81776232368701,3774.988586061562,-0.6379083155336622,22342.247559488147,10.5,10500022342.247559,47.655,-122.3035,60.0,4.366666666666666
2026-01-20T23:04:23+00:00,SAT-65522,268.3096729468875,32.79788034035355,3774.35237883487,-0.6249657974563994,21888.94582962522,10.5,10500021888.94583,47.655,-122.3035,60.0,4.383333333333334
2026-01-20T23:04:24+00:00,SAT-65522,268.16979586994853,32.777724012587385,3773.729079612873,-0.6120162665795751,21435.398481857537,10.5,10500021435.398481,47.655,-122.3035,60.0,4.4
2026-01-20T23:04:25+00:00,SAT-65522,268.02996556351286,32.75729355601053,3773.1186953896713,-0.5990598682596339,20981.610607182636,10.5,10500020981.610607,47.655,-122.3035,60.0,4.416666666666667
2026-01-20T23:04:26+00:00,SAT-65522,267.8901839893517,32.73658919585881,3772.5212330143936,-0.5860967530500747,20527.587478620906,10.5,10500020527.587479,47.655,-122.3035,60.0,4.433333333333334
2026-01-20T23:04:27+00:00,SAT-65522,267.7504531046218,32.71561116683586,3771.9366991860184,-0.5731270602981514,20073.33397670261,10.5,10500020073.333977,47.655,-122.3035,60.0,4.45
2026-01-20T23:04:28+00:00,SAT-65522,267.61077486393685,32.6943597134259,3771.3651004645476,-0.560150940560921,19618.855374572733,10.5,10500019618.855375,47.655,-122.3035,60.0,4.466666666666667
2026-01-20T23:04:29+00:00,SAT-65522,267.4711512171061,32.672835089562206,3770.8064432598285,-0.5471685417704855,19164.156853439246,10.5,10500019164.156853,47.655,-122.3035,60.0,4.483333333333333
2026-01-20T23:04:30+00:00,SAT-65522,267.33158410952694,32.65103755868855,3770.260733834169,-0.534180008966668,18709.243493210273,10.5,10500018709.243494,47.655,-122.3035,60.0,4.5
2026-01-20T23:04:31+00:00,SAT-65522,267.19207548272357,32.628967393842714,3769.7279783052263,-0.5211854885081224,18254.120419984967,10.5,10500018254.12042,47.655,-122.3035,60.0,4.516666666666667
2026-01-20T23:04:32+00:00,SAT-65522,267.0526272739507,32.606624877602464,3769.2081826446874,-0.5081851315460143,17798.792927716517,10.5,10500017798.792927,47.655,-122.3035,60.0,4.533333333333333
2026-01-20T23:04:33+00:00,SAT-65522,266.91324141518226,32.58401030192461,3768.7013526734922,-0.4951790840176833,17343.266127747866,10.5,10500017343.266129,47.655,-122.3035,60.0,4.55
2026-01-20T23:04:34+00:00,SAT-65522,266.77391983405147,32.561123968295156,3768.207494067032,-0.4821674953966619,16887.545255274403,10.5,10500016887.545256,47.655,-122.3035,60.0,4.566666666666666
2026-01-20T23:04:35+00:00,SAT-65522,266.6346644530596,32.537966187600354,3767.726612351623,-0.4691505139469194,16431.63550312748,10.5,10500016431.635504,47.655,-122.3035,60.0,4.583333333333333
2026-01-20T23:04:36+00:00,SAT-65522,266.49547718974947,32.514537280155345,3767.2587129057133,-0.4561282868575404,15975.542026491456,10.5,10500015975.542027,47.655,-122.3035,60.0,4.6
2026-01-20T23:04:37+00:00,SAT-65522,266.35635995690075,32.49083757573586,3766.8038009609536,-0.4431009673491621,15519.270191801163,10.5,10500015519.270191,47.655,-122.3035,60.0,4.616666666666666
2026-01-20T23:04:38+00:00,SAT-65522,266.21731466093775,32.46686741330314,3766.3618815961845,-0.43006870248737133,15062.825149915543,10.5,10500015062.82515,47.655,-122.3035,60.0,4.633333333333334
2026-01-20T23:04:39+00:00,SAT-65522,266.0783432034665,32.44262714126276,3765.9329597435703,-0.4170316413721595,14606.212122946983,10.5,10500014606.212124,47.655,-122.3035,60.0,4.65
2026-01-20T23:04:40+00:00,SAT-65522,265.939447480556,32.41811711733737,3765.5170401865753,-0.4039899356339435,14149.436421634085,10.5,10500014149.436422,47.655,-122.3035,60.0,4.666666666666667
2026-01-20T23:04:41+00:00,SAT-65522,265.80062938218106,32.39333770846328,3765.1141275574364,-0.3909437358160585,13692.503318641238,10.5,10500013692.503319,47.655,-122.3035,60.0,4.683333333333334
2026-01-20T23:04:42+00:00,SAT-65522,265.66189079228093,32.36828929079237,3764.724226338249,-0.3778931900493205,13235.418002136215,10.5,10500013235.418003,47.655,-122.3035,60.0,4.7
2026-01-20T23:04:43+00:00,SAT-65522,265.523233589417,32.34297224980267,3764.347340863373,-0.3648384521525409,12778.185859504443,10.5,10500012778.18586,47.655,-122.3035,60.0,4.716666666666667
2026-01-20T23:04:44+00:00,SAT-65522,265.38465964507105,32.31738697998158,3763.9834753137598,-0.3517796706763252,12320.812093616494,10.5,10500012320.812094,47.655,-122.3035,60.0,4.733333333333333
2026-01-20T23:04:45+00:00,SAT-65522,265.2461708251815,32.2915338850991,3763.6326337222054,-0.33871699835697683,11863.302053943788,10.5,10500011863.302053,47.655,-122.3035,60.0,4.75
2026-01-20T23:04:46+00:00,SAT-65522,265.10776898867124,32.26541337792165,3763.2948199691773,-0.32565058549032777,11405.661004482114,10.5,10500011405.661005,47.655,-122.3035,60.0,4.766666666666667
2026-01-20T23:04:47+00:00,SAT-65522,264.96945598832474,32.23902588036793,3762.970037785248,-0.3125805847176445,10947.894291374294,10.5,10500010947.89429,47.655,-122.3035,60.0,4.783333333333333
2026-01-20T23:04:48+00:00,SAT-65522,264.8312336697504,32.21237182329737,3762.6582907487564,-0.2995071468587336,10490.00719696792,10.5,10500010490.007196,47.655,-122.3035,60.0,4.8
2026-01-20T23:04:49+00:00,SAT-65522,264.6931038721614,32.185451646648495,3762.3595822876227,-0.2864304251992841,10032.005089976221,10.5,10500010032.00509,47.655,-122.3035,60.0,4.816666666666666
2026-01-20T23:04:50+00:00,SAT-65522,264.5550684272247,32.15826579919959,3762.0739156768905,-0.2733505704371298,9573.893248474795,10.5,10500009573.893248,47.655,-122.3035,60.0,4.833333333333333
2026-01-20T23:04:51+00:00,SAT-65522,264.4171291600634,32.1308147387496,3761.801294041308,-0.2602677351906673,9115.677017805454,10.5,10500009115.677017,47.655,-122.3035,60.0,4.85
2026-01-20T23:04:52+00:00,SAT-65522,264.2792878884443,32.1030989319456,3761.541720353411,-0.2471820724233743,8657.361755396229,10.5,10500008657.361755,47.655,-122.3035,60.0,4.866666666666666
2026-01-20T23:04:53+00:00,SAT-65522,264.14154642256244,32.075118854216555,3761.2951974331813,-0.23409373521968463,8198.952822911537,10.5,10500008198.952824,47.655,-122.3035,60.0,4.883333333333334
2026-01-20T23:04:54+00:00,SAT-65522,264.0039065650192,32.04687498975455,3761.061727947922,-0.2210028745437394,7740.45550775418,10.5,10500007740.455507,47.655,-122.3035,60.0,4.9
2026-01-20T23:04:55+00:00,SAT-65522,263.8663701114645,32.01836783162674,3760.841314414377,-0.2079096455316558,7281.875243447205,10.5,10500007281.875244,47.655,-122.3035,60.0,4.916666666666667
2026-01-20T23:04:56+00:00,SAT-65522,263.7289388489531,31.9895978814142,3760.6339591945666,-0.19481419950993561,6823.217330084814,10.5,10500006823.21733,47.655,-122.3035,60.0,4.933333333333334
2026-01-20T23:04:57+00:00,SAT-65522,263.59161455734306,31.960565649484053,3760.4396644995886,-0.18171669005242844,6364.48714647284,10.5,10500006364.487146,47.655,-122.3035,60.0,4.95
2026-01-20T23:04:58+00:00,SAT-65522,263.45439900842894,31.931271654785746,3760.258432387376,-0.1686172710058979,5905.6900809757135,10.5,10500005905.69008,47.655,-122.3035,60.0,4.966666666666667
2026-01-20T23:04:59+00:00,SAT-65522,263.3172939655908,31.901716424752617,3760.0902647624266,-0.1555160950959748,5446.831482691055,10.5,10500005446.831482,47.655,-122.3035,60.0,4.983333333333333
2026-01-20T23:05:00+00:00,SAT-65522,263.1803011843458,31.871900495396602,3759.9351633769174,-0.14241331600374318,4987.916734180496,10.5,10500004987.916735,47.655,-122.3035,60.0,5.0
2026-01-20T23:05:01+00:00,SAT-65522,263.04342241179233,31.841824411164147,3759.7931298297563,-0.1293090874824541,4528.951220533266,10.5,10500004528.951221,47.655,-122.3035,60.0,5.016666666666667
2026-01-20T23:05:02+00:00,SAT-65522,262.90665938650534,31.81148872488533,3759.664165566507,-0.11620356248491263,4069.9402988035904,10.5,10500004069.940298,47.655,-122.3035,60.0,5.033333333333333
2026-01-20T23:05:03+00:00,SAT-65522,262.7700138388476,31.780893997819582,3759.548271880189,-0.10309689562122855,3610.88938409151,10.5,10500003610.889383,47.655,-122.3035,60.0,5.05
2026-01-20T23:05:04+00:00,SAT-65522,262.6334874901184,31.750040799435588,3759.4454499096228,-0.08998923986402742,3151.8038341454467,10.5,10500003151.803835,47.655,-122.3035,60.0,5.066666666666666
2026-01-20T23:05:05+00:00,SAT-65522,262.4970820531868,31.718929707526293,3759.3557006410647,-0.07688074944123767,2692.689050679839,10.5,10500002692.68905,47.655,-122.3035,60.0,5.083333333333333
2026-01-20T23:05:06+00:00,SAT-65522,262.3607992319727,31.687561308061632,3759.279024906956,-0.06377157815083385,2233.5504203503197,10.5,10500002233.55042,47.655,-122.3035,60.0,5.1
2026-01-20T23:05:07+00:00,SAT-65522,262.2246407213206,31.655936195129787,3759.2154233863466,-0.050661879586994356,1774.3933226747174,10.5,10500001774.393322,47.655,-122.3035,60.0,5.116666666666666
2026-01-20T23:05:08+00:00,SAT-65522,262.08860820746264,31.624054971013432,3759.1648966051052,-0.037551808480785175,1315.223176989477,10.5,10500001315.223177,47.655,-122.3035,60.0,5.133333333333334
2026-01-20T23:05:09+00:00,SAT-65522,261.9527033665953,31.591918245823045,3759.12744493478,-0.024441517813471675,856.0453413456204,10.5,10500000856.045341,47.655,-122.3035,60.0,5.15
2026-01-20T23:05:10+00:00,SAT-65522,261.81692786663837,31.559526637880072,3759.103068594348,-0.011331161848049453,396.8652186857858,10.5,10500000396.86522,47.655,-122.3035,60.0,5.166666666666667
2026-01-20T23:05:11+00:00,SAT-65522,261.6812833658267,31.526880773350346,3759.091767648931,0.0017791046473154281,-62.31177035418281,10.5,10499999937.68823,47.655,-122.3035,60.0,5.183333333333334
2026-01-20T23:05:12+00:00,SAT-65522,261.5457715121918,31.49398128607883,3759.0935420092997,0.014889128980534665,-521.4802778514661,10.5,10499999478.519722,47.655,-122.3035,60.0,5.2
2026-01-20T23:05:13+00:00,SAT-65522,261.4103939454011,31.460828818002902,3759.108391433936,0.027998756358031222,-980.63488228022,10.5,10499999019.365118,47.655,-122.3035,60.0,5.216666666666667
2026-01-20T23:05:14+00:00,SAT-65522,261.2751522950623,31.427424018705214,3759.1363155269437,0.041107832914237336,-1439.7701946174109,10.5,10499998560.229805,47.655,-122.3035,60.0,5.233333333333333
2026-01-20T23:05:15+00:00,SAT-65522,261.140048180501,31.39376754531453,3759.17731373897,0.05421620491419774,-1898.8808304146073,10.5,10499998101.11917,47.655,-122.3035,60.0,5.25
2026-01-20T23:05:16+00:00,SAT-65522,261.00508321177546,31.359860062720013,3759.231385367338,0.0673237185665448,-2357.961403247577,10.5,10499997642.038597,47.655,-122.3035,60.0,5.266666666666667
2026-01-20T23:05:17+00:00,SAT-65522,260.87025898924696,31.325702243429205,3759.2985295559884,0.08043021962098838,-2817.006510618683,10.5,10499997182.99349,47.655,-122.3035,60.0,5.283333333333333
2026-01-20T23:05:18+00:00,SAT-65522,260.73557710253283,31.291294767259796,3759.3787452950237,0.09353555475524766,-3276.0107825330965,10.5,10499996723.989218,47.655,-122.3035,60.0,5.3
2026-01-20T23:05:19+00:00,SAT-65522,260.60103913192603,31.256638321658787,3759.472031421633,0.10663956970327775,-3734.9688159413813,10.5,10499996265.031183,47.655,-122.3035,60.0,5.316666666666666
2026-01-20T23:05:20+00:00,SAT-65522,260.4666466470306,31.221733601313474,3759.57838661915,0.11974211134506922,-4193.8752479331115,10.5,10499995806.124752,47.655,-122.3035,60.0,5.333333333333333
2026-01-20T23:05:21+00:00,SAT-65522,260.33240120741453,31.186581308272967,3759.6978094181986,0.13284302554925548,-4652.724680175852,10.5,10499995347.27532,47.655,-122.3035,60.0,5.35
2026-01-20T23:05:22+00:00,SAT-65522,260.1983043627696,31.151182151951645,3759.8302981956795,0.14594215927714227,-5111.511752607178,10.5,10499994888.488247,47.655,-122.3035,60.0,5.366666666666666
2026-01-20T23:05:23+00:00,SAT-65522,260.06435765141447,31.115536848686016,3759.975851175865,0.1590393588628923,-5570.231083199462,10.5,10499994429.768917,47.655,-122.3035,60.0,5.383333333333334
2026-01-20T23:05:24+00:00,SAT-65522,259.93056260163974,31.079646122043144,3760.1344664297712,0.1721344707595915,-6028.87729409027,10.5,10499993971.122705,47.655,-122.3035,60.0,5.4
2026-01-20T23:05:25+00:00,SAT-65522,259.7969207320337,31.043510702871075,3760.3061418752754,0.1852273421745242,-6487.445033832385,10.5,10499993512.554966,47.655,-122.3035,60.0,5.416666666666667
2026-01-20T23:05:26+00:00,SAT-65522,259.66343354929484,31.007131328653422,3760.4908752778706,0.1983178198331821,-6945.9289341041795,10.5,10499993054.071066,47.655,-122.3035,60.0,5.433333333333334
