satellites_20260121_005943/SAT-53220.csv

timestamp,satellite,azimuth_deg,elevation_deg,distance_km,relative_velocity_kms,doppler_shift_hz,tx_freq_ghz,rx_freq_hz,ue_lat,ue_lon,ue_alt_m,time_minutes
2026-01-20T23:07:19+00:00,SAT-53220,301.93111517664187,30.011075250861968,4258.561322692632,-2.4440883795380346,85602.31353501683,10.5,10500085602.313536,47.655,-122.3035,60.0,7.316666666666666
2026-01-20T23:07:20+00:00,SAT-53220,301.82149616806385,30.045416120857812,4256.123751882106,-2.4344589141204405,85265.04892349435,10.5,10500085265.048923,47.655,-122.3035,60.0,7.333333333333333
2026-01-20T23:07:21+00:00,SAT-53220,301.7116533708826,30.079606938129302,4253.695784858423,-2.4248098588245224,84927.09819156786,10.5,10500084927.098192,47.655,-122.3035,60.0,7.35
2026-01-20T23:07:22+00:00,SAT-53220,301.6015871494993,30.1136468790741,4251.277441159223,-2.415141232956533,84588.462015424,10.5,10500084588.462015,47.655,-122.3035,60.0,7.366666666666666
2026-01-20T23:07:23+00:00,SAT-53220,301.4912978779692,30.147535119548703,4248.868740302887,-2.4054530746700546,84249.14173136262,10.5,10500084249.141731,47.655,-122.3035,60.0,7.383333333333334
2026-01-20T23:07:24+00:00,SAT-53220,301.3807859392421,30.181270835168522,4246.469701769749,-2.395745431759092,83909.1390133319,10.5,10500083909.139013,47.655,-122.3035,60.0,7.4
2026-01-20T23:07:25+00:00,SAT-53220,301.27005172478647,30.21485320148351,4244.080344992474,-2.3860183278706004,83568.45468954828,10.5,10500083568.454689,47.655,-122.3035,60.0,7.416666666666667
2026-01-20T23:07:26+00:00,SAT-53220,301.15909563575553,30.248281393667423,4241.7006893801445,-2.376271804155137,83227.0902012783,10.5,10500083227.0902,47.655,-122.3035,60.0,7.433333333333334
2026-01-20T23:07:27+00:00,SAT-53220,301.04791808226184,30.281554586806536,4239.330754300801,-2.366505910445681,82885.04729388375,10.5,10500082885.047295,47.655,-122.3035,60.0,7.45
2026-01-20T23:07:28+00:00,SAT-53220,300.9365194830435,30.314671956055115,4236.9705590727835,-2.3567206678145505,82542.32670540623,10.5,10500082542.326706,47.655,-122.3035,60.0,7.466666666666667
2026-01-20T23:07:29+00:00,SAT-53220,300.8249002668505,30.347632676268436,4234.620122993416,-2.346916125305968,82198.930153582,10.5,10500082198.930153,47.655,-122.3035,60.0,7.483333333333333
2026-01-20T23:07:30+00:00,SAT-53220,300.7130608712351,30.38043592243295,4232.279465311111,-2.3370923224131843,81854.85902163167,10.5,10500081854.859022,47.655,-122.3035,60.0,7.5
2026-01-20T23:07:31+00:00,SAT-53220,300.60100174304887,30.413080869571672,4229.948605234891,-2.3272492901955424,81510.11439738485,10.5,10500081510.114397,47.655,-122.3035,60.0,7.516666666666667
2026-01-20T23:07:32+00:00,SAT-53220,300.4887233389126,30.445566692660226,4227.6275619428025,-2.317387088091376,81164.69836262341,10.5,10500081164.698362,47.655,-122.3035,60.0,7.533333333333333
2026-01-20T23:07:33+00:00,SAT-53220,300.3762261239368,30.477892567069627,4225.316354553613,-2.3075057370942287,80818.61165263003,10.5,10500080818.611652,47.655,-122.3035,60.0,7.55
2026-01-20T23:07:34+00:00,SAT-53220,300.2635105736176,30.51005766805784,4223.015002165151,-2.297605294026119,80471.85625755216,10.5,10500080471.856258,47.655,-122.3035,60.0,7.566666666666666
2026-01-20T23:07:35+00:00,SAT-53220,300.15057717219634,30.542061171318075,4220.723523818576,-2.287685794007066,80124.43340744147,10.5,10500080124.433407,47.655,-122.3035,60.0,7.583333333333333
2026-01-20T23:07:36+00:00,SAT-53220,300.0374264137521,30.57390225271026,4218.441938520019,-2.2777472839030644,79776.34474374328,10.5,10500079776.344744,47.655,-122.3035,60.0,7.6
2026-01-20T23:07:37+00:00,SAT-53220,299.924058801719,30.605580088466457,4216.170265228873,-2.2677898000340386,79427.591538535,10.5,10500079427.59154,47.655,-122.3035,60.0,7.616666666666666
2026-01-20T23:07:38+00:00,SAT-53220,299.81047484945265,30.637093855082913,4213.908522868305,-2.25781339752608,79078.17572256552,10.5,10500079078.175722,47.655,-122.3035,60.0,7.633333333333334
2026-01-20T23:07:39+00:00,SAT-53220,299.69667507936737,30.668442729626157,4211.656730306506,-2.2478181176700116,78728.09874201413,10.5,10500078728.098742,47.655,-122.3035,60.0,7.65
2026-01-20T23:07:40+00:00,SAT-53220,299.5826600236903,30.69962588957671,4209.414906370484,-2.2378039930310316,78377.36173745182,10.5,10500078377.361738,47.655,-122.3035,60.0,7.666666666666667
2026-01-20T23:07:41+00:00,SAT-53220,299.4684302249641,30.73064251275006,4207.183069854767,-2.22777109151594,78025.96708726199,10.5,10500078025.967087,47.655,-122.3035,60.0,7.683333333333334
2026-01-20T23:07:42+00:00,SAT-53220,299.35398623433116,30.76149177783236,4204.9612394861615,-2.2177194431229172,77673.91584210779,10.5,10500077673.915842,47.655,-122.3035,60.0,7.7
2026-01-20T23:07:43+00:00,SAT-53220,299.2393286135052,30.79217286389263,4202.749433961554,-2.2076491077731073,77321.21010068114,10.5,10500077321.2101,47.655,-122.3035,60.0,7.716666666666667
2026-01-20T23:07:44+00:00,SAT-53220,299.12445793331716,30.82268495084147,4200.547671918068,-2.197560116847556,76967.85096207903,10.5,10500076967.850962,47.655,-122.3035,60.0,7.733333333333333
2026-01-20T23:07:45+00:00,SAT-53220,299.009374775236,30.853027219076765,4198.355971961532,-2.1874525312294666,76613.84055868878,10.5,10500076613.840559,47.655,-122.3035,60.0,7.75
2026-01-20T23:07:46+00:00,SAT-53220,298.8940797299164,30.883198849937294,4196.174352637053,-2.177326396087888,76259.1804725215,10.5,10500076259.180473,47.655,-122.3035,60.0,7.766666666666667
2026-01-20T23:07:47+00:00,SAT-53220,298.7785733980619,30.91319902552733,4194.002832444688,-2.1671817610352337,75903.87244121383,10.5,10500075903.87244,47.655,-122.3035,60.0,7.783333333333333
2026-01-20T23:07:48+00:00,SAT-53220,298.6628563902657,30.943026928820103,4191.841429835015,-2.1570186722885007,75547.91808348047,10.5,10500075547.918083,47.655,-122.3035,60.0,7.8
2026-01-20T23:07:49+00:00,SAT-53220,298.54692932723634,30.972681743657656,4189.69016321252,-2.146837192880155,75191.31960698501,10.5,10500075191.319607,47.655,-122.3035,60.0,7.816666666666666
2026-01-20T23:07:50+00:00,SAT-53220,298.43079283897146,31.002162655025256,4187.549050918821,-2.136637358061335,74834.07824637143,10.5,10500074834.078247,47.655,-122.3035,60.0,7.833333333333333
2026-01-20T23:07:51+00:00,SAT-53220,298.31444756629116,31.031468848712063,4185.418111260381,-2.126419230079308,74476.19618180233,10.5,10500074476.196182,47.655,-122.3035,60.0,7.85
2026-01-20T23:07:52+00:00,SAT-53220,298.1978941594516,31.060599511729535,4183.297362481581,-2.1161828543272456,74117.6750031386,10.5,10500074117.675003,47.655,-122.3035,60.0,7.866666666666666
2026-01-20T23:07:53+00:00,SAT-53220,298.0811332791179,31.089553832122938,4181.186822781532,-2.1059282905819567,73758.51680401695,10.5,10500073758.516804,47.655,-122.3035,60.0,7.883333333333334
2026-01-20T23:07:54+00:00,SAT-53220,297.96416559562556,31.118330999215793,4179.086510299726,-2.0956555820319585,73398.72309708194,10.5,10500073398.723097,47.655,-122.3035,60.0,7.9
2026-01-20T23:07:55+00:00,SAT-53220,297.8469917899558,31.14693020342627,4176.996443132579,-2.0853647981026118,73038.29631390335,10.5,10500073038.296314,47.655,-122.3035,60.0,7.916666666666667
2026-01-20T23:07:56+00:00,SAT-53220,297.7296125523405,31.175350636674732,4174.916639307271,-2.075055981460999,72677.23794886292,10.5,10500072677.23795,47.655,-122.3035,60.0,7.933333333333334
2026-01-20T23:07:57+00:00,SAT-53220,297.61202858378863,31.203591492061083,4172.847116808428,-2.064729192406888,72315.55011391356,10.5,10500072315.550114,47.655,-122.3035,60.0,7.95
2026-01-20T23:07:58+00:00,SAT-53220,297.49424059516735,31.231651964154267,4170.787893560534,-2.054384483412445,71953.23464685248,10.5,10500071953.234648,47.655,-122.3035,60.0,7.966666666666667
2026-01-20T23:07:59+00:00,SAT-53220,297.37624930769755,31.259531248930934,4168.738987435744,-2.044021909244956,71590.29346586177,10.5,10500071590.293467,47.655,-122.3035,60.0,7.983333333333333
2026-01-20T23:08:00+00:00,SAT-53220,297.25805545286585,31.287228543854336,4166.70041625159,-2.033641535125281,71226.72885525176,10.5,10500071226.728855,47.655,-122.3035,60.0,8.0
2026-01-20T23:08:01+00:00,SAT-53220,297.13965977189537,31.31474304806456,4164.672197760558,-2.023243412011092,70862.5425997757,10.5,10500070862.5426,47.655,-122.3035,60.0,8.016666666666667
2026-01-20T23:08:02+00:00,SAT-53220,297.02106301658984,31.342073962230575,4162.654349664313,-2.012827601335993,70497.73685109826,10.5,10500070497.73685,47.655,-122.3035,60.0,8.033333333333333
2026-01-20T23:08:03+00:00,SAT-53220,296.9022659488034,31.36922048874114,4160.646889603247,-2.002394155217923,70132.31343461014,10.5,10500070132.313435,47.655,-122.3035,60.0,8.05
2026-01-20T23:08:04+00:00,SAT-53220,296.7832693410115,31.39618183162647,4158.6498351657765,-1.9919431444259765,69766.27482894434,10.5,10500069766.27483,47.655,-122.3035,60.0,8.066666666666666
2026-01-20T23:08:05+00:00,SAT-53220,296.6640739752838,31.422957196859528,4156.663203869735,-1.9814746143695887,69399.6226245314,10.5,10500069399.622625,47.655,-122.3035,60.0,8.083333333333334
2026-01-20T23:08:06+00:00,SAT-53220,296.54468064481637,31.449545792059638,4154.687013187671,-1.9709886446659601,69032.35960990247,10.5,10500069032.35961,47.655,-122.3035,60.0,8.1
2026-01-20T23:08:07+00:00,SAT-53220,296.4250901519528,31.475946827006673,4152.721280512724,-1.9604852772828638,68664.48725494645,10.5,10500068664.487255,47.655,-122.3035,60.0,8.116666666666667
2026-01-20T23:08:08+00:00,SAT-53220,296.30530331046475,31.502159513177638,4150.766023196181,-1.949964578687314,68296.00788761936,10.5,10500068296.007887,47.655,-122.3035,60.0,8.133333333333333
2026-01-20T23:08:09+00:00,SAT-53220,296.1853209441552,31.528183064129976,4148.821258523037,-1.939426623815298,67926.92413249645,10.5,10500067926.924133,47.655,-122.3035,60.0,8.15
2026-01-20T23:08:10+00:00,SAT-53220,296.06514388636197,31.554016695663137,4146.887003703551,-1.9288714595348442,67557.23763109432,10.5,10500067557.23763,47.655,-122.3035,60.0,8.166666666666666
2026-01-20T23:08:11+00:00,SAT-53220,295.9447729817147,31.5796596254909,4144.963275901242,-1.9182991573661945,67186.95088835437,10.5,10500067186.950888,47.655,-122.3035,60.0,8.183333333333334
2026-01-20T23:08:12+00:00,SAT-53220,295.82420908467685,31.605111073622105,4143.050092208295,-1.907709781092964,66816.06613824861,10.5,10500066816.066137,47.655,-122.3035,60.0,8.2
2026-01-20T23:08:13+00:00,SAT-53220,295.7034530600565,31.630370262307373,4141.147469653285,-1.8971033908365338,66444.58548648213,10.5,10500066444.585487,47.655,-122.3035,60.0,8.216666666666667
2026-01-20T23:08:14+00:00,SAT-53220,295.5825057832795,31.655436416039628,4139.255425204824,-1.8864800577817227,66072.51142624838,10.5,10500066072.511427,47.655,-122.3035,60.0,8.233333333333333
2026-01-20T23:08:15+00:00,SAT-53220,295.46136813972987,31.680308761753142,4137.37397576053,-1.8758398402020262,65699.84599853167,10.5,10500065699.845999,47.655,-122.3035,60.0,8.25
2026-01-20T23:08:16+00:00,SAT-53220,295.34004102561283,31.704986528701,4135.503138159902,-1.8651828134267945,65326.59184168449,10.5,10500065326.59184,47.655,-122.3035,60.0,8.266666666666667
2026-01-20T23:08:17+00:00,SAT-53220,295.2185253469038,31.729468948733782,4133.64292916731,-1.8545090399218265,64952.75114352336,10.5,10500064952.751144,47.655,-122.3035,60.0,8.283333333333333
2026-01-20T23:08:18+00:00,SAT-53220,295.09682202019917,31.753755256178373,4131.793365484829,-1.843818584145654,64578.3261616587,10.5,10500064578.326162,47.655,-122.3035,60.0,8.3
2026-01-20T23:08:19+00:00,SAT-53220,294.97493197264237,31.777844687916435,4129.954463750241,-1.8331115187432088,64203.31944042332,10.5,10500064203.31944,47.655,-122.3035,60.0,8.316666666666666
2026-01-20T23:08:20+00:00,SAT-53220,294.8528561414132,31.801736483543603,4128.126240528881,-1.8223879094420459,63827.73328187422,10.5,10500063827.733282,47.655,-122.3035,60.0,8.333333333333334
2026-01-20T23:08:21+00:00,SAT-53220,294.73059547422923,31.825429885329516,4126.3087123205305,-1.8116478343677416,63451.57042229957,10.5,10500063451.570423,47.655,-122.3035,60.0,8.35
2026-01-20T23:08:22+00:00,SAT-53220,294.6081509285446,31.848924138431645,4124.501895547055,-1.800891342634653,63074.83258189189,10.5,10500063074.832582,47.655,-122.3035,60.0,8.366666666666667
2026-01-20T23:08:23+00:00,SAT-53220,294.4855234735101,31.872218490568613,4122.7058065813335,-1.790118528366099,62697.523057247956,10.5,10500062697.523058,47.655,-122.3035,60.0,8.383333333333333
2026-01-20T23:08:24+00:00,SAT-53220,294.36271408702225,31.895312192658384,4120.920461702377,-1.7793294492592526,62319.64386916682,10.5,10500062319.64387,47.655,-122.3035,60.0,8.4
2026-01-20T23:08:25+00:00,SAT-53220,294.2397237581715,31.918204498396072,4119.145877131648,-1.7685241813503985,61941.197680760815,10.5,10500061941.197681,47.655,-122.3035,60.0,8.416666666666666
2026-01-20T23:08:26+00:00,SAT-53220,294.116553486041,31.940894664543908,4117.382069014782,-1.7577027938560192,61562.18691628394,10.5,10500061562.186916,47.655,-122.3035,60.0,8.433333333333334
2026-01-20T23:08:27+00:00,SAT-53220,293.9932042802078,31.963381950895922,4115.629053428376,-1.7468653582612919,61182.61407944948,10.5,10500061182.614079,47.655,-122.3035,60.0,8.45
2026-01-20T23:08:28+00:00,SAT-53220,293.86967716060855,31.98566562035871,4113.886846377737,-1.736011957732315,60802.48208308599,10.5,10500060802.482082,47.655,-122.3035,60.0,8.466666666666667
2026-01-20T23:08:29+00:00,SAT-53220,293.7459731567609,32.007744939154534,4112.155463785225,-1.7251426506386376,60421.79297154198,10.5,10500060421.79297,47.655,-122.3035,60.0,8.483333333333333
2026-01-20T23:08:30+00:00,SAT-53220,293.62209330950213,32.02961917655545,4110.434921514989,-1.7142575242334621,60040.54980079369,10.5,10500060040.5498,47.655,-122.3035,60.0,8.5
2026-01-20T23:08:31+00:00,SAT-53220,293.4980386690171,32.05128760530542,4108.725235344153,-1.7033566521349632,59658.75514926101,10.5,10500059658.75515,47.655,-122.3035,60.0,8.516666666666667
2026-01-20T23:08:32+00:00,SAT-53220,293.3738102957923,32.07274950149829,4107.026420976424,-1.6924401043092483,59276.41146745295,10.5,10500059276.411467,47.655,-122.3035,60.0,8.533333333333333
2026-01-20T23:08:33+00:00,SAT-53220,293.2494092609069,32.09400414458469,4105.338494045726,-1.6815079571905371,58893.52143241923,10.5,10500058893.521433,47.655,-122.3035,60.0,8.55
2026-01-20T23:08:34+00:00,SAT-53220,293.1248366456076,32.11505081750672,4103.661470109754,-1.6705602956703363,58510.088017419475,10.5,10500058510.088017,47.655,-122.3035,60.0,8.566666666666666
2026-01-20T23:08:35+00:00,SAT-53220,293.0000935407021,32.13588880685754,4101.99536464154,-1.6595971875929343,58126.113598647666,10.5,10500058126.113598,47.655,-122.3035,60.0,8.583333333333334
2026-01-20T23:08:36+00:00,SAT-53220,292.8751810478109,32.15651740271904,4100.340193046446,-1.6486187163485562,57741.60109678222,10.5,10500057741.601097,47.655,-122.3035,60.0,8.6
2026-01-20T23:08:37+00:00,SAT-53220,292.75010027827057,32.17693589891031,4098.695970646675,-1.6376249591113896,57356.55321478965,10.5,10500057356.553215,47.655,-122.3035,60.0,8.616666666666667
2026-01-20T23:08:38+00:00,SAT-53220,292.6248523535835,32.19714359296225,4097.062712687454,-1.6266159949146912,56970.9727207489,10.5,10500056970.972721,47.655,-122.3035,60.0,8.633333333333333
2026-01-20T23:08:39+00:00,SAT-53220,292.49943840531313,32.217139786194004,4095.4404343351925,-1.6155919047646263,56584.862451838526,10.5,10500056584.862452,47.655,-122.3035,60.0,8.65
2026-01-20T23:08:40+00:00,SAT-53220,292.3738595749386,32.2369237837899,4093.8291506755077,-1.6045527661667425,56198.225122630654,10.5,10500056198.225122,47.655,-122.3035,60.0,8.666666666666666
2026-01-20T23:08:41+00:00,SAT-53220,292.24811701413614,32.2564948948094,4092.228876716717,-1.5934986587661921,55811.06352263544,10.5,10500055811.063522,47.655,-122.3035,60.0,8.683333333333334
2026-01-20T23:08:42+00:00,SAT-53220,292.12221188464054,32.275852432266255,4090.639627387708,-1.5824296715375188,55423.38076811775,10.5,10500055423.380768,47.655,-122.3035,60.0,8.7
2026-01-20T23:08:43+00:00,SAT-53220,291.9961453575232,32.29499571329594,4089.0614175286278,-1.571345877415849,55035.179413574224,10.5,10500055035.179413,47.655,-122.3035,60.0,8.716666666666667
2026-01-20T23:08:44+00:00,SAT-53220,291.86991861444403,32.31392405901173,4087.494261906885,-1.56024736398727,54646.462526640134,10.5,10500054646.462526,47.655,-122.3035,60.0,8.733333333333333
2026-01-20T23:08:45+00:00,SAT-53220,291.7435328465345,32.33263679473694,4085.938175202535,-1.5491342130294248,54257.232971514444,10.5,10500054257.232971,47.655,-122.3035,60.0,8.75
2026-01-20T23:08:46+00:00,SAT-53220,291.6169892548405,32.35113324998638,4084.393172014074,-1.5380065080839866,53867.493674179954,10.5,10500053867.493673,47.655,-122.3035,60.0,8.766666666666667
2026-01-20T23:08:47+00:00,SAT-53220,291.4902890502078,32.369412758540584,4082.859266856678,-1.5268643345766002,53477.24762660407,10.5,10500053477.247627,47.655,-122.3035,60.0,8.783333333333333
2026-01-20T23:08:48+00:00,SAT-53220,291.3634334531182,32.387474658520865,4081.3364741603273,-1.5157077734061961,53086.497662209564,10.5,10500053086.497662,47.655,-122.3035,60.0,8.8
2026-01-20T23:08:49+00:00,SAT-53220,291.2364236940772,32.40531829238838,4079.8248082743166,-1.504536914846328,52695.246942758116,10.5,10500052695.246943,47.655,-122.3035,60.0,8.816666666666666
2026-01-20T23:08:50+00:00,SAT-53220,291.10926101284485,32.422943007107655,4078.3242834579096,-1.4933518372837955,52303.49821368705,10.5,10500052303.498213,47.655,-122.3035,60.0,8.833333333333334
2026-01-20T23:08:51+00:00,SAT-53220,290.98194665941764,32.44034815405892,4076.8349138921917,-1.4821526405258467,51911.25497066838,10.5,10500051911.25497,47.655,-122.3035,60.0,8.85
2026-01-20T23:08:52+00:00,SAT-53220,290.8544818922498,32.457533089341325,4075.3567136587076,-1.4709393956088996,51518.519701697915,10.5,10500051518.519701,47.655,-122.3035,60.0,8.866666666666667
2026-01-20T23:08:53+00:00,SAT-53220,290.72686798065854,32.47449717348908,4073.8896967681535,-1.4597121997452311,51125.295811560834,10.5,10500051125.29581,47.655,-122.3035,60.0,8.883333333333333
2026-01-20T23:08:54+00:00,SAT-53220,290.5991062026225,32.491239771828994,4072.433877134274,-1.4484711395873286,50731.586335193766,10.5,10500050731.586336,47.655,-122.3035,60.0,8.9
2026-01-20T23:08:55+00:00,SAT-53220,290.47119784567246,32.50776025440914,4070.9892685843924,-1.437216300178655,50337.39425117852,10.5,10500050337.39425,47.655,-122.3035,60.0,8.916666666666666
2026-01-20T23:08:56+00:00,SAT-53220,290.3431442070214,32.524057996032575,4069.5558848610144,-1.4259477741097375,49942.722802427015,10.5,10500049942.722803,47.655,-122.3035,60.0,8.933333333333334
2026-01-20T23:08:57+00:00,SAT-53220,290.2149465929217,32.54013237639583,4068.133739614302,-1.4146656498052246,49547.57508594448,10.5,10500049547.575087,47.655,-122.3035,60.0,8.95
2026-01-20T23:08:58+00:00,SAT-53220,290.0866063190062,32.55598278009259,4066.7228464062296,-1.4033700196797996,49151.95433848404,10.5,10500049151.954338,47.655,-122.3035,60.0,8.966666666666667
2026-01-20T23:08:59+00:00,SAT-53220,289.9581247099337,32.57160859670981,4065.323218706603,-1.3920609675409348,48755.863495337886,10.5,10500048755.863495,47.655,-122.3035,60.0,8.983333333333333
2026-01-20T23:09:00+00:00,SAT-53220,289.8295031001501,32.587009220783195,4063.934869901642,-1.3807385925565374,48359.306029785585,10.5,10500048359.30603,47.655,-122.3035,60.0,9.0
2026-01-20T23:09:01+00:00,SAT-53220,289.700742832508,32.60218405201996,4062.5578132786654,-1.3694029785854103,47962.284878917155,10.5,10500047962.28488,47.655,-122.3035,60.0,9.016666666666667
2026-01-20T23:09:02+00:00,SAT-53220,289.57184525962674,32.6171324951794,4061.192062041356,-1.358054231318461,47564.803744475255,10.5,10500047564.803745,47.655,-122.3035,60.0,9.033333333333333
2026-01-20T23:09:03+00:00,SAT-53220,289.4428117418991,32.631853960363145,4059.837629287988,-1.3466924245268386,47166.865210237556,10.5,10500047166.86521,47.655,-122.3035,60.0,9.05
2026-01-20T23:09:04+00:00,SAT-53220,289.3136436503992,32.6463478627178,4058.49452804326,-1.335317667112382,46768.47309040714,10.5,10500046768.473091,47.655,-122.3035,60.0,9.066666666666666
2026-01-20T23:09:05+00:00,SAT-53220,289.184342363643,32.660613622867324,4057.16277122326,-1.3239300462520627,46369.630438290274,10.5,10500046369.630438,47.655,-122.3035,60.0,9.083333333333334
2026-01-20T23:09:06+00:00,SAT-53220,289.05490926956503,32.674650666727096,4055.842371657131,-1.312529657310778,45970.34059396908,10.5,10500045970.340593,47.655,-122.3035,60.0,9.1
2026-01-20T23:09:07+00:00,SAT-53220,288.92534576475697,32.688458425642516,4054.5333420789066,-1.3011165962831113,45570.60691957991,10.5,10500045570.60692,47.655,-122.3035,60.0,9.116666666666667
2026-01-20T23:09:08+00:00,SAT-53220,288.7956532543754,32.70203633644488,4053.23569512688,-1.2896909563247292,45170.43267782826,10.5,10500045170.432678,47.655,-122.3035,60.0,9.133333333333333
2026-01-20T23:09:09+00:00,SAT-53220,288.66583315240615,32.71538384147124,4051.949443346439,-1.2782528344181936,44769.821265453684,10.5,10500044769.821266,47.655,-122.3035,60.0,9.15
2026-01-20T23:09:10+00:00,SAT-53220,288.53588688126354,32.72850038865328,4050.674599186246,-1.2668023258801224,44368.77602084735,10.5,10500044368.77602,47.655,-122.3035,60.0,9.166666666666666
2026-01-20T23:09:11+00:00,SAT-53220,288.40581587195044,32.74138543154919,4049.411174999901,-1.2553395296863155,43967.300410560405,10.5,10500043967.300411,47.655,-122.3035,60.0,9.183333333333334
2026-01-20T23:09:12+00:00,SAT-53220,288.27562156365025,32.75403842942984,4048.1591830422944,-1.243864541127471,43565.39777207618,10.5,10500043565.397772,47.655,-122.3035,60.0,9.2
2026-01-20T23:09:13+00:00,SAT-53220,288.14530540409356,32.766458847289194,4046.9186354732765,-1.2323774621575567,43163.07167625393,10.5,10500043163.071676,47.655,-122.3035,60.0,9.216666666666667
2026-01-20T23:09:14+00:00,SAT-53220,288.01486884883604,32.77864615595895,4045.689544351018,-1.2208783870310107,42760.32542428273,10.5,10500042760.325424,47.655,-122.3035,60.0,9.233333333333333
2026-01-20T23:09:15+00:00,SAT-53220,287.88431336203575,32.7905998320798,4044.4719216396857,-1.209367412668901,42357.162410748366,10.5,10500042357.16241,47.655,-122.3035,60.0,9.25
2026-01-20T23:09:16+00:00,SAT-53220,287.7536404161548,32.80231935817599,4043.265779206784,-1.1978446434219587,41953.58629045487,10.5,10500041953.58629,47.655,-122.3035,60.0,9.266666666666667
2026-01-20T23:09:17+00:00,SAT-53220,287.6228514911514,32.813804222775275,4042.0711288157445,-1.1863101790527089,41549.60055750783,10.5,10500041549.600557,47.655,-122.3035,60.0,9.283333333333333
2026-01-20T23:09:18+00:00,SAT-53220,287.49194807493404,32.82505392040911,4040.887982130502,-1.1747641130669815,41145.20848687697,10.5,10500041145.208487,47.655,-122.3035,60.0,9.3
2026-01-20T23:09:19+00:00,SAT-53220,287.3609316639911,32.83606795160135,4039.716350721737,-1.1632065550090067,40740.41391526457,10.5,10500040740.413916,47.655,-122.3035,60.0,9.316666666666666
2026-01-20T23:09:20+00:00,SAT-53220,287.22980376166055,32.84684582306552,4038.5562460508745,-1.1516376013017966,40335.22021981242,10.5,10500040335.22022,47.655,-122.3035,60.0,9.333333333333334
2026-01-20T23:09:21+00:00,SAT-53220,287.09856587948394,32.85738704762677,4037.4076794831763,-1.1400573555805098,39929.63103026211,10.5,10500039929.631031,47.655,-122.3035,60.0,9.35
2026-01-20T23:09:22+00:00,SAT-53220,286.9672195364126,32.867691144334756,4036.270662280544,-1.1284659181768764,39523.64986065527,10.5,10500039523.64986,47.655,-122.3035,60.0,9.366666666666667
2026-01-20T23:09:23+00:00,SAT-53220,286.83576625912417,32.87775763847814,4035.145205604816,-1.1168633917878814,39117.28030787471,10.5,10500039117.280308,47.655,-122.3035,60.0,9.383333333333333
2026-01-20T23:09:24+00:00,SAT-53220,286.7042075817344,32.887586061651355,4034.0313205154057,-1.105249882338722,38710.526081868884,10.5,10500038710.526081,47.655,-122.3035,60.0,9.4
2026-01-20T23:09:25+00:00,SAT-53220,286.5725450453875,32.89717595182657,4032.9290179660866,-1.0936254906490193,38303.390713767396,10.5,10500038303.390715,47.655,-122.3035,60.0,9.416666666666666
2026-01-20T23:09:26+00:00,SAT-53220,286.4407801988044,32.9065268533527,4031.8383088100795,-1.081990319919913,37895.877818110705,10.5,10500037895.87782,47.655,-122.3035,60.0,9.433333333333334
2026-01-20T23:09:27+00:00,SAT-53220,286.30891459796874,32.915638317020466,4030.759203797679,-1.0703444791401473,37487.99121214566,10.5,10500037487.991213,47.655,-122.3035,60.0,9.45
2026-01-20T23:09:28+00:00,SAT-53220,286.176949805421,32.92450990015374,4029.6917135704834,-1.0586880714290396,37079.734507546935,10.5,10500037079.734507,47.655,-122.3035,60.0,9.466666666666667
2026-01-20T23:09:29+00:00,SAT-53220,286.04488739087793,32.933141166601644,4028.6358486672448,-1.0470211968840295,36671.11121015029,10.5,10500036671.11121,47.655,-122.3035,60.0,9.483333333333333
2026-01-20T23:09:30+00:00,SAT-53220,285.91272893159555,32.94153168675835,4027.591619526886,-1.0353439694627278,36262.125311233285,10.5,10500036262.12531,47.655,-122.3035,60.0,9.5
2026-01-20T23:09:31+00:00,SAT-53220,285.7804760106322,32.949681037716296,4026.559036474675,-1.0236564908289094,35852.78037149136,10.5,10500035852.78037,47.655,-122.3035,60.0,9.516666666666667
2026-01-20T23:09:32+00:00,SAT-53220,285.64813021829923,32.957588803207926,4025.5381097344884,-1.011958869492576,35443.08019140378,10.5,10500035443.08019,47.655,-122.3035,60.0,9.533333333333333
2026-01-20T23:09:33+00:00,SAT-53220,285.51569315127597,32.96525457370144,4024.5288494219812,-1.0002512109215278,35033.02846489902,10.5,10500035033.028465,47.655,-122.3035,60.0,9.55
2026-01-20T23:09:34+00:00,SAT-53220,285.3831664129533,32.97267794641714,4023.531265547622,-0.9885336219161158,34622.628932577136,10.5,10500034622.628933,47.655,-122.3035,60.0,9.566666666666666
2026-01-20T23:09:35+00:00,SAT-53220,285.2505516132111,32.979858525378674,4022.545368015364,-0.976806216201694,34211.885577581095,10.5,10500034211.885578,47.655,-122.3035,60.0,9.583333333333334
2026-01-20T23:09:36+00:00,SAT-53220,285.1178503674899,32.98679592150147,4021.5711666157395,-0.9650690948235333,33800.8019389437,10.5,10500033800.801939,47.655,-122.3035,60.0,9.6
2026-01-20T23:09:37+00:00,SAT-53220,284.985064298362,32.99348975254046,4020.608671038502,-0.9533223699284565,33389.381944521076,10.5,10500033389.381945,47.655,-122.3035,60.0,9.616666666666667
2026-01-20T23:09:38+00:00,SAT-53220,284.85219503407217,32.999939643208585,4019.65789086156,-0.9415661515414703,32977.62944785435,10.5,10500032977.629448,47.655,-122.3035,60.0,9.633333333333333
2026-01-20T23:09:39+00:00,SAT-53220,284.71924420872875,33.0061452251984,4018.7188355530893,-0.9298005492804959,32565.548288226808,10.5,10500032565.548288,47.655,-122.3035,60.0,9.65
2026-01-20T23:09:40+00:00,SAT-53220,284.5862134623229,33.012106137216165,4017.7915144719404,-0.9180256708850756,32153.142239132958,10.5,10500032153.142239,47.655,-122.3035,60.0,9.666666666666666
2026-01-20T23:09:41+00:00,SAT-53220,284.453104440926,33.017822025007426,4016.875936869511,-0.9062416306451946,31740.415303491533,10.5,10500031740.415304,47.655,-122.3035,60.0,9.683333333333334
2026-01-20T23:09:42+00:00,SAT-53220,284.31991879573957,33.02329254143444,4015.972111883214,-0.8944485341053942,31327.37117791882,10.5,10500031327.371178,47.655,-122.3035,60.0,9.7
2026-01-20T23:09:43+00:00,SAT-53220,284.18665818425814,33.0285173464581,4015.0800485451996,-0.8826464970645646,30914.013918181783,10.5,10500030914.013918,47.655,-122.3035,60.0,9.716666666666667
2026-01-20T23:09:44+00:00,SAT-53220,284.0533242687847,33.03349610723545,4014.1997557721274,-0.870835630346633,30500.34740580314,10.5,10500030500.347406,47.655,-122.3035,60.0,9.733333333333333
2026-01-20T23:09:45+00:00,SAT-53220,283.9199187170467,33.038228498123544,4013.331242370128,-0.8590160437961877,30086.375488005007,10.5,10500030086.375488,47.655,-122.3035,60.0,9.75
2026-01-20T23:09:46+00:00,SAT-53220,283.78644320232297,33.04271420070902,4012.474517035782,-0.8471878512895237,29672.102153216936,10.5,10500029672.102154,47.655,-122.3035,60.0,9.766666666666667
2026-01-20T23:09:47+00:00,SAT-53220,283.65289940277114,33.0469529038643,4011.6295883520957,-0.83535116837193,29257.531448323713,10.5,10500029257.531448,47.655,-122.3035,60.0,9.783333333333333
2026-01-20T23:09:48+00:00,SAT-53220,283.51928900112296,33.050944303787,4010.79646478684,-0.8235061018544307,28842.667114299198,10.5,10500028842.667114,47.655,-122.3035,60.0,9.8
2026-01-20T23:09:49+00:00,SAT-53220,283.38561368594156,33.054688103989655,4009.9751547012565,-0.8116527715401802,28427.513347156622,10.5,10500028427.513348,47.655,-122.3035,60.0,9.816666666666666
2026-01-20T23:09:50+00:00,SAT-53220,283.25187514959447,33.05818401539479,4009.1656663371073,-0.7997912857668944,28012.07394134108,10.5,10500028012.073942,47.655,-122.3035,60.0,9.833333333333334
2026-01-20T23:09:51+00:00,SAT-53220,283.11807508994394,33.06143175631243,4008.3680078281022,-0.787921762897941,27596.353042438383,10.5,10500027596.353043,47.655,-122.3035,60.0,9.85
2026-01-20T23:09:52+00:00,SAT-53220,282.9842152087485,33.06443105251542,4007.582187189906,-0.7760443167516784,27180.35463684888,10.5,10500027180.354637,47.655,-122.3035,60.0,9.866666666666667
2026-01-20T23:09:53+00:00,SAT-53220,282.85029721227045,33.06718163724853,4006.8082123246654,-0.7641590603145088,26764.08268183432,10.5,10500026764.082682,47.655,-122.3035,60.0,9.883333333333333
2026-01-20T23:09:54+00:00,SAT-53220,282.71632281139676,33.069683251256066,4006.0460910218453,-0.7522661120585591,26347.541326789717,10.5,10500026347.541327,47.655,-122.3035,60.0,9.9
2026-01-20T23:09:55+00:00,SAT-53220,282.5822937206392,33.07193564282981,4005.295830952752,-0.7403655831482637,25930.73446516379,10.5,10500025930.734465,47.655,-122.3035,60.0,9.916666666666666
2026-01-20T23:09:56+00:00,SAT-53220,282.44821165932296,33.07393856781319,4004.5574396778256,-0.7284575933242659,25513.666290780377,10.5,10500025513.66629,47.655,-122.3035,60.0,9.933333333333334
2026-01-20T23:09:57+00:00,SAT-53220,282.31407835004825,33.07569178965567,4003.830924638083,-0.7165422581897917,25096.340852553443,10.5,10500025096.340853,47.655,-122.3035,60.0,9.95
2026-01-20T23:09:58+00:00,SAT-53220,282.17989551934227,33.07719507942571,4003.116293159249,-0.7046196936972142,24678.76221162558,10.5,10500024678.76221,47.655,-122.3035,60.0,9.966666666666667
2026-01-20T23:09:59+00:00,SAT-53220,282.045664897517,33.078448215838726,4002.4135524514013,-0.6926900150101492,24260.93440151375,10.5,10500024260.934402,47.655,-122.3035,60.0,9.983333333333333
2026-01-20T23:10:00+00:00,SAT-53220,281.91138821877837,33.07945098528275,4001.7227096097645,-0.6807533417655631,23842.861612410587,10.5,10500023842.861612,47.655,-122.3035,60.0,10.0
2026-01-20T23:10:01+00:00,SAT-53220,281.777067220332,33.080203181850955,4001.0437716102438,-0.6688097931633533,23424.5480192007,10.5,10500023424.54802,47.655,-122.3035,60.0,10.016666666666667
2026-01-20T23:10:02+00:00,SAT-53220,281.64270364238666,33.080704607362364,4000.376745309862,-0.6568594818727933,23005.99756803865,10.5,10500023005.997568,47.655,-122.3035,60.0,10.033333333333333
2026-01-20T23:10:03+00:00,SAT-53220,281.50829922929813,33.080955071379634,3999.7216374532745,-0.6449025300892273,22587.214538722274,10.5,10500022587.214539,47.655,-122.3035,60.0,10.05
2026-01-20T23:10:04+00:00,SAT-53220,281.3738557277454,33.080954391241775,3999.0784546632653,-0.6329390555981774,22168.203056598788,10.5,10500022168.203056,47.655,-122.3035,60.0,10.066666666666666
2026-01-20T23:10:05+00:00,SAT-53220,281.2393748874417,33.080702392080795,3998.4472034451487,-0.620969175541759,21748.967224480577,10.5,10500021748.967224,47.655,-122.3035,60.0,10.083333333333334
2026-01-20T23:10:06+00:00,SAT-53220,281.10485846124493,33.08019890684507,3997.8278901874082,-0.6089930115735546,21329.5113031907,10.5,10500021329.511303,47.655,-122.3035,60.0,10.1
2026-01-20T23:10:07+00:00,SAT-53220,280.9703082041532,33.079443776318215,3997.220521157199,-0.5970106788393922,20909.83932562312,10.5,10500020909.839325,47.655,-122.3035,60.0,10.116666666666667
2026-01-20T23:10:08+00:00,SAT-53220,280.83572587458553,33.07843684914496,3996.625102506837,-0.5850223020477634,20489.955659596737,10.5,10500020489.95566,47.655,-122.3035,60.0,10.133333333333333
2026-01-20T23:10:09+00:00,SAT-53220,280.70111323230935,33.07717798183912,3996.041640264261,-0.5730279979575861,20069.86439450273,10.5,10500020069.864395,47.655,-122.3035,60.0,10.15
2026-01-20T23:10:10+00:00,SAT-53220,280.56647204004526,33.075667038812526,3995.470140340965,-0.5610278862220894,19649.569721103322,10.5,10500019649.569721,47.655,-122.3035,60.0,10.166666666666666
2026-01-20T23:10:11+00:00,SAT-53220,280.4318040627842,33.07390389239089,3994.910608529106,-0.5490220877716593,19229.07587489216,10.5,10500019229.075874,47.655,-122.3035,60.0,10.183333333333334
2026-01-20T23:10:12+00:00,SAT-53220,280.2971110674608,33.071888422828046,3994.363050500235,-0.5370107259863004,18808.387177158922,10.5,10500018808.387177,47.655,-122.3035,60.0,10.2
2026-01-20T23:10:13+00:00,SAT-53220,280.1623948222625,33.06962051831188,3993.827471802851,-0.524993917556321,18387.50771489178,10.5,10500018387.507715,47.655,-122.3035,60.0,10.216666666666667
2026-01-20T23:10:14+00:00,SAT-53220,280.02765709814275,33.06710007500441,3993.303877869075,-0.5129717854526091,17966.441795051414,10.5,10500017966.441795,47.655,-122.3035,60.0,10.233333333333333
2026-01-20T23:10:15+00:00,SAT-53220,279.89289966726045,33.064326997034776,3992.7922740083836,-0.5009444515335597,17545.19368563427,10.5,10500017545.193686,47.655,-122.3035,60.0,10.25
2026-01-20T23:10:16+00:00,SAT-53220,279.75812430319996,33.06130119651733,3992.292665408721,-0.48891203689727103,17123.767628007994,10.5,10500017123.767628,47.655,-122.3035,60.0,10.266666666666667
2026-01-20T23:10:17+00:00,SAT-53220,279.62333278103415,33.05802259356758,3991.805057137255,-0.4768746642096991,16702.16791845324,10.5,10500016702.16792,47.655,-122.3035,60.0,10.283333333333333
2026-01-20T23:10:18+00:00,SAT-53220,279.48852687688526,33.05449111630653,3991.329454138817,-0.46483245341680807,16280.398757985047,10.5,10500016280.398758,47.655,-122.3035,60.0,10.3
2026-01-20T23:10:19+00:00,SAT-53220,279.35370836853235,33.05070670089115,3990.865861238609,-0.4527855280937591,15858.464474728282,10.5,10500015858.464476,47.655,-122.3035,60.0,10.316666666666666
2026-01-20T23:10:20+00:00,SAT-53220,279.2188790344356,33.04666929150343,3990.4142831385902,-0.44073401107218807,15436.369370766408,10.5,10500015436.369371,47.655,-122.3035,60.0,10.333333333333334
2026-01-20T23:10:21+00:00,SAT-53220,279.0840406537983,33.04237884036274,3989.974724418214,-0.42867802505972513,15014.117743839688,10.5,10500015014.117744,47.655,-122.3035,60.0,10.35
2026-01-20T23:10:22+00:00,SAT-53220,278.94919500656795,33.037835307738426,3989.547189534555,-0.4166176921546451,14591.713870346177,10.5,10500014591.713871,47.655,-122.3035,60.0,10.366666666666667
2026-01-20T23:10:23+00:00,SAT-53220,278.8143438734929,33.0330386619634,3989.1316828229124,-0.40455313548640043,14169.16206280014,10.5,10500014169.162064,47.655,-122.3035,60.0,10.383333333333333
2026-01-20T23:10:24+00:00,SAT-53220,278.6794890357979,33.02798887943586,3988.7282084957874,-0.3924844800943338,13746.466700608273,10.5,10500013746.466702,47.655,-122.3035,60.0,10.4
2026-01-20T23:10:25+00:00,SAT-53220,278.5446322744957,33.0226859446027,3988.3367706409736,-0.3804118462964257,13323.631997815202,10.5,10500013323.631998,47.655,-122.3035,60.0,10.416666666666666
2026-01-20T23:10:26+00:00,SAT-53220,278.4097753717735,33.01712985002331,3987.957373226267,-0.3683353598618226,12900.66235938843,10.5,10500012900.66236,47.655,-122.3035,60.0,10.433333333333334
2026-01-20T23:10:27+00:00,SAT-53220,278.2749201092361,33.01132059631145,3987.5900200940314,-0.3562551446147132,12477.56212217483,10.5,10500012477.562122,47.655,-122.3035,60.0,10.45
2026-01-20T23:10:28+00:00,SAT-53220,278.1400682684321,33.00525819216255,3987.234714963136,-0.3441713241632933,12054.335615456277,10.5,10500012054.335615,47.655,-122.3035,60.0,10.466666666666667
2026-01-20T23:10:29+00:00,SAT-53220,278.0052216308094,32.998942654360626,3986.8914614291702,-0.33208402331515713,11630.987210522653,10.5,10500011630.987211,47.655,-122.3035,60.0,10.483333333333333
2026-01-20T23:10:30+00:00,SAT-53220,277.87038197728316,32.99237400776531,3986.560262963251,-0.31999336424684527,11207.52118651322,10.5,10500011207.521187,47.655,-122.3035,60.0,10.5
2026-01-20T23:10:31+00:00,SAT-53220,277.73555108905055,32.985552285359944,3986.2411229146414,-0.30789947473293894,10783.942018634301,10.5,10500010783.942019,47.655,-122.3035,60.0,10.516666666666667
2026-01-20T23:10:32+00:00,SAT-53220,277.6007307455382,32.978477528155594,3985.934044505175,-0.29580247643566027,10360.253968011539,10.5,10500010360.253967,47.655,-122.3035,60.0,10.533333333333333
2026-01-20T23:10:33+00:00,SAT-53220,277.4659227265182,32.97114978530325,3985.639030835343,-0.28370249535844466,9936.46144781824,10.5,10500009936.461449,47.655,-122.3035,60.0,10.55
2026-01-20T23:10:34+00:00,SAT-53220,277.33112881047606,32.963569114016664,3985.356084879972,-0.27159965681761433,9512.568847162094,10.5,10500009512.568848,47.655,-122.3035,60.0,10.566666666666666
2026-01-20T23:10:35+00:00,SAT-53220,277.1963507746865,32.955735579576896,3985.085209488906,-0.2594940849316176,9088.58051319618,10.5,10500009088.580513,47.655,-122.3035,60.0,10.583333333333334
2026-01-20T23:10:36+00:00,SAT-53220,277.06159039574334,32.947649255368376,3984.826407388201,-0.24738590598900118,8664.50086907961,10.5,10500008664.50087,47.655,-122.3035,60.0,10.6
2026-01-20T23:10:37+00:00,SAT-53220,276.92684944843404,32.93931022281473,3984.579681177961,-0.2352752436564058,8240.334246141247,10.5,10500008240.334246,47.655,-122.3035,60.0,10.616666666666667
2026-01-20T23:10:38+00:00,SAT-53220,276.7921297069286,32.93071857145462,3984.3450333349547,-0.22316222513463285,7816.0850994912125,10.5,10500007816.0851,47.655,-122.3035,60.0,10.633333333333333
2026-01-20T23:10:39+00:00,SAT-53220,276.65743294300614,32.92187439883316,3984.122466209087,-0.21104697439932069,7391.7577712807815,10.5,10500007391.75777,47.655,-122.3035,60.0,10.65
2026-01-20T23:10:40+00:00,SAT-53220,276.5227609275654,32.91277781059884,3983.911982026619,-0.19892961770903106,6967.356683618858,10.5,10500006967.356684,47.655,-122.3035,60.0,10.666666666666666
2026-01-20T23:10:41+00:00,SAT-53220,276.38811542939226,32.90342892042588,3983.713582887891,-0.18681028117036794,6542.886253292148,10.5,10500006542.886253,47.655,-122.3035,60.0,10.683333333333334
2026-01-20T23:10:42+00:00,SAT-53220,276.2534982151596,32.89382785001098,3983.5272707674703,-0.1746890899360069,6118.350863676739,10.5,10500006118.350864,47.655,-122.3035,60.0,10.7
2026-01-20T23:10:43+00:00,SAT-53220,276.1189110498198,32.88397472910119,3983.3530475151074,-0.162566169971775,5693.754926628732,10.5,10500005693.754927,47.655,-122.3035,60.0,10.716666666666667
2026-01-20T23:10:44+00:00,SAT-53220,275.9843556961611,32.87386969546244,3983.1909148549225,-0.15044164768768345,5269.102869561436,10.5,10500005269.102869,47.655,-122.3035,60.0,10.733333333333333
2026-01-20T23:10:45+00:00,SAT-53220,275.8498339143492,32.86351289484245,3983.0408743849616,-0.13831564851542044,4844.399085623143,10.5,10500004844.399086,47.655,-122.3035,60.0,10.75
2026-01-20T23:10:46+00:00,SAT-53220,275.7153474625634,32.852904481016516,3982.9029275781754,-0.1261882992573428,4419.648015968764,10.5,10500004419.648016,47.655,-122.3035,60.0,10.766666666666667
2026-01-20T23:10:47+00:00,SAT-53220,275.58089809588097,32.84204461569861,3982.7770757810495,-0.11405972524603575,3994.8540502755927,10.5,10500003994.85405,47.655,-122.3035,60.0,10.783333333333333
2026-01-20T23:10:48+00:00,SAT-53220,275.4464875673563,32.830933468622405,3982.663320215071,-0.10193005316747396,3570.0216256223384,10.5,10500003570.021626,47.655,-122.3035,60.0,10.8
2026-01-20T23:10:49+00:00,SAT-53220,275.31211762690253,32.8195712174493,3982.5616619753787,-0.08979940950281934,3145.1551719143085,10.5,10500003145.155172,47.655,-122.3035,60.0,10.816666666666666
2026-01-20T23:10:50+00:00,SAT-53220,275.17779002129197,32.80795804775958,3982.472102030968,-0.07766792009846737,2720.2590968246022,10.5,10500002720.259096,47.655,-122.3035,60.0,10.833333333333334
2026-01-20T23:10:51+00:00,SAT-53220,275.04350649466204,32.79609415309174,3982.394641225323,-0.06553571174152832,2295.3378409741294,10.5,10500002295.337841,47.655,-122.3035,60.0,10.85
2026-01-20T23:10:52+00:00,SAT-53220,274.90926878753527,32.78397973485084,3982.3292802754795,-0.053402910668710446,1870.3958257063948,10.5,10500001870.395826,47.655,-122.3035,60.0,10.866666666666667
2026-01-20T23:10:53+00:00,SAT-53220,274.7750786372288,32.77161500233644,3982.2760197725725,-0.041269642873284745,1445.4374638386994,10.5,10500001445.437464,47.655,-122.3035,60.0,10.883333333333333
2026-01-20T23:10:54+00:00,SAT-53220,274.6409377782753,32.75900017277726,3982.23486018208,-0.029136035515394797,1020.4672090571585,10.5,10500001020.467209,47.655,-122.3035,60.0,10.9
2026-01-20T23:10:55+00:00,SAT-53220,274.5068479406719,32.74613547115936,3982.205801842659,-0.017002214612197926,595.4894750156731,10.5,10500000595.489475,47.655,-122.3035,60.0,10.916666666666666
2026-01-20T23:10:56+00:00,SAT-53220,274.37281085138846,32.73302113035785,3982.188844967286,-0.004868306801387784,170.50869710195218,10.5,10500000170.508698,47.655,-122.3035,60.0,10.933333333333334
2026-01-20T23:10:57+00:00,SAT-53220,274.23882823325715,32.719657391022835,3982.1839896426363,0.007265561400298272,-254.4706935326967,10.5,10499999745.529306,47.655,-122.3035,60.0,10.95
2026-01-20T23:10:58+00:00,SAT-53220,274.10490180508793,32.706044501577885,3982.191235829206,0.019399263740905386,-679.4442750107695,10.5,10499999320.555725,47.655,-122.3035,60.0,10.966666666666667
2026-01-20T23:10:59+00:00,SAT-53220,273.97103328216826,32.69218271826267,3982.2105833615774,0.03153267355377138,-1104.407610929957,10.5,10499998895.592388,47.655,-122.3035,60.0,10.983333333333333
2026-01-20T23:11:00+00:00,SAT-53220,273.83722437519884,32.67807230501221,3982.2420319480016,0.04366566445023027,-1529.356274624553,10.5,10499998470.643724,47.655,-122.3035,60.0,11.0
2026-01-20T23:11:01+00:00,SAT-53220,273.70347679069414,32.663713533486145,3982.28558117068,0.05579810988254331,-1954.2858338574506,10.5,10499998045.714167,47.655,-122.3035,60.0,11.016666666666667
2026-01-20T23:11:02+00:00,SAT-53220,273.5697922308739,32.64910668304595,3982.341230485603,0.06792988365415158,-2379.191868691345,10.5,10499997620.808132,47.655,-122.3035,60.0,11.033333333333333
2026-01-20T23:11:03+00:00,SAT-53220,273.436172393,32.63425204066687,3982.4089792229,0.08006085915734643,-2804.069944788729,10.5,10499997195.930056,47.655,-122.3035,60.0,11.05
2026-01-20T23:11:04+00:00,SAT-53220,273.30261897034393,32.61914990103349,3982.4888265864333,0.09219091008884274,-3228.9156384742964,10.5,10499996771.084362,47.655,-122.3035,60.0,11.066666666666666
2026-01-20T23:11:05+00:00,SAT-53220,273.16913365119535,32.60380056641623,3982.580771654095,0.10431991031357628,-3653.7245319645463,10.5,10499996346.275469,47.655,-122.3035,60.0,11.083333333333334
2026-01-20T23:11:06+00:00,SAT-53220,273.035718118341,32.58820434659126,3982.6848133779813,0.1164477334113714,-4078.4921974901704,10.5,10499995921.507803,47.655,-122.3035,60.0,11.1
2026-01-20T23:11:07+00:00,SAT-53220,272.90237405042313,32.57236155898543,3982.8009505841032,0.1285742529280018,-4503.214206089263,10.5,10499995496.785793,47.655,-122.3035,60.0,11.116666666666667
2026-01-20T23:11:08+00:00,SAT-53220,272.7691031208884,32.556272528538614,3982.929181972357,0.14069934324018046,-4927.886157902928,10.5,10499995072.113842,47.655,-122.3035,60.0,11.133333333333333
2026-01-20T23:11:09+00:00,SAT-53220,272.63590699742656,32.539937587615945,3983.0695061173487,0.1528228778606468,-5352.503622812257,10.5,10499994647.496378,47.655,-122.3035,60.0,11.15
2026-01-20T23:11:10+00:00,SAT-53220,272.502787342833,32.52335707609614,3983.221921467535,0.16494473083068878,-5777.062189210351,10.5,10499994222.93781,47.655,-122.3035,60.0,11.166666666666666
2026-01-20T23:11:11+00:00,SAT-53220,272.36974581446304,32.50653134128712,3983.3864263457504,0.1770647765524303,-6201.557458128311,10.5,10499993798.442541,47.655,-122.3035,60.0,11.183333333333334
2026-01-20T23:11:12+00:00,SAT-53220,272.2367840637055,32.48946073783867,3983.563018949565,0.18918288842985187,-6625.984995638031,10.5,10499993374.015005,47.655,-122.3035,60.0,11.2
2026-01-20T23:11:13+00:00,SAT-53220,272.1039037370308,32.472145627860115,3983.7516973502925,0.2012989415608302,-7050.340427138821,10.5,10499992949.659573,47.655,-122.3035,60.0,11.216666666666667
2026-01-20T23:11:14+00:00,SAT-53220,271.9711064743042,32.45458638067853,3983.952459494676,0.21341280952061578,-7474.619324701176,10.5,10499992525.380674,47.655,-122.3035,60.0,11.233333333333333
2026-01-20T23:11:15+00:00,SAT-53220,271.83839391025396,32.436783373013384,3984.165303203371,0.22552436696086856,-7898.8172980960035,10.5,10499992101.182701,47.655,-122.3035,60.0,11.25
2026-01-20T23:11:16+00:00,SAT-53220,271.7057676733249,32.41873698880214,3984.39022617202,0.23763348862320322,-8322.92996024481,10.5,10499991677.07004,47.655,-122.3035,60.0,11.266666666666667
2026-01-20T23:11:17+00:00,SAT-53220,271.5732293857626,32.400447619189556,3984.62722597134,0.24974004943524306,-8746.952930583904,10.5,10499991253.04707,47.655,-122.3035,60.0,11.283333333333333
2026-01-20T23:11:18+00:00,SAT-53220,271.4407806634263,32.38191566247647,3984.87630004731,0.26184392277860674,-9170.881774401978,10.5,10499990829.118225,47.655,-122.3035,60.0,11.3
2026-01-20T23:11:19+00:00,SAT-53220,271.30842311683546,32.36314152424673,3985.137445719628,0.273944984997326,-9594.71216074396,10.5,10499990405.28784,47.655,-122.3035,60.0,11.316666666666666
2026-01-20T23:11:20+00:00,SAT-53220,271.1761583490628,32.34412561704625,3985.4106601846656,0.286043110389848,-10018.43968700975,10.5,10499989981.560312,47.655,-122.3035,60.0,11.333333333333334
2026-01-20T23:11:21+00:00,SAT-53220,271.0439879572186,32.324868360566775,3985.695940513428,0.29813817415518523,-10442.059982140863,10.5,10499989557.940018,47.655,-122.3035,60.0,11.35
2026-01-20T23:11:22+00:00,SAT-53220,270.9119135317236,32.305370181518505,3985.9932836524517,0.31023005184403857,-10865.568687396415,10.5,10499989134.431313,47.655,-122.3035,60.0,11.366666666666667
2026-01-20T23:11:23+00:00,SAT-53220,270.779936656196,32.28563151358776,3986.3026864241574,0.32231861789207433,-11288.96140498231,10.5,10499988711.038595,47.655,-122.3035,60.0,11.383333333333333
2026-01-20T23:11:24+00:00,SAT-53220,270.6480589079037,32.265652797477856,3986.6241455257355,0.33440374935838946,-11712.233828988084,10.5,10499988287.76617,47.655,-122.3035,60.0,11.4
2026-01-20T23:11:25+00:00,SAT-53220,270.51628185658615,32.24543448070448,3986.957657531762,0.3464853210328797,-12135.381574026245,10.5,10499987864.618425,47.655,-122.3035,60.0,11.416666666666666
2026-01-20T23:11:26+00:00,SAT-53220,270.38460706533806,32.22497701770249,3987.3032188919387,0.35856320799868346,-12558.400264979904,10.5,10499987441.599735,47.655,-122.3035,60.0,11.433333333333334
2026-01-20T23:11:27+00:00,SAT-53220,270.25303609059995,32.20428086979892,3987.660825931383,0.3706372886916651,-12981.285644158812,10.5,10499987018.714355,47.655,-122.3035,60.0,11.45
2026-01-20T23:11:28+00:00,SAT-53220,270.1215704805935,32.18334650493672,3988.0304748539716,0.38270743706417415,-13404.033296841071,10.5,10499986595.966703,47.655,-122.3035,60.0,11.466666666666667
2026-01-20T23:11:29+00:00,SAT-53220,269.9902117772458,32.16217439794973,3988.41216173787,0.3947735300187757,-13826.638911633809,10.5,10499986173.361088,47.655,-122.3035,60.0,11.483333333333333
2026-01-20T23:11:30+00:00,SAT-53220,269.8589615149192,32.1407650303339,3988.8058825384755,0.40683544429591295,-14249.098171465961,10.5,10499985750.901829,47.655,-122.3035,60.0,11.5
2026-01-20T23:11:31+00:00,SAT-53220,269.7278212204502,32.11911889021968,3989.211633088253,0.4188930573338149,-14671.406783705865,10.5,10499985328.593216,47.655,-122.3035,60.0,11.516666666666667
2026-01-20T23:11:32+00:00,SAT-53220,269.5967924129354,32.09723647230617,3989.629409097434,0.4309462453987555,-15093.56041467505,10.5,10499984906.439585,47.655,-122.3035,60.0,11.533333333333333
2026-01-20T23:11:33+00:00,SAT-53220,269.46587660408727,32.07511827788747,3990.059206152845,0.4429948848352747,-15515.554733436238,10.5,10499984484.445267,47.655,-122.3035,60.0,11.55
2026-01-20T23:11:34+00:00,SAT-53220,269.33507529823487,32.05276481482405,3990.5010197179877,0.45503885467487054,-15937.385503160793,10.5,10499984062.614496,47.655,-122.3035,60.0,11.566666666666666
2026-01-20T23:11:35+00:00,SAT-53220,269.20438999130846,32.03017659733534,3990.954845135717,0.46707803115332375,-16359.048389102234,10.5,10499983640.95161,47.655,-122.3035,60.0,11.583333333333334
2026-01-20T23:11:36+00:00,SAT-53220,269.0738221719004,32.007354146147584,3991.4206776254537,0.4791122937290368,-16780.53916938393,10.5,10499983219.46083,47.655,-122.3035,60.0,11.6
2026-01-20T23:11:37+00:00,SAT-53220,268.94337332004807,31.984297988248937,3991.898512286399,0.4911415173021892,-17201.853462480987,10.5,10499982798.146538,47.655,-122.3035,60.0,11.616666666666667
2026-01-20T23:11:38+00:00,SAT-53220,268.8130449088028,31.961008657133245,3992.3883440929885,0.5031655832054976,-17622.987112163195,10.5,10499982377.012888,47.655,-122.3035,60.0,11.633333333333333
2026-01-20T23:11:39+00:00,SAT-53220,268.6828384020897,31.93748669238287,3992.8901679013056,0.5151843691424821,-18043.93583509049,10.5,10499981956.064165,47.655,-122.3035,60.0,11.65
2026-01-20T23:11:40+00:00,SAT-53220,268.55275525596153,31.91373263985589,3993.403978445464,0.5271977510312857,-18464.6952853914,10.5,10499981535.304714,47.655,-122.3035,60.0,11.666666666666666
2026-01-20T23:11:41+00:00,SAT-53220,268.42279691896096,31.889747051721308,3993.9297703358257,0.5392056123630352,-18885.26138243234,10.5,10499981114.738617,47.655,-122.3035,60.0,11.683333333333334
2026-01-20T23:11:42+00:00,SAT-53220,268.29296483005083,31.865530486037194,3994.467538066556,0.5512078296266048,-19305.629800331233,10.5,10499980694.3702,47.655,-122.3035,60.0,11.7
2026-01-20T23:11:43+00:00,SAT-53220,268.16326042052924,31.841083507069616,3995.0172760086366,0.5632042819434471,-19725.79630541004,10.5,10499980274.203695,47.655,-122.3035,60.0,11.716666666666667
2026-01-20T23:11:44+00:00,SAT-53220,268.0336851133249,31.8164066851246,3995.578978412495,0.5751948499078358,-20145.75671557513,10.5,10499979854.243284,47.655,-122.3035,60.0,11.733333333333333
2026-01-20T23:11:45+00:00,SAT-53220,267.90424032252406,31.79150059641946,3996.1526394094694,0.587179413351715,-20565.506822032883,10.5,10499979434.493177,47.655,-122.3035,60.0,11.75
2026-01-20T23:11:46+00:00,SAT-53220,267.7749274536956,31.766365823105332,3996.7382530110526,0.5991578519057736,-20985.042408940866,10.5,10499979014.957592,47.655,-122.3035,60.0,11.766666666666667
2026-01-20T23:11:47+00:00,SAT-53220,267.64574790384694,31.741002953218928,3997.3358131086866,0.6111300483013494,-21404.35936905447,10.5,10499978595.64063,47.655,-122.3035,60.0,11.783333333333333
2026-01-20T23:11:48+00:00,SAT-53220,267.5167030607144,31.715412580503568,3997.9453134768587,0.6230958792367034,-21823.453383825236,10.5,10499978176.546616,47.655,-122.3035,60.0,11.8
2026-01-20T23:11:49+00:00,SAT-53220,267.3877943041679,31.68959530464681,3998.566747767084,0.6350552284687606,-22242.320381928974,10.5,10499977757.679619,47.655,-122.3035,60.0,11.816666666666666
2026-01-20T23:11:50+00:00,SAT-53220,267.2590230045727,31.663551730915138,3999.200109514944,0.647007977766799,-22660.956222425677,10.5,10499977339.043777,47.655,-122.3035,60.0,11.833333333333334
2026-01-20T23:11:51+00:00,SAT-53220,267.13039052326735,31.637282470202493,3999.845392138103,0.6589540078724758,-23079.35672838373,10.5,10499976920.643272,47.655,-122.3035,60.0,11.85
2026-01-20T23:11:52+00:00,SAT-53220,267.00189821279463,31.610788139038753,4000.5025889352883,0.6708931991772852,-23497.517710607295,10.5,10499976502.48229,47.655,-122.3035,60.0,11.866666666666667
2026-01-20T23:11:53+00:00,SAT-53220,266.873547416953,31.584069359558892,4001.171693085934,0.6828254368896277,-23915.435148609013,10.5,10499976084.564852,47.655,-122.3035,60.0,11.883333333333333
2026-01-20T23:11:54+00:00,SAT-53220,266.74533946980733,31.55712675925188,4001.852697654992,0.6947506020083203,-24333.10487446406,10.5,10499975666.895126,47.655,-122.3035,60.0,11.9
2026-01-20T23:11:55+00:00,SAT-53220,266.6172756965672,31.529960971100454,4002.5455955887282,0.7066685764068256,-24750.52275088144,10.5,10499975249.47725,47.655,-122.3035,60.0,11.916666666666666
2026-01-20T23:11:56+00:00,SAT-53220,266.48935741341063,31.502572633503434,4003.2503797155982,0.7185792451913925,-25167.684753795977,10.5,10499974832.315247,47.655,-122.3035,60.0,11.933333333333334
2026-01-20T23:11:57+00:00,SAT-53220,266.36158592683665,31.47496239008837,4003.9670427494693,0.7304824887474161,-25584.586693798243,10.5,10499974415.413305,47.655,-122.3035,60.0,11.95
2026-01-20T23:11:58+00:00,SAT-53220,266.23396253461374,31.44713088987624,4004.6955772849133,0.7423781967032846,-26001.22470520752,10.5,10499973998.775295,47.655,-122.3035,60.0,11.966666666666667
2026-01-20T23:11:59+00:00,SAT-53220,266.10648852401187,31.419078786843126,4005.435975806425,0.7542662462349858,-26417.59448620736,10.5,10499973582.405514,47.655,-122.3035,60.0,11.983333333333333
2026-01-20T23:12:00+00:00,SAT-53220,265.9791651741876,31.39080674040405,4006.1882306760035,0.766146525468102,-26833.692118482417,10.5,10499973166.307882,47.655,-122.3035,60.0,12.0
2026-01-20T23:12:01+00:00,SAT-53220,265.85199375410224,31.36231541490485,4006.9523341440704,0.7780189199332453,-27249.51359283053,10.5,10499972750.486406,47.655,-122.3035,60.0,12.016666666666667
2026-01-20T23:12:02+00:00,SAT-53220,265.72497552308283,31.333605479696846,4007.7282783468836,0.7898833141811805,-27665.05486573113,10.5,10499972334.945135,47.655,-122.3035,60.0,12.033333333333333
2026-01-20T23:12:03+00:00,SAT-53220,265.59811173098814,31.304677609126337,4008.5160553055607,0.8017395901763413,-28080.3118030794,10.5,10499971919.688196,47.655,-122.3035,60.0,12.05
2026-01-20T23:12:04+00:00,SAT-53220,265.47140361865615,31.275532482595096,4009.315656923496,0.813587638949803,-28495.280588322643,10.5,10499971504.719412,47.655,-122.3035,60.0,12.066666666666666
2026-01-20T23:12:05+00:00,SAT-53220,265.3448524163583,31.24617078414989,4010.1270749954087,0.8254273440109876,-28909.95714146808,10.5,10499971090.042858,47.655,-122.3035,60.0,12.083333333333334
2026-01-20T23:12:06+00:00,SAT-53220,265.21845934515534,31.216593202749603,4010.950301199836,0.8372585928268246,-29324.33752113156,10.5,10499970675.66248,47.655,-122.3035,60.0,12.1
2026-01-20T23:12:07+00:00,SAT-53220,265.09222561617287,31.186800432046148,4011.785327103082,0.8490812707241303,-29738.417710973128,10.5,10499970261.582289,47.655,-122.3035,60.0,12.116666666666667
2026-01-20T23:12:08+00:00,SAT-53220,264.9661524310415,31.156793170440473,4012.632144157084,0.8608952660785311,-30152.193801435045,10.5,10499969847.806198,47.655,-122.3035,60.0,12.133333333333333
2026-01-20T23:12:09+00:00,SAT-53220,264.840240981378,31.126572120906285,4013.490743702453,0.8727004692909093,-30565.661953892606,10.5,10499969434.338047,47.655,-122.3035,60.0,12.15
2026-01-20T23:12:10+00:00,SAT-53220,264.7144924485307,31.09613799087725,4014.3611169704927,0.8844967630641425,-30978.818060104422,10.5,10499969021.18194,47.655,-122.3035,60.0,12.166666666666666
2026-01-20T23:12:11+00:00,SAT-53220,264.588908004764,31.065491492485815,4015.2432550755216,0.8962840365575319,-31391.658237960357,10.5,10499968608.341763,47.655,-122.3035,60.0,12.183333333333334
2026-01-20T23:12:12+00:00,SAT-53220,264.46348881230915,31.034633342280692,4016.1371490213155,0.9080621858828254,-31804.178848854383,10.5,10499968195.821152,47.655,-122.3035,60.0,12.2
2026-01-20T23:12:13+00:00,SAT-53220,264.33823602234077,31.003564260915553,4017.0427897080353,0.9198310923513948,-32216.375735808684,10.5,10499967783.624264,47.655,-122.3035,60.0,12.216666666666667
2026-01-20T23:12:14+00:00,SAT-53220,264.2131507772382,30.972284973663676,4017.9601679174743,0.9315906474695004,-32628.245098913576,10.5,10499967371.754902,47.655,-122.3035,60.0,12.233333333333333
2026-01-20T23:12:15+00:00,SAT-53220,264.0882342090699,30.940796209984242,4018.8892743232173,0.9433407426229543,-33039.78313404075,10.5,10499966960.216866,47.655,-122.3035,60.0,12.25
2026-01-20T23:12:16+00:00,SAT-53220,263.96348743964705,30.909098703485274,4019.8300994905267,0.9550812675184107,-33450.985978250705,10.5,10499966549.01402,47.655,-122.3035,60.0,12.266666666666667
2026-01-20T23:12:17+00:00,SAT-53220,263.8389115808151,30.87719319193886,4020.7826338746645,0.9668121138298424,-33861.84983750774,10.5,10499966138.150162,47.655,-122.3035,60.0,12.283333333333333
2026-01-20T23:12:18+00:00,SAT-53220,263.71450773421407,30.84508041716818,4021.7468678228574,0.9785331705412152,-34272.37082356074,10.5,10499965727.629177,47.655,-122.3035,60.0,12.3
2026-01-20T23:12:19+00:00,SAT-53220,263.5902769916603,30.81276112509258,4022.7227915716107,0.9902443323615896,-34682.54524867564,10.5,10499965317.454752,47.655,-122.3035,60.0,12.316666666666666
2026-01-20T23:12:20+00:00,SAT-53220,263.46622043442346,30.780236065482097,4023.71039525242,1.001945487375383,-35092.369193095314,10.5,10499964907.630806,47.655,-122.3035,60.0,12.333333333333334
2026-01-20T23:12:21+00:00,SAT-53220,263.34233913410833,30.747505992136727,4024.7096688851616,1.013636534493109,-35501.83911623836,10.5,10499964498.160883,47.655,-122.3035,60.0,12.35
2026-01-20T23:12:22+00:00,SAT-53220,263.21863415132583,30.71457166247462,4025.720602388896,1.0253173578736954,-35910.9509608604,10.5,10499964089.04904,47.655,-122.3035,60.0,12.366666666666667
2026-01-20T23:12:23+00:00,SAT-53220,263.09510653758264,30.681433837984912,4026.743185567149,1.0369878596380797,-36319.70129882266,10.5,10499963680.2987,47.655,-122.3035,60.0,12.383333333333333
2026-01-20T23:12:24+00:00,SAT-53220,262.9717573330587,30.64809328357094,4027.777408125828,1.0486479280109477,-36728.08621528081,10.5,10499963271.913784,47.655,-122.3035,60.0,12.4
2026-01-20T23:12:25+00:00,SAT-53220,262.84858756839714,30.61455076797658,4028.8232596593643,1.0602974564796002,-37136.10197970959,10.5,10499962863.89802,47.655,-122.3035,60.0,12.416666666666666
2026-01-20T23:12:26+00:00,SAT-53220,262.72559826407087,30.580807063563658,4029.8807296559603,1.071936346828534,-37543.7451521866,10.5,10499962456.254848,47.655,-122.3035,60.0,12.433333333333334
2026-01-20T23:12:27+00:00,SAT-53220,262.6027904294058,30.54686294597588,4030.9498075058636,1.0835644863386704,-37951.011784812945,10.5,10499962048.988214,47.655,-122.3035,60.0,12.45
2026-01-20T23:12:28+00:00,SAT-53220,262.480165064424,30.512719194597427,4032.0304824869054,1.0951817742783099,-38357.89834953838,10.5,10499961642.10165,47.655,-122.3035,60.0,12.466666666666667
2026-01-20T23:12:29+00:00,SAT-53220,262.3577231583649,30.478376592083812,4033.1227437764524,1.1067881070854777,-38764.401219184496,10.5,10499961235.598782,47.655,-122.3035,60.0,12.483333333333333
2026-01-20T23:12:30+00:00,SAT-53220,262.2354656901608,30.443835924431475,4034.2265804485855,1.1183833802427456,-39170.516733108845,10.5,10499960829.483267,47.655,-122.3035,60.0,12.5
2026-01-20T23:12:31+00:00,SAT-53220,262.1133936285363,30.409097980949426,4035.3419814731474,1.129967487319238,-39576.24116365195,10.5,10499960423.758837,47.655,-122.3035,60.0,12.516666666666667
2026-01-20T23:12:32+00:00,SAT-53220,261.99150793227636,30.37416355428242,4036.468935713834,1.1415403333200398,-39981.57118369008,10.5,10499960018.428816,47.655,-122.3035,60.0,12.533333333333333
