satellites_20260121_005943/SAT-56496.csv

timestamp,satellite,azimuth_deg,elevation_deg,distance_km,relative_velocity_kms,doppler_shift_hz,tx_freq_ghz,rx_freq_hz,ue_lat,ue_lon,ue_alt_m,time_minutes
2026-01-20T23:06:25+00:00,SAT-56496,251.39953028922508,30.01900010983442,3616.5986616235195,-5.493108517781603,192391.89611870365,10.5,10500192391.896118,47.655,-122.3035,60.0,6.416666666666667
2026-01-20T23:06:26+00:00,SAT-56496,251.45086784123632,30.081590949811876,3611.120201395119,-5.490031362522283,192284.12112516846,10.5,10500192284.121124,47.655,-122.3035,60.0,6.433333333333334
2026-01-20T23:06:27+00:00,SAT-56496,251.5024791905302,30.144241721441073,3605.64481011623,-5.486933933423999,192175.63605603445,10.5,10500192175.636057,47.655,-122.3035,60.0,6.45
2026-01-20T23:06:28+00:00,SAT-56496,251.55436593363038,30.206952344211345,3600.172508006628,-5.483816112489811,192066.43677854972,10.5,10500192066.436779,47.655,-122.3035,60.0,6.466666666666667
2026-01-20T23:06:29+00:00,SAT-56496,251.6065296778624,30.269722733782434,3594.7033154037717,-5.480677782366183,191956.519182497,10.5,10500191956.519182,47.655,-122.3035,60.0,6.483333333333333
2026-01-20T23:06:30+00:00,SAT-56496,251.65897204143545,30.332552801938924,3589.2372527621583,-5.477518880463311,191845.8810757166,10.5,10500191845.881075,47.655,-122.3035,60.0,6.5
2026-01-20T23:06:31+00:00,SAT-56496,251.71169465408508,30.3954424571667,3583.77434059871,-5.474339268907777,191734.51762929824,10.5,10500191734.51763,47.655,-122.3035,60.0,6.516666666666667
2026-01-20T23:06:32+00:00,SAT-56496,251.76469915639325,30.45839160374317,3578.3145995678524,-5.4711388512572565,191622.4254654238,10.5,10500191622.425465,47.655,-122.3035,60.0,6.533333333333333
2026-01-20T23:06:33+00:00,SAT-56496,251.8179872002787,30.521400142158804,3572.8580504201987,-5.467917516736612,191509.60070427932,10.5,10500191509.600704,47.655,-122.3035,60.0,6.55
2026-01-20T23:06:34+00:00,SAT-56496,251.87156044894863,30.58446796889957,3567.40471401684,-5.464675167480505,191396.03991820666,10.5,10500191396.039919,47.655,-122.3035,60.0,6.566666666666666
2026-01-20T23:06:35+00:00,SAT-56496,251.92542057709858,30.6475949765442,3561.954611316473,-5.4614116963526484,191281.73935483999,10.5,10500191281.739355,47.655,-122.3035,60.0,6.583333333333333
2026-01-20T23:06:36+00:00,SAT-56496,251.97956927091465,30.71078105360248,3556.5077633846436,-5.458126985337807,191166.6948807864,10.5,10500191166.694881,47.655,-122.3035,60.0,6.6
2026-01-20T23:06:37+00:00,SAT-56496,252.0340082280332,30.774026084337304,3551.0641914046,-5.454820930572123,191050.90285829434,10.5,10500191050.902859,47.655,-122.3035,60.0,6.616666666666666
2026-01-20T23:06:38+00:00,SAT-56496,252.0887391577746,30.837329948870845,3545.6239166631763,-5.4514934130630515,190934.3591197416,10.5,10500190934.35912,47.655,-122.3035,60.0,6.633333333333334
2026-01-20T23:06:39+00:00,SAT-56496,252.14376378106618,30.90069252295473,3540.1869605658812,-5.448144350986702,190817.06079930929,10.5,10500190817.060799,47.655,-122.3035,60.0,6.65
2026-01-20T23:06:40+00:00,SAT-56496,252.19908383092923,30.964113678342887,3534.7533445998306,-5.444773605426284,190699.00303154386,10.5,10500190699.00303,47.655,-122.3035,60.0,6.666666666666667
2026-01-20T23:06:41+00:00,SAT-56496,252.25470105194,31.027593282074207,3529.3230903906856,-5.441381074223017,190580.18223841267,10.5,10500190580.182238,47.655,-122.3035,60.0,6.683333333333334
2026-01-20T23:06:42+00:00,SAT-56496,252.31061720072702,31.091131196839083,3523.8962196659936,-5.43796663636774,190460.59418166307,10.5,10500190460.594181,47.655,-122.3035,60.0,6.7
2026-01-20T23:06:43+00:00,SAT-56496,252.36683404582828,31.154727280701245,3518.4727542739897,-5.434530207075167,190340.23589175567,10.5,10500190340.235891,47.655,-122.3035,60.0,6.716666666666667
2026-01-20T23:06:44+00:00,SAT-56496,252.42335336819787,31.21838138745993,3513.0527161474665,-5.431071649435973,190219.10257354678,10.5,10500190219.102573,47.655,-122.3035,60.0,6.733333333333333
2026-01-20T23:06:45+00:00,SAT-56496,252.48017696070121,31.28209336598351,3507.6361273557623,-5.427590836030824,190097.18976427236,10.5,10500190097.189764,47.655,-122.3035,60.0,6.75
2026-01-20T23:06:46+00:00,SAT-56496,252.53730662831487,31.345863060254832,3502.2230100952947,-5.424087693610004,189974.4948984175,10.5,10500189974.494898,47.655,-122.3035,60.0,6.766666666666667
2026-01-20T23:06:47+00:00,SAT-56496,252.5947441888091,31.409690309945315,3496.813386635534,-5.420562070104502,189851.01264988215,10.5,10500189851.01265,47.655,-122.3035,60.0,6.783333333333333
2026-01-20T23:06:48+00:00,SAT-56496,252.65249147195732,31.473574949427586,3491.4072793976165,-5.417013867981354,189726.73960264944,10.5,10500189726.739603,47.655,-122.3035,60.0,6.8
2026-01-20T23:06:49+00:00,SAT-56496,252.7105503202327,31.537516808351196,3486.0047108999497,-5.413442970692046,189601.67167469728,10.5,10500189601.671675,47.655,-122.3035,60.0,6.816666666666666
2026-01-20T23:06:50+00:00,SAT-56496,252.76892258868827,31.601515711354512,3480.6057037771798,-5.409849256211993,189475.80459220867,10.5,10500189475.804592,47.655,-122.3035,60.0,6.833333333333333
2026-01-20T23:06:51+00:00,SAT-56496,252.827610144968,31.66557147793446,3475.210280785651,-5.406232588236148,189349.13358120422,10.5,10500189349.133581,47.655,-122.3035,60.0,6.85
2026-01-20T23:06:52+00:00,SAT-56496,252.88661486924542,31.729683922210853,3469.81846481765,-5.402592885121546,189221.6557822019,10.5,10500189221.655783,47.655,-122.3035,60.0,6.866666666666666
2026-01-20T23:06:53+00:00,SAT-56496,252.9459386549226,31.79385285350374,3464.430278846889,-5.398930009003916,189093.3663666119,10.5,10500189093.366367,47.655,-122.3035,60.0,6.883333333333334
2026-01-20T23:06:54+00:00,SAT-56496,253.00558340809076,31.85807807560231,3459.045745984575,-5.3952438400318234,188964.26113672997,10.5,10500188964.261137,47.655,-122.3035,60.0,6.9
2026-01-20T23:06:55+00:00,SAT-56496,253.065551047809,31.922359386907182,3453.6648894614505,-5.391534239047583,188834.33521866522,10.5,10500188834.335218,47.655,-122.3035,60.0,6.916666666666667
2026-01-20T23:06:56+00:00,SAT-56496,253.12584350597126,31.98669658013013,3448.2877326470402,-5.387801121600822,188703.58565460853,10.5,10500188703.585655,47.655,-122.3035,60.0,6.933333333333334
2026-01-20T23:06:57+00:00,SAT-56496,253.18646272803875,32.051089442873824,3442.914298995097,-5.384044347315141,188572.00752798456,10.5,10500188572.007528,47.655,-122.3035,60.0,6.95
2026-01-20T23:06:58+00:00,SAT-56496,253.247410672475,32.115537756894746,3437.5446120993747,-5.3802637933202835,188439.59653535706,10.5,10500188439.596535,47.655,-122.3035,60.0,6.966666666666667
2026-01-20T23:06:59+00:00,SAT-56496,253.30868931102714,32.18004129823807,3432.17869567617,-5.376459327027806,188306.34803291806,10.5,10500188306.348032,47.655,-122.3035,60.0,6.983333333333333
2026-01-20T23:07:00+00:00,SAT-56496,253.37030062871452,32.24459983704663,3426.816573574014,-5.372630824598784,188172.2576833045,10.5,10500188172.257683,47.655,-122.3035,60.0,7.0
2026-01-20T23:07:01+00:00,SAT-56496,253.4322466240003,32.30921313758963,3421.4582697649475,-5.368778197814904,188037.32239673784,10.5,10500188037.322397,47.655,-122.3035,60.0,7.016666666666667
2026-01-20T23:07:02+00:00,SAT-56496,253.49452930934044,32.37388095861555,3416.1038083089934,-5.364901284386347,187901.53648914225,10.5,10500187901.53649,47.655,-122.3035,60.0,7.033333333333333
2026-01-20T23:07:03+00:00,SAT-56496,253.5571507103485,32.4386030523859,3410.7532134280323,-5.36099995343941,187764.89537676697,10.5,10500187764.895376,47.655,-122.3035,60.0,7.05
2026-01-20T23:07:04+00:00,SAT-56496,253.62011286628194,32.503379164972934,3405.4065094744687,-5.357074096583012,187627.39526329786,10.5,10500187627.395264,47.655,-122.3035,60.0,7.066666666666666
2026-01-20T23:07:05+00:00,SAT-56496,253.683417830397,32.568209036450924,3400.06372090881,-5.353123595289122,187489.03199738194,10.5,10500187489.031998,47.655,-122.3035,60.0,7.083333333333333
2026-01-20T23:07:06+00:00,SAT-56496,253.74706766991793,32.63309240069527,3394.724872309775,-5.349148298310521,187349.80028170178,10.5,10500187349.800282,47.655,-122.3035,60.0,7.1
2026-01-20T23:07:07+00:00,SAT-56496,253.8110644657271,32.69802898490577,3389.3899884069265,-5.345148085753591,187209.69591707576,10.5,10500187209.695917,47.655,-122.3035,60.0,7.116666666666666
2026-01-20T23:07:08+00:00,SAT-56496,253.87541031282663,32.763018509902636,3384.0590940494017,-5.3411228141722855,187068.71387941655,10.5,10500187068.713879,47.655,-122.3035,60.0,7.133333333333334
2026-01-20T23:07:09+00:00,SAT-56496,253.94010732014726,32.82806068975696,3378.7322142294006,-5.337072398685774,186926.85119583836,10.5,10500186926.851196,47.655,-122.3035,60.0,7.15
2026-01-20T23:07:10+00:00,SAT-56496,254.00515761137478,32.89315523241869,3373.4093740237777,-5.332996653334917,186784.1013532656,10.5,10500186784.101353,47.655,-122.3035,60.0,7.166666666666667
2026-01-20T23:07:11+00:00,SAT-56496,254.0705633237491,32.95830183840247,3368.090598694852,-5.328895473454902,186640.46068589384,10.5,10500186640.460686,47.655,-122.3035,60.0,7.183333333333334
2026-01-20T23:07:12+00:00,SAT-56496,254.13632660919285,33.02350020168847,3362.7759136093264,-5.324768712762293,186495.92407025822,10.5,10500186495.92407,47.655,-122.3035,60.0,7.2
2026-01-20T23:07:13+00:00,SAT-56496,254.20244963386875,33.08875000912796,3357.4653442797976,-5.320616269959743,186350.48795849725,10.5,10500186350.487959,47.655,-122.3035,60.0,7.216666666666667
2026-01-20T23:07:14+00:00,SAT-56496,254.26893457884336,33.15405094090423,3352.1589163198914,-5.316437964938737,186204.14604244893,10.5,10500186204.146042,47.655,-122.3035,60.0,7.233333333333333
2026-01-20T23:07:15+00:00,SAT-56496,254.3357836391607,33.21940266947882,3346.856655522859,-5.312233694921487,186056.8947224003,10.5,10500186056.894722,47.655,-122.3035,60.0,7.25
2026-01-20T23:07:16+00:00,SAT-56496,254.40299902492484,33.284804860445554,3341.5585877844574,-5.308003315259495,185908.7289321491,10.5,10500185908.728931,47.655,-122.3035,60.0,7.266666666666667
2026-01-20T23:07:17+00:00,SAT-56496,254.47058296085766,33.3502571719261,3336.2647391447053,-5.303746698488705,185759.64420736497,10.5,10500185759.644207,47.655,-122.3035,60.0,7.283333333333333
2026-01-20T23:07:18+00:00,SAT-56496,254.5385376865956,33.41575925468746,3330.975135770746,-5.299463680398735,185609.63479670565,10.5,10500185609.634796,47.655,-122.3035,60.0,7.3
2026-01-20T23:07:19+00:00,SAT-56496,254.60686545629892,33.481310751593995,3325.689803993495,-5.295154150302877,185458.69682345446,10.5,10500185458.696823,47.655,-122.3035,60.0,7.316666666666666
2026-01-20T23:07:20+00:00,SAT-56496,254.67556853944723,33.54691129817037,3320.4087702542593,-5.290817965234844,185306.8252803273,10.5,10500185306.825281,47.655,-122.3035,60.0,7.333333333333333
2026-01-20T23:07:21+00:00,SAT-56496,254.74464922049845,33.61256052210798,3315.132061136932,-5.286454971869814,185154.0147972403,10.5,10500185154.014797,47.655,-122.3035,60.0,7.35
2026-01-20T23:07:22+00:00,SAT-56496,254.81410979882833,33.678258043037054,3309.859703378321,-5.2820650486909155,185000.26111815864,10.5,10500185000.261118,47.655,-122.3035,60.0,7.366666666666666
2026-01-20T23:07:23+00:00,SAT-56496,254.88395258925883,33.7440034728203,3304.5917238364264,-5.277648036241656,184845.55865824147,10.5,10500184845.558659,47.655,-122.3035,60.0,7.383333333333334
2026-01-20T23:07:24+00:00,SAT-56496,254.95417992160705,33.80979641498259,3299.3281495282813,-5.273203811490669,184689.90310840984,10.5,10500184689.903109,47.655,-122.3035,60.0,7.4
2026-01-20T23:07:25+00:00,SAT-56496,255.024794141294,33.875636465060104,3294.069007593621,-5.268732213496444,184533.28883181128,10.5,10500184533.288832,47.655,-122.3035,60.0,7.416666666666667
2026-01-20T23:07:26+00:00,SAT-56496,255.09579760888002,33.94152321002573,3288.814325332694,-5.2642331131259255,184375.71130566005,10.5,10500184375.711306,47.655,-122.3035,60.0,7.433333333333334
2026-01-20T23:07:27+00:00,SAT-56496,255.16719270061296,34.007456228580054,3283.5641301745363,-5.25970636599642,184217.16547306342,10.5,10500184217.165474,47.655,-122.3035,60.0,7.45
2026-01-20T23:07:28+00:00,SAT-56496,255.2389818082865,34.073435090855945,3278.3184496921826,-5.255151818911687,184057.64596844098,10.5,10500184057.64597,47.655,-122.3035,60.0,7.466666666666667
2026-01-20T23:07:29+00:00,SAT-56496,255.31116733919941,34.13945935819982,3273.0773116114547,-5.2505693304707535,183897.1478393326,10.5,10500183897.147839,47.655,-122.3035,60.0,7.483333333333333
2026-01-20T23:07:30+00:00,SAT-56496,255.38375171640536,34.20552858321109,3267.840743799198,-5.245958745806353,183735.6656616315,10.5,10500183735.66566,47.655,-122.3035,60.0,7.5
2026-01-20T23:07:31+00:00,SAT-56496,255.45673737860392,34.27164230946267,3262.6087742767145,-5.241319940109364,183573.19506399432,10.5,10500183573.195065,47.655,-122.3035,60.0,7.516666666666667
2026-01-20T23:07:32+00:00,SAT-56496,255.53012678064914,34.33780007176768,3257.3814311897786,-5.236652761484081,183409.73072639093,10.5,10500183409.730726,47.655,-122.3035,60.0,7.533333333333333
2026-01-20T23:07:33+00:00,SAT-56496,255.60392239325472,34.404001395726524,3252.158742835659,-5.23195702067607,183245.26602033043,10.5,10500183245.26602,47.655,-122.3035,60.0,7.55
2026-01-20T23:07:34+00:00,SAT-56496,255.67812670249333,34.47024579714039,3246.9407377003704,-5.227232617916197,183079.7974514758,10.5,10500183079.797451,47.655,-122.3035,60.0,7.566666666666666
2026-01-20T23:07:35+00:00,SAT-56496,255.7527422112243,34.53653278302503,3241.727444369436,-5.22247940292896,182913.31975654332,10.5,10500182913.319757,47.655,-122.3035,60.0,7.583333333333333
2026-01-20T23:07:36+00:00,SAT-56496,255.8277714384088,34.60286185085794,3236.518891578248,-5.2176971800838,182745.82608372322,10.5,10500182745.826084,47.655,-122.3035,60.0,7.6
2026-01-20T23:07:37+00:00,SAT-56496,255.9032169185141,34.66923248788368,3231.315108257311,-5.212885824571598,182577.31206167224,10.5,10500182577.312061,47.655,-122.3035,60.0,7.616666666666666
2026-01-20T23:07:38+00:00,SAT-56496,255.97908120264134,34.73564417189103,3226.116123461605,-5.208045202040388,182407.7729848163,10.5,10500182407.772985,47.655,-122.3035,60.0,7.633333333333334
2026-01-20T23:07:39+00:00,SAT-56496,256.0553668584718,34.80209637097293,3220.9219663801036,-5.203175132121965,182237.20253589776,10.5,10500182237.202536,47.655,-122.3035,60.0,7.65
2026-01-20T23:07:40+00:00,SAT-56496,256.13207646963326,34.86858854281836,3215.732666381667,-5.198275465522701,182065.5954860224,10.5,10500182065.595486,47.655,-122.3035,60.0,7.666666666666667
2026-01-20T23:07:41+00:00,SAT-56496,256.20921263625087,34.93512013498251,3210.5482529840524,-5.193346056021671,181892.94671391483,10.5,10500181892.946714,47.655,-122.3035,60.0,7.683333333333334
2026-01-20T23:07:42+00:00,SAT-56496,256.2867779750566,35.00169058480136,3205.368755850847,-5.188386743970784,181719.25062802355,10.5,10500181719.250628,47.655,-122.3035,60.0,7.7
2026-01-20T23:07:43+00:00,SAT-56496,256.36477511926967,35.06829931909365,3200.19420480486,-5.183397368103266,181544.50158010412,10.5,10500181544.50158,47.655,-122.3035,60.0,7.716666666666667
2026-01-20T23:07:44+00:00,SAT-56496,256.4432067186186,35.134945754010246,3195.0246298297384,-5.178377793714962,181368.6948522471,10.5,10500181368.694853,47.655,-122.3035,60.0,7.733333333333333
2026-01-20T23:07:45+00:00,SAT-56496,256.5220754398515,35.201629295246896,3189.860061043473,-5.173327822783119,181191.8235088581,10.5,10500181191.82351,47.655,-122.3035,60.0,7.75
2026-01-20T23:07:46+00:00,SAT-56496,256.6013839657782,35.2683493370974,3184.7005287615507,-5.168247332077151,181013.88323388068,10.5,10500181013.883234,47.655,-122.3035,60.0,7.766666666666667
2026-01-20T23:07:47+00:00,SAT-56496,256.68113499653697,35.33510526328357,3179.546063422359,-5.163136139545619,180834.86765110347,10.5,10500180834.867651,47.655,-122.3035,60.0,7.783333333333333
2026-01-20T23:07:48+00:00,SAT-56496,256.76133124871194,35.401896446062615,3174.3966956458526,-5.157994098557972,180654.7716249043,10.5,10500180654.771626,47.655,-122.3035,60.0,7.8
2026-01-20T23:07:49+00:00,SAT-56496,256.84197545597374,35.46872224654784,3169.252456198224,-5.1528210474368,180473.5894926563,10.5,10500180473.589493,47.655,-122.3035,60.0,7.816666666666666
2026-01-20T23:07:50+00:00,SAT-56496,256.9230703688837,35.53558201437817,3164.1133760069133,-5.147616815755681,180291.31528530532,10.5,10500180291.315285,47.655,-122.3035,60.0,7.833333333333333
2026-01-20T23:07:51+00:00,SAT-56496,257.0046187548266,35.602475087463716,3158.979486169333,-5.1423812449724124,180107.94345003282,10.5,10500180107.94345,47.655,-122.3035,60.0,7.85
2026-01-20T23:07:52+00:00,SAT-56496,257.0866233982421,35.669400791999976,3153.850817941014,-5.137114162739506,179923.46795050064,10.5,10500179923.46795,47.655,-122.3035,60.0,7.866666666666666
2026-01-20T23:07:53+00:00,SAT-56496,257.1690871004705,35.736358442145885,3148.7274027493754,-5.131815426570941,179737.88379624573,10.5,10500179737.883797,47.655,-122.3035,60.0,7.883333333333334
2026-01-20T23:07:54+00:00,SAT-56496,257.25201268028957,35.803347340268424,3143.609272163942,-5.126484862582373,179551.1848971028,10.5,10500179551.184896,47.655,-122.3035,60.0,7.9
2026-01-20T23:07:55+00:00,SAT-56496,257.33540297345974,35.87036677638923,3138.49645792766,-5.121122287100639,179363.36482006064,10.5,10500179363.36482,47.655,-122.3035,60.0,7.916666666666667
2026-01-20T23:07:56+00:00,SAT-56496,257.41926083258636,35.9374160279083,3133.3889919666576,-5.1157275378659035,179174.41788209358,10.5,10500179174.417883,47.655,-122.3035,60.0,7.933333333333334
2026-01-20T23:07:57+00:00,SAT-56496,257.50358912753677,36.00449435973418,3128.286906368893,-5.11030048224399,178984.33943779164,10.5,10500178984.339437,47.655,-122.3035,60.0,7.95
2026-01-20T23:07:58+00:00,SAT-56496,257.58839074600274,36.07160102452373,3123.1902333546013,-5.104840916710666,178793.12235887532,10.5,10500178793.122358,47.655,-122.3035,60.0,7.966666666666667
2026-01-20T23:07:59+00:00,SAT-56496,257.67366859232493,36.13873526160073,3118.0990053470023,-5.0993486677927375,178600.76056957958,10.5,10500178600.76057,47.655,-122.3035,60.0,7.983333333333333
2026-01-20T23:08:00+00:00,SAT-56496,257.7594255880313,36.20589629719425,3113.0132549423233,-5.093823582968879,178407.24872796243,10.5,10500178407.248728,47.655,-122.3035,60.0,8.0
2026-01-20T23:08:01+00:00,SAT-56496,257.8456646722671,36.27308334456059,3107.9330148889094,-5.088265499991454,178212.58115142531,10.5,10500178212.581152,47.655,-122.3035,60.0,8.016666666666667
2026-01-20T23:08:02+00:00,SAT-56496,257.9323888016465,36.34029560369861,3102.858318096918,-5.0826742211355285,178016.7509148047,10.5,10500178016.750916,47.655,-122.3035,60.0,8.033333333333333
2026-01-20T23:08:03+00:00,SAT-56496,258.0196009496704,36.40753226072275,3097.7891976737055,-5.077049595886228,177819.752746433,10.5,10500177819.752747,47.655,-122.3035,60.0,8.05
2026-01-20T23:08:04+00:00,SAT-56496,258.10730410758754,36.474792488326216,3092.7256868767417,-5.0713914335025745,177621.57996575427,10.5,10500177621.579966,47.655,-122.3035,60.0,8.066666666666666
2026-01-20T23:08:05+00:00,SAT-56496,258.1955012837059,36.542075445086574,3087.6678191537285,-5.065699577069173,177422.2270769277,10.5,10500177422.227077,47.655,-122.3035,60.0,8.083333333333334
2026-01-20T23:08:06+00:00,SAT-56496,258.2841955040295,36.609380275751185,3082.6156281088647,-5.059973839175919,177221.68751605868,10.5,10500177221.687515,47.655,-122.3035,60.0,8.1
2026-01-20T23:08:07+00:00,SAT-56496,258.3733898117338,36.67670611066656,3077.5691475332596,-5.054214043802928,177019.9551181863,10.5,10500177019.955118,47.655,-122.3035,60.0,8.116666666666667
2026-01-20T23:08:08+00:00,SAT-56496,258.46308726737567,36.74405206576246,3072.5284113935736,-5.04842002331086,176817.0240118717,10.5,10500176817.024012,47.655,-122.3035,60.0,8.133333333333333
2026-01-20T23:08:09+00:00,SAT-56496,258.55329094908853,36.81141724249522,3067.493453823658,-5.042591600299508,176612.88798380923,10.5,10500176612.887983,47.655,-122.3035,60.0,8.15
2026-01-20T23:08:10+00:00,SAT-56496,258.6440039523966,36.87880072754746,3062.4643091342928,-5.036728584123436,176407.54035678937,10.5,10500176407.540358,47.655,-122.3035,60.0,8.166666666666666
2026-01-20T23:08:11+00:00,SAT-56496,258.73522938999463,36.94620159247854,3057.4410118263936,-5.030830808382348,176200.97530276977,10.5,10500176200.975304,47.655,-122.3035,60.0,8.183333333333334
2026-01-20T23:08:12+00:00,SAT-56496,258.8269703921913,37.013618893875005,3052.423596566834,-5.0248980938240795,175993.18654358154,10.5,10500175993.186544,47.655,-122.3035,60.0,8.2
2026-01-20T23:08:13+00:00,SAT-56496,258.91923010669416,37.08105167300359,3047.41209820126,-5.018930251028007,175784.1674449131,10.5,10500175784.167444,47.655,-122.3035,60.0,8.216666666666667
2026-01-20T23:08:14+00:00,SAT-56496,259.0120116983968,37.148498955496535,3042.406551764235,-5.012927099154294,175573.91167298844,10.5,10500175573.911673,47.655,-122.3035,60.0,8.233333333333333
2026-01-20T23:08:15+00:00,SAT-56496,259.1053183495474,37.21595975128857,3037.406992470678,-5.006888464292166,175362.41313671655,10.5,10500175362.413137,47.655,-122.3035,60.0,8.25
2026-01-20T23:08:16+00:00,SAT-56496,259.1991532598739,37.28343305452858,3032.4134557089574,-5.000814164053239,175149.6654480848,10.5,10500175149.665447,47.655,-122.3035,60.0,8.266666666666667
2026-01-20T23:08:17+00:00,SAT-56496,259.2935196464198,37.35091784328438,3027.425977049342,-4.9947040059121735,174935.66186404135,10.5,10500174935.661863,47.655,-122.3035,60.0,8.283333333333333
2026-01-20T23:08:18+00:00,SAT-56496,259.38842074331103,37.418413079220784,3022.444592254112,-4.9885578014114245,174720.39578400587,10.5,10500174720.395784,47.655,-122.3035,60.0,8.3
2026-01-20T23:08:19+00:00,SAT-56496,259.483859801835,37.48591770746837,3017.469337273504,-4.98237539080888,174503.86161313383,10.5,10500174503.861612,47.655,-122.3035,60.0,8.316666666666666
2026-01-20T23:08:20+00:00,SAT-56496,259.5798400909746,37.55343065682508,3012.5002482170707,-4.9761565583078164,174286.0517933112,10.5,10500174286.051794,47.655,-122.3035,60.0,8.333333333333334
2026-01-20T23:08:21+00:00,SAT-56496,259.67636489627574,37.620950838807275,3007.537361409585,-4.969901134101847,174066.96037719998,10.5,10500174066.960377,47.655,-122.3035,60.0,8.35
2026-01-20T23:08:22+00:00,SAT-56496,259.7734375207254,37.68847714808243,3002.580713345174,-4.9636089309160525,173846.5808056404,10.5,10500173846.580805,47.655,-122.3035,60.0,8.366666666666667
2026-01-20T23:08:23+00:00,SAT-56496,259.8710612843741,37.75600846203976,2997.6303407047403,-4.957279743168931,173624.90587829857,10.5,10500173624.905878,47.655,-122.3035,60.0,8.383333333333333
2026-01-20T23:08:24+00:00,SAT-56496,259.9692395239096,37.82354364034503,2992.68628037422,-4.950913415769086,173401.9301632178,10.5,10500173401.930162,47.655,-122.3035,60.0,8.4
2026-01-20T23:08:25+00:00,SAT-56496,260.06797559366595,37.89108152543434,2987.7485693942267,-4.9445097206930475,173177.6456740516,10.5,10500173177.645674,47.655,-122.3035,60.0,8.416666666666666
2026-01-20T23:08:26+00:00,SAT-56496,260.167272864043,37.95862094132,2982.817245032789,-4.9380684801635075,172952.0461842867,10.5,10500172952.046185,47.655,-122.3035,60.0,8.433333333333334
2026-01-20T23:08:27+00:00,SAT-56496,260.2671347225116,38.026160694076324,2977.8923447352386,-4.931589519347784,172725.125570543,10.5,10500172725.12557,47.655,-122.3035,60.0,8.45
2026-01-20T23:08:28+00:00,SAT-56496,260.3675645736031,38.09369957168067,2972.973906121276,-4.925072633731634,172496.87666986661,10.5,10500172496.876669,47.655,-122.3035,60.0,8.466666666666667
2026-01-20T23:08:29+00:00,SAT-56496,260.4685658382384,38.16123634340318,2968.061967014568,-4.9185176218572515,172267.29242635297,10.5,10500172267.292427,47.655,-122.3035,60.0,8.483333333333333
2026-01-20T23:08:30+00:00,SAT-56496,260.5701419536922,38.228769759643676,2963.156565439702,-4.911924306812317,172036.36664378436,10.5,10500172036.366644,47.655,-122.3035,60.0,8.5
2026-01-20T23:08:31+00:00,SAT-56496,260.6722963740646,38.296298552062666,2958.2577395977078,-4.905292477330381,171804.0919227161,10.5,10500171804.091923,47.655,-122.3035,60.0,8.516666666666667
2026-01-20T23:08:32+00:00,SAT-56496,260.77503256944067,38.36382143290049,2953.3655279003174,-4.898621955222478,171570.4620222168,10.5,10500171570.462023,47.655,-122.3035,60.0,8.533333333333333
2026-01-20T23:08:33+00:00,SAT-56496,260.8783540265299,38.431337095223874,2948.479968936975,-4.8919125316829595,171335.46962902942,10.5,10500171335.46963,47.655,-122.3035,60.0,8.55
2026-01-20T23:08:34+00:00,SAT-56496,260.9822642478951,38.498844212292035,2943.601101505377,-4.885164010368232,171099.1078663708,10.5,10500171099.107866,47.655,-122.3035,60.0,8.566666666666666
2026-01-20T23:08:35+00:00,SAT-56496,261.08676675213155,38.56634143751589,2938.7289645990363,-4.878376206203969,170861.37025215515,10.5,10500170861.370253,47.655,-122.3035,60.0,8.583333333333334
2026-01-20T23:08:36+00:00,SAT-56496,261.1918650739967,38.63382740439937,2933.8635973960486,-4.871548900369033,170622.24912234067,10.5,10500170622.249123,47.655,-122.3035,60.0,8.6
2026-01-20T23:08:37+00:00,SAT-56496,261.2975627635582,38.70130072585584,2929.0050392927474,-4.864681922953868,170381.7385259759,10.5,10500170381.738525,47.655,-122.3035,60.0,8.616666666666667
2026-01-20T23:08:38+00:00,SAT-56496,261.4038633871565,38.76875999466932,2924.1533298549216,-4.8577750413381535,170139.8303157133,10.5,10500170139.830317,47.655,-122.3035,60.0,8.633333333333333
2026-01-20T23:08:39+00:00,SAT-56496,261.5107705258716,38.836203782403764,2919.30850888036,-4.850828084127314,169896.51848858982,10.5,10500169896.518488,47.655,-122.3035,60.0,8.65
2026-01-20T23:08:40+00:00,SAT-56496,261.6182877767704,38.90363064003361,2914.4706163377905,-4.843840838051497,169651.79557499313,10.5,10500169651.795574,47.655,-122.3035,60.0,8.666666666666666
2026-01-20T23:08:41+00:00,SAT-56496,261.72641875181466,38.97103909713988,2909.6396924086403,-4.836813096943223,169405.65435406595,10.5,10500169405.654354,47.655,-122.3035,60.0,8.683333333333334
2026-01-20T23:08:42+00:00,SAT-56496,261.8351670778622,39.03842766178301,2904.815777479956,-4.829744658913712,169158.08775480927,10.5,10500169158.087755,47.655,-122.3035,60.0,8.7
2026-01-20T23:08:43+00:00,SAT-56496,261.9445363966204,39.10579482033912,2899.9989121401322,-4.822635336957403,168909.0892274973,10.5,10500168909.089228,47.655,-122.3035,60.0,8.716666666666667
2026-01-20T23:08:44+00:00,SAT-56496,262.0545303648162,39.173139037480276,2895.1891371640736,-4.8154848905171095,168658.65034679975,10.5,10500168658.650347,47.655,-122.3035,60.0,8.733333333333333
2026-01-20T23:08:45+00:00,SAT-56496,262.16515265276956,39.240458755197494,2890.386493566598,-4.808293172476421,168406.76596007767,10.5,10500168406.76596,47.655,-122.3035,60.0,8.75
2026-01-20T23:08:46+00:00,SAT-56496,262.27640694642577,39.3077523938796,2885.591022509248,-4.801059920404878,168153.42687590633,10.5,10500168153.426876,47.655,-122.3035,60.0,8.766666666666667
2026-01-20T23:08:47+00:00,SAT-56496,262.38829694441756,39.37501835046687,2880.802765415298,-4.793784965259439,167898.6271736833,10.5,10500167898.627174,47.655,-122.3035,60.0,8.783333333333333
2026-01-20T23:08:48+00:00,SAT-56496,262.50082636009415,39.44225499952709,2876.021763876612,-4.786468080346135,167642.3589136269,10.5,10500167642.358913,47.655,-122.3035,60.0,8.8
2026-01-20T23:08:49+00:00,SAT-56496,262.6139989199377,39.50946069221391,2871.248059711147,-4.779109070610727,167384.6152641126,10.5,10500167384.615265,47.655,-122.3035,60.0,8.816666666666666
2026-01-20T23:08:50+00:00,SAT-56496,262.7278183641028,39.576633756475985,2866.4816949313913,-4.7717077284332445,167125.38895341076,10.5,10500167125.388954,47.655,-122.3035,60.0,8.833333333333334
2026-01-20T23:08:51+00:00,SAT-56496,262.8422884458944,39.64377249664458,2861.7227117569005,-4.7642638372261725,166864.67239571054,10.5,10500166864.672396,47.655,-122.3035,60.0,8.85
2026-01-20T23:08:52+00:00,SAT-56496,262.95741293130067,39.71087519306941,2856.9711526232404,-4.756777179965952,166602.4579899288,10.5,10500166602.45799,47.655,-122.3035,60.0,8.866666666666667
2026-01-20T23:08:53+00:00,SAT-56496,263.073195598738,39.77794010187323,2852.227060182421,-4.749247587352887,166338.73980647407,10.5,10500166338.739807,47.655,-122.3035,60.0,8.883333333333333
2026-01-20T23:08:54+00:00,SAT-56496,263.1896402400003,39.844965455387864,2847.490477255301,-4.741674800880484,166073.50879135553,10.5,10500166073.508791,47.655,-122.3035,60.0,8.9
2026-01-20T23:08:55+00:00,SAT-56496,263.30675065774494,39.91194946065202,2842.761446920556,-4.734058629702059,165806.7582603149,10.5,10500165806.75826,47.655,-122.3035,60.0,8.916666666666666
2026-01-20T23:08:56+00:00,SAT-56496,263.4245306669118,39.97889030012496,2838.0400124472,-4.726398862539469,165538.48081349806,10.5,10500165538.480814,47.655,-122.3035,60.0,8.933333333333334
2026-01-20T23:08:57+00:00,SAT-56496,263.54298409394323,40.04578613115627,2833.3262173149606,-4.718695291266047,165268.66916142864,10.5,10500165268.66916,47.655,-122.3035,60.0,8.95
2026-01-20T23:08:58+00:00,SAT-56496,263.6621147765555,40.11263508578638,2828.620105211138,-4.7109477154282295,164997.31628337497,10.5,10500164997.316284,47.655,-122.3035,60.0,8.966666666666667
2026-01-20T23:08:59+00:00,SAT-56496,263.7819265636486,40.179435270611236,2823.921720022951,-4.703155877579668,164724.41316247694,10.5,10500164724.413162,47.655,-122.3035,60.0,8.983333333333333
2026-01-20T23:09:00+00:00,SAT-56496,263.9024233134628,40.24618476572592,2819.231105894378,-4.695319600468555,164449.95359062645,10.5,10500164449.95359,47.655,-122.3035,60.0,9.0
2026-01-20T23:09:01+00:00,SAT-56496,264.0236088953892,40.3128816256193,2814.548307146177,-4.687438669424893,164173.9300491721,10.5,10500164173.93005,47.655,-122.3035,60.0,9.016666666666667
2026-01-20T23:09:02+00:00,SAT-56496,264.1454871886216,40.379523878394075,2809.873368313204,-4.679512861832667,163896.33474115952,10.5,10500163896.334742,47.655,-122.3035,60.0,9.033333333333333
2026-01-20T23:09:03+00:00,SAT-56496,264.2680620816102,40.446109525407216,2805.2063341523367,-4.671541958362014,163617.159984729,10.5,10500163617.159985,47.655,-122.3035,60.0,9.05
2026-01-20T23:09:04+00:00,SAT-56496,264.39133747175663,40.512636541066584,2800.5472496391967,-4.6635257472606275,163336.39836341908,10.5,10500163336.398363,47.655,-122.3035,60.0,9.066666666666666
2026-01-20T23:09:05+00:00,SAT-56496,264.5153172652662,40.57910287269127,2795.8961599605955,-4.655464008069884,163054.0421558363,10.5,10500163054.042156,47.655,-122.3035,60.0,9.083333333333334
2026-01-20T23:09:06+00:00,SAT-56496,264.6400053764919,40.64550644013646,2791.2531105232138,-4.64735653222859,162770.08405728536,10.5,10500162770.084057,47.655,-122.3035,60.0,9.1
2026-01-20T23:09:07+00:00,SAT-56496,264.7654057278922,40.7118451357159,2786.618146941738,-4.639203102101795,162484.51644526975,10.5,10500162484.516445,47.655,-122.3035,60.0,9.116666666666667
2026-01-20T23:09:08+00:00,SAT-56496,264.8915222493374,40.77811682381936,2781.9913150479083,-4.631003488295864,162197.33128545407,10.5,10500162197.331285,47.655,-122.3035,60.0,9.133333333333333
2026-01-20T23:09:09+00:00,SAT-56496,265.01835887736434,40.84431934049501,2777.372660902248,-4.622757480381389,161908.52120771023,10.5,10500161908.521208,47.655,-122.3035,60.0,9.15
2026-01-20T23:09:10+00:00,SAT-56496,265.14591955524895,40.91045049347015,2772.7622307751476,-4.614464875517693,161618.0791076998,10.5,10500161618.079107,47.655,-122.3035,60.0,9.166666666666666
2026-01-20T23:09:11+00:00,SAT-56496,265.27420823280164,40.97650806200979,2768.160071139298,-4.606125419223384,161325.99607240796,10.5,10500161325.996073,47.655,-122.3035,60.0,9.183333333333334
2026-01-20T23:09:12+00:00,SAT-56496,265.4032288643713,41.04248979592265,2763.5662287211926,-4.597738919526576,161032.2653781672,10.5,10500161032.265379,47.655,-122.3035,60.0,9.2
2026-01-20T23:09:13+00:00,SAT-56496,265.53298541019586,41.1083934162098,2758.9807504387845,-4.589305152629137,160736.87918662032,10.5,10500160736.879187,47.655,-122.3035,60.0,9.216666666666667
2026-01-20T23:09:14+00:00,SAT-56496,265.66348183496063,41.17421661435574,2754.403683433229,-4.580823886521119,160439.82937179747,10.5,10500160439.829372,47.655,-122.3035,60.0,9.233333333333333
2026-01-20T23:09:15+00:00,SAT-56496,265.7947221070506,41.239957051959045,2749.8350750770724,-4.572294912237801,160141.1086148702,10.5,10500160141.108614,47.655,-122.3035,60.0,9.25
2026-01-20T23:09:16+00:00,SAT-56496,265.92671019869033,41.305612360814244,2745.274972951267,-4.563718004907691,159840.70903988768,10.5,10500159840.70904,47.655,-122.3035,60.0,9.266666666666667
2026-01-20T23:09:17+00:00,SAT-56496,266.05945008492904,41.37118014243242,2740.723424861039,-4.555092947137236,159538.6230328082,10.5,10500159538.623034,47.655,-122.3035,60.0,9.283333333333333
2026-01-20T23:09:18+00:00,SAT-56496,266.1929457433162,41.43665796790009,2736.1804788284276,-4.546419501644224,159234.84228300487,10.5,10500159234.842283,47.655,-122.3035,60.0,9.3
2026-01-20T23:09:19+00:00,SAT-56496,266.3272011526885,41.50204337734191,2731.6461831121205,-4.537697469880401,158929.359836478,10.5,10500158929.359837,47.655,-122.3035,60.0,9.316666666666666
2026-01-20T23:09:20+00:00,SAT-56496,266.46222029379584,41.56733388023326,2727.1205861688272,-4.528926621601885,158622.1676291129,10.5,10500158622.16763,47.655,-122.3035,60.0,9.333333333333334
2026-01-20T23:09:21+00:00,SAT-56496,266.59800714768926,41.63252695469309,2722.6037366848827,-4.52010671517152,158313.25719775434,10.5,10500158313.257198,47.655,-122.3035,60.0,9.35
2026-01-20T23:09:22+00:00,SAT-56496,266.7345656947515,41.69762004707433,2718.095683587618,-4.511237546996977,158002.6214117376,10.5,10500158002.621412,47.655,-122.3035,60.0,9.366666666666667
2026-01-20T23:09:23+00:00,SAT-56496,266.87189991522337,41.76261057226622,2713.596476007413,-4.502318901672863,157690.25272665487,10.5,10500157690.252728,47.655,-122.3035,60.0,9.383333333333333
2026-01-20T23:09:24+00:00,SAT-56496,267.0100137881955,41.827495913281325,2709.106163289478,-4.493350536796644,157376.14265254384,10.5,10500157376.142653,47.655,-122.3035,60.0,9.4
2026-01-20T23:09:25+00:00,SAT-56496,267.148911290057,41.89227342061963,2704.6247950207794,-4.4843322364582665,157060.28362732127,10.5,10500157060.283627,47.655,-122.3035,60.0,9.416666666666666
2026-01-20T23:09:26+00:00,SAT-56496,267.2885963946447,41.95694041241098,2700.1524210036187,-4.475263773302571,156742.66768804772,10.5,10500156742.667688,47.655,-122.3035,60.0,9.433333333333334
2026-01-20T23:09:27+00:00,SAT-56496,267.42907307214904,42.021494174008566,2695.6890912670447,-4.466144931146586,156423.28726308106,10.5,10500156423.287264,47.655,-122.3035,60.0,9.45
2026-01-20T23:09:28+00:00,SAT-56496,267.5703452887647,42.08593195791293,2691.2348560557148,-4.456975485763245,156102.13449904087,10.5,10500156102.134499,47.655,-122.3035,60.0,9.466666666666667
2026-01-20T23:09:29+00:00,SAT-56496,267.7124170056482,42.15025098341618,2686.7897658379134,-4.447755201947927,155779.2011580666,10.5,10500155779.201159,47.655,-122.3035,60.0,9.483333333333333
2026-01-20T23:09:30+00:00,SAT-56496,267.85529217780845,42.21444843621007,2682.3538713165044,-4.438483866549707,155454.47977471107,10.5,10500155454.479774,47.655,-122.3035,60.0,9.5
2026-01-20T23:09:31+00:00,SAT-56496,267.99897475401934,42.27852146847039,2677.9272234069317,-4.429161251666575,155127.96236688195,10.5,10500155127.962366,47.655,-122.3035,60.0,9.516666666666667
2026-01-20T23:09:32+00:00,SAT-56496,268.1434686755381,42.34246719841403,2673.5098732519364,-4.419787136540064,154799.64120268385,10.5,10500154799.641203,47.655,-122.3035,60.0,9.533333333333333
2026-01-20T23:09:33+00:00,SAT-56496,268.28877787550334,42.40628271017249,2669.101872214427,-4.410361285531534,154469.5080290549,10.5,10500154469.50803,47.655,-122.3035,60.0,9.55
2026-01-20T23:09:34+00:00,SAT-56496,268.43490627758115,42.46996505335018,2664.7032718923238,-4.400883489072501,154137.5555060203,10.5,10500154137.555506,47.655,-122.3035,60.0,9.566666666666666
2026-01-20T23:09:35+00:00,SAT-56496,268.5818577959741,42.53351124317929,2660.314124092555,-4.391353504052987,153803.7751188403,10.5,10500153803.77512,47.655,-122.3035,60.0,9.583333333333334
2026-01-20T23:09:36+00:00,SAT-56496,268.7296363333869,42.59691825981221,2655.9344808645133,-4.38177112829453,153468.15978636986,10.5,10500153468.159786,47.655,-122.3035,60.0,9.6
2026-01-20T23:09:37+00:00,SAT-56496,268.87824578151606,42.660183048696744,2651.564394459227,-4.372136122506427,153130.70112763636,10.5,10500153130.701128,47.655,-122.3035,60.0,9.616666666666667
2026-01-20T23:09:38+00:00,SAT-56496,269.02769001884405,42.723302519824706,2647.2039173663807,-4.362448269763706,152791.39154500983,10.5,10500152791.391544,47.655,-122.3035,60.0,9.633333333333333
2026-01-20T23:09:39+00:00,SAT-56496,269.1779729104438,42.78627354784338,2642.8531022920033,-4.352707338306974,152450.22292129585,10.5,10500152450.222921,47.655,-122.3035,60.0,9.65
2026-01-20T23:09:40+00:00,SAT-56496,269.3290983064901,42.849092971632814,2638.512002173265,-4.342913103947278,152107.18740444904,10.5,10500152107.187405,47.655,-122.3035,60.0,9.666666666666666
2026-01-20T23:09:41+00:00,SAT-56496,269.48107004151046,42.911757594211046,2634.1806701709284,-4.33306535006153,151762.27740741253,10.5,10500151762.277407,47.655,-122.3035,60.0,9.683333333333334
2026-01-20T23:09:42+00:00,SAT-56496,269.6338919336531,42.97426418264422,2629.8591596618003,-4.323163848977441,151415.48495613967,10.5,10500151415.484957,47.655,-122.3035,60.0,9.7
2026-01-20T23:09:43+00:00,SAT-56496,269.7875677832317,43.03660946768837,2625.547524249753,-4.313208380679558,151066.80234475862,10.5,10500151066.802345,47.655,-122.3035,60.0,9.716666666666667
2026-01-20T23:09:44+00:00,SAT-56496,269.9421013719518,43.098790143709486,2621.245817758089,-4.3031987105949785,150716.2213575342,10.5,10500150716.221357,47.655,-122.3035,60.0,9.733333333333333
2026-01-20T23:09:45+00:00,SAT-56496,270.09749646125374,43.16080286828379,2616.9540942440553,-4.293134630168098,150363.7346899669,10.5,10500150363.73469,47.655,-122.3035,60.0,9.75
2026-01-20T23:09:46+00:00,SAT-56496,270.25375679220207,43.222644262391974,2612.672407972901,-4.283015898053991,150009.3338891364,10.5,10500150009.333889,47.655,-122.3035,60.0,9.766666666666667
2026-01-20T23:09:47+00:00,SAT-56496,270.4108860830787,43.284310909765175,2608.4008134505752,-4.272842320578233,149653.0121717453,10.5,10500149653.012173,47.655,-122.3035,60.0,9.783333333333333
2026-01-20T23:09:48+00:00,SAT-56496,270.56888803006836,43.34579935740255,2604.1393653761857,-4.262613631787385,149294.76022297915,10.5,10500149294.760223,47.655,-122.3035,60.0,9.8
2026-01-20T23:09:49+00:00,SAT-56496,270.7277663032721,43.40710611435552,2599.888118714083,-4.252329660332614,148934.57204147696,10.5,10500148934.57204,47.655,-122.3035,60.0,9.816666666666666
2026-01-20T23:09:50+00:00,SAT-56496,270.88752454917756,43.46822765293581,2595.647128599511,-4.241990148142462,148572.4385884846,10.5,10500148572.43859,47.655,-122.3035,60.0,9.833333333333334
2026-01-20T23:09:51+00:00,SAT-56496,271.0481663860379,43.52916040730169,2591.416450425097,-4.231594881383458,148208.35237464952,10.5,10500148208.352375,47.655,-122.3035,60.0,9.85
2026-01-20T23:09:52+00:00,SAT-56496,271.20969540435874,43.58990077394885,2587.1961397967307,-4.221143649698872,147842.3060323891,10.5,10500147842.306032,47.655,-122.3035,60.0,9.866666666666667
2026-01-20T23:09:53+00:00,SAT-56496,271.37211516573126,43.650445111613195,2582.9862525300973,-4.2106362113260145,147474.29109415138,10.5,10500147474.291094,47.655,-122.3035,60.0,9.883333333333333
2026-01-20T23:09:54+00:00,SAT-56496,271.5354292002991,43.71078974068059,2578.786844682002,-4.200072381822785,147104.30109999378,10.5,10500147104.3011,47.655,-122.3035,60.0,9.9
2026-01-20T23:09:55+00:00,SAT-56496,271.6996410077133,43.77093094387994,2574.597972493197,-4.189451909758125,146732.32724373712,10.5,10500146732.327244,47.655,-122.3035,60.0,9.916666666666666
2026-01-20T23:09:56+00:00,SAT-56496,271.86475405309267,43.830864965193264,2570.4196924551984,-4.178774586849855,146358.36223045836,10.5,10500146358.36223,47.655,-122.3035,60.0,9.933333333333334
2026-01-20T23:09:57+00:00,SAT-56496,272.03077176735906,43.89058801035876,2566.252061267247,-4.168040184267953,145982.39804556227,10.5,10500145982.398046,47.655,-122.3035,60.0,9.95
2026-01-20T23:09:58+00:00,SAT-56496,272.19769754501294,43.950096246465264,2562.0951358568036,-4.157248519434979,145604.4282944145,10.5,10500145604.428295,47.655,-122.3035,60.0,9.966666666666667
2026-01-20T23:09:59+00:00,SAT-56496,272.36553474461664,44.009385802511865,2557.9489733334203,-4.146399329566244,145224.4437731838,10.5,10500145224.443773,47.655,-122.3035,60.0,9.983333333333333
2026-01-20T23:10:00+00:00,SAT-56496,272.53428668399573,44.068452768161954,2553.8136310687332,-4.135492429846106,144842.4380088445,10.5,10500144842.43801,47.655,-122.3035,60.0,10.0
2026-01-20T23:10:01+00:00,SAT-56496,272.7039566420089,44.127293194774666,2549.6891666187,-4.124527580163086,144458.40259167695,10.5,10500144458.402592,47.655,-122.3035,60.0,10.016666666666667
2026-01-20T23:10:02+00:00,SAT-56496,272.8745478547219,44.1859030945334,2545.5756377787507,-4.113504603791891,144072.33133201385,10.5,10500144072.331331,47.655,-122.3035,60.0,10.033333333333333
2026-01-20T23:10:03+00:00,SAT-56496,273.0460635165742,44.244278441281885,2541.473102520569,-4.102423241424563,143684.2151477937,10.5,10500143684.215147,47.655,-122.3035,60.0,10.05
2026-01-20T23:10:04+00:00,SAT-56496,273.2185067752783,44.302415169283584,2537.3816190744546,-4.0912833108724485,143294.04765799912,10.5,10500143294.047659,47.655,-122.3035,60.0,10.066666666666666
2026-01-20T23:10:05+00:00,SAT-56496,273.3918807335482,44.36030917427006,2533.3012458524113,-4.080084585797841,142901.82093532628,10.5,10500142901.820936,47.655,-122.3035,60.0,10.083333333333334
2026-01-20T23:10:06+00:00,SAT-56496,273.566188445596,44.41795631276891,2529.232041492175,-4.068826851138904,142507.52744739995,10.5,10500142507.527447,47.655,-122.3035,60.0,10.1
2026-01-20T23:10:07+00:00,SAT-56496,273.7414329159594,44.47535240223223,2525.174064845973,-4.057509913399095,142111.16041715263,10.5,10500142111.160418,47.655,-122.3035,60.0,10.116666666666667
2026-01-20T23:10:08+00:00,SAT-56496,273.91761709883014,44.53249322131975,2521.1273749590096,-4.046133552383558,141712.71213242912,10.5,10500141712.712132,47.655,-122.3035,60.0,10.133333333333333
2026-01-20T23:10:09+00:00,SAT-56496,274.0947438951566,44.58937450950602,2517.092031096099,-4.034697552602536,141312.17504586664,10.5,10500141312.175045,47.655,-122.3035,60.0,10.15
2026-01-20T23:10:10+00:00,SAT-56496,274.27281615115464,44.64599196714877,2513.0680927369704,-4.023201719953687,140909.54235918008,10.5,10500140909.542358,47.655,-122.3035,60.0,10.166666666666666
2026-01-20T23:10:11+00:00,SAT-56496,274.45183665752995,44.702341255798004,2509.0556195549366,-4.011645830767966,140504.80623853335,10.5,10500140504.806238,47.655,-122.3035,60.0,10.183333333333334
2026-01-20T23:10:12+00:00,SAT-56496,274.63180814637246,44.758417997800514,2505.054671446384,-4.000029699768268,140097.9601947385,10.5,10500140097.960196,47.655,-122.3035,60.0,10.2
2026-01-20T23:10:13+00:00,SAT-56496,274.81273329112935,44.81421777687128,2501.0653084924816,-3.988353112441634,139688.99671464437,10.5,10500139688.996716,47.655,-122.3035,60.0,10.216666666666667
2026-01-20T23:10:14+00:00,SAT-56496,274.99461470347484,44.86973613772811,2497.08759098834,-3.9766158587515053,139277.90844188217,10.5,10500139277.908442,47.655,-122.3035,60.0,10.233333333333333
2026-01-20T23:10:15+00:00,SAT-56496,275.1774549316218,44.92496858620859,2493.121579438545,-3.9648177469074315,138864.6886591391,10.5,10500138864.68866,47.655,-122.3035,60.0,10.25
2026-01-20T23:10:16+00:00,SAT-56496,275.3612564593803,44.97991058959674,2489.1673345389627,-3.9529585727387273,138449.3302154941,10.5,10500138449.330215,47.655,-122.3035,60.0,10.266666666666667
2026-01-20T23:10:17+00:00,SAT-56496,275.5460217036533,45.03455757652966,2485.2249171890844,-3.941038140163535,138031.82624333104,10.5,10500138031.826242,47.655,-122.3035,60.0,10.283333333333333
2026-01-20T23:10:18+00:00,SAT-56496,275.7317530129403,45.08890493720452,2481.2943884839615,-3.929056244439928,137612.16957172166,10.5,10500137612.16957,47.655,-122.3035,60.0,10.3
2026-01-20T23:10:19+00:00,SAT-56496,275.9184526649626,45.1429480233672,2477.3758097228397,-3.9170126823587745,137190.35308342258,10.5,10500137190.353083,47.655,-122.3035,60.0,10.316666666666666
2026-01-20T23:10:20+00:00,SAT-56496,276.10612286479363,45.19668214845619,2473.469242407634,-3.904907291606877,136766.37109353903,10.5,10500136766.371094,47.655,-122.3035,60.0,10.333333333333334
2026-01-20T23:10:21+00:00,SAT-56496,276.29476574491116,45.25010258830119,2469.574748202138,-3.892739835643509,136340.21531741417,10.5,10500136340.215317,47.655,-122.3035,60.0,10.35
2026-01-20T23:10:22+00:00,SAT-56496,276.4843833595102,45.30320458025164,2465.692389006056,-3.88051015182005,135911.88005840534,10.5,10500135911.880058,47.655,-122.3035,60.0,10.366666666666667
2026-01-20T23:10:23+00:00,SAT-56496,276.6749776861601,45.35598332435813,2461.822226881308,-3.8682180265759447,135481.35783671855,10.5,10500135481.357836,47.655,-122.3035,60.0,10.383333333333333
2026-01-20T23:10:24+00:00,SAT-56496,276.8665506212066,45.408433982854454,2457.9643241028025,-3.8558633098842092,135048.6433977742,10.5,10500135048.643398,47.655,-122.3035,60.0,10.4
2026-01-20T23:10:25+00:00,SAT-56496,277.0591039809675,45.46055168121937,2454.1187430950786,-3.8434457591644335,134613.7282453802,10.5,10500134613.728245,47.655,-122.3035,60.0,10.416666666666666
2026-01-20T23:10:26+00:00,SAT-56496,277.25263949485395,45.51233150712854,2450.285546524605,-3.8309652373375496,134176.60757844773,10.5,10500134176.607578,47.655,-122.3035,60.0,10.433333333333334
2026-01-20T23:10:27+00:00,SAT-56496,277.4471588087565,45.56376851211553,2446.464797194567,-3.818421528164177,133737.27382335902,10.5,10500133737.273823,47.655,-122.3035,60.0,10.45
2026-01-20T23:10:28+00:00,SAT-56496,277.6426634787883,45.614857710741546,2442.656558123811,-3.805814475206139,133295.7215009874,10.5,10500133295.7215,47.655,-122.3035,60.0,10.466666666666667
2026-01-20T23:10:29+00:00,SAT-56496,277.83915497228656,45.665594081663954,2438.8608924872055,-3.7931438757437186,132851.94351123084,10.5,10500132851.943512,47.655,-122.3035,60.0,10.483333333333333
2026-01-20T23:10:30+00:00,SAT-56496,278.03663466320967,45.71597256728995,2435.0778636617974,-3.780409567299056,132405.93416342745,10.5,10500132405.934164,47.655,-122.3035,60.0,10.5
2026-01-20T23:10:31+00:00,SAT-56496,278.2351038320928,45.765988074611876,2431.307535186678,-3.7676113510357405,131957.686493485,10.5,10500131957.686493,47.655,-122.3035,60.0,10.516666666666667
2026-01-20T23:10:32+00:00,SAT-56496,278.434563661898,45.81563547503461,2427.5499707992444,-3.7547490975269673,131507.19596832938,10.5,10500131507.195969,47.655,-122.3035,60.0,10.533333333333333
2026-01-20T23:10:33+00:00,SAT-56496,278.6350152396175,45.86490960562558,2423.805234365978,-3.7418225797494427,131054.45463664448,10.5,10500131054.454638,47.655,-122.3035,60.0,10.55
2026-01-20T23:10:34+00:00,SAT-56496,278.83645954865125,45.913805268172666,2420.073389979774,-3.7288316654694658,130599.45786704677,10.5,10500130599.457867,47.655,-122.3035,60.0,10.566666666666666
2026-01-20T23:10:35+00:00,SAT-56496,279.0388974718204,45.96231723080224,2416.3545018654127,-3.71577617708557,130142.19943918164,10.5,10500130142.19944,47.655,-122.3035,60.0,10.583333333333334
2026-01-20T23:10:36+00:00,SAT-56496,279.2423297866334,46.01044022776745,2412.6486344247996,-3.702655929777032,129682.67287984554,10.5,10500129682.67288,47.655,-122.3035,60.0,10.6
2026-01-20T23:10:37+00:00,SAT-56496,279.4467571625245,46.058168959760984,2408.9558522441685,-3.6894707909996276,129220.87354677913,10.5,10500129220.873547,47.655,-122.3035,60.0,10.616666666666667
2026-01-20T23:10:38+00:00,SAT-56496,279.65218016163556,46.1054980950195,2405.2762200419447,-3.6762205712529434,128756.79480287628,10.5,10500128756.794804,47.655,-122.3035,60.0,10.633333333333333
2026-01-20T23:10:39+00:00,SAT-56496,279.85859923320373,46.15242226902981,2401.6098027255484,-3.6629051392317957,128290.43204927407,10.5,10500128290.432049,47.655,-122.3035,60.0,10.65
2026-01-20T23:10:40+00:00,SAT-56496,280.06601471469025,46.198936085743,2397.956665333355,-3.649524304320227,127821.7786097954,10.5,10500127821.77861,47.655,-122.3035,60.0,10.666666666666666
2026-01-20T23:10:41+00:00,SAT-56496,280.27442682594767,46.245034117300335,2394.3168730938464,-3.6360779459791828,127350.83026265264,10.5,10500127350.830263,47.655,-122.3035,60.0,10.683333333333334
2026-01-20T23:10:42+00:00,SAT-56496,280.48383567109454,46.290710905432945,2390.6904913557228,-3.622565884903647,126877.5807278257,10.5,10500126877.580729,47.655,-122.3035,60.0,10.7
2026-01-20T23:10:43+00:00,SAT-56496,280.6942412326625,46.33596096124131,2387.0775856465125,-3.6089879991742375,126402.02573518208,10.5,10500126402.025736,47.655,-122.3035,60.0,10.716666666666667
2026-01-20T23:10:44+00:00,SAT-56496,280.90564337275475,46.38077876646771,2383.4782216153358,-3.5953441119177687,125924.15908987467,10.5,10500125924.15909,47.655,-122.3035,60.0,10.733333333333333
2026-01-20T23:10:45+00:00,SAT-56496,281.1180418273525,46.425158773376296,2379.8924650877166,-3.581634100298031,125443.97648965982,10.5,10500125443.97649,47.655,-122.3035,60.0,10.75
2026-01-20T23:10:46+00:00,SAT-56496,281.3314362073118,46.46909540601996,2376.320382011686,-3.5678578140806883,124961.47267269554,10.5,10500124961.472673,47.655,-122.3035,60.0,10.766666666666667
2026-01-20T23:10:47+00:00,SAT-56496,281.54582599432143,46.5125830605112,2372.7620384851093,-3.554015129655002,124476.64330961095,10.5,10500124476.64331,47.655,-122.3035,60.0,10.783333333333333
2026-01-20T23:10:48+00:00,SAT-56496,281.761210540275,46.55561610598461,2369.2175007291335,-3.540105884578689,123989.48271099012,10.5,10500123989.482712,47.655,-122.3035,60.0,10.8
2026-01-20T23:10:49+00:00,SAT-56496,281.9775890624501,46.59818888478126,2365.6868351269136,-3.5261299610514896,123499.9867509697,10.5,10500123499.986752,47.655,-122.3035,60.0,10.816666666666666
2026-01-20T23:10:50+00:00,SAT-56496,282.1949606440245,46.64029571367464,2362.1701081790916,-3.512087243945869,123008.1513972964,10.5,10500123008.151398,47.655,-122.3035,60.0,10.833333333333334
2026-01-20T23:10:51+00:00,SAT-56496,282.4133242319445,46.68193088459929,2358.66738650113,-3.497977579908548,122513.97127888972,10.5,10500122513.97128,47.655,-122.3035,60.0,10.85
2026-01-20T23:10:52+00:00,SAT-56496,282.6326786321338,46.72308866492248,2355.178736861434,-3.4838008599096115,122017.44257706084,10.5,10500122017.442577,47.655,-122.3035,60.0,10.866666666666667
2026-01-20T23:10:53+00:00,SAT-56496,282.85302251004873,46.76376329872261,2351.704226137151,-3.4695569574689173,121518.56086194013,10.5,10500121518.560862,47.655,-122.3035,60.0,10.883333333333333
2026-01-20T23:10:54+00:00,SAT-56496,283.0743543872563,46.80394900735522,2348.243921331569,-3.4552457695977608,121017.32252642757,10.5,10500121017.322527,47.655,-122.3035,60.0,10.9
2026-01-20T23:10:55+00:00,SAT-56496,283.2966726406929,46.84363999052191,2344.79788955069,-3.440867156013256,120513.72265722304,10.5,10500120513.722658,47.655,-122.3035,60.0,10.916666666666666
2026-01-20T23:10:56+00:00,SAT-56496,283.5199754978977,46.88283042666075,2341.366198040426,-3.426421028860976,120007.75817729294,10.5,10500120007.758177,47.655,-122.3035,60.0,10.933333333333334
2026-01-20T23:10:57+00:00,SAT-56496,283.74426103825476,46.921514474394996,2337.948914134309,-3.411907260489329,119499.4246157385,10.5,10500119499.424616,47.655,-122.3035,60.0,10.95
2026-01-20T23:10:58+00:00,SAT-56496,283.96952718807194,46.959686272946755,2334.546105293181,-3.397325778058225,118988.71942139171,10.5,10500118988.719421,47.655,-122.3035,60.0,10.966666666666667
2026-01-20T23:10:59+00:00,SAT-56496,284.1957717220945,46.997339943645265,2331.1578390505306,-3.382676443810629,118475.6377694185,10.5,10500118475.63777,47.655,-122.3035,60.0,10.983333333333333
2026-01-20T23:11:00+00:00,SAT-56496,284.4229922568213,47.03446959011895,2327.784183077237,-3.367959183308101,117960.17705266977,10.5,10500117960.177053,47.655,-122.3035,60.0,11.0
2026-01-20T23:11:01+00:00,SAT-56496,284.65118625269133,47.07106929994253,2324.425205118417,-3.353173900043264,117442.33389104897,10.5,10500117442.33389,47.655,-122.3035,60.0,11.016666666666667
2026-01-20T23:11:02+00:00,SAT-56496,284.88035101041237,47.10713314535359,2321.080973015441,-3.3383204956242625,116922.10483845713,10.5,10500116922.10484,47.655,-122.3035,60.0,11.033333333333333
2026-01-20T23:11:03+00:00,SAT-56496,285.1104836686253,47.14265518422586,2317.751554707805,-3.3233988949743316,116399.48726538838,10.5,10500116399.487265,47.655,-122.3035,60.0,11.05
2026-01-20T23:11:04+00:00,SAT-56496,285.34158120351873,47.17762946133312,2314.4370182098837,-3.3084090016877385,115874.47779530616,10.5,10500115874.477795,47.655,-122.3035,60.0,11.066666666666666
2026-01-20T23:11:05+00:00,SAT-56496,285.57364042514115,47.212050009161715,2311.137431632201,-3.2933507591823434,115347.0744464646,10.5,10500115347.074446,47.655,-122.3035,60.0,11.083333333333334
2026-01-20T23:11:06+00:00,SAT-56496,285.8066579783046,47.2459108493893,2307.8528631417093,-3.2782240596870955,114817.27344426558,10.5,10500114817.273445,47.655,-122.3035,60.0,11.1
2026-01-20T23:11:07+00:00,SAT-56496,286.04063033672537,47.27920599344504,2304.583381012848,-3.2630288679767747,114285.07355497293,10.5,10500114285.073555,47.655,-122.3035,60.0,11.116666666666667
2026-01-20T23:11:08+00:00,SAT-56496,286.27555380648937,47.31192944436369,2301.329053555186,-3.2477650980163797,113750.47176527699,10.5,10500113750.471766,47.655,-122.3035,60.0,11.133333333333333
2026-01-20T23:11:09+00:00,SAT-56496,286.51142452023873,47.3440751974024,2298.0899491640976,-3.2324326817136106,113213.46569029737,10.5,10500113213.46569,47.655,-122.3035,60.0,11.15
2026-01-20T23:11:10+00:00,SAT-56496,286.74823843663455,47.3756372413881,2294.8661363028687,-3.217031576630084,112674.05384366235,10.5,10500112674.053844,47.655,-122.3035,60.0,11.166666666666666
2026-01-20T23:11:11+00:00,SAT-56496,286.9859913404172,47.40660956015179,2291.65768347711,-3.2015617175307103,112132.23394056316,10.5,10500112132.23394,47.655,-122.3035,60.0,11.183333333333334
2026-01-20T23:11:12+00:00,SAT-56496,287.22467883884957,47.43698613351284,2288.4646592574927,-3.186023062211903,111588.0045028517,10.5,10500111588.004503,47.655,-122.3035,60.0,11.2
2026-01-20T23:11:13+00:00,SAT-56496,287.4642963616992,47.46676093873275,2285.28713225678,-3.1704155489038683,111041.36336708852,10.5,10500111041.363367,47.655,-122.3035,60.0,11.216666666666667
2026-01-20T23:11:14+00:00,SAT-56496,287.7048391579552,47.49592795159001,2282.1251711493396,-3.154739149422266,110492.30954613871,10.5,10500110492.309546,47.655,-122.3035,60.0,11.233333333333333
2026-01-20T23:11:15+00:00,SAT-56496,287.9463022967663,47.52448114797208,2278.978844637649,-3.1389938318729977,109940.84192293616,10.5,10500109940.841923,47.655,-122.3035,60.0,11.25
2026-01-20T23:11:16+00:00,SAT-56496,288.1886806655691,47.55241450513581,2275.8482214559945,-3.123179545389875,109386.9587159317,10.5,10500109386.958715,47.655,-122.3035,60.0,11.266666666666667
2026-01-20T23:11:17+00:00,SAT-56496,288.43196896690483,47.57972200287014,2272.7333703893923,-3.1072962853958686,108830.65976481843,10.5,10500108830.659765,47.655,-122.3035,60.0,11.283333333333333
2026-01-20T23:11:18+00:00,SAT-56496,288.6761617206955,47.60639762524819,2269.634360227424,-3.0913440026510903,108271.9433450072,10.5,10500108271.943344,47.655,-122.3035,60.0,11.3
2026-01-20T23:11:19+00:00,SAT-56496,288.9212532590579,47.63243536161382,2266.5512598087803,-3.0753226939875526,107710.80934554164,10.5,10500107710.809345,47.655,-122.3035,60.0,11.316666666666666
2026-01-20T23:11:20+00:00,SAT-56496,289.1672377287173,47.65782920836932,2263.4841379753097,-3.059232350506327,107147.25745474368,10.5,10500107147.257454,47.655,-122.3035,60.0,11.333333333333334
2026-01-20T23:11:21+00:00,SAT-56496,289.4141090891688,47.6825731703346,2260.4330635777383,-3.043072947796856,106581.28681765232,10.5,10500106581.286818,47.655,-122.3035,60.0,11.35
2026-01-20T23:11:22+00:00,SAT-56496,289.6618611100922,47.7066612620599,2257.398105491135,-3.0268444943088006,106012.89773021043,10.5,10500106012.89773,47.655,-122.3035,60.0,11.366666666666667
2026-01-20T23:11:23+00:00,SAT-56496,289.9104873728736,47.730087509546934,2254.379332582145,-3.0105469756023675,105442.08968667538,10.5,10500105442.089687,47.655,-122.3035,60.0,11.383333333333333
2026-01-20T23:11:24+00:00,SAT-56496,290.15998126752015,47.75284595154935,2251.3768137318107,-2.9941804273736423,104868.86393727505,10.5,10500104868.863937,47.655,-122.3035,60.0,11.4
2026-01-20T23:11:25+00:00,SAT-56496,290.41033599586416,47.77493064144577,2248.3906177855765,-2.9777448203994807,104293.21945849135,10.5,10500104293.219458,47.655,-122.3035,60.0,11.416666666666666
2026-01-20T23:11:26+00:00,SAT-56496,290.66154456494695,47.79633564827776,2245.420813618032,-2.9612401954868806,103715.15767955792,10.5,10500103715.15768,47.655,-122.3035,60.0,11.433333333333334
2026-01-20T23:11:27+00:00,SAT-56496,290.91359979212444,47.8170550588037,2242.4674700630662,-2.944666575945595,103134.67941688094,10.5,10500103134.679417,47.655,-122.3035,60.0,11.45
2026-01-20T23:11:28+00:00,SAT-56496,291.1664943027275,47.83708297891607,2239.530655931323,-2.928023968489462,102551.78490560742,10.5,10500102551.784906,47.655,-122.3035,60.0,11.466666666666667
2026-01-20T23:11:29+00:00,SAT-56496,291.4202205277501,47.8564135351099,2236.6104400267495,-2.911312431363262,101966.47618571595,10.5,10500101966.476185,47.655,-122.3035,60.0,11.483333333333333
2026-01-20T23:11:30+00:00,SAT-56496,291.67477070778,47.87504087641357,2233.7068910952034,-2.8945319772109936,101378.75370005284,10.5,10500101378.7537,47.655,-122.3035,60.0,11.5
2026-01-20T23:11:31+00:00,SAT-56496,291.93013688823135,47.89295917570167,2230.820077869931,-2.877682660437076,100788.61935409096,10.5,10500100788.619354,47.655,-122.3035,60.0,11.516666666666667
2026-01-20T23:11:32+00:00,SAT-56496,292.18631092257226,47.91016263158658,2227.950069029922,-2.860764526346253,100196.07473459406,10.5,10500100196.074734,47.655,-122.3035,60.0,11.533333333333333
2026-01-20T23:11:33+00:00,SAT-56496,292.443284471076,47.9266454699977,2225.09693320898,-2.843777630588079,99601.121790645,10.5,10500099601.12179,47.655,-122.3035,60.0,11.55
2026-01-20T23:11:34+00:00,SAT-56496,292.70104900134874,47.94240194589891,2222.260738985406,-2.8267220249765774,99003.76233699002,10.5,10500099003.762337,47.655,-122.3035,60.0,11.566666666666666
2026-01-20T23:11:35+00:00,SAT-56496,292.9595957876994,47.957426344936906,2219.4415548858296,-2.8095977811402415,98403.99888236192,10.5,10500098403.998882,47.655,-122.3035,60.0,11.583333333333334
2026-01-20T23:11:36+00:00,SAT-56496,293.2189159127642,47.97171298523452,2216.6394493654393,-2.7924049645306623,97801.83371915232,10.5,10500097801.83372,47.655,-122.3035,60.0,11.6
2026-01-20T23:11:37+00:00,SAT-56496,293.4790002668764,47.985256219048836,2213.854490814147,-2.7751436604283874,97197.2698342467,10.5,10500097197.269835,47.655,-122.3035,60.0,11.616666666666667
2026-01-20T23:11:38+00:00,SAT-56496,293.7398395498702,47.99805043457841,2211.086747536813,-2.75781393670871,96590.30960492493,10.5,10500096590.309605,47.655,-122.3035,60.0,11.633333333333333
2026-01-20T23:11:39+00:00,SAT-56496,294.00142426952283,48.01009005760056,2208.336287770602,-2.740415894810514,95980.95658400585,10.5,10500095980.956585,47.655,-122.3035,60.0,11.65
