satellites_20260121_005943/SAT-57937.csv

timestamp,satellite,azimuth_deg,elevation_deg,distance_km,relative_velocity_kms,doppler_shift_hz,tx_freq_ghz,rx_freq_hz,ue_lat,ue_lon,ue_alt_m,time_minutes
2026-01-20T23:05:48+00:00,SAT-57937,211.73286970119605,30.11457643584999,1521.8998943236536,-6.0281607305833065,211131.68787963546,10.5,10500211131.68788,47.655,-122.3035,60.0,5.8
2026-01-20T23:05:49+00:00,SAT-57937,211.75181957581282,30.271548381212412,1515.887808688352,-6.020105078414676,210849.5448653151,10.5,10500210849.544865,47.655,-122.3035,60.0,5.816666666666666
2026-01-20T23:05:50+00:00,SAT-57937,211.77120677116096,30.42954824554507,1509.8837572234797,-6.0119460578000385,210563.78145076754,10.5,10500210563.78145,47.655,-122.3035,60.0,5.833333333333333
2026-01-20T23:05:51+00:00,SAT-57937,211.7910386476782,30.58858664923284,1503.8878430218338,-6.003682146248921,210274.34431193618,10.5,10500210274.344313,47.655,-122.3035,60.0,5.85
2026-01-20T23:05:52+00:00,SAT-57937,211.8113227313098,30.748674328446366,1497.9001706946415,-5.995311826514909,209981.18030843372,10.5,10500209981.18031,47.655,-122.3035,60.0,5.866666666666666
2026-01-20T23:05:53+00:00,SAT-57937,211.83206671825855,30.90982213671949,1491.9208463663306,-5.986833583621555,209684.2363793766,10.5,10500209684.23638,47.655,-122.3035,60.0,5.883333333333334
2026-01-20T23:05:54+00:00,SAT-57937,211.85327847990425,31.072041046459056,1485.9499776722653,-5.978245841119929,209383.45731085486,10.5,10500209383.457312,47.655,-122.3035,60.0,5.9
2026-01-20T23:05:55+00:00,SAT-57937,211.87496606763466,31.235342148747666,1479.987673820055,-5.969547008115964,209078.78738302895,10.5,10500209078.787382,47.655,-122.3035,60.0,5.916666666666667
2026-01-20T23:05:56+00:00,SAT-57937,211.89713771803412,31.399736654366322,1474.0340456039607,-5.960735508219685,208770.1713840536,10.5,10500208770.171385,47.655,-122.3035,60.0,5.933333333333334
2026-01-20T23:05:57+00:00,SAT-57937,211.91980185836294,31.5652358956219,1468.0892053904297,-5.951809653470354,208457.55019440388,10.5,10500208457.550194,47.655,-122.3035,60.0,5.95
2026-01-20T23:05:58+00:00,SAT-57937,211.94296711171424,31.731851324680036,1462.1532672293686,-5.942767808901347,208140.86655063264,10.5,10500208140.86655,47.655,-122.3035,60.0,5.966666666666667
2026-01-20T23:05:59+00:00,SAT-57937,211.9666423030337,31.899594516405735,1456.226346801291,-5.933608294327943,207820.0616055638,10.5,10500207820.061605,47.655,-122.3035,60.0,5.983333333333333
2026-01-20T23:06:00+00:00,SAT-57937,211.99083646494998,32.06847716848491,1450.3085614624147,-5.924329370548912,207495.07444501345,10.5,10500207495.074446,47.655,-122.3035,60.0,6.0
2026-01-20T23:06:01+00:00,SAT-57937,212.01555884371896,32.23851110111102,1444.4000303035205,-5.914929276569541,207165.84339149782,10.5,10500207165.843391,47.655,-122.3035,60.0,6.016666666666667
2026-01-20T23:06:02+00:00,SAT-57937,212.04081890557046,32.40970825766557,1438.5008741716886,-5.905406283008679,206832.30787477357,10.5,10500206832.307875,47.655,-122.3035,60.0,6.033333333333333
2026-01-20T23:06:03+00:00,SAT-57937,212.06662634352108,32.582080706937575,1432.6112156387676,-5.8957585525685134,206494.4035448997,10.5,10500206494.403545,47.655,-122.3035,60.0,6.05
2026-01-20T23:06:04+00:00,SAT-57937,212.0929910837769,32.75564064128634,1426.7311791090062,-5.88598425236563,206152.0662065459,10.5,10500206152.066206,47.655,-122.3035,60.0,6.066666666666666
2026-01-20T23:06:05+00:00,SAT-57937,212.1199232928945,32.93040037799316,1420.8608908146468,-5.876081552326564,205805.23176279812,10.5,10500205805.231762,47.655,-122.3035,60.0,6.083333333333333
2026-01-20T23:06:06+00:00,SAT-57937,212.14743338522447,33.10637236055993,1415.0004788131264,-5.866048530352715,205453.83289363305,10.5,10500205453.832893,47.655,-122.3035,60.0,6.1
2026-01-20T23:06:07+00:00,SAT-57937,212.1755320301158,33.28356915716771,1409.1500730788548,-5.855883271149022,205097.80251731595,10.5,10500205097.802517,47.655,-122.3035,60.0,6.116666666666666
2026-01-20T23:06:08+00:00,SAT-57937,212.20423015991628,33.46200346198631,1403.3098054964287,-5.8455838369703255,204737.07276581458,10.5,10500204737.072765,47.655,-122.3035,60.0,6.133333333333334
2026-01-20T23:06:09+00:00,SAT-57937,212.23353897810145,33.64168809560778,1397.4798098830236,-5.835148225106747,204371.57349575765,10.5,10500204371.573496,47.655,-122.3035,60.0,6.15
2026-01-20T23:06:10+00:00,SAT-57937,212.2634699674935,33.82263600411152,1391.660222053184,-5.824574431005349,204001.23449922202,10.5,10500204001.234499,47.655,-122.3035,60.0,6.166666666666667
2026-01-20T23:06:11+00:00,SAT-57937,212.29403489910982,34.00486025999626,1385.8511798206612,-5.813860427911364,203625.98479068253,10.5,10500203625.98479,47.655,-122.3035,60.0,6.183333333333334
2026-01-20T23:06:12+00:00,SAT-57937,212.32524584126062,34.18837406245678,1380.0528230205578,-5.803004096891403,203245.75015612878,10.5,10500203245.750156,47.655,-122.3035,60.0,6.2
2026-01-20T23:06:13+00:00,SAT-57937,212.35711516856125,34.373190735385364,1374.265293601258,-5.7920033413305525,202860.45716323794,10.5,10500202860.457163,47.655,-122.3035,60.0,6.216666666666667
2026-01-20T23:06:14+00:00,SAT-57937,212.38965557197136,34.55932372887651,1368.488735602171,-5.780856040478542,202470.03153436468,10.5,10500202470.031534,47.655,-122.3035,60.0,6.233333333333333
2026-01-20T23:06:15+00:00,SAT-57937,212.4228800689399,34.74678661925011,1362.7232951778003,-5.769559990862168,202074.39609455675,10.5,10500202074.396095,47.655,-122.3035,60.0,6.25
2026-01-20T23:06:16+00:00,SAT-57937,212.45680201359326,34.935593107094476,1356.969120680247,-5.758112964996113,201673.47282785608,10.5,10500201673.472828,47.655,-122.3035,60.0,6.266666666666667
2026-01-20T23:06:17+00:00,SAT-57937,212.49143510764307,35.12575701707365,1351.2263626831577,-5.746512759280119,201267.18455486046,10.5,10500201267.184555,47.655,-122.3035,60.0,6.283333333333333
2026-01-20T23:06:18+00:00,SAT-57937,212.52679341208966,35.3172922992654,1345.4951739579024,-5.734757061457306,200855.45029055304,10.5,10500200855.45029,47.655,-122.3035,60.0,6.3
2026-01-20T23:06:19+00:00,SAT-57937,212.56289135846112,35.510213026048035,1339.775709581942,-5.722843539349845,200438.1883522012,10.5,10500200438.188353,47.655,-122.3035,60.0,6.316666666666666
2026-01-20T23:06:20+00:00,SAT-57937,212.59974376111518,35.704533391763306,1334.0681269586973,-5.710769882165799,200015.31780609666,10.5,10500200015.317806,47.655,-122.3035,60.0,6.333333333333333
2026-01-20T23:06:21+00:00,SAT-57937,212.63736583030845,35.900267713722776,1328.3725857962172,-5.698533661403685,199586.75359584496,10.5,10500199586.753595,47.655,-122.3035,60.0,6.35
2026-01-20T23:06:22+00:00,SAT-57937,212.67577318481693,36.0974304283869,1322.6892482245773,-5.686132473854087,199152.4115508867,10.5,10500199152.41155,47.655,-122.3035,60.0,6.366666666666666
2026-01-20T23:06:23+00:00,SAT-57937,212.7149818660691,36.29603609227384,1317.0182787706535,-5.67356384166586,198712.20488639353,10.5,10500198712.204885,47.655,-122.3035,60.0,6.383333333333334
2026-01-20T23:06:24+00:00,SAT-57937,212.75500835214666,36.496099379327106,1311.3598444325653,-5.660825267058781,198266.0461195365,10.5,10500198266.04612,47.655,-122.3035,60.0,6.4
2026-01-20T23:06:25+00:00,SAT-57937,212.79586957273287,36.69763508003323,1305.714114699552,-5.6479142018379935,197813.84600175274,10.5,10500197813.846003,47.655,-122.3035,60.0,6.416666666666667
2026-01-20T23:06:26+00:00,SAT-57937,212.83758292446274,36.90065809932544,1300.0812616022522,-5.6348281057084,197355.51556116264,10.5,10500197355.515562,47.655,-122.3035,60.0,6.433333333333334
2026-01-20T23:06:27+00:00,SAT-57937,212.8801662873514,37.10518345643961,1294.461459704826,-5.621564300481166,196890.96099626442,10.5,10500196890.960997,47.655,-122.3035,60.0,6.45
2026-01-20T23:06:28+00:00,SAT-57937,212.92363804073682,37.31122627934976,1288.8548862424793,-5.608120172791393,196420.09077596484,10.5,10500196420.090776,47.655,-122.3035,60.0,6.466666666666667
2026-01-20T23:06:29+00:00,SAT-57937,212.96801708153362,37.51880180634569,1283.2617210568153,-5.594493033224179,195942.8107055778,10.5,10500195942.810705,47.655,-122.3035,60.0,6.483333333333333
2026-01-20T23:06:30+00:00,SAT-57937,213.0133228420988,37.727925382375126,1277.68214667168,-5.580680131687498,195459.02446524764,10.5,10500195459.024466,47.655,-122.3035,60.0,6.5
2026-01-20T23:06:31+00:00,SAT-57937,213.05957530897012,37.9386124557108,1272.1163483536768,-5.5666786648959965,194968.63387206348,10.5,10500194968.633873,47.655,-122.3035,60.0,6.516666666666667
2026-01-20T23:06:32+00:00,SAT-57937,213.10679504244706,38.15087857465002,1266.5645141652205,-5.552485873972818,194471.54229848765,10.5,10500194471.5423,47.655,-122.3035,60.0,6.533333333333333
2026-01-20T23:06:33+00:00,SAT-57937,213.15500319789757,38.36473938774803,1261.026834920245,-5.538098864918426,193967.6483844149,10.5,10500193967.648384,47.655,-122.3035,60.0,6.55
2026-01-20T23:06:34+00:00,SAT-57937,213.2042215463616,38.580210637023825,1255.5035043189664,-5.5235147491806424,193456.85096052932,10.5,10500193456.85096,47.655,-122.3035,60.0,6.566666666666666
2026-01-20T23:06:35+00:00,SAT-57937,213.2544724973087,38.79730815625721,1249.9947189424502,-5.50873058379118,192939.04695163274,10.5,10500192939.046951,47.655,-122.3035,60.0,6.583333333333333
2026-01-20T23:06:36+00:00,SAT-57937,213.3057791218581,39.016047866764474,1244.5006783068823,-5.4937434015002795,192414.13243208718,10.5,10500192414.132433,47.655,-122.3035,60.0,6.6
2026-01-20T23:06:37+00:00,SAT-57937,213.35816517729154,39.23644577410098,1239.021584887786,-5.478550170745263,191882.0012237441,10.5,10500191882.001225,47.655,-122.3035,60.0,6.616666666666666
2026-01-20T23:06:38+00:00,SAT-57937,213.4116551322543,39.45851796290777,1233.5576441841629,-5.463147812531293,191342.54548718026,10.5,10500191342.545486,47.655,-122.3035,60.0,6.633333333333334
2026-01-20T23:06:39+00:00,SAT-57937,213.4662741932329,39.68228059211328,1228.1090647657984,-5.447533243373418,190795.65722570944,10.5,10500190795.657227,47.655,-122.3035,60.0,6.65
2026-01-20T23:06:40+00:00,SAT-57937,213.52204833268576,39.90774989159945,1222.6760582777406,-5.431703308722566,190241.22595367942,10.5,10500190241.225954,47.655,-122.3035,60.0,6.666666666666667
2026-01-20T23:06:41+00:00,SAT-57937,213.5790043177139,40.134942155863286,1217.2588395111745,-5.415654806649862,189679.13952599687,10.5,10500189679.139526,47.655,-122.3035,60.0,6.683333333333334
2026-01-20T23:06:42+00:00,SAT-57937,213.6371697403061,40.363873738272765,1211.8576264506758,-5.399384511643256,189109.28497158588,10.5,10500189109.284971,47.655,-122.3035,60.0,6.7
2026-01-20T23:06:43+00:00,SAT-57937,213.69657304919153,40.5945610459823,1206.4726402977303,-5.382889126926849,188531.54682340912,10.5,10500188531.546824,47.655,-122.3035,60.0,6.716666666666667
2026-01-20T23:06:44+00:00,SAT-57937,213.75724358265276,40.82702053246727,1201.1041055418086,-5.36616535377877,187945.80954627314,10.5,10500187945.809546,47.655,-122.3035,60.0,6.733333333333333
2026-01-20T23:06:45+00:00,SAT-57937,213.81921160363007,41.06126869263125,1195.7522499623067,-5.3492098284323895,187351.95532684177,10.5,10500187351.955326,47.655,-122.3035,60.0,6.75
2026-01-20T23:06:46+00:00,SAT-57937,213.8825083357473,41.29732205482714,1190.4173046934168,-5.332019115268198,186749.8638351872,10.5,10500186749.863834,47.655,-122.3035,60.0,6.766666666666667
2026-01-20T23:06:47+00:00,SAT-57937,213.9471660008874,41.53519717208862,1185.099504295789,-5.31458979622467,186139.4153563364,10.5,10500186139.415356,47.655,-122.3035,60.0,6.783333333333333
2026-01-20T23:06:48+00:00,SAT-57937,214.01321785969807,41.7749106168713,1179.799086739021,-5.296918359175403,185520.48688076646,10.5,10500185520.486881,47.655,-122.3035,60.0,6.8
2026-01-20T23:06:49+00:00,SAT-57937,214.08069825258312,42.01647897039661,1174.51629349547,-5.279001276707,184892.95486353926,10.5,10500184892.954863,47.655,-122.3035,60.0,6.816666666666666
2026-01-20T23:06:50+00:00,SAT-57937,214.14964264368675,42.25991881499305,1169.251369555501,-5.260834951337294,184256.69330561208,10.5,10500184256.693306,47.655,-122.3035,60.0,6.833333333333333
2026-01-20T23:06:51+00:00,SAT-57937,214.22008766623307,42.50524672343704,1164.0045634973674,-5.24241578386761,183611.5761478226,10.5,10500183611.576147,47.655,-122.3035,60.0,6.85
2026-01-20T23:06:52+00:00,SAT-57937,214.29207117105818,42.75247925089614,1158.7761274889233,-5.223740109642342,182957.47503843004,10.5,10500182957.475039,47.655,-122.3035,60.0,6.866666666666666
2026-01-20T23:06:53+00:00,SAT-57937,214.3656322765755,43.001632923377436,1153.5663173529065,-5.204804200023048,182294.25938474413,10.5,10500182294.259384,47.655,-122.3035,60.0,6.883333333333334
2026-01-20T23:06:54+00:00,SAT-57937,214.44081142122897,43.252724225570994,1148.3753926307504,-5.185604320406314,181621.7983851558,10.5,10500181621.798386,47.655,-122.3035,60.0,6.9
2026-01-20T23:06:55+00:00,SAT-57937,214.51765041938708,43.50576959082641,1143.2036165885318,-5.166136694454222,180939.95977633746,10.5,10500180939.959776,47.655,-122.3035,60.0,6.916666666666667
2026-01-20T23:06:56+00:00,SAT-57937,214.59619251952645,43.7607853888117,1138.0512562585961,-5.146397465103103,180248.6084676039,10.5,10500180248.608467,47.655,-122.3035,60.0,6.933333333333334
2026-01-20T23:06:57+00:00,SAT-57937,214.67648246468445,44.01778791051755,1132.9185825200666,-5.126382779420986,179547.60951297966,10.5,10500179547.609512,47.655,-122.3035,60.0,6.95
2026-01-20T23:06:58+00:00,SAT-57937,214.75856655735151,44.27679335669048,1127.805870094724,-5.106088717742833,178836.82562921496,10.5,10500178836.825628,47.655,-122.3035,60.0,6.966666666666667
2026-01-20T23:06:59+00:00,SAT-57937,214.84249272649487,44.53781782201718,1122.713397613562,-5.085511343320306,178116.11893473053,10.5,10500178116.118935,47.655,-122.3035,60.0,6.983333333333333
2026-01-20T23:07:00+00:00,SAT-57937,214.9283105988949,44.800877280975925,1117.6414476338239,-5.0646466551018,177385.3492957748,10.5,10500177385.349297,47.655,-122.3035,60.0,7.0
2026-01-20T23:07:01+00:00,SAT-57937,215.0160715733077,45.06598757043697,1112.5903067031356,-5.043490635373977,176644.37599503173,10.5,10500176644.375996,47.655,-122.3035,60.0,7.016666666666667
2026-01-20T23:07:02+00:00,SAT-57937,215.105828899379,45.33316437380584,1107.5602653761227,-5.022039208453794,175893.05628484103,10.5,10500175893.056284,47.655,-122.3035,60.0,7.033333333333333
2026-01-20T23:07:03+00:00,SAT-57937,215.19763775990378,45.60242320207869,1102.5516182722247,-5.0002882883302915,175131.24705581507,10.5,10500175131.247055,47.655,-122.3035,60.0,7.05
2026-01-20T23:07:04+00:00,SAT-57937,215.29155535837486,45.873779376426846,1097.5646640859966,-4.978233737245957,174358.80338618308,10.5,10500174358.803387,47.655,-122.3035,60.0,7.066666666666666
2026-01-20T23:07:05+00:00,SAT-57937,215.3876410103746,46.14724800755225,1092.5997056387166,-4.955871383446421,173575.57916346058,10.5,10500173575.579163,47.655,-122.3035,60.0,7.083333333333333
2026-01-20T23:07:06+00:00,SAT-57937,215.4859562402205,46.42284397487771,1087.6570499122927,-4.933197039675725,172781.42773223174,10.5,10500172781.427732,47.655,-122.3035,60.0,7.1
2026-01-20T23:07:07+00:00,SAT-57937,215.58656488324505,46.70058190563178,1082.7370080647229,-4.910206470290432,171976.20074234667,10.5,10500171976.200743,47.655,-122.3035,60.0,7.116666666666666
2026-01-20T23:07:08+00:00,SAT-57937,215.68953319293286,46.98047615091295,1077.8398954783531,-4.886895389226875,171159.74807772576,10.5,10500171159.748077,47.655,-122.3035,60.0,7.133333333333334
2026-01-20T23:07:09+00:00,SAT-57937,215.79492995388867,47.262540760290136,1072.9660318101642,-4.863259544294109,170331.92080865536,10.5,10500170331.920809,47.655,-122.3035,60.0,7.15
2026-01-20T23:07:10+00:00,SAT-57937,215.90282660293795,47.546789459932285,1068.1157409579882,-4.83929459852276,169492.56703612264,10.5,10500169492.567036,47.655,-122.3035,60.0,7.166666666666667
2026-01-20T23:07:11+00:00,SAT-57937,216.01329735431042,47.833235622539014,1063.2893511450613,-4.814996214434223,168641.53484327928,10.5,10500168641.534843,47.655,-122.3035,60.0,7.183333333333334
2026-01-20T23:07:12+00:00,SAT-57937,216.1264193337751,48.12189224061414,1058.4871949205324,-4.790360027470923,167778.671364857,10.5,10500167778.671366,47.655,-122.3035,60.0,7.2
2026-01-20T23:07:13+00:00,SAT-57937,216.2422727197685,48.41277189666495,1053.7096091864682,-4.765381655917151,166903.82313463697,10.5,10500166903.823135,47.655,-122.3035,60.0,7.216666666666667
2026-01-20T23:07:14+00:00,SAT-57937,216.36094089279942,48.70588673235529,1048.9569352149667,-4.740056677907582,166016.8352801911,10.5,10500166016.83528,47.655,-122.3035,60.0,7.233333333333333
2026-01-20T23:07:15+00:00,SAT-57937,216.48251059287318,49.00124841450528,1044.2295186882002,-4.714380699642311,165117.55391206098,10.5,10500165117.553911,47.655,-122.3035,60.0,7.25
2026-01-20T23:07:16+00:00,SAT-57937,216.6070720878166,49.29886810349647,1039.5277096704237,-4.688349256034974,164205.82264403472,10.5,10500164205.822643,47.655,-122.3035,60.0,7.266666666666667
2026-01-20T23:07:17+00:00,SAT-57937,216.73471934878535,49.59875641357893,1034.8518626790715,-4.661957913643635,163281.48619822238,10.5,10500163281.486198,47.655,-122.3035,60.0,7.283333333333333
2026-01-20T23:07:18+00:00,SAT-57937,216.86555023889014,49.90092337757887,1030.2023366531976,-4.635202209678826,162344.3882688592,10.5,10500162344.38827,47.655,-122.3035,60.0,7.3
2026-01-20T23:07:19+00:00,SAT-57937,216.99966671135442,50.20537840565375,1025.5794949827446,-4.608077682019641,161394.37257359634,10.5,10500161394.372574,47.655,-122.3035,60.0,7.316666666666666
2026-01-20T23:07:20+00:00,SAT-57937,217.13717502034527,50.512130243691345,1020.983705507877,-4.5805798531418,160431.28229059355,10.5,10500160431.282291,47.655,-122.3035,60.0,7.333333333333333
2026-01-20T23:07:21+00:00,SAT-57937,217.27818594403416,50.821186928268155,1016.4153405343435,-4.552704247777135,159454.96067702916,10.5,10500159454.960676,47.655,-122.3035,60.0,7.35
2026-01-20T23:07:22+00:00,SAT-57937,217.4228150217267,51.132555740230856,1011.8747768312271,-4.524446417192391,158465.25191944657,10.5,10500158465.251919,47.655,-122.3035,60.0,7.366666666666666
2026-01-20T23:07:23+00:00,SAT-57937,217.57118280635433,51.44624315731557,1007.3623956044805,-4.4958018857702555,157461.9992627956,10.5,10500157461.999262,47.655,-122.3035,60.0,7.383333333333334
2026-01-20T23:07:24+00:00,SAT-57937,217.7234151307173,51.76225480029433,1002.8785825237389,-4.4667661886689425,156445.04632943065,10.5,10500156445.04633,47.655,-122.3035,60.0,7.4
2026-01-20T23:07:25+00:00,SAT-57937,217.8796433915419,52.08059537863834,998.4237277115733,-4.437334910400648,155414.23847029134,10.5,10500155414.23847,47.655,-122.3035,60.0,7.416666666666667
2026-01-20T23:07:26+00:00,SAT-57937,218.04000485272925,52.40126863582064,993.9982256942669,-4.40750360772458,154369.42006429026,10.5,10500154369.420065,47.655,-122.3035,60.0,7.433333333333334
2026-01-20T23:07:27+00:00,SAT-57937,218.2046429649567,52.7242772857767,989.6024754294963,-4.377267861054145,153310.43631881,10.5,10500153310.43632,47.655,-122.3035,60.0,7.45
2026-01-20T23:07:28+00:00,SAT-57937,218.37370770739483,53.049622949362295,985.2368802827383,-4.346623332692073,152237.13530934378,10.5,10500152237.13531,47.655,-122.3035,60.0,7.466666666666667
2026-01-20T23:07:29+00:00,SAT-57937,218.54735595377934,53.37730609145795,980.9018479456,-4.315565645651511,151149.36373529743,10.5,10500151149.363735,47.655,-122.3035,60.0,7.483333333333333
2026-01-20T23:07:30+00:00,SAT-57937,218.7257518571816,53.70732594505176,976.5977904750036,-4.28409048045881,150046.97031043225,10.5,10500150046.97031,47.655,-122.3035,60.0,7.5
2026-01-20T23:07:31+00:00,SAT-57937,218.90906726372876,54.03968043815768,972.325124235826,-4.252193573533436,148929.80570612315,10.5,10500148929.805706,47.655,-122.3035,60.0,7.516666666666667
2026-01-20T23:07:32+00:00,SAT-57937,219.097482153452,54.37436611617376,968.0842698451554,-4.2198706800827255,147797.7212517755,10.5,10500147797.721252,47.655,-122.3035,60.0,7.533333333333333
2026-01-20T23:07:33+00:00,SAT-57937,219.29118510858967,54.711378056500216,963.8756521535529,-4.187117613923317,146650.57032954055,10.5,10500146650.57033,47.655,-122.3035,60.0,7.55
2026-01-20T23:07:34+00:00,SAT-57937,219.49037381475628,55.05070978102784,959.6997001866,-4.153930247166691,145488.2083633013,10.5,10500145488.208363,47.655,-122.3035,60.0,7.566666666666666
2026-01-20T23:07:35+00:00,SAT-57937,219.69525559573825,55.392353163119104,955.556847086759,-4.120304517765971,144310.49308299378,10.5,10500144310.493082,47.655,-122.3035,60.0,7.583333333333333
2026-01-20T23:07:36+00:00,SAT-57937,219.9060479846939,55.73629832930913,951.4475300477071,-4.086236393805368,143117.283273872,10.5,10500143117.283274,47.655,-122.3035,60.0,7.6
2026-01-20T23:07:37+00:00,SAT-57937,220.1229793321993,56.08253355165034,947.3721902842852,-4.051721970389472,141908.442169981,10.5,10500141908.44217,47.655,-122.3035,60.0,7.616666666666666
2026-01-20T23:07:38+00:00,SAT-57937,220.34628946102018,56.431045141386576,943.3312729058168,-4.016757357622217,140683.83353070638,10.5,10500140683.83353,47.655,-122.3035,60.0,7.633333333333334
2026-01-20T23:07:39+00:00,SAT-57937,220.57623035967228,56.78181732589524,939.3252269011483,-3.981338789911996,139443.32546910155,10.5,10500139443.32547,47.655,-122.3035,60.0,7.65
2026-01-20T23:07:40+00:00,SAT-57937,220.81306693006903,57.13483212707417,935.354505014676,-3.9454625952469744,138186.78937577954,10.5,10500138186.789375,47.655,-122.3035,60.0,7.666666666666667
2026-01-20T23:07:41+00:00,SAT-57937,221.057077785535,57.49006922885656,931.4195636530164,-3.9091251769873647,136914.09928120117,10.5,10500136914.099281,47.655,-122.3035,60.0,7.683333333333334
2026-01-20T23:07:42+00:00,SAT-57937,221.30855610334348,57.84750583401495,927.5208628098343,-3.872323029965308,135625.13241956118,10.5,10500135625.13242,47.655,-122.3035,60.0,7.7
2026-01-20T23:07:43+00:00,SAT-57937,221.56781053803323,58.20711651255858,923.6588659746155,-3.8350528111805415,134319.77170484953,10.5,10500134319.771706,47.655,-122.3035,60.0,7.716666666666667
2026-01-20T23:07:44+00:00,SAT-57937,221.8351662040406,58.568873046237854,919.8340399709316,-3.797311240079669,132997.9022382095,10.5,10500132997.902239,47.655,-122.3035,60.0,7.733333333333333
2026-01-20T23:07:45+00:00,SAT-57937,222.11096572105222,58.9327442525289,916.0468548941587,-3.7590951869736995,131659.41440469408,10.5,10500131659.414404,47.655,-122.3035,60.0,7.75
2026-01-20T23:07:46+00:00,SAT-57937,222.39557033984093,59.29869580456402,912.297783961017,-3.7204016611575157,130304.2034571594,10.5,10500130304.203457,47.655,-122.3035,60.0,7.766666666666667
2026-01-20T23:07:47+00:00,SAT-57937,222.68936114771677,59.66669003687171,908.5873033709559,-3.6812277893678385,128932.16876177154,10.5,10500128932.168762,47.655,-122.3035,60.0,7.783333333333333
2026-01-20T23:07:48+00:00,SAT-57937,222.99274035830203,60.0366857346498,904.9158921890263,-3.6415708696109466,127543.21568328093,10.5,10500127543.215683,47.655,-122.3035,60.0,7.8
2026-01-20T23:07:49+00:00,SAT-57937,223.3061326980523,60.40863791286384,901.2840321750678,-3.601428345141688,126137.25467365736,10.5,10500126137.254673,47.655,-122.3035,60.0,7.816666666666666
2026-01-20T23:07:50+00:00,SAT-57937,223.6299868898859,60.78249757598301,897.6922076388464,-3.56079781850954,124714.20176404229,10.5,10500124714.201763,47.655,-122.3035,60.0,7.833333333333333
2026-01-20T23:07:51+00:00,SAT-57937,223.96477724419154,61.15821146083961,894.1409052811862,-3.519677067338572,123273.97911742999,10.5,10500123273.979118,47.655,-122.3035,60.0,7.85
2026-01-20T23:07:52+00:00,SAT-57937,224.31100536489893,61.53572176128283,890.6306140193606,-3.4780640740583073,121816.51606996807,10.5,10500121816.51607,47.655,-122.3035,60.0,7.866666666666666
2026-01-20T23:07:53+00:00,SAT-57937,224.66920198029192,61.914965834544155,887.1618247828332,-3.435956956891923,120341.74671387229,10.5,10500120341.746714,47.655,-122.3035,60.0,7.883333333333334
2026-01-20T23:07:54+00:00,SAT-57937,225.03992889627816,62.295875876626404,883.7350303778262,-3.393354097072551,118849.6143530795,10.5,10500118849.614353,47.655,-122.3035,60.0,7.9
2026-01-20T23:07:55+00:00,SAT-57937,225.42378110096976,62.67837858603162,880.3507252250125,-3.3502540292792267,117340.0676658513,10.5,10500117340.067665,47.655,-122.3035,60.0,7.916666666666667
2026-01-20T23:07:56+00:00,SAT-57937,225.8213890041403,63.0623947876321,877.0094052064779,-3.306655530050872,115813.06380140543,10.5,10500115813.0638,47.655,-122.3035,60.0,7.933333333333334
2026-01-20T23:07:57+00:00,SAT-57937,226.23342084134504,63.44783903598804,873.7115674245073,-3.262557591147059,114268.56744689729,10.5,10500114268.567448,47.655,-122.3035,60.0,7.95
2026-01-20T23:07:58+00:00,SAT-57937,226.66058523862102,63.834619182644566,870.4577099869366,-3.217959448027252,112706.5518248833,10.5,10500112706.551825,47.655,-122.3035,60.0,7.966666666666667
2026-01-20T23:07:59+00:00,SAT-57937,227.10363395231252,64.22263591066829,867.248331764104,-3.172860555797274,111126.99785086447,10.5,10500111126.99785,47.655,-122.3035,60.0,7.983333333333333
2026-01-20T23:08:00+00:00,SAT-57937,227.56336478446332,64.61178222692074,864.083932169789,-3.1272606524487423,109529.89634819896,10.5,10500109529.896349,47.655,-122.3035,60.0,8.0
2026-01-20T23:08:01+00:00,SAT-57937,228.04062469248083,65.00194291906178,860.9650108790801,-3.081159702200445,107915.2460636774,10.5,10500107915.246063,47.655,-122.3035,60.0,8.016666666666667
2026-01-20T23:08:02+00:00,SAT-57937,228.53631308087378,65.39299395881697,857.8920676027521,-3.034557945777282,106283.05542850403,10.5,10500106283.055428,47.655,-122.3035,60.0,8.033333333333333
2026-01-20T23:08:03+00:00,SAT-57937,229.05138529321962,65.7848018603146,854.865601811497,-2.9874559231377273,104633.3433543086,10.5,10500104633.343355,47.655,-122.3035,60.0,8.05
2026-01-20T23:08:04+00:00,SAT-57937,229.58685630170044,66.17722298595659,851.8861124374876,-2.939854420198549,102966.13736722077,10.5,10500102966.137367,47.655,-122.3035,60.0,8.066666666666666
2026-01-20T23:08:05+00:00,SAT-57937,230.14380457664242,66.57010278487245,848.9540976290763,-2.89175454902045,101281.4764163104,10.5,10500101281.476416,47.655,-122.3035,60.0,8.083333333333334
2026-01-20T23:08:06+00:00,SAT-57937,230.72337615081847,66.96327497620018,846.0700544255199,-2.843157717546256,99579.40981369079,10.5,10500099579.409813,47.655,-122.3035,60.0,8.1
2026-01-20T23:08:07+00:00,SAT-57937,231.32678884448038,67.35656065737457,843.2344784618871,-2.7940656158082047,97859.99675143979,10.5,10500097859.996752,47.655,-122.3035,60.0,8.116666666666667
2026-01-20T23:08:08+00:00,SAT-57937,231.95533662851906,67.74976733334108,840.447863687721,-2.7444802805426307,96123.30856467917,10.5,10500096123.308565,47.655,-122.3035,60.0,8.133333333333333
2026-01-20T23:08:09+00:00,SAT-57937,232.61039410937232,68.14268787175882,837.7107020212599,-2.694404067318811,94369.4277554091,10.5,10500094369.427755,47.655,-122.3035,60.0,8.15
2026-01-20T23:08:10+00:00,SAT-57937,233.2934210693665,68.53509936536503,835.0234830314538,-2.6438396501255275,92598.44797802765,10.5,10500092598.447979,47.655,-122.3035,60.0,8.166666666666666
2026-01-20T23:08:11+00:00,SAT-57937,234.00596700322677,68.92676189895374,832.3866936203954,-2.5927900592044715,90810.47536441678,10.5,10500090810.475365,47.655,-122.3035,60.0,8.183333333333334
2026-01-20T23:08:12+00:00,SAT-57937,234.74967557659068,69.31741722072056,829.8008176680154,-2.5412586551292584,89005.6276160797,10.5,10500089005.627617,47.655,-122.3035,60.0,8.2
2026-01-20T23:08:13+00:00,SAT-57937,235.5262888805086,69.7067873032288,827.2663357026331,-2.4892491562984618,87184.03496706329,10.5,10500087184.034967,47.655,-122.3035,60.0,8.216666666666667
2026-01-20T23:08:14+00:00,SAT-57937,236.33765135469974,70.0945727971105,824.7837245440849,-2.4367656452928124,85345.84040661399,10.5,10500085345.840406,47.655,-122.3035,60.0,8.233333333333333
2026-01-20T23:08:15+00:00,SAT-57937,237.18571319649365,70.48045137112047,822.3534569405127,-2.383812556403734,83491.19924237455,10.5,10500083491.199242,47.655,-122.3035,60.0,8.25
2026-01-20T23:08:16+00:00,SAT-57937,238.07253302396555,70.86407593377291,819.9760012175929,-2.330394690964178,81620.27963733455,10.5,10500081620.279636,47.655,-122.3035,60.0,8.266666666666667
2026-01-20T23:08:17+00:00,SAT-57937,239.00027952377656,71.24507274185403,817.6518209124712,-2.2765172380099146,79733.2633334762,10.5,10500079733.263334,47.655,-122.3035,60.0,8.283333333333333
2026-01-20T23:08:18+00:00,SAT-57937,239.97123174509545,71.62303940122571,815.3813743870959,-2.222185752971276,77830.34490546923,10.5,10500077830.344906,47.655,-122.3035,60.0,8.3
2026-01-20T23:08:19+00:00,SAT-57937,240.98777760663899,71.99754276219375,813.1651144627992,-2.1674061601411996,75911.73184711202,10.5,10500075911.731848,47.655,-122.3035,60.0,8.316666666666666
2026-01-20T23:08:20+00:00,SAT-57937,242.05241012140976,72.36811672825378,811.0034880524184,-2.1121847907370754,73977.64590441862,10.5,10500073977.645905,47.655,-122.3035,60.0,8.333333333333334
2026-01-20T23:08:21+00:00,SAT-57937,243.16772076066965,72.73426000760048,808.8969357544566,-2.056528340564516,72028.32159282478,10.5,10500072028.321592,47.655,-122.3035,60.0,8.35
2026-01-20T23:08:22+00:00,SAT-57937,244.3363892161628,73.09543382668343,806.845891489467,-2.000443901414029,70064.00729683235,10.5,10500070064.007298,47.655,-122.3035,60.0,8.366666666666667
2026-01-20T23:08:23+00:00,SAT-57937,245.56116878290533,73.451059663886,804.8507821051234,-1.943938948837572,68084.96484189242,10.5,10500068084.964842,47.655,-122.3035,60.0,8.383333333333333
2026-01-20T23:08:24+00:00,SAT-57937,246.8448664171852,73.80051705648346,802.9120269934828,-1.887021353019878,66091.46987516517,10.5,10500066091.469875,47.655,-122.3035,60.0,8.4
2026-01-20T23:08:25+00:00,SAT-57937,248.19031645698414,74.14314156393696,801.0300376974043,-1.829699360059199,64083.81120989238,10.5,10500064083.81121,47.655,-122.3035,60.0,8.416666666666666
2026-01-20T23:08:26+00:00,SAT-57937,249.6003468766201,74.4782229824781,799.2052175356386,-1.7719816166012263,62062.29168818141,10.5,10500062062.291689,47.655,-122.3035,60.0,8.433333333333334
2026-01-20T23:08:27+00:00,SAT-57937,251.07773695574377,74.80500394384438,797.4379612033482,-1.7138771366688552,60027.227019243364,10.5,10500060027.227018,47.655,-122.3035,60.0,8.45
2026-01-20T23:08:28+00:00,SAT-57937,252.62516518793234,75.12267903960101,795.7286544057105,-1.655395331326467,57978.946818361605,10.5,10500057978.94682,47.655,-122.3035,60.0,8.466666666666667
2026-01-20T23:08:29+00:00,SAT-57937,254.2451464604049,75.43039466364051,794.0776734619342,-1.5965459794881656,55917.79358447282,10.5,10500055917.793585,47.655,-122.3035,60.0,8.483333333333333
2026-01-20T23:08:30+00:00,SAT-57937,255.9399576781699,75.72724977163286,792.4853849383913,-1.5373392487216244,53844.123428805724,10.5,10500053844.123428,47.655,-122.3035,60.0,8.5
2026-01-20T23:08:31+00:00,SAT-57937,257.7115515120369,76.01229780273216,790.9521452609997,-1.4777856480077929,51758.304420326094,10.5,10500051758.30442,47.655,-122.3035,60.0,8.516666666666667
2026-01-20T23:08:32+00:00,SAT-57937,259.56145844811215,76.28455000655023,789.4783003747199,-1.4178960806531775,49660.71843894873,10.5,10500049660.71844,47.655,-122.3035,60.0,8.533333333333333
2026-01-20T23:08:33+00:00,SAT-57937,261.4906783657357,76.542980458726,788.0641853502817,-1.3576817866572133,47551.759156999,10.5,10500047551.759157,47.655,-122.3035,60.0,8.55
2026-01-20T23:08:34+00:00,SAT-57937,263.4995637473871,76.7865330002829,786.710124048389,-1.2971543581757397,45431.832580809176,10.5,10500045431.83258,47.655,-122.3035,60.0,8.566666666666666
2026-01-20T23:08:35+00:00,SAT-57937,265.58769819889693,77.01413033835658,785.4164287685018,-1.2363257323059316,43301.35679801618,10.5,10500043301.356798,47.655,-122.3035,60.0,8.583333333333334
2026-01-20T23:08:36+00:00,SAT-57937,267.75377539436397,77.22468546476775,784.1833999048152,-1.1752081770036555,41160.76148432788,10.5,10500041160.761484,47.655,-122.3035,60.0,8.6
2026-01-20T23:08:37+00:00,SAT-57937,269.9954851760918,77.41711545339685,783.0113256162837,-1.11381427660645,39010.48739647655,10.5,10500039010.487396,47.655,-122.3035,60.0,8.616666666666667
2026-01-20T23:08:38+00:00,SAT-57937,272.30941501389754,77.5903575611045,781.9004815110815,-1.0521569303065788,36850.9863187388,10.5,10500036850.986319,47.655,-122.3035,60.0,8.633333333333333
2026-01-20T23:08:39+00:00,SAT-57937,274.6909761389328,77.74338738527292,780.851130332589,-0.9902493353344181,34682.72047394665,10.5,10500034682.720474,47.655,-122.3035,60.0,8.65
2026-01-20T23:08:40+00:00,SAT-57937,277.1343639991358,77.8752386246176,779.8635216621489,-0.9281049757783872,32506.16213191416,10.5,10500032506.162132,47.655,-122.3035,60.0,8.666666666666666
2026-01-20T23:08:41+00:00,SAT-57937,279.63256212131444,77.9850237809965,778.9378916329725,-0.8657376094920615,30321.79315086921,10.5,10500030321.79315,47.655,-122.3035,60.0,8.683333333333334
2026-01-20T23:08:42+00:00,SAT-57937,282.1773966398982,78.07195493904716,778.0744626571058,-0.8031612544230604,28130.1044986333,10.5,10500028130.104498,47.655,-122.3035,60.0,8.7
2026-01-20T23:08:43+00:00,SAT-57937,284.75964567236775,78.1353636039999,777.2734431660278,-0.7403901734933844,25931.595723066977,10.5,10500025931.595722,47.655,-122.3035,60.0,8.716666666666667
2026-01-20T23:08:44+00:00,SAT-57937,287.3692035083139,78.17471849452409,776.5350273663305,-0.6774388624928555,23726.774528046943,10.5,10500023726.774529,47.655,-122.3035,60.0,8.733333333333333
2026-01-20T23:08:45+00:00,SAT-57937,289.9952946874314,78.18964020344913,775.859395007471,-0.6143220293065256,21516.156045922005,10.5,10500021516.156046,47.655,-122.3035,60.0,8.75
2026-01-20T23:08:46+00:00,SAT-57937,292.6267280043829,78.17991176708446,775.2467111702425,-0.5510545784260413,19300.262295035565,10.5,10500019300.262295,47.655,-122.3035,60.0,8.766666666666667
2026-01-20T23:08:47+00:00,SAT-57937,295.25217621847594,78.14548442365742,774.6971260706923,-0.48765160301188937,17079.62190171188,10.5,10500017079.621902,47.655,-122.3035,60.0,8.783333333333333
2026-01-20T23:08:48+00:00,SAT-57937,297.8604643677758,78.08647816553795,774.2107748719552,-0.4241283536192011,14854.769004901422,10.5,10500014854.769005,47.655,-122.3035,60.0,8.8
2026-01-20T23:08:49+00:00,SAT-57937,300.4408484419034,78.0031770677094,773.7877775272789,-0.3605002301409467,12626.242973997498,10.5,10500012626.242973,47.655,-122.3035,60.0,8.816666666666666
2026-01-20T23:08:50+00:00,SAT-57937,302.98326749227135,77.8960197498445,773.428238631085,-0.2967827600448195,10394.58764659985,10.5,10500010394.587646,47.655,-122.3035,60.0,8.833333333333334
2026-01-20T23:08:51+00:00,SAT-57937,305.47855509451654,77.7655856604566,773.1322472917336,-0.23299158037056808,8160.350697985087,10.5,10500008160.350698,47.655,-122.3035,60.0,8.85
2026-01-20T23:08:52+00:00,SAT-57937,307.91860052062077,77.61257811535195,772.899877022244,-0.1691424188157081,5924.082978648299,10.5,10500005924.08298,47.655,-122.3035,60.0,8.866666666666667
2026-01-20T23:08:53+00:00,SAT-57937,310.29645496710293,77.43780515829673,772.7311856498786,-0.1052510741294197,3686.337827614418,10.5,10500003686.337828,47.655,-122.3035,60.0,8.883333333333333
2026-01-20T23:08:54+00:00,SAT-57937,312.60638306086565,77.24215933668295,772.62621524528,-0.04133339765705516,1447.6704260488073,10.5,10500001447.670425,47.655,-122.3035,60.0,8.9
2026-01-20T23:08:55+00:00,SAT-57937,314.84386405724933,77.02659740629659,772.5849920700168,0.022594727114944528,-791.3629191662906,10.5,10499999208.637081,47.655,-122.3035,60.0,8.916666666666666
2026-01-20T23:08:56+00:00,SAT-57937,317.0055500992025,76.79212083403903,772.6075265445261,0.08651740401954694,-3030.2054570206797,10.5,10499996969.794542,47.655,-122.3035,60.0,8.933333333333334
2026-01-20T23:08:57+00:00,SAT-57937,319.0891906814858,76.53975777197284,772.6938132354683,0.15041874305887237,-5268.300652573988,10.5,10499994731.699347,47.655,-122.3035,60.0,8.95
2026-01-20T23:08:58+00:00,SAT-57937,321.0935330091959,76.27054696644467,772.843830861879,0.21428288143547136,-7505.092923559969,10.5,10499992494.907076,47.655,-122.3035,60.0,8.966666666666667
2026-01-20T23:08:59+00:00,SAT-57937,323.01820749362224,75.98552386776728,773.0575423222973,0.27809400189054556,-9740.028282668565,10.5,10499990259.971718,47.655,-122.3035,60.0,8.983333333333333
2026-01-20T23:09:00+00:00,SAT-57937,324.8636064943301,75.68570903759436,773.3348947401828,0.34183635330298445,-11972.555059011313,10.5,10499988027.44494,47.655,-122.3035,60.0,9.0
2026-01-20T23:09:01+00:00,SAT-57937,326.6307629850953,75.3720988067622,773.675819529877,0.40549426719405635,-14202.124476185427,10.5,10499985797.875525,47.655,-122.3035,60.0,9.016666666666667
2026-01-20T23:09:02+00:00,SAT-57937,328.3212341673669,75.04565804350065,774.0802324790252,0.4690521825648709,-16428.191522186808,10.5,10499983571.808477,47.655,-122.3035,60.0,9.033333333333333
2026-01-20T23:09:03+00:00,SAT-57937,329.93699357577606,74.70731481756194,774.5480338557699,0.5324946582590788,-18650.215382404076,10.5,10499981349.784618,47.655,-122.3035,60.0,9.05
2026-01-20T23:09:04+00:00,SAT-57937,331.4803337859747,74.35795672695302,775.0791085282737,0.5958063917875869,-20867.66009893972,10.5,10499979132.339901,47.655,-122.3035,60.0,9.066666666666666
2026-01-20T23:09:05+00:00,SAT-57937,332.9537808176839,73.9984286278089,775.6733261030164,0.6589722446845302,-23079.995458683512,10.5,10499976920.004541,47.655,-122.3035,60.0,9.083333333333334
2026-01-20T23:09:06+00:00,SAT-57937,334.36002044993035,73.62953151738813,776.3305410883818,0.7219772507409424,-25286.69728169044,10.5,10499974713.30272,47.655,-122.3035,60.0,9.1
2026-01-20T23:09:07+00:00,SAT-57937,335.7018360094212,73.25202235123017,777.0505930664541,0.7848066407955876,-27487.248289460535,10.5,10499972512.75171,47.655,-122.3035,60.0,9.116666666666667
2026-01-20T23:09:08+00:00,SAT-57937,336.9820568807079,72.86661457922715,777.8333068895408,0.847445849192147,-29681.13833109686,10.5,10499970318.86167,47.655,-122.3035,60.0,9.133333333333333
2026-01-20T23:09:09+00:00,SAT-57937,338.20351667165335,72.47397923308534,778.6784928831352,0.9098805432940829,-31867.86541704084,10.5,10499968132.134583,47.655,-122.3035,60.0,9.15
2026-01-20T23:09:10+00:00,SAT-57937,339.3690199405944,72.07474640339845,779.5859470783138,0.9720966250371207,-34046.935773446865,10.5,10499965953.064226,47.655,-122.3035,60.0,9.166666666666666
2026-01-20T23:09:11+00:00,SAT-57937,340.48131629091466,71.66950699588511,780.5554514456842,1.0340802582638515,-36217.864799555566,10.5,10499963782.1352,47.655,-122.3035,60.0,9.183333333333334
2026-01-20T23:09:12+00:00,SAT-57937,341.5430807667941,71.25881465478282,781.5867741565927,1.0958178687687092,-38380.17706926919,10.5,10499961619.822931,47.655,-122.3035,60.0,9.2
2026-01-20T23:09:13+00:00,SAT-57937,342.55689949554386,70.84318778580794,782.679669844378,1.1572961753381263,-40533.40741830913,10.5,10499959466.59258,47.655,-122.3035,60.0,9.216666666666667
2026-01-20T23:09:14+00:00,SAT-57937,343.5252596927045,70.42311160488686,783.8338798965818,1.2185021827542557,-42677.10069917665,10.5,10499957322.899302,47.655,-122.3035,60.0,9.233333333333333
2026-01-20T23:09:15+00:00,SAT-57937,344.4505431864903,69.9990401807696,785.0491327401821,1.2794232099274745,-44810.812766472205,10.5,10499955189.187233,47.655,-122.3035,60.0,9.25
2026-01-20T23:09:16+00:00,SAT-57937,345.33502279816986,69.57139842422842,786.3251441548831,1.3400468840507145,-46934.110272155354,10.5,10499953065.889729,47.655,-122.3035,60.0,9.266666666666667
2026-01-20T23:09:17+00:00,SAT-57937,346.18086095885093,69.1405840115734,787.6616175805764,1.4003611741531463,-49046.57184073669,10.5,10499950953.42816,47.655,-122.3035,60.0,9.283333333333333
2026-01-20T23:09:18+00:00,SAT-57937,346.9901100938982,68.7069692129397,789.0582444582651,1.460354380506085,-51147.787698227854,10.5,10499948852.212301,47.655,-122.3035,60.0,9.3
2026-01-20T23:09:19+00:00,SAT-57937,347.7647143328735,68.27090262953277,790.5147045604232,1.5200151407464029,-53237.35988660939,10.5,10499946762.640114,47.655,-122.3035,60.0,9.316666666666666
2026-01-20T23:09:20+00:00,SAT-57937,348.50651222099526,67.83271082820846,792.030666327461,1.5793324666881585,-55314.903553129625,10.5,10499944685.096447,47.655,-122.3035,60.0,9.333333333333334
2026-01-20T23:09:21+00:00,SAT-57937,349.2172401704844,67.3926998629176,793.6057872409046,1.6382957150446895,-57380.045924868595,10.5,10499942619.954075,47.655,-122.3035,60.0,9.35
2026-01-20T23:09:22+00:00,SAT-57937,349.8985363974557,66.9511567027896,795.2397141673758,1.6968946129154538,-59432.42720139499,10.5,10499940567.572798,47.655,-122.3035,60.0,9.366666666666667
2026-01-20T23:09:23+00:00,SAT-57937,350.55194519693765,66.50835055318065,796.9320837279902,1.7551192614088755,-61471.70068165354,10.5,10499938528.299318,47.655,-122.3035,60.0,9.383333333333333
2026-01-20T23:09:24+00:00,SAT-57937,351.17892140513993,66.0645340801084,798.6825226713687,1.8129601416463228,-63497.53297424978,10.5,10499936502.467026,47.655,-122.3035,60.0,9.4
2026-01-20T23:09:25+00:00,SAT-57937,351.78083494238,65.61994454197577,800.4906482526372,1.870408110927086,-65509.60386313121,10.5,10499934490.396137,47.655,-122.3035,60.0,9.416666666666666
2026-01-20T23:09:26+00:00,SAT-57937,352.35897535062605,65.1748048361214,802.3560686086018,1.9274544135115261,-67507.60668525899,10.5,10499932492.393314,47.655,-122.3035,60.0,9.433333333333334
2026-01-20T23:09:27+00:00,SAT-57937,352.91455626820675,64.72932446199522,804.2783831436774,1.9840906743873814,-69491.2481122774,10.5,10499930508.751888,47.655,-122.3035,60.0,9.45
2026-01-20T23:09:28+00:00,SAT-57937,353.44871979014135,64.28370041049924,806.2571829095997,2.0403089082585217,-71460.24846533823,10.5,10499928539.751535,47.655,-122.3035,60.0,9.466666666666667
2026-01-20T23:09:29+00:00,SAT-57937,353.9625406856473,63.83811798131563,808.2920509941029,2.096101522143731,-73414.34180612101,10.5,10499926585.658194,47.655,-122.3035,60.0,9.483333333333333
2026-01-20T23:09:30+00:00,SAT-57937,354.45703044755317,63.392751535261716,810.3825629121875,2.1514613083670855,-75353.27569132643,10.5,10499924646.724308,47.655,-122.3035,60.0,9.5
2026-01-20T23:09:31+00:00,SAT-57937,354.93314115729225,62.94776518846204,812.528286990399,2.20638143182921,-77276.81072686194,10.5,10499922723.189274,47.655,-122.3035,60.0,9.516666666666667
2026-01-20T23:09:32+00:00,SAT-57937,355.39176915641826,62.503313454196125,814.7287847384099,2.260855472453918,-79184.72205450259,10.5,10499920815.277945,47.655,-122.3035,60.0,9.533333333333333
2026-01-20T23:09:33+00:00,SAT-57937,355.8337585328084,62.05954182576931,816.9836112629373,2.3148773716243904,-81076.79747585944,10.5,10499918923.202524,47.655,-122.3035,60.0,9.55
2026-01-20T23:09:34+00:00,SAT-57937,356.2599044013763,61.616587324036935,819.2923156282375,2.36844144644255,-82952.83795180322,10.5,10499917047.162048,47.655,-122.3035,60.0,9.566666666666666
2026-01-20T23:09:35+00:00,SAT-57937,356.6709559978157,61.17457899933051,821.6544412308228,2.4215424160446846,-84812.65852414869,10.5,10499915187.341476,47.655,-122.3035,60.0,9.583333333333334
2026-01-20T23:09:36+00:00,SAT-57937,357.0676195909341,60.7336383898585,824.0695262004247,2.47417534637841,-86656.08638151034,10.5,10499913343.913618,47.655,-122.3035,60.0,9.6
2026-01-20T23:09:37+00:00,SAT-57937,357.45056120641345,60.293879954746814,826.5371037458793,2.5263357004753924,-88482.96262006572,10.5,10499911517.03738,47.655,-122.3035,60.0,9.616666666666667
2026-01-20T23:09:38+00:00,SAT-57937,357.8204091873847,59.85541146546684,829.0567025511535,2.5780192779534974,-90293.14012466492,10.5,10499909706.859875,47.655,-122.3035,60.0,9.633333333333333
2026-01-20T23:09:39+00:00,SAT-57937,358.1777565823223,59.41833437812781,831.6278471110325,2.6292222499340343,-92086.48479178005,10.5,10499907913.515207,47.655,-122.3035,60.0,9.65
2026-01-20T23:09:40+00:00,SAT-57937,358.5231633836878,58.98274417226228,834.2500581016334,2.679941157364246,-93862.87547075178,10.5,10499906137.124529,47.655,-122.3035,60.0,9.666666666666666
2026-01-20T23:09:41+00:00,SAT-57937,358.8571586194749,58.54873066523076,836.9228527492446,2.7301728544740502,-95622.20198340522,10.5,10499904377.798018,47.655,-122.3035,60.0,9.683333333333334
2026-01-20T23:09:42+00:00,SAT-57937,359.18024230006137,58.11637831282061,839.6457451427734,2.7799145535646845,-97364.36669273778,10.5,10499902635.633307,47.655,-122.3035,60.0,9.7
2026-01-20T23:09:43+00:00,SAT-57937,359.4928872417928,57.68576648139123,842.4182465908619,2.829163818507941,-99089.28427523476,10.5,10499900910.715725,47.655,-122.3035,60.0,9.716666666666667
2026-01-20T23:09:44+00:00,SAT-57937,359.7955407680211,57.2569697021266,845.2398659725205,2.8779185132896754,-100796.87991864556,10.5,10499899203.12008,47.655,-122.3035,60.0,9.733333333333333
2026-01-20T23:09:45+00:00,SAT-57937,0.08862629131172332,56.83005791532107,848.1101100364415,2.926176826063849,-102487.09016445777,10.5,10499897512.909836,47.655,-122.3035,60.0,9.75
2026-01-20T23:09:46+00:00,SAT-57937,0.37254479277574737,56.40509669452985,851.0284837243024,2.9739372735435508,-104159.86306168945,10.5,10499895840.136938,47.655,-122.3035,60.0,9.766666666666667
2026-01-20T23:09:47+00:00,SAT-57937,0.6476762029010689,55.982147455171585,853.9944904984499,3.0211986486704925,-105815.1563340535,10.5,10499894184.843666,47.655,-122.3035,60.0,9.783333333333333
2026-01-20T23:09:48+00:00,SAT-57937,0.9143806854716175,55.56126765674706,857.0076326173906,3.067960062239482,-107452.93883782279,10.5,10499892547.061163,47.655,-122.3035,60.0,9.8
2026-01-20T23:09:49+00:00,SAT-57937,1.1729998398222428,55.1425109862605,860.0674114527975,3.114220908279887,-109073.18934934252,10.5,10499890926.81065,47.655,-122.3035,60.0,9.816666666666666
2026-01-20T23:09:50+00:00,SAT-57937,1.423857820095095,54.72592753476718,863.1733277719886,3.1599808558342923,-110675.89627708403,10.5,10499889324.103724,47.655,-122.3035,60.0,9.833333333333334
2026-01-20T23:09:51+00:00,SAT-57937,1.6672623799148611,54.31156396388713,866.3248820122072,3.205239837228283,-112261.05725080305,10.5,10499887738.942749,47.655,-122.3035,60.0,9.85
2026-01-20T23:09:52+00:00,SAT-57937,1.9035058472042943,53.899463663688294,869.521574543203,3.249998067138207,-113828.6797893734,10.5,10499886171.320211,47.655,-122.3035,60.0,9.866666666666667
2026-01-20T23:09:53+00:00,SAT-57937,2.132866036425523,53.48966689859572,872.7629059488288,3.2942559835097454,-115378.77923150531,10.5,10499884621.220768,47.655,-122.3035,60.0,9.883333333333333
2026-01-20T23:09:54+00:00,SAT-57937,2.3556070969515948,53.082210952033805,876.0483772497158,3.338014292854011,-116911.38032220649,10.5,10499883088.619678,47.655,-122.3035,60.0,9.9
2026-01-20T23:09:55+00:00,SAT-57937,2.5719803094151854,52.677130257060966,879.3774901711223,3.38127393231555,-118426.51588424307,10.5,10499881573.484116,47.655,-122.3035,60.0,9.916666666666666
2026-01-20T23:09:56+00:00,SAT-57937,2.7822248279220867,52.274456524144504,882.7497473729516,3.424036065331006,-119924.22666608765,10.5,10499880075.773335,47.655,-122.3035,60.0,9.933333333333334
2026-01-20T23:09:57+00:00,SAT-57937,2.986568374282183,51.87421886218813,886.1646526754419,3.46630204986093,-121404.56022926289,10.5,10499878595.439772,47.655,-122.3035,60.0,9.95
2026-01-20T23:09:58+00:00,SAT-57937,3.1852278860494856,51.47644389644228,889.6217112531697,3.5080735060917756,-122867.57331955175,10.5,10499877132.42668,47.655,-122.3035,60.0,9.966666666666667
2026-01-20T23:09:59+00:00,SAT-57937,3.3784101271345146,51.08115587237307,893.1204298965786,3.549352192567617,-124313.3275286064,10.5,10499875686.672472,47.655,-122.3035,60.0,9.983333333333333
2026-01-20T23:10:00+00:00,SAT-57937,3.566312253010541,50.68837676767314,896.660317149966,3.5901401010676692,-125741.8926169601,10.5,10499874258.107384,47.655,-122.3035,60.0,10.0
2026-01-20T23:10:01+00:00,SAT-57937,3.74912234561693,50.29812638787401,900.2408835440975,3.6304394017175317,-127153.34459159104,10.5,10499872846.655409,47.655,-122.3035,60.0,10.016666666666667
2026-01-20T23:10:02+00:00,SAT-57937,3.9270199119410485,49.91042246294451,903.861641774077,3.6702524236084866,-128547.7650271279,10.5,10499871452.234972,47.655,-122.3035,60.0,10.033333333333333
2026-01-20T23:10:03+00:00,SAT-57937,4.1001763508739275,49.52528074082978,907.5221068578893,3.7095816723741484,-129925.24168145869,10.5,10499870074.758318,47.655,-122.3035,60.0,10.05
2026-01-20T23:10:04+00:00,SAT-57937,4.268755392206889,49.142715074382835,911.2217963124705,3.7484298243971392,-131285.86829282396,10.5,10499868714.131706,47.655,-122.3035,60.0,10.066666666666666
2026-01-20T23:10:05+00:00,SAT-57937,4.4329135085040585,48.76273750450072,914.9602303240025,3.7867996751073894,-132629.74276900452,10.5,10499867370.25723,47.655,-122.3035,60.0,10.083333333333334
2026-01-20T23:10:06+00:00,SAT-57937,4.592800299782801,48.385358344231356,918.736931866643,3.824694190911647,-133956.96900611254,10.5,10499866043.030994,47.655,-122.3035,60.0,10.1
2026-01-20T23:10:07+00:00,SAT-57937,4.748558857269657,48.01058625356435,922.5514268730456,3.862116470753896,-135267.65554227488,10.5,10499864732.344458,47.655,-122.3035,60.0,10.116666666666667
2026-01-20T23:10:08+00:00,SAT-57937,4.9003261037514125,47.63842831433751,926.4032443665441,3.8990697234362997,-136561.9147633165,10.5,10499863438.085238,47.655,-122.3035,60.0,10.133333333333333
2026-01-20T23:10:09+00:00,SAT-57937,5.048233112948758,47.268890103545296,930.291916570718,3.935557284685103,-137839.86350048066,10.5,10499862160.1365,47.655,-122.3035,60.0,10.15
2026-01-20T23:10:10+00:00,SAT-57937,5.192405410712416,46.90197576153117,934.2169790359771,3.971582627319463,-139101.62338658422,10.5,10499860898.376614,47.655,-122.3035,60.0,10.166666666666666
2026-01-20T23:10:11+00:00,SAT-57937,5.332963258942766,46.537688055979714,938.1779707762904,4.0071492943334,-140347.31851226458,10.5,10499859652.681488,47.655,-122.3035,60.0,10.183333333333334
2026-01-20T23:10:12+00:00,SAT-57937,5.470021920704463,46.176028448892254,942.1744343391723,4.0422609203548605,-141577.07617756695,10.5,10499858422.923822,47.655,-122.3035,60.0,10.2
2026-01-20T23:10:13+00:00,SAT-57937,5.603691910897901,45.81699715836201,946.2059158970728,4.076921295410025,-142791.02912523993,10.5,10499857208.970875,47.655,-122.3035,60.0,10.216666666666667
2026-01-20T23:10:14+00:00,SAT-57937,5.734079234576004,45.46059321199726,950.2719654023618,4.1111342240520266,-143989.31060682746,10.5,10499856010.689394,47.655,-122.3035,60.0,10.233333333333333
2026-01-20T23:10:15+00:00,SAT-57937,5.861285607291521,45.10681450988276,954.3721366018164,4.144903625985165,-145172.05790695452,10.5,10499854827.942093,47.655,-122.3035,60.0,10.25
2026-01-20T23:10:16+00:00,SAT-57937,5.985408666186513,44.755657876049696,958.5059871514657,4.178233485879976,-146339.41058563837,10.5,10499853660.589415,47.655,-122.3035,60.0,10.266666666666667
2026-01-20T23:10:17+00:00,SAT-57937,6.106542167760238,44.40711911173038,962.6730786813831,4.211127855763018,-147491.51056198918,10.5,10499852508.489437,47.655,-122.3035,60.0,10.283333333333333
2026-01-20T23:10:18+00:00,SAT-57937,6.224776174740388,44.06119304594299,966.8729768628642,4.2435908486692036,-148628.5018918876,10.5,10499851371.498108,47.655,-122.3035,60.0,10.3
2026-01-20T23:10:19+00:00,SAT-57937,6.340197232485752,43.71787358422687,971.1052514692703,4.275626637077619,-149750.53071320092,10.5,10499850249.469286,47.655,-122.3035,60.0,10.316666666666666
2026-01-20T23:10:20+00:00,SAT-57937,6.452888535715566,43.37715375525199,975.3694764353157,4.307239421101674,-150857.74413166716,10.5,10499849142.255869,47.655,-122.3035,60.0,10.333333333333334
2026-01-20T23:10:21+00:00,SAT-57937,6.562930085379404,43.03902575771505,979.6652298846277,4.338433502303073,-151950.29280617283,10.5,10499848049.707193,47.655,-122.3035,60.0,10.35
2026-01-20T23:10:22+00:00,SAT-57937,6.670398838910431,42.70348099945146,983.9920942309247,4.36921314723721,-153028.32616953528,10.5,10499846971.67383,47.655,-122.3035,60.0,10.366666666666667
2026-01-20T23:10:23+00:00,SAT-57937,6.77536884911205,42.37051014504569,988.3496561431026,4.399582713864969,-154091.99685597882,10.5,10499845908.003143,47.655,-122.3035,60.0,10.383333333333333
2026-01-20T23:10:24+00:00,SAT-57937,6.877911398743373,42.04010315176864,992.7375066363973,4.429546568062624,-155141.45777695833,10.5,10499844858.542223,47.655,-122.3035,60.0,10.4
2026-01-20T23:10:25+00:00,SAT-57937,6.978095126012948,41.71224931005065,997.1552410802784,4.459109102295876,-156176.86277520264,10.5,10499843823.137224,47.655,-122.3035,60.0,10.416666666666666
2026-01-20T23:10:26+00:00,SAT-57937,7.075986143966606,41.38693728070841,1001.6024592249681,4.488274745697213,-157198.3669776667,10.5,10499842801.633022,47.655,-122.3035,60.0,10.433333333333334
2026-01-20T23:10:27+00:00,SAT-57937,7.171648153895373,41.06415512972712,1006.0787652380102,4.517047926686342,-158206.1254863409,10.5,10499841793.874514,47.655,-122.3035,60.0,10.45
2026-01-20T23:10:28+00:00,SAT-57937,7.265142552093915,40.743890364091584,1010.5837677035587,4.5454330867517125,-159200.29386093823,10.5,10499840799.706139,47.655,-122.3035,60.0,10.466666666666667
2026-01-20T23:10:29+00:00,SAT-57937,7.3565285314741375,40.426129964944636,1015.1170796354124,4.573434693750762,-160181.02858472514,10.5,10499839818.971415,47.655,-122.3035,60.0,10.483333333333333
2026-01-20T23:10:30+00:00,SAT-57937,7.4458631782709475,40.11086041834004,1019.6783185033131,4.601057229664479,-161148.48663563456,10.5,10499838851.513365,47.655,-122.3035,60.0,10.5
2026-01-20T23:10:31+00:00,SAT-57937,7.53320156359436,39.79806774539711,1024.2671062470317,4.628305128911216,-162102.8233257548,10.5,10499837897.176674,47.655,-122.3035,60.0,10.516666666666667
2026-01-20T23:10:32+00:00,SAT-57937,7.618596829289602,39.487737535141854,1028.8830692289325,4.655182880393027,-163044.19587542387,10.5,10499836955.804125,47.655,-122.3035,60.0,10.533333333333333
2026-01-20T23:10:33+00:00,SAT-57937,7.702100271398544,39.17985496907606,1033.5258382883112,4.681694975204168,-163972.7615817599,10.5,10499836027.238419,47.655,-122.3035,60.0,10.55
2026-01-20T23:10:34+00:00,SAT-57937,7.783761418491092,38.87440484808709,1038.1950487435815,4.707845824930842,-164888.67495717265,10.5,10499835111.325043,47.655,-122.3035,60.0,10.566666666666666
2026-01-20T23:10:35+00:00,SAT-57937,7.8636281048363585,38.571371623214915,1042.8903403129793,4.733639910225675,-165792.09293307035,10.5,10499834207.907066,47.655,-122.3035,60.0,10.583333333333334
2026-01-20T23:10:36+00:00,SAT-57937,7.94174654246775,38.27073941564586,1047.6113571834444,4.759081678596983,-166683.17128000705,10.5,10499833316.82872,47.655,-122.3035,60.0,10.6
2026-01-20T23:10:37+00:00,SAT-57937,8.018161388084259,37.97249204212456,1052.357747977565,4.784175536361107,-167562.06432581978,10.5,10499832437.935675,47.655,-122.3035,60.0,10.616666666666667
2026-01-20T23:10:38+00:00,SAT-57937,8.09291580662143,37.676613039665256,1057.1291657124957,4.808925888648838,-168428.9263568225,10.5,10499831571.073643,47.655,-122.3035,60.0,10.633333333333333
2026-01-20T23:10:39+00:00,SAT-57937,8.16605153242677,37.38308568661325,1061.925267798775,4.83333716422395,-169283.91248705622,10.5,10499830716.087513,47.655,-122.3035,60.0,10.65
2026-01-20T23:10:40+00:00,SAT-57937,8.237608927877258,37.09189302129767,1066.7457160638944,4.857413692005358,-170127.17433357265,10.5,10499829872.825666,47.655,-122.3035,60.0,10.666666666666666
2026-01-20T23:10:41+00:00,SAT-57937,8.307627037429661,36.80301786702357,1071.5901766527209,4.881159845049087,-170958.86505929183,10.5,10499829041.134941,47.655,-122.3035,60.0,10.683333333333334
2026-01-20T23:10:42+00:00,SAT-57937,8.376143641239931,36.51644284748874,1076.4583200715165,4.904579929694612,-171779.13549043794,10.5,10499828220.86451,47.655,-122.3035,60.0,10.7
2026-01-20T23:10:43+00:00,SAT-57937,8.44319530471144,36.23215040782697,1081.349821121399,4.92767825593678,-172588.13658126182,10.5,10499827411.863419,47.655,-122.3035,60.0,10.716666666666667
2026-01-20T23:10:44+00:00,SAT-57937,8.508817426722983,35.950122830650834,1086.2643589019865,4.950459084177714,-173386.01754906724,10.5,10499826613.98245,47.655,-122.3035,60.0,10.733333333333333
2026-01-20T23:10:45+00:00,SAT-57937,8.573044284949384,35.67034225427866,1091.2016167619397,4.972926675889599,-174172.9276486361,10.5,10499825827.072351,47.655,-122.3035,60.0,10.75
2026-01-20T23:10:46+00:00,SAT-57937,8.63590907975166,35.392790687300185,1096.1612823000269,4.995085196944282,-174949.01278642227,10.5,10499825050.987213,47.655,-122.3035,60.0,10.766666666666667
2026-01-20T23:10:47+00:00,SAT-57937,8.697443974890389,35.11745002765095,1101.1430472697793,5.016938867097998,-175714.4207561385,10.5,10499824285.579245,47.655,-122.3035,60.0,10.783333333333333
2026-01-20T23:10:48+00:00,SAT-57937,8.757680138243444,34.84430207272744,1106.1466076332317,5.038491816879345,-176469.29622636843,10.5,10499823530.703773,47.655,-122.3035,60.0,10.8
2026-01-20T23:10:49+00:00,SAT-57937,8.816647778947301,34.57332853661586,1111.1716634719326,5.059748133487623,-177213.78234812044,10.5,10499822786.217651,47.655,-122.3035,60.0,10.816666666666666
2026-01-20T23:10:50+00:00,SAT-57937,8.874376183498288,34.30451106401644,1116.2179189437309,5.080711911578993,-177948.02253357362,10.5,10499822051.977467,47.655,-122.3035,60.0,10.833333333333334
2026-01-20T23:10:51+00:00,SAT-57937,8.930893750793691,34.03783124084589,1121.2850822902124,5.101387192347814,-178672.15832244867,10.5,10499821327.841677,47.655,-122.3035,60.0,10.85
2026-01-20T23:10:52+00:00,SAT-57937,8.986228024956246,33.77327060744519,1126.3728657833806,5.121777966303435,-179386.32947926284,10.5,10499820613.67052,47.655,-122.3035,60.0,10.866666666666667
2026-01-20T23:10:53+00:00,SAT-57937,9.040405726776607,33.51081067095287,1131.4809856751071,5.141888185764652,-180090.67443093864,10.5,10499819909.32557,47.655,-122.3035,60.0,10.883333333333333
2026-01-20T23:10:54+00:00,SAT-57937,9.093452783935525,33.2504329164167,1136.609162159043,5.16172179027412,-180785.3311569241,10.5,10499819214.668842,47.655,-122.3035,60.0,10.9
2026-01-20T23:10:55+00:00,SAT-57937,9.145394360162333,32.99211881608004,1141.7571193578765,5.181282640191186,-181470.43486333286,10.5,10499818529.565136,47.655,-122.3035,60.0,10.916666666666666
2026-01-20T23:10:56+00:00,SAT-57937,9.196254882512704,32.735849841425576,1146.9245852443605,5.200574608584762,-182146.12120142125,10.5,10499817853.8788,47.655,-122.3035,60.0,10.933333333333334
2026-01-20T23:10:57+00:00,SAT-57937,9.246058068352086,32.481607470154366,1152.1112916539892,5.219601470504931,-182812.52238941172,10.5,10499817187.477612,47.655,-122.3035,60.0,10.95
2026-01-20T23:10:58+00:00,SAT-57937,9.294826950165625,32.22937319807963,1157.3169741872393,5.238366985716565,-183469.7701101738,10.5,10499816530.229889,47.655,-122.3035,60.0,10.966666666666667
2026-01-20T23:10:59+00:00,SAT-57937,9.342583900098122,31.979128546461904,1162.5413721943273,5.256874895548607,-184117.99540087284,10.5,10499815882.004599,47.655,-122.3035,60.0,10.983333333333333
2026-01-20T23:11:00+00:00,SAT-57937,9.389350653433844,31.73085506913194,1167.7842287568212,5.2751288675174255,-184757.32671344577,10.5,10499815242.673286,47.655,-122.3035,60.0,11.0
2026-01-20T23:11:01+00:00,SAT-57937,9.435148330600198,31.48453436174953,1173.0452906140251,5.293132509249513,-185387.89040223247,10.5,10499814612.109598,47.655,-122.3035,60.0,11.016666666666667
2026-01-20T23:11:02+00:00,SAT-57937,9.47999745840891,31.240148069924796,1178.3243081032501,5.310889452340521,-186009.81366107438,10.5,10499813990.186338,47.655,-122.3035,60.0,11.033333333333333
2026-01-20T23:11:03+00:00,SAT-57937,9.523917991144746,30.997677893104488,1183.6210351837178,5.328403233241519,-186623.22035144712,10.5,10499813376.779648,47.655,-122.3035,60.0,11.05
