satellites_20260121_005943/SAT-52869.csv

timestamp,satellite,azimuth_deg,elevation_deg,distance_km,relative_velocity_kms,doppler_shift_hz,tx_freq_ghz,rx_freq_hz,ue_lat,ue_lon,ue_alt_m,time_minutes
2026-01-20T23:10:05+00:00,SAT-52869,209.83340407254633,30.047257741855393,1648.6778899986389,-6.484478406371513,227113.8631075932,10.5,10500227113.863108,47.655,-122.3035,60.0,10.083333333333334
2026-01-20T23:10:06+00:00,SAT-52869,209.78056341262146,30.15678795753575,1642.2107035346842,-6.481036308035315,226993.30626379803,10.5,10500226993.306263,47.655,-122.3035,60.0,10.1
2026-01-20T23:10:07+00:00,SAT-52869,209.72738878973206,30.266967832850888,1635.746949990137,-6.477545906170023,226871.05762609025,10.5,10500226871.057627,47.655,-122.3035,60.0,10.116666666666667
2026-01-20T23:10:08+00:00,SAT-52869,209.67387520353873,30.37780458684597,1629.2866775397167,-6.474006457425197,226747.0911591931,10.5,10500226747.09116,47.655,-122.3035,60.0,10.133333333333333
2026-01-20T23:10:09+00:00,SAT-52869,209.6200175536085,30.48930553732269,1622.8299350995114,-6.470417279117355,226621.38295264327,10.5,10500226621.382952,47.655,-122.3035,60.0,10.15
2026-01-20T23:10:10+00:00,SAT-52869,209.56581063635412,30.601478103646404,1616.3767722664718,-6.466777579351665,226493.90527093408,10.5,10500226493.905272,47.655,-122.3035,60.0,10.166666666666666
2026-01-20T23:10:11+00:00,SAT-52869,209.51124914314045,30.714329806628193,1609.9272394273316,-6.463086619715044,226364.63225171584,10.5,10500226364.632252,47.655,-122.3035,60.0,10.183333333333334
2026-01-20T23:10:12+00:00,SAT-52869,209.4563276571255,30.827868271259728,1603.481387705269,-6.459343658207395,226233.53790700645,10.5,10500226233.537907,47.655,-122.3035,60.0,10.2
2026-01-20T23:10:13+00:00,SAT-52869,209.4010406503965,30.942101228502807,1597.0392689634837,-6.455547878598034,226100.59364895485,10.5,10500226100.593649,47.655,-122.3035,60.0,10.216666666666667
2026-01-20T23:10:14+00:00,SAT-52869,209.34538248161536,31.057036515847575,1590.6009358792285,-6.451698487156955,225965.77167777857,10.5,10500225965.771677,47.655,-122.3035,60.0,10.233333333333333
2026-01-20T23:10:15+00:00,SAT-52869,209.28934739278085,31.17268207959965,1584.1664419213705,-6.447794688056722,225829.0441202346,10.5,10500225829.04412,47.655,-122.3035,60.0,10.25
2026-01-20T23:10:16+00:00,SAT-52869,209.23292950613248,31.2890459767875,1577.735841352482,-6.44383563553121,225690.38135401558,10.5,10500225690.381353,47.655,-122.3035,60.0,10.266666666666667
2026-01-20T23:10:17+00:00,SAT-52869,209.17612282129122,31.40613637621835,1571.3091892786456,-6.439820496579503,225549.7542039059,10.5,10500225549.754204,47.655,-122.3035,60.0,10.283333333333333
2026-01-20T23:10:18+00:00,SAT-52869,209.11892121184113,31.523961560704265,1564.8865416367235,-6.435748394141594,225407.13195155407,10.5,10500225407.131952,47.655,-122.3035,60.0,10.3
2026-01-20T23:10:19+00:00,SAT-52869,209.06131842222885,31.642529928278773,1558.4679552382997,-6.431618451861351,225262.48390326145,10.5,10500225262.483904,47.655,-122.3035,60.0,10.316666666666666
2026-01-20T23:10:20+00:00,SAT-52869,209.00330806423707,31.761849994263375,1552.0534877689768,-6.427429831537505,225115.78070167394,10.5,10500225115.780703,47.655,-122.3035,60.0,10.333333333333334
2026-01-20T23:10:21+00:00,SAT-52869,208.94488361298488,31.881930394082723,1545.6431977503232,-6.423181534863035,224966.98738185692,10.5,10500224966.987381,47.655,-122.3035,60.0,10.35
2026-01-20T23:10:22+00:00,SAT-52869,208.88603840449534,32.00277988238569,1539.2371446995533,-6.4188726947883366,224816.07357606554,10.5,10500224816.073576,47.655,-122.3035,60.0,10.366666666666667
2026-01-20T23:10:23+00:00,SAT-52869,208.82676563069842,32.124407337661204,1532.8353889986176,-6.414502349463537,224663.00559624867,10.5,10500224663.005596,47.655,-122.3035,60.0,10.383333333333333
2026-01-20T23:10:24+00:00,SAT-52869,208.76705833621577,32.246821762646434,1526.4379919887526,-6.410069551689214,224507.7502674759,10.5,10500224507.750267,47.655,-122.3035,60.0,10.4
2026-01-20T23:10:25+00:00,SAT-52869,208.70690941407324,32.370032286827865,1520.045015955868,-6.405573269940345,224350.27146137753,10.5,10500224350.271461,47.655,-122.3035,60.0,10.416666666666666
2026-01-20T23:10:26+00:00,SAT-52869,208.6463116021448,32.4940481670653,1513.6565242146476,-6.401012547127805,224190.535656644,10.5,10500224190.535656,47.655,-122.3035,60.0,10.433333333333334
2026-01-20T23:10:27+00:00,SAT-52869,208.58525747809296,32.61887879132168,1507.272581034312,-6.396386374173874,224028.50751110516,10.5,10500224028.507511,47.655,-122.3035,60.0,10.45
2026-01-20T23:10:28+00:00,SAT-52869,208.52373945524764,32.74453367999513,1500.8932516904692,-6.391693666464638,223864.1490369938,10.5,10500223864.149036,47.655,-122.3035,60.0,10.466666666666667
2026-01-20T23:10:29+00:00,SAT-52869,208.4617497785309,32.87102248677581,1494.5186025404485,-6.386933386049142,223697.4238808769,10.5,10500223697.423882,47.655,-122.3035,60.0,10.483333333333333
2026-01-20T23:10:30+00:00,SAT-52869,208.39928051920393,32.99835500196044,1488.1487009767623,-6.3821044625667485,223528.29455419743,10.5,10500223528.294554,47.655,-122.3035,60.0,10.5
2026-01-20T23:10:31+00:00,SAT-52869,208.33632357008563,33.12654115424219,1481.7836154594288,-6.377205777726358,223356.72188967062,10.5,10500223356.72189,47.655,-122.3035,60.0,10.516666666666667
2026-01-20T23:10:32+00:00,SAT-52869,208.27287064079906,33.25559101220914,1475.4234155637766,-6.372236213008937,223182.66671202861,10.5,10500223182.666712,47.655,-122.3035,60.0,10.533333333333333
2026-01-20T23:10:33+00:00,SAT-52869,208.20891325237878,33.38551478683054,1469.068171980669,-6.367194623101342,223006.08890756045,10.5,10500223006.088907,47.655,-122.3035,60.0,10.55
2026-01-20T23:10:34+00:00,SAT-52869,208.14444273196153,33.51632283344674,1462.7179565432293,-6.3620798335826505,222826.94734307769,10.5,10500222826.947344,47.655,-122.3035,60.0,10.566666666666666
2026-01-20T23:10:35+00:00,SAT-52869,208.07945020729414,33.64802565372865,1456.3728422558695,-6.356890676131595,222645.20109902744,10.5,10500222645.2011,47.655,-122.3035,60.0,10.583333333333334
2026-01-20T23:10:36+00:00,SAT-52869,208.01392660074498,33.78063389842116,1450.0329032882075,-6.351625902212547,222460.8064464108,10.5,10500222460.806446,47.655,-122.3035,60.0,10.6
2026-01-20T23:10:37+00:00,SAT-52869,207.94786262387458,33.91415836828701,1443.6982150550675,-6.3462842899381275,222273.7205895631,10.5,10500222273.720589,47.655,-122.3035,60.0,10.616666666666667
2026-01-20T23:10:38+00:00,SAT-52869,207.8812487708547,34.048610017338596,1437.3688541899025,-6.340864581102306,222083.89946078698,10.5,10500222083.89946,47.655,-122.3035,60.0,10.633333333333333
2026-01-20T23:10:39+00:00,SAT-52869,207.81407531219685,34.18399995477502,1431.0448985810165,-6.335365487451315,221891.29793998622,10.5,10500221891.29794,47.655,-122.3035,60.0,10.65
2026-01-20T23:10:40+00:00,SAT-52869,207.74633228824914,34.320339447081885,1424.7264274015317,-6.329785689060913,221695.8697978306,10.5,10500221695.869799,47.655,-122.3035,60.0,10.666666666666666
2026-01-20T23:10:41+00:00,SAT-52869,207.6780095024254,34.45763992011341,1418.413521140975,-6.324123834933795,221497.56771667968,10.5,10500221497.567717,47.655,-122.3035,60.0,10.683333333333334
2026-01-20T23:10:42+00:00,SAT-52869,207.60909651423233,34.59591296121619,1412.1062616362676,-6.318378568465719,221296.3441825146,10.5,10500221296.344183,47.655,-122.3035,60.0,10.7
2026-01-20T23:10:43+00:00,SAT-52869,207.53958263174457,34.73517032193901,1405.804732077318,-6.312548511677227,221092.15093266583,10.5,10500221092.150932,47.655,-122.3035,60.0,10.716666666666667
2026-01-20T23:10:44+00:00,SAT-52869,207.46945690398968,34.87542392044355,1399.5090170283386,-6.306632203475111,220884.93679346883,10.5,10500220884.936794,47.655,-122.3035,60.0,10.733333333333333
2026-01-20T23:10:45+00:00,SAT-52869,207.3987081136673,35.016685842538486,1393.2192025107395,-6.300628230989864,220674.65228025708,10.5,10500220674.65228,47.655,-122.3035,60.0,10.75
2026-01-20T23:10:46+00:00,SAT-52869,207.32732476826538,35.15896834569511,1386.9353759550322,-6.294535086200789,220461.24457576676,10.5,10500220461.244576,47.655,-122.3035,60.0,10.766666666666667
2026-01-20T23:10:47+00:00,SAT-52869,207.25529509230182,35.302283859852764,1380.6576262957278,-6.288351280532185,220244.66154378018,10.5,10500220244.661543,47.655,-122.3035,60.0,10.783333333333333
2026-01-20T23:10:48+00:00,SAT-52869,207.18260701811775,35.44664499085168,1374.3860439519437,-6.282075256566676,220024.84863695304,10.5,10500220024.848637,47.655,-122.3035,60.0,10.8
2026-01-20T23:10:49+00:00,SAT-52869,207.10924817721232,35.5920645218628,1368.1207208960614,-6.2757054528869505,219801.75116784617,10.5,10500219801.751167,47.655,-122.3035,60.0,10.816666666666666
2026-01-20T23:10:50+00:00,SAT-52869,207.0352058905989,35.73855541633491,1361.8617506577154,-6.269240248815231,219575.31237346842,10.5,10500219575.312374,47.655,-122.3035,60.0,10.833333333333334
2026-01-20T23:10:51+00:00,SAT-52869,206.96046715935628,35.88613081966916,1355.6092283828968,-6.26267801828636,219345.4753021398,10.5,10500219345.475302,47.655,-122.3035,60.0,10.85
2026-01-20T23:10:52+00:00,SAT-52869,206.88501865425178,36.03480406218094,1349.3632508393262,-6.256017106996205,219112.18201313174,10.5,10500219112.182013,47.655,-122.3035,60.0,10.866666666666667
2026-01-20T23:10:53+00:00,SAT-52869,206.80884670519978,36.18458866155114,1343.1239164446151,-6.249255772858622,218875.37149121857,10.5,10500218875.37149,47.655,-122.3035,60.0,10.883333333333333
2026-01-20T23:10:54+00:00,SAT-52869,206.73193729099867,36.33549832384181,1336.8913253538176,-6.24239231946957,218634.9843211549,10.5,10500218634.984322,47.655,-122.3035,60.0,10.9
2026-01-20T23:10:55+00:00,SAT-52869,206.6542760271285,36.48754694775305,1330.6655794138665,-6.235424928735591,218390.95682561735,10.5,10500218390.956825,47.655,-122.3035,60.0,10.916666666666666
2026-01-20T23:10:56+00:00,SAT-52869,206.57584815502221,36.640748624819466,1324.4467822849408,-6.228351826527796,218143.2268671077,10.5,10500218143.226868,47.655,-122.3035,60.0,10.933333333333334
2026-01-20T23:10:57+00:00,SAT-52869,206.4966385289537,36.79511764366782,1318.2350393966171,-6.221171142778873,217891.7289479583,10.5,10500217891.728949,47.655,-122.3035,60.0,10.95
2026-01-20T23:10:58+00:00,SAT-52869,206.41663160408896,36.95066849083705,1312.0304580435522,-6.2138809956020955,217636.39715653556,10.5,10500217636.397156,47.655,-122.3035,60.0,10.966666666666667
2026-01-20T23:10:59+00:00,SAT-52869,206.3358114230176,37.1074158536704,1305.833147397272,-6.206479464644855,217377.16423396804,10.5,10500217377.164234,47.655,-122.3035,60.0,10.983333333333333
2026-01-20T23:11:00+00:00,SAT-52869,206.2541616021096,37.265374622558156,1299.6432185445328,-6.198964562667735,217113.9605787255,10.5,10500217113.960579,47.655,-122.3035,60.0,11.0
2026-01-20T23:11:01+00:00,SAT-52869,206.1716653176267,37.424559892427986,1293.4607845540322,-6.1913343157156815,216846.71705455196,10.5,10500216846.717054,47.655,-122.3035,60.0,11.016666666666667
2026-01-20T23:11:02+00:00,SAT-52869,206.08830529031314,37.58498696630711,1287.2859604631583,-6.183586658827483,216575.36133777112,10.5,10500216575.361338,47.655,-122.3035,60.0,11.033333333333333
2026-01-20T23:11:03+00:00,SAT-52869,206.00406377062077,37.74667135616074,1281.1188633687543,-6.1757194862852485,216299.8196772352,10.5,10500216299.819677,47.655,-122.3035,60.0,11.05
2026-01-20T23:11:04+00:00,SAT-52869,205.91892252274525,37.90962878501349,1274.9596124677657,-6.167730700874364,216020.01861961724,10.5,10500216020.01862,47.655,-122.3035,60.0,11.066666666666666
2026-01-20T23:11:05+00:00,SAT-52869,205.83286280731278,38.07387519036018,1268.8083290487605,-6.159618087213781,215735.8805729019,10.5,10500215735.880573,47.655,-122.3035,60.0,11.083333333333334
2026-01-20T23:11:06+00:00,SAT-52869,205.74586536503818,38.23942672418296,1262.6651366097794,-6.151379442256697,215447.3283770712,10.5,10500215447.328377,47.655,-122.3035,60.0,11.1
2026-01-20T23:11:07+00:00,SAT-52869,205.65791039794186,38.40629975641097,1256.5301608460352,-6.143012491285373,215154.2823618879,10.5,10500215154.282362,47.655,-122.3035,60.0,11.116666666666667
2026-01-20T23:11:08+00:00,SAT-52869,205.56897755094326,38.574510876105975,1250.4035297213934,-6.134514915616994,214856.66131727182,10.5,10500214856.661318,47.655,-122.3035,60.0,11.133333333333333
2026-01-20T23:11:09+00:00,SAT-52869,205.47904589223734,38.74407689332011,1244.285373512218,-6.125884349803636,214554.38239523084,10.5,10500214554.382395,47.655,-122.3035,60.0,11.15
2026-01-20T23:11:10+00:00,SAT-52869,205.38809389293334,38.91501484085513,1238.1758248540139,-6.117118372597893,214247.3607934389,10.5,10500214247.360794,47.655,-122.3035,60.0,11.166666666666666
2026-01-20T23:11:11+00:00,SAT-52869,205.2960994059042,39.087341975684176,1232.0750187970764,-6.1082145388985545,213935.51087410885,10.5,10500213935.510874,47.655,-122.3035,60.0,11.183333333333334
2026-01-20T23:11:12+00:00,SAT-52869,205.20303964329804,39.26107578123473,1225.9830928302815,-6.099170299361677,213618.74334843206,10.5,10500213618.74335,47.655,-122.3035,60.0,11.2
2026-01-20T23:11:13+00:00,SAT-52869,205.10889115419113,39.43623396728963,1219.9001869850513,-6.089983098841222,213296.96872438607,10.5,10500213296.968725,47.655,-122.3035,60.0,11.216666666666667
2026-01-20T23:11:14+00:00,SAT-52869,205.0136297998833,39.61283447261581,1213.8264438411404,-6.080650328171966,212970.09561796795,10.5,10500212970.095617,47.655,-122.3035,60.0,11.233333333333333
2026-01-20T23:11:15+00:00,SAT-52869,204.9172307287572,39.79089546614819,1207.7620085805104,-6.07116927634297,212638.02907810707,10.5,10500212638.029078,47.655,-122.3035,60.0,11.25
2026-01-20T23:11:16+00:00,SAT-52869,204.81966835078885,39.97043534663486,1201.7070290889042,-6.061537227791423,212300.6739943069,10.5,10500212300.673994,47.655,-122.3035,60.0,11.266666666666667
2026-01-20T23:11:17+00:00,SAT-52869,204.7209163094143,40.15147274503323,1195.661655960387,-6.051751383897935,211957.9323470783,10.5,10500211957.932346,47.655,-122.3035,60.0,11.283333333333333
2026-01-20T23:11:18+00:00,SAT-52869,204.62094745336933,40.33402652447619,1189.6260425801795,-6.041808897001689,211609.70439929393,10.5,10500211609.7044,47.655,-122.3035,60.0,11.3
2026-01-20T23:11:19+00:00,SAT-52869,204.51973380669168,40.518115781095666,1183.6003451735696,-6.031706834320648,211255.8874325211,10.5,10500211255.887432,47.655,-122.3035,60.0,11.316666666666666
2026-01-20T23:11:20+00:00,SAT-52869,204.417246537967,40.703759843598135,1177.5847228908071,-6.021442263176193,210896.3787319494,10.5,10500210896.378733,47.655,-122.3035,60.0,11.333333333333334
2026-01-20T23:11:21+00:00,SAT-52869,204.31345592677687,40.89097827530776,1171.5793378069995,-6.0110120853808295,210531.06978594742,10.5,10500210531.069786,47.655,-122.3035,60.0,11.35
2026-01-20T23:11:22+00:00,SAT-52869,204.20833133130623,41.079790870867214,1165.5843550871798,-6.000413272956092,210159.854541901,10.5,10500210159.854542,47.655,-122.3035,60.0,11.366666666666667
2026-01-20T23:11:23+00:00,SAT-52869,204.10184115056,41.27021766014712,1159.5999429162848,-5.989642598874675,209782.61997566358,10.5,10500209782.619976,47.655,-122.3035,60.0,11.383333333333333
2026-01-20T23:11:24+00:00,SAT-52869,203.99395278932073,41.46227890342477,1153.6262726976736,-5.9786968818925,209399.25466661088,10.5,10500209399.254667,47.655,-122.3035,60.0,11.4
2026-01-20T23:11:25+00:00,SAT-52869,203.88463261729225,41.6559950941236,1147.6635190074662,-5.967572771753704,209009.64127461103,10.5,10500209009.641275,47.655,-122.3035,60.0,11.416666666666666
2026-01-20T23:11:26+00:00,SAT-52869,203.77384593005507,41.85138695440063,1141.711859763104,-5.956266929354544,208613.6628501265,10.5,10500208613.66285,47.655,-122.3035,60.0,11.433333333333334
2026-01-20T23:11:27+00:00,SAT-52869,203.66155690496674,42.048475436281706,1135.7714762122278,-5.944775925084451,208211.199273688,10.5,10500208211.199274,47.655,-122.3035,60.0,11.45
2026-01-20T23:11:28+00:00,SAT-52869,203.54772855676296,42.24728171923938,1129.8425530229435,-5.93309622647413,207802.1268232784,10.5,10500207802.126823,47.655,-122.3035,60.0,11.466666666666667
2026-01-20T23:11:29+00:00,SAT-52869,203.43232269126617,42.44782720697448,1123.9252783864065,-5.921224222084811,207386.31901103567,10.5,10500207386.319012,47.655,-122.3035,60.0,11.483333333333333
2026-01-20T23:11:30+00:00,SAT-52869,203.315299856384,42.65013352461105,1118.0198440955808,-5.909156332926287,206963.65048558364,10.5,10500206963.650486,47.655,-122.3035,60.0,11.5
2026-01-20T23:11:31+00:00,SAT-52869,203.19661928866654,42.854222519440675,1112.1264455128755,-5.89688872955625,206533.98712365414,10.5,10500206533.987123,47.655,-122.3035,60.0,11.516666666666667
2026-01-20T23:11:32+00:00,SAT-52869,203.07623886251585,43.060116251428845,1106.2452818199315,-5.884417668251027,206097.1978042082,10.5,10500206097.197803,47.655,-122.3035,60.0,11.533333333333333
2026-01-20T23:11:33+00:00,SAT-52869,202.9541150305299,43.26783699499904,1100.3765559321291,-5.87173919263102,205653.1439580969,10.5,10500205653.143959,47.655,-122.3035,60.0,11.55
2026-01-20T23:11:34+00:00,SAT-52869,202.8302027665851,43.47740722986096,1094.5204747106784,-5.8588493778261315,205201.68811976712,10.5,10500205201.68812,47.655,-122.3035,60.0,11.566666666666666
2026-01-20T23:11:35+00:00,SAT-52869,202.70445550130182,43.688849640021886,1088.677248931193,-5.845744149041941,204742.68757268199,10.5,10500204742.687572,47.655,-122.3035,60.0,11.583333333333334
2026-01-20T23:11:36+00:00,SAT-52869,202.57682505781827,43.90218710575808,1082.8470934332154,-5.832419339346959,204275.9963732746,10.5,10500204275.996374,47.655,-122.3035,60.0,11.6
2026-01-20T23:11:37+00:00,SAT-52869,202.44726158321708,44.11744269704904,1077.0302272121066,-5.818870744402435,203801.46726781753,10.5,10500203801.467268,47.655,-122.3035,60.0,11.616666666666667
2026-01-20T23:11:38+00:00,SAT-52869,202.3157134751866,44.33463966840493,1071.2268734563559,-5.805094059266624,203318.9494790411,10.5,10500203318.949478,47.655,-122.3035,60.0,11.633333333333333
2026-01-20T23:11:39+00:00,SAT-52869,202.18212730631265,44.553801450765555,1065.437259647914,-5.791084848498636,202828.2876590434,10.5,10500202828.287659,47.655,-122.3035,60.0,11.65
2026-01-20T23:11:40+00:00,SAT-52869,202.046447745011,44.7749516414311,1059.6616176923446,-5.776838647410678,202329.3254355722,10.5,10500202329.325436,47.655,-122.3035,60.0,11.666666666666666
2026-01-20T23:11:41+00:00,SAT-52869,201.9086174701683,44.99811399714223,1053.9001839479936,-5.762350828901,201821.90074795176,10.5,10500201821.900747,47.655,-122.3035,60.0,11.683333333333334
2026-01-20T23:11:42+00:00,SAT-52869,201.76857708420616,45.2233124211556,1048.1531993879698,-5.747616752448569,201305.85106550605,10.5,10500201305.851065,47.655,-122.3035,60.0,11.7
2026-01-20T23:11:43+00:00,SAT-52869,201.6262650181614,45.45057095526969,1042.4209096135278,-5.732631641774906,200781.00910275904,10.5,10500200781.009102,47.655,-122.3035,60.0,11.716666666666667
2026-01-20T23:11:44+00:00,SAT-52869,201.4816174344732,45.6799137661063,1036.7035649894642,-5.717390580936386,200247.20268257067,10.5,10500200247.202682,47.655,-122.3035,60.0,11.733333333333333
2026-01-20T23:11:45+00:00,SAT-52869,201.33456812473494,45.91136513012065,1031.0014207834104,-5.701888647884779,199704.2594139916,10.5,10500199704.259415,47.655,-122.3035,60.0,11.75
2026-01-20T23:11:46+00:00,SAT-52869,201.1850483985552,46.14494942293169,1025.31473717192,-5.6861207529191695,199152.00103416637,10.5,10500199152.001034,47.655,-122.3035,60.0,11.766666666666667
2026-01-20T23:11:47+00:00,SAT-52869,201.03298697039872,46.380691100955964,1019.6437794076753,-5.67008171952048,198590.24623950027,10.5,10500198590.246239,47.655,-122.3035,60.0,11.783333333333333
2026-01-20T23:11:48+00:00,SAT-52869,200.87830983813635,46.61861468501033,1013.9888179060736,-5.653766268754707,198018.81013939454,10.5,10500198018.810139,47.655,-122.3035,60.0,11.8
2026-01-20T23:11:49+00:00,SAT-52869,200.72094015530934,46.85874474194792,1008.3501283473688,-5.637169046104385,197437.50519599812,10.5,10500197437.505196,47.655,-122.3035,60.0,11.816666666666666
2026-01-20T23:11:50+00:00,SAT-52869,200.56079809547543,47.101105866009995,1002.727991752054,-5.620284562571259,196846.1391613735,10.5,10500196846.139162,47.655,-122.3035,60.0,11.833333333333334
2026-01-20T23:11:51+00:00,SAT-52869,200.39780071056342,47.345722656116955,997.122694614983,-5.603107188088603,196244.51484676884,10.5,10500196244.514847,47.655,-122.3035,60.0,11.85
2026-01-20T23:11:52+00:00,SAT-52869,200.2318617814,47.59261969109583,991.5345290460626,-5.585631261690182,195632.43398120077,10.5,10500195632.43398,47.655,-122.3035,60.0,11.866666666666667
2026-01-20T23:11:53+00:00,SAT-52869,200.06289165661974,47.84182150803963,985.9637928010702,-5.567850973467066,195009.69307708266,10.5,10500195009.693077,47.655,-122.3035,60.0,11.883333333333333
2026-01-20T23:11:54+00:00,SAT-52869,199.89079708563446,48.09335257356505,980.4107894301991,-5.549760398098827,194376.08460462897,10.5,10500194376.084604,47.655,-122.3035,60.0,11.9
2026-01-20T23:11:55+00:00,SAT-52869,199.71548104103047,48.347237254472816,974.8758283931619,-5.531353473777152,193731.39625367124,10.5,10500193731.396254,47.655,-122.3035,60.0,11.916666666666666
2026-01-20T23:11:56+00:00,SAT-52869,199.5368425312423,48.6034997851862,969.3592251953147,-5.512624097239764,193075.41426214777,10.5,10500193075.414263,47.655,-122.3035,60.0,11.933333333333334
2026-01-20T23:11:57+00:00,SAT-52869,199.3547763993331,48.862164237329466,963.8613014290011,-5.493565988036874,192407.91866214052,10.5,10500192407.918663,47.655,-122.3035,60.0,11.95
2026-01-20T23:11:58+00:00,SAT-52869,199.16917311404862,49.123254480439115,958.3823849502655,-5.4741727651417404,191728.68596310142,10.5,10500191728.685963,47.655,-122.3035,60.0,11.966666666666667
2026-01-20T23:11:59+00:00,SAT-52869,198.97991854611527,49.38679414353768,952.9228099791642,-5.454437939873209,191037.48890396935,10.5,10500191037.488903,47.655,-122.3035,60.0,11.983333333333333
2026-01-20T23:12:00+00:00,SAT-52869,198.7868937312755,49.65280657349684,947.4829172071305,-5.434354892609972,190334.0956376051,10.5,10500190334.095638,47.655,-122.3035,60.0,12.0
2026-01-20T23:12:01+00:00,SAT-52869,198.58997461986056,49.921314789180265,942.0630539275677,-5.413916922481751,189618.27147118686,10.5,10500189618.271471,47.655,-122.3035,60.0,12.016666666666667
2026-01-20T23:12:02+00:00,SAT-52869,198.38903180937336,50.1923414347302,936.6635741168791,-5.393117154196611,188889.77560290866,10.5,10500188889.775602,47.655,-122.3035,60.0,12.033333333333333
2026-01-20T23:12:03+00:00,SAT-52869,198.18393026405084,50.465908724624185,931.2848386084271,-5.3719486256624895,188148.3641908568,10.5,10500188148.364191,47.655,-122.3035,60.0,12.05
2026-01-20T23:12:04+00:00,SAT-52869,197.9745290139986,50.742038389271436,925.9272151790997,-5.350404260129645,187393.78937732073,10.5,10500187393.789377,47.655,-122.3035,60.0,12.066666666666666
2026-01-20T23:12:05+00:00,SAT-52869,197.76068083669378,51.02075161517092,920.5910786636637,-5.328476855095194,186625.79890018294,10.5,10500186625.7989,47.655,-122.3035,60.0,12.083333333333334
2026-01-20T23:12:06+00:00,SAT-52869,197.54223191895514,51.30206898005632,915.2768110801821,-5.306159052578233,185844.1350518279,10.5,10500185844.135052,47.655,-122.3035,60.0,12.1
2026-01-20T23:12:07+00:00,SAT-52869,197.31902149902348,51.58601038171468,909.9848017850775,-5.283443448224075,185048.53850043417,10.5,10500185048.5385,47.655,-122.3035,60.0,12.116666666666667
2026-01-20T23:12:08+00:00,SAT-52869,197.09088148146935,51.87259496756395,904.7154475193819,-5.26032245226803,184238.7434203375,10.5,10500184238.74342,47.655,-122.3035,60.0,12.133333333333333
2026-01-20T23:12:09+00:00,SAT-52869,196.8576360333984,52.16184105133599,899.4691525936533,-5.236788388713465,183414.48096566653,10.5,10500183414.480967,47.655,-122.3035,60.0,12.15
2026-01-20T23:12:10+00:00,SAT-52869,196.6191011506306,52.453766029230266,894.2463289739765,-5.212833445092262,182575.47751074095,10.5,10500182575.47751,47.655,-122.3035,60.0,12.166666666666666
2026-01-20T23:12:11+00:00,SAT-52869,196.37508419815194,52.74838628703727,889.047396418071,-5.188449699411637,181721.4555938635,10.5,10500181721.455593,47.655,-122.3035,60.0,12.183333333333334
2026-01-20T23:12:12+00:00,SAT-52869,196.12538341958532,53.04571710196031,883.8727825845244,-5.163629127024637,180852.1341579537,10.5,10500180852.134157,47.655,-122.3035,60.0,12.2
2026-01-20T23:12:13+00:00,SAT-52869,195.86978741441868,53.34577253763625,878.7229231351719,-5.138363560667431,179967.22715088457,10.5,10500179967.22715,47.655,-122.3035,60.0,12.216666666666667
2026-01-20T23:12:14+00:00,SAT-52869,195.60807458286843,53.64856532895111,873.5982618773329,-5.112644733109599,179066.44501927664,10.5,10500179066.445019,47.655,-122.3035,60.0,12.233333333333333
2026-01-20T23:12:15+00:00,SAT-52869,195.34001253226458,53.95410676091601,868.4992508635116,-5.086464278356484,178149.49475060872,10.5,10500178149.494751,47.655,-122.3035,60.0,12.25
2026-01-20T23:12:16+00:00,SAT-52869,195.065357444015,54.262406538597,863.4263504898975,-5.059813685649559,177216.07826211682,10.5,10500177216.078262,47.655,-122.3035,60.0,12.266666666666667
2026-01-20T23:12:17+00:00,SAT-52869,194.78385340101494,54.5734726444342,858.3800296407429,-5.032684393508693,176265.8956945517,10.5,10500176265.895695,47.655,-122.3035,60.0,12.283333333333333
2026-01-20T23:12:18+00:00,SAT-52869,194.49523166514246,54.88731119082743,853.3607657389502,-5.005067658358619,175298.64081092225,10.5,10500175298.64081,47.655,-122.3035,60.0,12.3
2026-01-20T23:12:19+00:00,SAT-52869,194.19920991369779,55.20392625316738,848.3690449276806,-4.976954713097173,174314.0065502259,10.5,10500174314.00655,47.655,-122.3035,60.0,12.316666666666666
2026-01-20T23:12:20+00:00,SAT-52869,193.89549141564902,55.52331970057204,843.4053620938183,-4.9483366420858195,173311.6806490879,10.5,10500173311.680649,47.655,-122.3035,60.0,12.333333333333334
2026-01-20T23:12:21+00:00,SAT-52869,193.58376415965847,55.84549100552325,838.4702210161114,-4.919204448089304,172291.34798627152,10.5,10500172291.347986,47.655,-122.3035,60.0,12.35
2026-01-20T23:12:22+00:00,SAT-52869,193.26369991936141,56.17043704338465,833.5641344465504,-4.889549079856871,171252.69154868845,10.5,10500171252.69155,47.655,-122.3035,60.0,12.366666666666667
2026-01-20T23:12:23+00:00,SAT-52869,192.9349532537611,56.49815187854045,828.6876241642398,-4.859361324895514,170195.38867586484,10.5,10500170195.388676,47.655,-122.3035,60.0,12.383333333333333
2026-01-20T23:12:24+00:00,SAT-52869,192.59716044697916,56.82862652648284,823.8412211362106,-4.828631989169748,169119.1173537873,10.5,10500169119.117353,47.655,-122.3035,60.0,12.4
2026-01-20T23:12:25+00:00,SAT-52869,192.24993836452742,57.16184871020216,819.0254654990121,-4.7973517131824766,168023.5497732768,10.5,10500168023.549774,47.655,-122.3035,60.0,12.416666666666666
2026-01-20T23:12:26+00:00,SAT-52869,191.89288324487686,57.497802584392645,814.2409067237314,-4.765511129711151,166908.3578545765,10.5,10500166908.357855,47.655,-122.3035,60.0,12.433333333333334
2026-01-20T23:12:27+00:00,SAT-52869,191.5255693987415,57.83646844951537,809.4881036236994,-4.733100798459479,165773.21095857766,10.5,10500165773.210958,47.655,-122.3035,60.0,12.45
2026-01-20T23:12:28+00:00,SAT-52869,191.1475478255948,58.17782243850261,804.7676244273692,-4.700111227599716,164617.77664132236,10.5,10500164617.776642,47.655,-122.3035,60.0,12.466666666666667
2026-01-20T23:12:29+00:00,SAT-52869,190.75834473634245,58.52183618030579,800.0800468297098,-4.666532847801364,163441.71974437838,10.5,10500163441.719744,47.655,-122.3035,60.0,12.483333333333333
2026-01-20T23:12:30+00:00,SAT-52869,190.35745998020295,58.86847643457319,795.4259580695025,-4.632356123435253,162244.70628967643,10.5,10500162244.70629,47.655,-122.3035,60.0,12.5
2026-01-20T23:12:31+00:00,SAT-52869,189.9443653589979,59.21770470574428,790.8059548957298,-4.597571420013171,161026.39883668555,10.5,10500161026.398836,47.655,-122.3035,60.0,12.516666666666667
2026-01-20T23:12:32+00:00,SAT-52869,189.51850284304635,59.56947681565032,786.22064366617,-4.562169142827938,159786.46133817467,10.5,10500159786.461338,47.655,-122.3035,60.0,12.533333333333333
2026-01-20T23:12:33+00:00,SAT-52869,189.07928266068186,59.92374245256606,781.6706403077228,-4.526139640013662,158524.55574497292,10.5,10500158524.555744,47.655,-122.3035,60.0,12.55
2026-01-20T23:12:34+00:00,SAT-52869,188.62608127615653,60.2804446757586,777.156570373416,-4.489473316897719,157240.3460110596,10.5,10500157240.34601,47.655,-122.3035,60.0,12.566666666666666
2026-01-20T23:12:35+00:00,SAT-52869,188.15823923203376,60.6395193889648,772.6790689853632,-4.452160576528503,155933.49601059436,10.5,10500155933.49601,47.655,-122.3035,60.0,12.583333333333334
2026-01-20T23:12:36+00:00,SAT-52869,187.6750588674235,61.00089476574717,768.2387808370389,-4.414191811384328,154603.66924752807,10.5,10500154603.669247,47.655,-122.3035,60.0,12.6
2026-01-20T23:12:37+00:00,SAT-52869,187.17580190493084,61.364490626845196,763.8363602038182,-4.375557545797696,153250.53384390278,10.5,10500153250.533844,47.655,-122.3035,60.0,12.616666666666667
2026-01-20T23:12:38+00:00,SAT-52869,186.65968688694704,61.730217778353406,759.472470811476,-4.336248283667748,151873.7572060981,10.5,10500151873.757206,47.655,-122.3035,60.0,12.633333333333333
2026-01-20T23:12:39+00:00,SAT-52869,186.125886492435,62.09797728195144,755.1477858565646,-4.296254637235794,150473.01053509436,10.5,10500150473.010534,47.655,-122.3035,60.0,12.65
2026-01-20T23:12:40+00:00,SAT-52869,185.57352470523085,62.46765967601813,750.8629878983616,-4.25556731656617,149047.96845804836,10.5,10500149047.968458,47.655,-122.3035,60.0,12.666666666666666
2026-01-20T23:12:41+00:00,SAT-52869,185.00167385268853,62.83914413135203,746.6187687613062,-4.214177117246946,147598.30859751962,10.5,10500147598.308598,47.655,-122.3035,60.0,12.683333333333334
2026-01-20T23:12:42+00:00,SAT-52869,184.4093515234389,63.212297535922815,742.4158294497051,-4.172074975038156,146123.71348548282,10.5,10500146123.713486,47.655,-122.3035,60.0,12.7
2026-01-20T23:12:43+00:00,SAT-52869,183.7955173679193,63.58697350916489,738.2548800079338,-4.129251966108127,144623.870571605,10.5,10500144623.870571,47.655,-122.3035,60.0,12.716666666666667
2026-01-20T23:12:44+00:00,SAT-52869,183.1590698062418,63.96301133535271,734.136639380402,-4.085699327347523,143098.4729347294,10.5,10500143098.472935,47.655,-122.3035,60.0,12.733333333333333
2026-01-20T23:12:45+00:00,SAT-52869,182.49884266605113,64.3402348119499,730.0618352512607,-4.041408490274095,141547.22047036284,10.5,10500141547.22047,47.655,-122.3035,60.0,12.75
2026-01-20T23:12:46+00:00,SAT-52869,181.8136017816926,64.71845100814448,726.031203850294,-3.9963710855240597,139969.8200479834,10.5,10500139969.820047,47.655,-122.3035,60.0,12.766666666666667
2026-01-20T23:12:47+00:00,SAT-52869,181.10204160399093,65.0974489248319,722.0454897543315,-3.9505789614819227,138365.98616353513,10.5,10500138365.986164,47.655,-122.3035,60.0,12.783333333333333
2026-01-20T23:12:48+00:00,SAT-52869,180.3627818767974,65.4769980512443,718.10544567008,-3.9040242492028776,136735.44321328527,10.5,10500136735.443213,47.655,-122.3035,60.0,12.8
2026-01-20T23:12:49+00:00,SAT-52869,179.59436444576494,65.85684681728962,714.2118321522084,-3.8566992974319607,135077.92321792027,10.5,10500135077.923218,47.655,-122.3035,60.0,12.816666666666666
2026-01-20T23:12:50+00:00,SAT-52869,178.79525031731413,66.23672092346472,710.3654173862362,-3.808596842977989,133393.17178976157,10.5,10500133393.17179,47.655,-122.3035,60.0,12.833333333333334
2026-01-20T23:12:51+00:00,SAT-52869,177.96381703997204,66.61632156782197,706.5669768015063,-3.7597098458369045,131680.94235808795,10.5,10500131680.942358,47.655,-122.3035,60.0,12.85
2026-01-20T23:12:52+00:00,SAT-52869,177.09835662018335,66.99532353310369,702.8172928485916,-3.710031717791442,129941.00417566256,10.5,10500129941.004175,47.655,-122.3035,60.0,12.866666666666667
2026-01-20T23:12:53+00:00,SAT-52869,176.19707407040124,67.37337317314474,699.1171545487142,-3.659556182064204,128173.13740319025,10.5,10500128173.137403,47.655,-122.3035,60.0,12.883333333333333
2026-01-20T23:12:54+00:00,SAT-52869,175.25808688523404,67.75008626215727,695.4673571831355,-3.608277390705248,126377.13722072722,10.5,10500126377.13722,47.655,-122.3035,60.0,12.9
2026-01-20T23:12:55+00:00,SAT-52869,174.27942565302467,68.12504573841474,691.8687018654721,-3.5561899417578444,124552.81442889856,10.5,10500124552.814428,47.655,-122.3035,60.0,12.916666666666666
2026-01-20T23:12:56+00:00,SAT-52869,173.2590361374536,68.49779934137639,688.3219950968924,-3.503288899820033,122699.9961690509,10.5,10500122699.996168,47.655,-122.3035,60.0,12.933333333333334
2026-01-20T23:12:57+00:00,SAT-52869,172.19478320103664,68.86785715784931,684.8280483008051,-3.449569807748669,120818.52633317755,10.5,10500120818.526333,47.655,-122.3035,60.0,12.95
2026-01-20T23:12:58+00:00,SAT-52869,171.0844570096551,69.23468909846966,681.3876773458771,-3.3950287595937856,118908.26811838859,10.5,10500118908.268118,47.655,-122.3035,60.0,12.966666666666667
2026-01-20T23:12:59+00:00,SAT-52869,169.92578200274966,69.597722342881,678.001701996309,-3.339662389051973,116969.10362249913,10.5,10500116969.103622,47.655,-122.3035,60.0,12.983333333333333
2026-01-20T23:13:00+00:00,SAT-52869,168.71642922815937,69.95633878705644,674.6709453736278,-3.2834679197869905,115000.93560647013,10.5,10500115000.935606,47.655,-122.3035,60.0,13.0
2026-01-20T23:13:01+00:00,SAT-52869,167.4540326654309,70.30987255594519,671.3962333682935,-3.2264432067338094,113003.68894105068,10.5,10500113003.688942,47.655,-122.3035,60.0,13.016666666666667
2026-01-20T23:13:02+00:00,SAT-52869,166.13621024183516,70.65760765267979,668.178394010111,-3.1685867538516153,110977.3112285632,10.5,10500110977.311228,47.655,-122.3035,60.0,13.033333333333333
2026-01-20T23:13:03+00:00,SAT-52869,164.76059029892758,70.99877583303092,665.0182568209364,-3.109897748344787,108921.77400146693,10.5,10500108921.774002,47.655,-122.3035,60.0,13.05
2026-01-20T23:13:04+00:00,SAT-52869,163.32484427285584,71.3325548192349,661.9166521332538,-3.0503760765114745,106837.07327744209,10.5,10500106837.073277,47.655,-122.3035,60.0,13.066666666666666
2026-01-20T23:13:05+00:00,SAT-52869,161.82672634544303,71.65806698713052,658.8744103929463,-2.9900223944745807,104723.23203668819,10.5,10500104723.232037,47.655,-122.3035,60.0,13.083333333333334
2026-01-20T23:13:06+00:00,SAT-52869,160.2641207096243,71.97437869376202,655.8923613915238,-2.928838121878434,102580.30000115465,10.5,10500102580.300001,47.655,-122.3035,60.0,13.1
2026-01-20T23:13:07+00:00,SAT-52869,158.6350969974796,72.28050042333321,652.971333504637,-2.8668254878542223,100408.35524444493,10.5,10500100408.355244,47.655,-122.3035,60.0,13.116666666666667
2026-01-20T23:13:08+00:00,SAT-52869,156.93797410258995,72.57538796750798,650.1121528847503,-2.803987555787824,98207.50505929056,10.5,10500098207.50506,47.655,-122.3035,60.0,13.133333333333333
2026-01-20T23:13:09+00:00,SAT-52869,155.17139228079338,72.85794486763058,647.3156426291113,-2.7403282679312153,95977.88752003147,10.5,10500095977.88752,47.655,-122.3035,60.0,13.15
2026-01-20T23:13:10+00:00,SAT-52869,153.33439286697018,73.12702636257269,644.5826219032278,-2.6758524224409737,93719.6706784072,10.5,10500093719.67068,47.655,-122.3035,60.0,13.166666666666666
2026-01-20T23:13:11+00:00,SAT-52869,151.42650432604427,73.38144507711122,641.9139050872468,-2.610565791809365,91433.05671151451,10.5,10500091433.056711,47.655,-122.3035,60.0,13.183333333333334
2026-01-20T23:13:12+00:00,SAT-52869,149.44783239065254,73.61997868965761,639.3103008042156,-2.5444750446073936,89118.27918091799,10.5,10500089118.27918,47.655,-122.3035,60.0,13.2
2026-01-20T23:13:13+00:00,SAT-52869,147.39915132115422,73.84137974489045,636.7726110263939,-2.4775878400791127,86775.60634574297,10.5,10500086775.606346,47.655,-122.3035,60.0,13.216666666666667
2026-01-20T23:13:14+00:00,SAT-52869,145.28199206111373,74.04438774793786,634.3016300872215,-2.4099128223604973,84405.34096019593,10.5,10500084405.34096,47.655,-122.3035,60.0,13.233333333333333
2026-01-20T23:13:15+00:00,SAT-52869,143.09872227276443,74.22774355285873,631.898143699054,-2.3414596446860774,82007.82112138328,10.5,10500082007.821121,47.655,-122.3035,60.0,13.25
2026-01-20T23:13:16+00:00,SAT-52869,140.85261233217935,74.39020594397097,629.5629279467538,-2.272238987512439,79583.42090407295,10.5,10500079583.420904,47.655,-122.3035,60.0,13.266666666666667
2026-01-20T23:13:17+00:00,SAT-52869,138.5478808974544,74.53057015038408,627.2967482632081,-2.202262577065956,77132.5510103144,10.5,10500077132.55101,47.655,-122.3035,60.0,13.283333333333333
2026-01-20T23:13:18+00:00,SAT-52869,136.1897136637955,74.64768786023836,625.1003583863476,-2.131543176721352,74655.65846747952,10.5,10500074655.658468,47.655,-122.3035,60.0,13.3
2026-01-20T23:13:19+00:00,SAT-52869,133.78424960445702,74.74048812123694,622.9744993247641,-2.0600946500006203,72153.2288347511,10.5,10500072153.228834,47.655,-122.3035,60.0,13.316666666666666
2026-01-20T23:13:20+00:00,SAT-52869,131.33853029011857,74.8079983541188,620.9198982604969,-1.9879319069493608,69625.78432499556,10.5,10500069625.784325,47.655,-122.3035,60.0,13.333333333333334
2026-01-20T23:13:21+00:00,SAT-52869,128.8604102383465,74.84936456758366,618.9372675052994,-1.9150709277386337,67073.88463139941,10.5,10500067073.884632,47.655,-122.3035,60.0,13.35
2026-01-20T23:13:22+00:00,SAT-52869,126.35842881227867,74.86386980616943,617.0273034333679,-1.841528800938987,64498.12826798786,10.5,10500064498.128267,47.655,-122.3035,60.0,13.366666666666667
2026-01-20T23:13:23+00:00,SAT-52869,123.84164737423326,74.850949865248,615.1906853758983,-1.7673236649208153,61899.15051721734,10.5,10500061899.150517,47.655,-122.3035,60.0,13.383333333333333
2026-01-20T23:13:24+00:00,SAT-52869,121.31945868518815,74.81020540468334,613.4280745740839,-1.6924747475730002,59277.62482109041,10.5,10500059277.62482,47.655,-122.3035,60.0,13.4
2026-01-20T23:13:25+00:00,SAT-52869,118.80137797187167,74.74140978070342,611.7401130925044,-1.6170023154181752,56634.260998956954,10.5,10500056634.261,47.655,-122.3035,60.0,13.416666666666666
2026-01-20T23:13:26+00:00,SAT-52869,116.29682718361016,74.64451216989342,610.1274227832607,-1.5409277125475624,53969.806611177,10.5,10500053969.806612,47.655,-122.3035,60.0,13.433333333333334
2026-01-20T23:13:27+00:00,SAT-52869,113.81492441074657,74.51963585793239,608.5906042112799,-1.464273294597766,51285.0446467087,10.5,10500051285.044647,47.655,-122.3035,60.0,13.45
2026-01-20T23:13:28+00:00,SAT-52869,111.36429018766692,74.3670718836346,607.1302356454678,-1.3870624393646853,48580.7938948524,10.5,10500048580.793896,47.655,-122.3035,60.0,13.466666666666667
2026-01-20T23:13:29+00:00,SAT-52869,108.9528804198888,74.1872685092216,605.7468720392746,-1.3093195061976464,45857.90752306146,10.5,10500045857.907522,47.655,-122.3035,60.0,13.483333333333333
2026-01-20T23:13:30+00:00,SAT-52869,106.58785327928655,73.98081722446521,604.4410440517602,-1.2310698275444023,43117.27278081233,10.5,10500043117.272781,47.655,-122.3035,60.0,13.5
2026-01-20T23:13:31+00:00,SAT-52869,104.27547417811299,73.74843613928172,603.2132570770892,-1.1523396489414337,40359.80889781108,10.5,10500040359.808897,47.655,-122.3035,60.0,13.516666666666667
2026-01-20T23:13:32+00:00,SAT-52869,102.02105992574747,73.49095169789567,602.0639903338783,-1.0731561270350671,37586.46701468455,10.5,10500037586.467014,47.655,-122.3035,60.0,13.533333333333333
2026-01-20T23:13:33+00:00,SAT-52869,99.82896012040626,73.20927961590185,600.9936959565154,-0.9935472546627666,34798.22755901034,10.5,10500034798.227558,47.655,-122.3035,60.0,13.55
2026-01-20T23:13:34+00:00,SAT-52869,97.7025718399578,72.90440588255572,600.0027981611984,-0.9135418556460402,31996.100062942285,10.5,10500031996.100063,47.655,-122.3035,60.0,13.566666666666666
2026-01-20T23:13:35+00:00,SAT-52869,95.64438189491905,72.57736850891386,599.0916924171673,-0.8331695074335482,29181.120453844964,10.5,10500029181.120455,47.655,-122.3035,60.0,13.583333333333334
2026-01-20T23:13:36+00:00,SAT-52869,93.65603045595547,72.22924057888929,598.2607446950869,-0.7524605066058121,26354.349846122634,10.5,10500026354.349846,47.655,-122.3035,60.0,13.6
2026-01-20T23:13:37+00:00,SAT-52869,91.73838953575975,71.86111496683944,597.5102907498322,-0.6714458163750959,23516.87270244306,10.5,10500023516.872702,47.655,-122.3035,60.0,13.616666666666667
2026-01-20T23:13:38+00:00,SAT-52869,89.89165036684392,71.47409094462245,596.8406354556341,-0.590157007909911,20669.794778673408,10.5,10500020669.794779,47.655,-122.3035,60.0,13.633333333333333
2026-01-20T23:13:39+00:00,SAT-52869,88.11541447570205,71.06926276539245,596.2520521997452,-0.5086261981719857,17814.240946668015,10.5,10500017814.240946,47.655,-122.3035,60.0,13.65
2026-01-20T23:13:40+00:00,SAT-52869,86.40878421758484,70.64771020400426,595.7447823381017,-0.42688599646742964,14951.35332226407,10.5,10500014951.353323,47.655,-122.3035,60.0,13.666666666666666
2026-01-20T23:13:41+00:00,SAT-52869,84.7704495028652,70.21049094286771,595.3190347042915,-0.3449694369451098,12082.288901089209,10.5,10500012082.2889,47.655,-122.3035,60.0,13.683333333333334
2026-01-20T23:13:42+00:00,SAT-52869,83.19876847510936,69.75863465234194,594.974985185845,-0.2629099149295465,9208.217328670216,10.5,10500009208.217329,47.655,-122.3035,60.0,13.7
2026-01-20T23:13:43+00:00,SAT-52869,81.69184069053728,69.29313857146575,594.7127763640218,-0.18074111566634218,6330.318404796538,10.5,10500006330.318405,47.655,-122.3035,60.0,13.716666666666667
2026-01-20T23:13:44+00:00,SAT-52869,80.24757210210375,68.81496439699542,594.5325172246639,-0.09849695216436245,3449.779906490529,10.5,10500003449.779907,47.655,-122.3035,60.0,13.733333333333333
2026-01-20T23:13:45+00:00,SAT-52869,78.86373160002532,68.32503626148309,594.4342829310386,-0.016211492141304285,567.7950293322422,10.5,10500000567.795029,47.655,-122.3035,60.0,13.75
2026-01-20T23:13:46+00:00,SAT-52869,77.53799937684316,67.8242396250366,594.4181146695431,0.06608111215052725,-2314.440070338715,10.5,10499997685.559929,47.655,-122.3035,60.0,13.766666666666667
2026-01-20T23:13:47+00:00,SAT-52869,76.2680075574,67.31342089145313,594.4840195653946,0.14834669325937144,-5195.7287038335035,10.5,10499994804.271296,47.655,-122.3035,60.0,13.783333333333333
2026-01-20T23:13:48+00:00,SAT-52869,75.0513738044077,66.79338761406864,594.6319706674719,0.23055114101301177,-8074.876188635218,10.5,10499991925.123812,47.655,-122.3035,60.0,13.8
2026-01-20T23:13:49+00:00,SAT-52869,73.88572856439767,66.26490912822214,594.8619070054422,0.31266046886877263,-10950.692172256424,10.5,10499989049.307827,47.655,-122.3035,60.0,13.816666666666666
2026-01-20T23:13:50+00:00,SAT-52869,72.76873679951848,65.72871752606862,595.1737337130608,0.394640892608174,-13821.993388458848,10.5,10499986178.00661,47.655,-122.3035,60.0,13.833333333333334
2026-01-20T23:13:51+00:00,SAT-52869,71.6981148843199,65.18550884778584,595.5673222299553,0.4764588869006482,-16687.605638354,10.5,10499983312.394361,47.655,-122.3035,60.0,13.85
2026-01-20T23:13:52+00:00,SAT-52869,70.67164346109872,64.63594444928883,596.0425105598242,0.5580812621989695,-19546.3664836064,10.5,10499980453.633516,47.655,-122.3035,60.0,13.866666666666667
2026-01-20T23:13:53+00:00,SAT-52869,69.68717682574184,64.08065244865388,596.599103605324,0.6394752282685042,-22397.12747149661,10.5,10499977602.872528,47.655,-122.3035,60.0,13.883333333333333
2026-01-20T23:13:54+00:00,SAT-52869,68.7426494741941,63.5202292242346,597.2368735663171,0.720608459449871,-25238.756420695696,10.5,10499974761.24358,47.655,-122.3035,60.0,13.9
2026-01-20T23:13:55+00:00,SAT-52869,67.83608030724147,62.95524092013316,597.9555604032083,0.8014491501884294,-28070.139366142794,10.5,10499971929.860634,47.655,-122.3035,60.0,13.916666666666666
2026-01-20T23:13:56+00:00,SAT-52869,66.96557494760623,62.38622493711168,598.754872355663,0.8819660817786573,-30890.18289671551,10.5,10499969109.817102,47.655,-122.3035,60.0,13.933333333333334
2026-01-20T23:13:57+00:00,SAT-52869,66.1293265311599,61.813691377673756,599.6344865278902,0.962128681631594,-33697.816231026525,10.5,10499966302.18377,47.655,-122.3035,60.0,13.95
2026-01-20T23:13:58+00:00,SAT-52869,65.32561530492016,61.23812443706613,600.5940495330375,1.0419070671729602,-36491.99275492142,10.5,10499963508.007246,47.655,-122.3035,60.0,13.966666666666667
2026-01-20T23:13:59+00:00,SAT-52869,64.55280730920093,60.65998373692787,601.6331781813647,1.1212720994417924,-39271.69189872955,10.5,10499960728.308102,47.655,-122.3035,60.0,13.983333333333333
2026-01-20T23:14:00+00:00,SAT-52869,63.809352353495,60.07970558769014,602.7514602218745,1.2001954370984493,-42035.92102885296,10.5,10499957964.078972,47.655,-122.3035,60.0,14.0
2026-01-20T23:14:01+00:00,SAT-52869,63.09378146980382,59.49770417617677,603.9484551378074,1.2786495843123824,-44783.71712499858,10.5,10499955216.282875,47.655,-122.3035,60.0,14.016666666666667
2026-01-20T23:14:02+00:00,SAT-52869,62.404703997206,58.91437268080886,605.223694989895,1.3566079106004953,-47514.147475001526,10.5,10499952485.852526,47.655,-122.3035,60.0,14.033333333333333
2026-01-20T23:14:03+00:00,SAT-52869,61.740804429851764,58.33008432535463,606.5766852794005,1.434044700826057,-50226.31142599858,10.5,10499949773.688574,47.655,-122.3035,60.0,14.05
2026-01-20T23:14:04+00:00,SAT-52869,61.100839104465344,57.74519335805931,608.0069058610244,1.5109351998417437,-52919.34194801628,10.5,10499947080.658052,47.655,-122.3035,60.0,14.066666666666666
2026-01-20T23:14:05+00:00,SAT-52869,60.48363280897325,57.16003596165726,609.5138119003333,1.5872556228597363,-55592.40599717566,10.5,10499944407.594004,47.655,-122.3035,60.0,14.083333333333334
2026-01-20T23:14:06+00:00,SAT-52869,59.88807538536624,56.57493111055385,611.0968348415321,1.6629831855984267,-58244.70557155737,10.5,10499941755.294428,47.655,-122.3035,60.0,14.1
2026-01-20T23:14:07+00:00,SAT-52869,59.313118360534624,55.990181368264906,612.7553834053022,1.738096131694269,-60875.47867128073,10.5,10499939124.521328,47.655,-122.3035,60.0,14.116666666666667
2026-01-20T23:14:08+00:00,SAT-52869,58.75777164119818,55.406073630329786,614.4888446139786,1.8125737488974714,-63483.99986574529,10.5,10499936516.000134,47.655,-122.3035,60.0,14.133333333333333
2026-01-20T23:14:09+00:00,SAT-52869,58.22110030180537,54.82287981918884,616.296584832879,1.8863963858602757,-66069.58088162744,10.5,10499933930.419119,47.655,-122.3035,60.0,14.15
2026-01-20T23:14:10+00:00,SAT-52869,57.70222148253614,54.24085753388335,618.1779508283769,1.959545445349426,-68631.57036515232,10.5,10499931368.429634,47.655,-122.3035,60.0,14.166666666666666
2026-01-20T23:14:11+00:00,SAT-52869,57.20030141527253,53.6602506640761,620.1322708192055,2.0320034160711455,-71169.3549967392,10.5,10499928830.645002,47.655,-122.3035,60.0,14.183333333333334
2026-01-20T23:14:12+00:00,SAT-52869,56.7145525738668,53.08128995952141,622.1588555595004,2.1037538551760546,-73682.3588782496,10.5,10499926317.64112,47.655,-122.3035,60.0,14.2
2026-01-20T23:14:13+00:00,SAT-52869,56.24423096603968,52.50419357202366,624.2569994043961,2.174781421266769,-76170.0446890531,10.5,10499923829.95531,47.655,-122.3035,60.0,14.216666666666667
2026-01-20T23:14:14+00:00,SAT-52869,55.7886335551986,51.92916755843653,626.4259814085393,2.2450718133400014,-78631.91154752138,10.5,10499921368.088453,47.655,-122.3035,60.0,14.233333333333333
2026-01-20T23:14:15+00:00,SAT-52869,55.34709583208354,51.35640637119571,628.6650663637105,2.3146118199746084,-81067.49673380172,10.5,10499918932.503265,47.655,-122.3035,60.0,14.25
2026-01-20T23:14:16+00:00,SAT-52869,54.91898950844024,50.78609330954721,630.9735058854985,2.3833892897728934,-83476.37465454644,10.5,10499916523.625345,47.655,-122.3035,60.0,14.266666666666667
2026-01-20T23:14:17+00:00,SAT-52869,54.503720346829375,50.21840095394516,633.3505394704987,2.4513931175330907,-85858.15635861478,10.5,10499914141.843641,47.655,-122.3035,60.0,14.283333333333333
2026-01-20T23:14:18+00:00,SAT-52869,54.10072611752035,49.65349158068988,635.7953955397184,2.5186132179458194,-88212.48861581137,10.5,10499911787.511385,47.655,-122.3035,60.0,14.3
2026-01-20T23:14:19+00:00,SAT-52869,53.70947467880893,49.09151756068528,638.3072924557496,2.5850405379045576,-90539.05434805118,10.5,10499909460.945652,47.655,-122.3035,60.0,14.316666666666666
2026-01-20T23:14:20+00:00,SAT-52869,53.32946216881771,48.53262173522398,640.8854395522199,2.6506670266385863,-92837.57158328898,10.5,10499907162.428417,47.655,-122.3035,60.0,14.333333333333334
2026-01-20T23:14:21+00:00,SAT-52869,52.960211310392694,47.976937779358465,643.529038133454,2.715485594626599,-95107.79201649994,10.5,10499904892.207983,47.655,-122.3035,60.0,14.35
2026-01-20T23:14:22+00:00,SAT-52869,52.60126982377905,47.42459055571921,646.2372824331617,2.7794901106583003,-97349.50090676449,10.5,10499902650.499094,47.655,-122.3035,60.0,14.366666666666667
2026-01-20T23:14:23+00:00,SAT-52869,52.252208935519604,46.875696451466624,649.0093605701916,2.8426753722645284,-99562.5160416062,10.5,10499900437.48396,47.655,-122.3035,60.0,14.383333333333333
2026-01-20T23:14:24+00:00,SAT-52869,51.91262198192277,46.33036370474804,651.8444554747966,2.9050371012400915,-101746.68758018242,10.5,10499898253.31242,47.655,-122.3035,60.0,14.4
2026-01-20T23:14:25+00:00,SAT-52869,51.58212309828452,45.788692716738716,654.7417458104334,2.966571855808529,-103901.89497692285,10.5,10499896098.105022,47.655,-122.3035,60.0,14.416666666666666
2026-01-20T23:14:26+00:00,SAT-52869,51.26034599822966,45.25077636491863,657.7004068079598,3.027277071905946,-106028.04842746387,10.5,10499893971.951572,47.655,-122.3035,60.0,14.433333333333334
2026-01-20T23:14:27+00:00,SAT-52869,50.94694282248749,44.71670029411907,660.7196111410072,3.0871510111140235,-108125.0870450425,10.5,10499891874.912954,47.655,-122.3035,60.0,14.45
2026-01-20T23:14:28+00:00,SAT-52869,50.64158306377254,44.18654320355362,663.798529749425,3.1461926946131773,-110192.97654725643,10.5,10499889807.023453,47.655,-122.3035,60.0,14.466666666666667
2026-01-20T23:14:29+00:00,SAT-52869,50.34395256348992,43.66037713150291,666.9363325968526,3.2044019175378575,-112231.70975884759,10.5,10499887768.290241,47.655,-122.3035,60.0,14.483333333333333
2026-01-20T23:14:30+00:00,SAT-52869,50.05375256760541,43.138267724379446,670.1321894426104,3.26177922287121,-114241.30569738252,10.5,10499885758.694304,47.655,-122.3035,60.0,14.5
2026-01-20T23:14:31+00:00,SAT-52869,49.77069884221941,42.620274497950746,673.3852705875538,3.318325796059475,-116221.80588220297,10.5,10499883778.194118,47.655,-122.3035,60.0,14.516666666666667
2026-01-20T23:14:32+00:00,SAT-52869,49.494520851607604,42.106451102804336,676.6947475148239,3.3740435644990634,-118173.27781888418,10.5,10499881826.722181,47.655,-122.3035,60.0,14.533333333333333
2026-01-20T23:14:33+00:00,SAT-52869,49.22496097687702,41.596845562531236,680.0597936298176,3.428935005109805,-120095.80825963592,10.5,10499879904.19174,47.655,-122.3035,60.0,14.55
2026-01-20T23:14:34+00:00,SAT-52869,48.96177379722807,41.09150052963335,683.4795848082472,3.4830032664912993,-121989.50748173472,10.5,10499878010.492517,47.655,-122.3035,60.0,14.566666666666666
2026-01-20T23:14:35+00:00,SAT-52869,48.70472540381617,40.59045351167089,686.9533000660277,3.5362520149943157,-123854.50389629319,10.5,10499876145.496103,47.655,-122.3035,60.0,14.583333333333334
2026-01-20T23:14:36+00:00,SAT-52869,48.453592766031825,40.09373710898659,690.4801220756488,3.5886855006970038,-125690.94635902594,10.5,10499874309.05364,47.655,-122.3035,60.0,14.6
2026-01-20T23:14:37+00:00,SAT-52869,48.20816312998685,39.601379232007936,694.059237748344,3.6403084472699816,-127499.00031285912,10.5,10499872500.999687,47.655,-122.3035,60.0,14.616666666666667
2026-01-20T23:14:38+00:00,SAT-52869,47.96823345986016,39.11340332351338,697.6898387064213,3.6911260807310278,-129278.84879504137,10.5,10499870721.151205,47.655,-122.3035,60.0,14.633333333333333
2026-01-20T23:14:39+00:00,SAT-52869,47.73360990962287,38.62982856638253,701.3711217842703,3.7411440711933146,-131030.69039692055,10.5,10499868969.309603,47.655,-122.3035,60.0,14.65
2026-01-20T23:14:40+00:00,SAT-52869,47.504107329030404,38.15067008926876,705.1022894712738,3.790368488636186,-132754.73771484924,10.5,10499867245.262285,47.655,-122.3035,60.0,14.666666666666666
2026-01-20T23:14:41+00:00,SAT-52869,47.27954880062324,37.67593916781793,708.8825503106068,3.8388058212506184,-134451.21799272046,10.5,10499865548.782007,47.655,-122.3035,60.0,14.683333333333334
2026-01-20T23:14:42+00:00,SAT-52869,47.05976520187512,37.20564341406134,712.7111193163341,3.8864629143461205,-136120.37098222887,10.5,10499863879.629017,47.655,-122.3035,60.0,14.7
2026-01-20T23:14:43+00:00,SAT-52869,46.84459479583446,36.73978696404059,716.5872183295754,3.9333469478690035,-137762.4481554654,10.5,10499862237.551844,47.655,-122.3035,60.0,14.716666666666667
2026-01-20T23:14:44+00:00,SAT-52869,46.63388284594569,36.27837065897758,720.51007635225,3.979465401752586,-139377.71149133498,10.5,10499860622.28851,47.655,-122.3035,60.0,14.733333333333333
2026-01-20T23:14:45+00:00,SAT-52869,46.427481254232646,35.82139222141958,724.4789298462647,4.0248260663420545,-140966.43384067912,10.5,10499859033.56616,47.655,-122.3035,60.0,14.75
2026-01-20T23:14:46+00:00,SAT-52869,46.22524821898241,35.368846421615785,728.4930230430964,4.0694369683955065,-142528.8963345196,10.5,10499857471.103666,47.655,-122.3035,60.0,14.766666666666667
2026-01-20T23:14:47+00:00,SAT-52869,46.02704791517154,34.920725243719126,732.5516081795762,4.113306387228945,-144065.3889495243,10.5,10499855934.61105,47.655,-122.3035,60.0,14.783333333333333
2026-01-20T23:14:48+00:00,SAT-52869,45.83275019142705,34.47701804193822,736.6539457497726,4.156442812472802,-145576.20902846204,10.5,10499854423.790972,47.655,-122.3035,60.0,14.8
2026-01-20T23:14:49+00:00,SAT-52869,45.64223028566682,34.03771169318573,740.7993047147454,4.198854920552159,-147061.66045644038,10.5,10499852938.339544,47.655,-122.3035,60.0,14.816666666666666
2026-01-20T23:14:50+00:00,SAT-52869,45.45536855707289,33.60279074445875,744.9869626888428,4.240551592509254,-148522.05428512537,10.5,10499851477.945715,47.655,-122.3035,60.0,14.833333333333334
2026-01-20T23:14:51+00:00,SAT-52869,45.272050231736486,33.17223755083451,749.216206143772,4.281541799600546,-149957.70472586647,10.5,10499850042.295275,47.655,-122.3035,60.0,14.85
2026-01-20T23:14:52+00:00,SAT-52869,45.09216516691793,32.74603241766271,753.4863304985736,4.3218347122464476,-151368.93296557746,10.5,10499848631.067034,47.655,-122.3035,60.0,14.866666666666667
2026-01-20T23:14:53+00:00,SAT-52869,44.91560762301067,32.32415372469279,757.7966403182542,4.361439571429114,-152756.06266254268,10.5,10499847243.937338,47.655,-122.3035,60.0,14.883333333333333
2026-01-20T23:14:54+00:00,SAT-52869,44.74227605306553,31.906578056048325,762.1464493841594,4.400365730073857,-154119.4213957694,10.5,10499845880.578604,47.655,-122.3035,60.0,14.9
2026-01-20T23:14:55+00:00,SAT-52869,44.572072901513856,31.49328031932694,766.5350808056197,4.4386226341884685,-155459.34000440704,10.5,10499844540.659996,47.655,-122.3035,60.0,14.916666666666666
2026-01-20T23:14:56+00:00,SAT-52869,44.4049044141797,31.084233860186735,770.9618671127837,4.476219774861996,-156776.15090654136,10.5,10499843223.849094,47.655,-122.3035,60.0,14.933333333333334
2026-01-20T23:14:57+00:00,SAT-52869,44.24068046001037,30.679410574983578,775.4261503015794,4.513166686978689,-158070.18805415122,10.5,10499841929.811945,47.655,-122.3035,60.0,14.95
2026-01-20T23:14:58+00:00,SAT-52869,44.07931436187788,30.278781017470127,779.9272818773928,4.549472991230496,-159341.7884045642,10.5,10499840658.211596,47.655,-122.3035,60.0,14.966666666666667
