satellites_20260121_005943/SAT-56362.csv

timestamp,satellite,azimuth_deg,elevation_deg,distance_km,relative_velocity_kms,doppler_shift_hz,tx_freq_ghz,rx_freq_hz,ue_lat,ue_lon,ue_alt_m,time_minutes
2026-01-20T23:07:20+00:00,SAT-56362,345.6276412327257,30.01714142955376,2278.7854466943304,0.3947069405569157,-13824.306667006329,10.5,10499986175.693333,47.655,-122.3035,60.0,7.333333333333333
2026-01-20T23:07:21+00:00,SAT-56362,345.4409801731051,30.126815698121835,2279.1791010830457,0.41790075263501636,-14636.65207570923,10.5,10499985363.347925,47.655,-122.3035,60.0,7.35
2026-01-20T23:07:22+00:00,SAT-56362,345.2538417543162,30.236031740065478,2279.595887433674,0.4410817491199565,-15448.548628129742,10.5,10499984551.451372,47.655,-122.3035,60.0,7.366666666666666
2026-01-20T23:07:23+00:00,SAT-56362,345.0662289283374,30.344785465656955,2280.035792964796,0.46424920204333003,-16259.970827734986,10.5,10499983740.029173,47.655,-122.3035,60.0,7.383333333333334
2026-01-20T23:07:24+00:00,SAT-56362,344.8781447060318,30.453072813842976,2280.4988041689676,0.487402392301609,-17070.8934884776,10.5,10499982929.106512,47.655,-122.3035,60.0,7.4
2026-01-20T23:07:25+00:00,SAT-56362,344.68959215587444,30.560889753692887,2280.9849068215563,0.5105405935669207,-17881.291171283126,10.5,10499982118.708828,47.655,-122.3035,60.0,7.416666666666667
2026-01-20T23:07:26+00:00,SAT-56362,344.5005744059756,30.66823228397569,2281.49408597354,0.5336630950380149,-18691.138980885094,10.5,10499981308.86102,47.655,-122.3035,60.0,7.433333333333334
2026-01-20T23:07:27+00:00,SAT-56362,344.3110946412444,30.77509643545577,2282.0263259669914,0.5567691736746934,-19500.411593357298,10.5,10499980499.588408,47.655,-122.3035,60.0,7.45
2026-01-20T23:07:28+00:00,SAT-56362,344.12115610661846,30.881478269775517,2282.5816104228697,0.5798581199429513,-20309.08415781757,10.5,10499979690.915842,47.655,-122.3035,60.0,7.466666666666667
2026-01-20T23:07:29+00:00,SAT-56362,343.93076210479364,30.98737388138997,2283.159922254493,0.6029292201063154,-21117.131676195513,10.5,10499978882.868324,47.655,-122.3035,60.0,7.483333333333333
2026-01-20T23:07:30+00:00,SAT-56362,343.7399159974453,31.09277939756726,2283.7612436633453,0.6259817721407456,-21924.529560639676,10.5,10499978075.47044,47.655,-122.3035,60.0,7.5
2026-01-20T23:07:31+00:00,SAT-56362,343.54862120352504,31.197690979952966,2284.3855561507603,0.6490150602674863,-22731.25274155031,10.5,10499977268.74726,47.655,-122.3035,60.0,7.516666666666667
2026-01-20T23:07:32+00:00,SAT-56362,343.3568812026188,31.30210482337795,2285.0328405042005,0.6720283934159038,-23537.27701471059,10.5,10499976462.722986,47.655,-122.3035,60.0,7.533333333333333
2026-01-20T23:07:33+00:00,SAT-56362,343.1646995304265,31.406017158929124,2285.703076821901,0.695021061813893,-24342.57752089906,10.5,10499975657.42248,47.655,-122.3035,60.0,7.55
2026-01-20T23:07:34+00:00,SAT-56362,342.97207978302345,31.50942425225316,2286.3962444942167,0.7179923801519987,-25147.130257679757,10.5,10499974852.869741,47.655,-122.3035,60.0,7.566666666666666
2026-01-20T23:07:35+00:00,SAT-56362,342.7790256125998,31.612322406425285,2287.1123222280216,0.7409416410396341,-25950.91044924205,10.5,10499974049.08955,47.655,-122.3035,60.0,7.583333333333333
2026-01-20T23:07:36+00:00,SAT-56362,342.5855407323371,31.71470795992542,2287.851288024685,0.7638681677948826,-26753.894395322874,10.5,10499973246.105604,47.655,-122.3035,60.0,7.6
2026-01-20T23:07:37+00:00,SAT-56362,342.3916289108432,31.816577290149162,2288.613119210699,0.7867712659196763,-27556.057771662156,10.5,10499972443.942228,47.655,-122.3035,60.0,7.616666666666666
2026-01-20T23:07:38+00:00,SAT-56362,342.19729397623354,31.917926811785748,2289.3977924199094,0.809650256993479,-28357.376817103017,10.5,10499971642.623182,47.655,-122.3035,60.0,7.633333333333334
2026-01-20T23:07:39+00:00,SAT-56362,342.00253981363977,32.01875297864432,2290.2052836095513,0.8325044583597434,-29157.827622125522,10.5,10499970842.172379,47.655,-122.3035,60.0,7.65
2026-01-20T23:07:40+00:00,SAT-56362,341.80737036629426,32.1190522836142,2291.035568056022,0.855333195503094,-29957.38656234803,10.5,10499970042.613438,47.655,-122.3035,60.0,7.666666666666667
2026-01-20T23:07:41+00:00,SAT-56362,341.6117896347311,32.21882125955635,2291.8886203630036,0.8781357939599941,-30756.03001520451,10.5,10499969243.969984,47.655,-122.3035,60.0,7.683333333333334
2026-01-20T23:07:42+00:00,SAT-56362,341.41580167704063,32.31805647965896,2292.764414461513,0.9009115936459685,-31553.734861744488,10.5,10499968446.265139,47.655,-122.3035,60.0,7.7
2026-01-20T23:07:43+00:00,SAT-56362,341.2194106070893,32.41675455877863,2293.6629236242425,0.9236599164728578,-32350.4773524523,10.5,10499967649.522648,47.655,-122.3035,60.0,7.716666666666667
2026-01-20T23:07:44+00:00,SAT-56362,341.02262059775,32.514912152282044,2294.584120447605,0.9463801168973704,-33146.23487767124,10.5,10499966853.765121,47.655,-122.3035,60.0,7.733333333333333
2026-01-20T23:07:45+00:00,SAT-56362,340.8254358760646,32.61252595886821,2295.5279768841906,0.9690715280147231,-33940.98407957478,10.5,10499966059.01592,47.655,-122.3035,60.0,7.75
2026-01-20T23:07:46+00:00,SAT-56362,340.62786072709065,32.70959271907624,2296.494464221464,0.9917335028423454,-34734.70229809659,10.5,10499965265.297703,47.655,-122.3035,60.0,7.766666666666667
2026-01-20T23:07:47+00:00,SAT-56362,340.42989949107,32.8061092170703,2297.4835531016324,1.014365390006142,-35527.366719360536,10.5,10499964472.63328,47.655,-122.3035,60.0,7.783333333333333
2026-01-20T23:07:48+00:00,SAT-56362,340.23155656439303,32.90207228055157,2298.495213517265,1.0369665521685376,-36318.955021108784,10.5,10499963681.04498,47.655,-122.3035,60.0,7.8
2026-01-20T23:07:49+00:00,SAT-56362,340.03283639800156,32.99747878186589,2299.529414825294,1.0595363476065303,-37109.44472748733,10.5,10499962890.555273,47.655,-122.3035,60.0,7.816666666666666
2026-01-20T23:07:50+00:00,SAT-56362,339.8337434981405,33.09232563799585,2300.5861257426404,1.0820741382847592,-37898.81349179895,10.5,10499962101.186508,47.655,-122.3035,60.0,7.833333333333333
2026-01-20T23:07:51+00:00,SAT-56362,339.634282426348,33.18660981088485,2301.6653143498897,1.104579298234526,-38687.03938997199,10.5,10499961312.96061,47.655,-122.3035,60.0,7.85
2026-01-20T23:07:52+00:00,SAT-56362,339.43445779775874,33.28032830854617,2302.766948103329,1.127051200212518,-39474.10045329238,10.5,10499960525.899548,47.655,-122.3035,60.0,7.866666666666666
2026-01-20T23:07:53+00:00,SAT-56362,339.2342742816914,33.3734781850754,2303.8909938336747,1.1494892269238226,-40259.97506148116,10.5,10499959740.024939,47.655,-122.3035,60.0,7.883333333333334
2026-01-20T23:07:54+00:00,SAT-56362,339.03373660039756,33.46605654149393,2305.037417755993,1.1718927584836414,-41044.64150355054,10.5,10499958955.358496,47.655,-122.3035,60.0,7.9
2026-01-20T23:07:55+00:00,SAT-56362,338.8328495297797,33.55806052567431,2306.2061854671206,1.1942611884155365,-41828.078538130314,10.5,10499958171.921461,47.655,-122.3035,60.0,7.916666666666667
2026-01-20T23:07:56+00:00,SAT-56362,338.6316178976197,33.64948733338431,2307.397261959034,1.2165939064446363,-42610.26479081299,10.5,10499957389.735209,47.655,-122.3035,60.0,7.933333333333334
2026-01-20T23:07:57+00:00,SAT-56362,338.4300465844109,33.74033420812291,2308.6106116150613,1.2388903164347431,-43391.17938238728,10.5,10499956608.820618,47.655,-122.3035,60.0,7.95
2026-01-20T23:07:58+00:00,SAT-56362,338.2281405215586,33.83059844212979,2309.8461982239855,1.2611498202045828,-44170.801362014645,10.5,10499955829.198639,47.655,-122.3035,60.0,7.966666666666667
2026-01-20T23:07:59+00:00,SAT-56362,338.0259046918501,33.9202773763576,2311.103984978003,1.2833718221551451,-44949.109869298394,10.5,10499955050.890131,47.655,-122.3035,60.0,7.983333333333333
2026-01-20T23:08:00+00:00,SAT-56362,337.82334412923916,34.00936840073182,2312.383934475299,1.3055557494109433,-45726.084839715695,10.5,10499954273.915161,47.655,-122.3035,60.0,8.0
2026-01-20T23:08:01+00:00,SAT-56362,337.6204639160242,34.09786895553102,2313.6860087427117,1.327701009192063,-46501.7055116065,10.5,10499953498.294489,47.655,-122.3035,60.0,8.016666666666667
2026-01-20T23:08:02+00:00,SAT-56362,337.4172691855314,34.185776530344306,2315.010169215879,1.3498070303418153,-47275.95188064758,10.5,10499952724.048119,47.655,-122.3035,60.0,8.033333333333333
2026-01-20T23:08:03+00:00,SAT-56362,337.2137651194217,34.273088665357164,2316.3563767608066,1.371873251572125,-48048.80428815629,10.5,10499951951.195711,47.655,-122.3035,60.0,8.05
2026-01-20T23:08:04+00:00,SAT-56362,337.00995694657706,34.35980295189821,2317.724591683708,1.3938990969475127,-48820.24256243592,10.5,10499951179.757437,47.655,-122.3035,60.0,8.066666666666666
2026-01-20T23:08:05+00:00,SAT-56362,336.8058499449453,34.44591703174639,2319.1147737163965,1.4158840127640655,-49590.247310433304,10.5,10499950409.75269,47.655,-122.3035,60.0,8.083333333333334
2026-01-20T23:08:06+00:00,SAT-56362,336.6014494387602,34.531428598363796,2320.52688203846,1.43782744811003,-50358.79923688846,10.5,10499949641.200764,47.655,-122.3035,60.0,8.1
2026-01-20T23:08:07+00:00,SAT-56362,336.3967607983877,34.616335396982436,2321.9608752800423,1.4597288550467382,-51125.87915067147,10.5,10499948874.12085,47.655,-122.3035,60.0,8.116666666666667
2026-01-20T23:08:08+00:00,SAT-56362,336.1917894397902,34.70063522485761,2323.4167115248088,1.4815876907944614,-51891.468041340275,10.5,10499948108.53196,47.655,-122.3035,60.0,8.133333333333333
2026-01-20T23:08:09+00:00,SAT-56362,335.9865408240236,34.784325931476815,2324.8943483150942,1.5034034147984563,-52655.54697638121,10.5,10499947344.453024,47.655,-122.3035,60.0,8.15
2026-01-20T23:08:10+00:00,SAT-56362,335.7810204568332,34.86740541871607,2326.39374265412,1.5251755057838052,-53418.097698541686,10.5,10499946581.902302,47.655,-122.3035,60.0,8.166666666666666
2026-01-20T23:08:11+00:00,SAT-56362,335.5752338864619,34.94987164168622,2327.9148510252217,1.5469034298290496,-54179.10150763373,10.5,10499945820.898493,47.655,-122.3035,60.0,8.183333333333334
2026-01-20T23:08:12+00:00,SAT-56362,335.3691867048581,35.03172260821615,2329.457629379238,1.5685866776527502,-54938.540566467076,10.5,10499945061.459433,47.655,-122.3035,60.0,8.2
2026-01-20T23:08:13+00:00,SAT-56362,335.1628845449568,35.11295637985068,2331.0220331590835,1.5902247314008164,-55696.39673760096,10.5,10499944303.603262,47.655,-122.3035,60.0,8.216666666666667
2026-01-20T23:08:14+00:00,SAT-56362,334.9563330813639,35.19357107151247,2332.6080172912,1.6118170848716207,-56452.652291713144,10.5,10499943547.347708,47.655,-122.3035,60.0,8.233333333333333
2026-01-20T23:08:15+00:00,SAT-56362,334.7495380290844,35.27356485188757,2334.215536197179,1.6333632332184493,-57207.28954693623,10.5,10499942792.710453,47.655,-122.3035,60.0,8.25
2026-01-20T23:08:16+00:00,SAT-56362,334.5425051430261,35.352935943524955,2335.844543795109,1.654862686731914,-57960.29135157596,10.5,10499942039.708649,47.655,-122.3035,60.0,8.266666666666667
2026-01-20T23:08:17+00:00,SAT-56362,334.33524021635753,35.431682623313236,2337.4949935146765,1.676314951156093,-58711.64039469924,10.5,10499941288.359606,47.655,-122.3035,60.0,8.283333333333333
2026-01-20T23:08:18+00:00,SAT-56362,334.1277490806396,35.50980322229978,2339.1668382926296,1.6977195531935394,-59461.32009942747,10.5,10499940538.679901,47.655,-122.3035,60.0,8.3
2026-01-20T23:08:19+00:00,SAT-56362,333.920037603487,35.587296126394165,2340.860030593681,1.7190760065216417,-60209.313432685616,10.5,10499939790.686567,47.655,-122.3035,60.0,8.316666666666666
2026-01-20T23:08:20+00:00,SAT-56362,333.71211168967767,35.664159775777335,2342.5745223975186,1.7403838417242268,-60955.60395353369,10.5,10499939044.396046,47.655,-122.3035,60.0,8.333333333333334
2026-01-20T23:08:21+00:00,SAT-56362,333.5039772791105,35.740392665473244,2344.310265215665,1.7616425989472781,-61700.17555593884,10.5,10499938299.824444,47.655,-122.3035,60.0,8.35
2026-01-20T23:08:22+00:00,SAT-56362,333.2956403455525,35.81599334558366,2346.067210101015,1.7828518153601343,-62443.012029613536,10.5,10499937556.98797,47.655,-122.3035,60.0,8.366666666666667
2026-01-20T23:08:23+00:00,SAT-56362,333.0871068967374,35.89096042102423,2347.8453076448673,1.8040110379839749,-63184.09750932338,10.5,10499936815.90249,47.655,-122.3035,60.0,8.383333333333333
2026-01-20T23:08:24+00:00,SAT-56362,332.8783829729175,35.96529255181919,2349.64450798675,1.8251198260220063,-63923.41655650012,10.5,10499936076.583443,47.655,-122.3035,60.0,8.4
2026-01-20T23:08:25+00:00,SAT-56362,332.6694746454274,36.038988453341574,2351.4647608265695,1.8461777327043292,-64660.953523372016,10.5,10499935339.046476,47.655,-122.3035,60.0,8.416666666666666
2026-01-20T23:08:26+00:00,SAT-56362,332.4603880168824,36.112046895977336,2353.3060154186533,1.867184329674355,-65396.693407079394,10.5,10499934603.306593,47.655,-122.3035,60.0,8.433333333333334
2026-01-20T23:08:27+00:00,SAT-56362,332.2511292190547,36.18446670558005,2355.168220590115,1.8881391908868772,-66130.62128571697,10.5,10499933869.378714,47.655,-122.3035,60.0,8.45
2026-01-20T23:08:28+00:00,SAT-56362,332.04170441219185,36.256246763404285,2357.0513247431595,1.9090418853974516,-66862.7220657874,10.5,10499933137.277935,47.655,-122.3035,60.0,8.466666666666667
2026-01-20T23:08:29+00:00,SAT-56362,331.83211978523616,36.327386005717976,2358.955275850196,1.9298920084933973,-67592.98157254067,10.5,10499932407.018427,47.655,-122.3035,60.0,8.483333333333333
2026-01-20T23:08:30+00:00,SAT-56362,331.62238155276015,36.39788342451331,2360.8800214800003,1.9506891517952274,-68321.38550279969,10.5,10499931678.614498,47.655,-122.3035,60.0,8.5
2026-01-20T23:08:31+00:00,SAT-56362,331.4124959549804,36.467738067155246,2362.825508794057,1.9714329022473256,-69047.91938960958,10.5,10499930952.08061,47.655,-122.3035,60.0,8.516666666666667
2026-01-20T23:08:32+00:00,SAT-56362,331.2024692577243,36.536949036045435,2364.7916845418986,1.9921228751562954,-69772.56975938035,10.5,10499930227.43024,47.655,-122.3035,60.0,8.533333333333333
2026-01-20T23:08:33+00:00,SAT-56362,330.99230774937547,36.60551548924649,2366.778495089388,2.0127586804797275,-70495.32295117692,10.5,10499929504.67705,47.655,-122.3035,60.0,8.55
2026-01-20T23:08:34+00:00,SAT-56362,330.7820177408174,36.673436640126205,2368.785886413386,2.033339924642578,-71216.16518033641,10.5,10499928783.83482,47.655,-122.3035,60.0,8.566666666666666
2026-01-20T23:08:35+00:00,SAT-56362,330.57160556541044,36.740711756965695,2370.81380409823,2.0538662414506494,-71935.08362118909,10.5,10499928064.916378,47.655,-122.3035,60.0,8.583333333333334
2026-01-20T23:08:36+00:00,SAT-56362,330.3610775758638,36.80734016355338,2372.8621933630366,2.074337256911621,-72652.06517494188,10.5,10499927347.934826,47.655,-122.3035,60.0,8.6
2026-01-20T23:08:37+00:00,SAT-56362,330.150440144535,36.873321238667586,2374.93099905393,2.094752606747794,-73367.09708304882,10.5,10499926632.902918,47.655,-122.3035,60.0,8.616666666666667
2026-01-20T23:08:38+00:00,SAT-56362,329.939699661977,36.93865441609811,2377.020165653726,2.115111939149623,-74080.16702365155,10.5,10499925919.832977,47.655,-122.3035,60.0,8.633333333333333
2026-01-20T23:08:39+00:00,SAT-56362,329.7288625353595,37.003339184686155,2379.1296372943716,2.135414885326926,-74791.26208015786,10.5,10499925208.73792,47.655,-122.3035,60.0,8.65
2026-01-20T23:08:40+00:00,SAT-56362,329.51793518937916,37.0673750876037,2381.259357740004,2.1556611176619263,-75500.37077800745,10.5,10499924499.629223,47.655,-122.3035,60.0,8.666666666666666
2026-01-20T23:08:41+00:00,SAT-56362,329.30692406211017,37.13076172313253,2383.409270428019,2.17585028917012,-76207.4809643352,10.5,10499923792.519035,47.655,-122.3035,60.0,8.683333333333334
2026-01-20T23:08:42+00:00,SAT-56362,329.09583560607484,37.19349874387519,2385.5793184497516,2.195982078167705,-76912.58137241365,10.5,10499923087.418627,47.655,-122.3035,60.0,8.7
2026-01-20T23:08:43+00:00,SAT-56362,328.88467628562177,37.255585857020385,2387.7694445757106,2.2160561423046325,-77615.66001169596,10.5,10499922384.339989,47.655,-122.3035,60.0,8.716666666666667
2026-01-20T23:08:44+00:00,SAT-56362,328.6734525779671,37.31702282356353,2389.979591234969,2.2360721680006646,-78316.70589927575,10.5,10499921683.2941,47.655,-122.3035,60.0,8.733333333333333
2026-01-20T23:08:45+00:00,SAT-56362,328.4621709702274,37.37780945865318,2392.209700543855,2.256029853761539,-79015.70847554864,10.5,10499920984.291525,47.655,-122.3035,60.0,8.75
2026-01-20T23:08:46+00:00,SAT-56362,328.25083795774145,37.437945631542,2394.4597143180067,2.2759288767584365,-79712.65643368382,10.5,10499920287.343567,47.655,-122.3035,60.0,8.766666666666667
2026-01-20T23:08:47+00:00,SAT-56362,328.0394600453326,37.49743126470643,2396.7295740510936,2.2957689357827133,-80407.53922408045,10.5,10499919592.460775,47.655,-122.3035,60.0,8.783333333333333
2026-01-20T23:08:48+00:00,SAT-56362,327.8280437447766,37.556266334027534,2399.019220936381,2.3155497510771745,-81100.34704845822,10.5,10499918899.652952,47.655,-122.3035,60.0,8.8
2026-01-20T23:08:49+00:00,SAT-56362,327.61659557249016,37.61445086887066,2401.328595888122,2.3352710259929257,-81791.06951691801,10.5,10499918208.930483,47.655,-122.3035,60.0,8.816666666666666
2026-01-20T23:08:50+00:00,SAT-56362,327.405122050224,37.67198495134348,2403.657639524712,2.3549324767862956,-82479.69669155621,10.5,10499917520.303308,47.655,-122.3035,60.0,8.833333333333334
2026-01-20T23:08:51+00:00,SAT-56362,327.193629703414,37.72886871617801,2406.00629218156,2.374533827554936,-83166.21890910553,10.5,10499916833.781092,47.655,-122.3035,60.0,8.85
2026-01-20T23:08:52+00:00,SAT-56362,326.98212505984674,37.7851023505206,2408.3744939189082,2.394074813170251,-83850.62688364106,10.5,10499916149.373116,47.655,-122.3035,60.0,8.866666666666667
2026-01-20T23:08:53+00:00,SAT-56362,326.77061464817405,37.84068609373969,2410.762184532577,2.413555168017276,-84532.91131220318,10.5,10499915467.088688,47.655,-122.3035,60.0,8.883333333333333
2026-01-20T23:08:54+00:00,SAT-56362,326.5591049972435,37.895620237013084,2413.16930355348,2.432974639972251,-85213.06336435133,10.5,10499914786.936636,47.655,-122.3035,60.0,8.9
2026-01-20T23:08:55+00:00,SAT-56362,326.34760263446583,37.949905123144745,2415.5957902610785,2.452332964661285,-85891.07378059354,10.5,10499914108.92622,47.655,-122.3035,60.0,8.916666666666666
2026-01-20T23:08:56+00:00,SAT-56362,326.13611408597956,38.003541145937696,2418.0415836711677,2.4716299105628288,-86566.93445206583,10.5,10499913433.065548,47.655,-122.3035,60.0,8.933333333333334
2026-01-20T23:08:57+00:00,SAT-56362,325.92464587348707,38.056528750371946,2420.506622568635,2.4908652367949426,-87240.63694206376,10.5,10499912759.363058,47.655,-122.3035,60.0,8.95
2026-01-20T23:08:58+00:00,SAT-56362,325.71320451426794,38.108868431983666,2422.990845498132,2.5100387066486802,-87912.1729600387,10.5,10499912087.82704,47.655,-122.3035,60.0,8.966666666666667
2026-01-20T23:08:59+00:00,SAT-56362,325.501796520211,38.16056073648027,2425.4941907682296,2.5291500910739644,-88581.53448368813,10.5,10499911418.465517,47.655,-122.3035,60.0,8.983333333333333
2026-01-20T23:09:00+00:00,SAT-56362,325.2904283964813,38.21160625944582,2428.016596459061,2.5481991836461555,-89248.71428314797,10.5,10499910751.285717,47.655,-122.3035,60.0,9.0
2026-01-20T23:09:01+00:00,SAT-56362,325.0791066392083,38.262005646242876,2430.558000444884,2.5671857537534204,-89913.7042814163,10.5,10499910086.29572,47.655,-122.3035,60.0,9.016666666666667
2026-01-20T23:09:02+00:00,SAT-56362,324.86783773651354,38.31175959114611,2433.1183403699606,2.5861096068243272,-90576.49766377857,10.5,10499909423.502337,47.655,-122.3035,60.0,9.033333333333333
2026-01-20T23:09:03+00:00,SAT-56362,324.65662816520097,38.360868837460934,2435.6975536845002,2.6049705244112817,-91237.08677927601,10.5,10499908762.913221,47.655,-122.3035,60.0,9.05
2026-01-20T23:09:04+00:00,SAT-56362,324.44548439180073,38.40933417663805,2438.2955776208464,2.6237683261542033,-91895.46531093564,10.5,10499908104.534689,47.655,-122.3035,60.0,9.066666666666666
2026-01-20T23:09:05+00:00,SAT-56362,324.2344128690893,38.45715644840903,2440.9123492314643,2.6425028073025274,-92551.62608752666,10.5,10499907448.373913,47.655,-122.3035,60.0,9.083333333333334
2026-01-20T23:09:06+00:00,SAT-56362,324.0234200371404,38.50433653989507,2443.547805364614,2.6611738000049874,-93205.56323018762,10.5,10499906794.43677,47.655,-122.3035,60.0,9.1
2026-01-20T23:09:07+00:00,SAT-56362,323.8125123200423,38.55087538565831,2446.2018827011525,2.679781108448063,-93857.26988070081,10.5,10499906142.73012,47.655,-122.3035,60.0,9.116666666666667
2026-01-20T23:09:08+00:00,SAT-56362,323.6016961271168,38.59677396678525,2448.8745177266446,2.698324573970626,-94506.74048208236,10.5,10499905493.259518,47.655,-122.3035,60.0,9.133333333333333
2026-01-20T23:09:09+00:00,SAT-56362,323.3909778496471,38.64203331091014,2451.5656467684175,2.7168040100915962,-95153.96850297601,10.5,10499904846.031498,47.655,-122.3035,60.0,9.15
2026-01-20T23:09:10+00:00,SAT-56362,323.1803638621209,38.68665449128546,2454.275205967816,2.7352192791830277,-95798.94912306896,10.5,10499904201.050877,47.655,-122.3035,60.0,9.166666666666666
2026-01-20T23:09:11+00:00,SAT-56362,322.96986051812803,38.73063862695831,2457.003131328921,2.7535702060747793,-96441.6762071619,10.5,10499903558.323793,47.655,-122.3035,60.0,9.183333333333334
2026-01-20T23:09:12+00:00,SAT-56362,322.7594741522902,38.773986881693965,2459.749358681113,2.7718566551036834,-97082.14500375681,10.5,10499902917.854996,47.655,-122.3035,60.0,9.2
2026-01-20T23:09:13+00:00,SAT-56362,322.5492110768551,38.81670046398606,2462.5138237184697,2.790078464686346,-97720.34985351979,10.5,10499902279.650146,47.655,-122.3035,60.0,9.216666666666667
2026-01-20T23:09:14+00:00,SAT-56362,322.33907758280037,38.85878062615257,2465.296461973917,2.808235510268775,-98356.28639404311,10.5,10499901643.713606,47.655,-122.3035,60.0,9.233333333333333
2026-01-20T23:09:15+00:00,SAT-56362,322.1290799366092,38.90022866428971,2468.0972088561584,2.8263276559123476,-98989.9498641812,10.5,10499901010.050137,47.655,-122.3035,60.0,9.25
2026-01-20T23:09:16+00:00,SAT-56362,321.9192243803931,38.941045917553026,2470.9159996383214,2.844354763798025,-99621.33543692838,10.5,10499900378.664562,47.655,-122.3035,60.0,9.266666666666667
2026-01-20T23:09:17+00:00,SAT-56362,321.70951713136674,38.98123376757134,2473.752769456083,2.8623167263478813,-100250.4393444506,10.5,10499899749.560656,47.655,-122.3035,60.0,9.283333333333333
2026-01-20T23:09:18+00:00,SAT-56362,321.49996437916064,39.02079363826213,2476.6074533378273,2.88021342130965,-100877.25730495638,10.5,10499899122.742695,47.655,-122.3035,60.0,9.3
2026-01-20T23:09:19+00:00,SAT-56362,321.2905722861252,39.05972699507974,2479.4799861900133,2.898044727308254,-101501.78506737707,10.5,10499898498.214933,47.655,-122.3035,60.0,9.316666666666666
2026-01-20T23:09:20+00:00,SAT-56362,321.08134698670784,39.09803534443653,2482.3703027980487,2.915810544990286,-102124.01915193611,10.5,10499897875.980848,47.655,-122.3035,60.0,9.333333333333334
2026-01-20T23:09:21+00:00,SAT-56362,320.8722945852472,39.13572023341628,2485.2783378482522,2.9335107760685837,-102743.95611620133,10.5,10499897256.043884,47.655,-122.3035,60.0,9.35
2026-01-20T23:09:22+00:00,SAT-56362,320.6634211553748,39.172783249173,2488.204025928918,2.951145322009498,-103361.59250910752,10.5,10499896638.407492,47.655,-122.3035,60.0,9.366666666666667
2026-01-20T23:09:23+00:00,SAT-56362,320.4547327393633,39.20922601835432,2491.147301530069,2.9687140975225716,-103976.92534342209,10.5,10499896023.074657,47.655,-122.3035,60.0,9.383333333333333
2026-01-20T23:09:24+00:00,SAT-56362,320.2462353466924,39.245050206646546,2494.1080990566647,2.9862169988959044,-104589.9509867156,10.5,10499895410.049013,47.655,-122.3035,60.0,9.4
2026-01-20T23:09:25+00:00,SAT-56362,320.03793495460945,39.2802575179945,2497.08635281023,3.00365396895833,-105200.66743661198,10.5,10499894799.332563,47.655,-122.3035,60.0,9.416666666666666
2026-01-20T23:09:26+00:00,SAT-56362,319.8298375045431,39.31484969450047,2500.0819970352713,3.021024922259301,-105809.0717002716,10.5,10499894190.928299,47.655,-122.3035,60.0,9.433333333333334
2026-01-20T23:09:27+00:00,SAT-56362,319.6219489033608,39.34882851551218,2503.0949658910713,3.0383297860242884,-106415.1612288226,10.5,10499893584.838772,47.655,-122.3035,60.0,9.45
2026-01-20T23:09:28+00:00,SAT-56362,319.41427502199593,39.38219579715954,2506.125193464333,3.055568494493719,-107018.93371908658,10.5,10499892981.06628,47.655,-122.3035,60.0,9.466666666666667
2026-01-20T23:09:29+00:00,SAT-56362,319.2068216943687,39.41495339183647,2509.1726137761743,3.0727409904359484,-107620.38716656927,10.5,10499892379.612833,47.655,-122.3035,60.0,9.483333333333333
2026-01-20T23:09:30+00:00,SAT-56362,318.9995947164024,39.447103187650036,2512.2371607906357,3.0898472286422876,-108219.51998787114,10.5,10499891780.480013,47.655,-122.3035,60.0,9.5
2026-01-20T23:09:31+00:00,SAT-56362,318.79259984464153,39.4786471079458,2515.318768426668,3.10688713480135,-108816.3295802931,10.5,10499891183.67042,47.655,-122.3035,60.0,9.516666666666667
2026-01-20T23:09:32+00:00,SAT-56362,318.5858427976078,39.509587110411395,2518.4173705291105,3.123860681628849,-109410.814988224,10.5,10499890589.18501,47.655,-122.3035,60.0,9.533333333333333
2026-01-20T23:09:33+00:00,SAT-56362,318.3793292523126,39.53992518690831,2521.5329009155885,3.140767822759387,-110002.97458775151,10.5,10499889997.025412,47.655,-122.3035,60.0,9.55
2026-01-20T23:09:34+00:00,SAT-56362,318.17306484496766,39.56966336267567,2524.665293357487,3.1576085272001984,-110592.80729337787,10.5,10499889407.192707,47.655,-122.3035,60.0,9.566666666666666
2026-01-20T23:09:35+00:00,SAT-56362,317.9670551695222,39.59880369585239,2527.8144815952814,3.174382746880807,-111180.3114214717,10.5,10499888819.688578,47.655,-122.3035,60.0,9.583333333333334
2026-01-20T23:09:36+00:00,SAT-56362,317.76130577824216,39.627348276720895,2530.980399321504,3.1910904681189214,-111765.48649282122,10.5,10499888234.513508,47.655,-122.3035,60.0,9.6
2026-01-20T23:09:37+00:00,SAT-56362,317.55582217911996,39.65529922737874,2534.162980215041,3.207731671322669,-112348.33182123622,10.5,10499887651.668179,47.655,-122.3035,60.0,9.616666666666667
2026-01-20T23:09:38+00:00,SAT-56362,317.3506098358357,39.682658701057015,2537.3621579352402,3.224306335736862,-112928.84667978223,10.5,10499887071.15332,47.655,-122.3035,60.0,9.633333333333333
2026-01-20T23:09:39+00:00,SAT-56362,317.1456741673485,39.70942888149898,2540.5778661207482,3.2408144336736893,-113507.03009871494,10.5,10499886492.969902,47.655,-122.3035,60.0,9.65
2026-01-20T23:09:40+00:00,SAT-56362,316.941020547869,39.735611982302096,2543.810038382599,3.2572559753417596,-114082.88243558307,10.5,10499885917.117565,47.655,-122.3035,60.0,9.666666666666666
2026-01-20T23:09:41+00:00,SAT-56362,316.73665430420226,39.761210246573754,2547.058608342006,3.2736309391712095,-114656.40293491873,10.5,10499885343.597065,47.655,-122.3035,60.0,9.683333333333334
2026-01-20T23:09:42+00:00,SAT-56362,316.53258071722695,39.786225946082254,2550.3235095986734,3.289939344168444,-115227.59226240662,10.5,10499884772.407738,47.655,-122.3035,60.0,9.7
2026-01-20T23:09:43+00:00,SAT-56362,316.3288050191193,39.81066138092513,2553.6046757712575,3.3061811772432437,-115796.4499595719,10.5,10499884203.550041,47.655,-122.3035,60.0,9.716666666666667
2026-01-20T23:09:44+00:00,SAT-56362,316.1253323948628,39.83451887869023,2556.902040465361,3.32235644594369,-116362.9762907803,10.5,10499883637.023708,47.655,-122.3035,60.0,9.733333333333333
2026-01-20T23:09:45+00:00,SAT-56362,315.9221679806391,39.85780079399044,2560.215537294116,3.3384651826576133,-116927.17239039061,10.5,10499883072.82761,47.655,-122.3035,60.0,9.75
2026-01-20T23:09:46+00:00,SAT-56362,315.7193168621364,39.88050950798412,2563.545099902953,3.3545073716520517,-117489.03770736803,10.5,10499882510.962292,47.655,-122.3035,60.0,9.766666666666667
2026-01-20T23:09:47+00:00,SAT-56362,315.51678407686416,39.90264742748677,2566.8906619216136,3.370483059111987,-118048.57385930592,10.5,10499881951.42614,47.655,-122.3035,60.0,9.783333333333333
2026-01-20T23:09:48+00:00,SAT-56362,315.3145746103893,39.92421698471772,2570.2521570259014,3.386392266242889,-118605.78158890954,10.5,10499881394.21841,47.655,-122.3035,60.0,9.8
2026-01-20T23:09:49+00:00,SAT-56362,315.11269339740124,39.945220636543496,2573.6295189127677,3.402235009897833,-119160.66148644488,10.5,10499880839.338514,47.655,-122.3035,60.0,9.816666666666666
2026-01-20T23:09:50+00:00,SAT-56362,314.91114532170405,39.965660863837265,2577.0226812959722,3.4180113303603497,-119713.21496281162,10.5,10499880286.785038,47.655,-122.3035,60.0,9.833333333333334
2026-01-20T23:09:51+00:00,SAT-56362,314.7099352145604,39.985540171018926,2580.431577929452,3.43372124927247,-120263.44277600518,10.5,10499879736.557224,47.655,-122.3035,60.0,9.85
2026-01-20T23:09:52+00:00,SAT-56362,314.50906785553855,40.00486108533136,2583.8561425887265,3.449364832438491,-120811.34723077042,10.5,10499879188.65277,47.655,-122.3035,60.0,9.866666666666667
2026-01-20T23:09:53+00:00,SAT-56362,314.3085479697643,40.023626156473526,2587.296309114945,3.464942099861433,-121356.92902769771,10.5,10499878643.070972,47.655,-122.3035,60.0,9.883333333333333
2026-01-20T23:09:54+00:00,SAT-56362,314.10838023024564,40.041837955763235,2590.752011369207,3.48045311035503,-121900.19022669281,10.5,10499878099.809772,47.655,-122.3035,60.0,9.9
2026-01-20T23:09:55+00:00,SAT-56362,313.9085692554961,40.05949907573113,2594.2231832712673,3.495897911854061,-122441.13250663444,10.5,10499877558.867493,47.655,-122.3035,60.0,9.916666666666666
2026-01-20T23:09:56+00:00,SAT-56362,313.70911960996256,40.07661212946512,2597.70975878869,3.511276558563214,-122979.75776600007,10.5,10499877020.242233,47.655,-122.3035,60.0,9.933333333333334
2026-01-20T23:09:57+00:00,SAT-56362,313.51003580345105,40.0931797500514,2601.211671943097,3.5265891115750807,-123516.06814451065,10.5,10499876483.931856,47.655,-122.3035,60.0,9.95
2026-01-20T23:09:58+00:00,SAT-56362,313.3113222906297,40.109204590003856,2604.728856817041,3.541835626071653,-124050.065574873,10.5,10499875949.934425,47.655,-122.3035,60.0,9.966666666666667
2026-01-20T23:09:59+00:00,SAT-56362,313.1129834711341,40.12468932066047,2608.26124754811,3.557016163939362,-124581.75222461166,10.5,10499875418.247776,47.655,-122.3035,60.0,9.983333333333333
2026-01-20T23:10:00+00:00,SAT-56362,312.9150236890998,40.13963663162016,2611.8087783356123,3.5721308115908132,-125111.13112026166,10.5,10499874888.86888,47.655,-122.3035,60.0,10.0
2026-01-20T23:10:01+00:00,SAT-56362,312.71744723172213,40.154049230251566,2615.3713834650384,3.587179619367209,-125638.20402498484,10.5,10499874361.795975,47.655,-122.3035,60.0,10.016666666666667
2026-01-20T23:10:02+00:00,SAT-56362,312.5202583310449,40.16792984098315,2618.9489972720876,3.602162674188868,-126162.97398309839,10.5,10499873837.026016,47.655,-122.3035,60.0,10.033333333333333
2026-01-20T23:10:03+00:00,SAT-56362,312.32346116192116,40.181281204860404,2622.5415541791454,3.6170800513546464,-126685.4436318868,10.5,10499873314.556368,47.655,-122.3035,60.0,10.05
2026-01-20T23:10:04+00:00,SAT-56362,312.12705984257946,40.19410607892532,2626.148988683696,3.6319318381838177,-127205.61602964037,10.5,10499872794.38397,47.655,-122.3035,60.0,10.066666666666666
2026-01-20T23:10:05+00:00,SAT-56362,311.93105843387906,40.206407235694115,2629.771235370312,3.646718100611796,-127723.49348569622,10.5,10499872276.506514,47.655,-122.3035,60.0,10.083333333333334
2026-01-20T23:10:06+00:00,SAT-56362,311.7354609403741,40.218187462527425,2633.408228889322,3.6614389447309836,-128239.07971585906,10.5,10499871760.920284,47.655,-122.3035,60.0,10.1
2026-01-20T23:10:07+00:00,SAT-56362,311.5402713082104,40.229449561187536,2637.059903996867,3.676094455087296,-128752.37768128446,10.5,10499871247.622318,47.655,-122.3035,60.0,10.116666666666667
2026-01-20T23:10:08+00:00,SAT-56362,311.34549342621057,40.24019634721491,2640.7261955334075,3.6906847313527957,-129263.39087290966,10.5,10499870736.609127,47.655,-122.3035,60.0,10.133333333333333
2026-01-20T23:10:09+00:00,SAT-56362,311.15113112506646,40.25043064942355,2644.40703843881,3.705209848212916,-129772.12190653448,10.5,10499870227.878094,47.655,-122.3035,60.0,10.15
2026-01-20T23:10:10+00:00,SAT-56362,310.9571881786067,40.26015530928974,2648.102367727428,3.719669933501194,-130278.5752594301,10.5,10499869721.42474,47.655,-122.3035,60.0,10.166666666666666
2026-01-20T23:10:11+00:00,SAT-56362,310.7636683011648,40.26937318053064,2651.812118541106,3.734065073723748,-130782.75396140672,10.5,10499869217.246038,47.655,-122.3035,60.0,10.183333333333334
2026-01-20T23:10:12+00:00,SAT-56362,310.57057514965027,40.27808712847467,2655.5362261079667,3.7483953769652025,-131284.66179804504,10.5,10499868715.338202,47.655,-122.3035,60.0,10.2
2026-01-20T23:10:13+00:00,SAT-56362,310.37791232249697,40.28630002957796,2659.2746257639265,3.7626609546766248,-131784.30267283297,10.5,10499868215.697327,47.655,-122.3035,60.0,10.216666666666667
2026-01-20T23:10:14+00:00,SAT-56362,310.18568335962107,40.294014770888346,2663.0272529560575,3.77686191063548,-132281.6802204962,10.5,10499867718.31978,47.655,-122.3035,60.0,10.233333333333333
2026-01-20T23:10:15+00:00,SAT-56362,309.99389174277155,40.30123424952359,2666.7940432349315,3.7909983583663713,-132776.79841714664,10.5,10499867223.201582,47.655,-122.3035,60.0,10.25
2026-01-20T23:10:16+00:00,SAT-56362,309.8025408952168,40.30796137215587,2670.574932264342,3.8050704200412664,-133269.66154176331,10.5,10499866730.338459,47.655,-122.3035,60.0,10.266666666666667
2026-01-20T23:10:17+00:00,SAT-56362,309.61163418137636,40.31419905451635,2674.3698558299293,3.8190782141897213,-133760.2737457527,10.5,10499866239.726254,47.655,-122.3035,60.0,10.283333333333333
2026-01-20T23:10:18+00:00,SAT-56362,309.42117490713224,40.31995022087511,2678.1787498355484,3.8330218486681673,-134248.63880670327,10.5,10499865751.361193,47.655,-122.3035,60.0,10.3
2026-01-20T23:10:19+00:00,SAT-56362,309.2311663204129,40.32521780353182,2682.00155029262,3.8469014665414867,-134734.76173535228,10.5,10499865265.238264,47.655,-122.3035,60.0,10.316666666666666
2026-01-20T23:10:20+00:00,SAT-56362,309.04161160971887,40.33000474234709,2685.8381933552505,3.8607171804703118,-135218.64647755172,10.5,10499864781.353523,47.655,-122.3035,60.0,10.333333333333334
2026-01-20T23:10:21+00:00,SAT-56362,308.85251390563667,40.334313984225254,2689.6886152899065,3.874469125534376,-135700.29776436518,10.5,10499864299.702236,47.655,-122.3035,60.0,10.35
2026-01-20T23:10:22+00:00,SAT-56362,308.66387628001604,40.33814848263712,2693.552752497773,3.8881574222529145,-136179.71981688612,10.5,10499863820.280184,47.655,-122.3035,60.0,10.366666666666667
2026-01-20T23:10:23+00:00,SAT-56362,308.47570174674337,40.34151119713658,2697.430541500233,3.901782216795523,-136656.91775459205,10.5,10499863343.082245,47.655,-122.3035,60.0,10.383333333333333
2026-01-20T23:10:24+00:00,SAT-56362,308.28799326079655,40.34440509289153,2701.32191896445,3.915343630956561,-137131.89584323662,10.5,10499862868.104156,47.655,-122.3035,60.0,10.4
2026-01-20T23:10:25+00:00,SAT-56362,308.1007537195123,40.34683314020548,2705.2268216790576,3.928841812152795,-137604.6592459786,10.5,10499862395.340754,47.655,-122.3035,60.0,10.416666666666666
2026-01-20T23:10:26+00:00,SAT-56362,307.9139859616561,40.34879831405584,2709.145186579711,3.9422768964580372,-138075.21272869845,10.5,10499861924.787271,47.655,-122.3035,60.0,10.433333333333334
2026-01-20T23:10:27+00:00,SAT-56362,307.7276927681292,40.35030359363399,2713.076950737779,3.9556490256264674,-138543.56125622714,10.5,10499861456.438744,47.655,-122.3035,60.0,10.45
2026-01-20T23:10:28+00:00,SAT-56362,307.5418768619633,40.35135196188758,2717.022051366004,3.9689583432296636,-139009.70985704873,10.5,10499860990.290142,47.655,-122.3035,60.0,10.466666666666667
2026-01-20T23:10:29+00:00,SAT-56362,307.3565409084438,40.3519464050759,2720.980425820318,3.982204995135847,-139473.66364008526,10.5,10499860526.336359,47.655,-122.3035,60.0,10.483333333333333
2026-01-20T23:10:30+00:00,SAT-56362,307.17168751529556,40.352089912321816,2724.9520116021336,3.995389132334061,-139935.42789361178,10.5,10499860064.572107,47.655,-122.3035,60.0,10.5
2026-01-20T23:10:31+00:00,SAT-56362,306.9873192326787,40.351785475176726,2728.936746363448,4.0085108944434555,-140395.0075076815,10.5,10499859604.992493,47.655,-122.3035,60.0,10.516666666666667
2026-01-20T23:10:32+00:00,SAT-56362,306.80343855398513,40.35103608719103,2732.9345678955065,4.021570443096725,-140852.408143355,10.5,10499859147.591856,47.655,-122.3035,60.0,10.533333333333333
2026-01-20T23:10:33+00:00,SAT-56362,306.62004791513374,40.34984474348183,2736.945414150755,4.0345679284819544,-141307.6350608544,10.5,10499858692.364939,47.655,-122.3035,60.0,10.55
2026-01-20T23:10:34+00:00,SAT-56362,306.4371496953807,40.34821444031445,2740.9692232314273,4.047503509082399,-141760.69381093368,10.5,10499858239.306189,47.655,-122.3035,60.0,10.566666666666666
2026-01-20T23:10:35+00:00,SAT-56362,306.2547462172295,40.34614817468908,2745.005933397819,4.0603773354093775,-142211.5896651358,10.5,10499857788.410336,47.655,-122.3035,60.0,10.583333333333334
2026-01-20T23:10:36+00:00,SAT-56362,306.0728397471314,40.34364894393046,2749.0554830603337,4.073189559001315,-142660.3279309775,10.5,10499857339.67207,47.655,-122.3035,60.0,10.6
2026-01-20T23:10:37+00:00,SAT-56362,305.8914324956798,40.34071974529991,2753.1178107805113,4.085940368174475,-143106.91520409094,10.5,10499856893.084795,47.655,-122.3035,60.0,10.616666666666667
2026-01-20T23:10:38+00:00,SAT-56362,305.7105266164658,40.337363575550505,2757.1928553077037,4.098629907750656,-143551.35655674795,10.5,10499856448.643444,47.655,-122.3035,60.0,10.633333333333333
2026-01-20T23:10:39+00:00,SAT-56362,305.5301242081884,40.33358343058672,2761.280555535701,4.111258327646555,-143993.65723966554,10.5,10499856006.34276,47.655,-122.3035,60.0,10.65
2026-01-20T23:10:40+00:00,SAT-56362,305.35022731480467,40.32938230507885,2765.3808505078064,4.123825817477952,-144433.82389399037,10.5,10499855566.176105,47.655,-122.3035,60.0,10.666666666666666
2026-01-20T23:10:41+00:00,SAT-56362,305.1708379242149,40.32476319203624,2769.493679456438,4.1363325232838335,-144871.8616346254,10.5,10499855128.138365,47.655,-122.3035,60.0,10.683333333333334
2026-01-20T23:10:42+00:00,SAT-56362,304.9919579704433,40.31972908249126,2773.61898175966,4.148778637913777,-145307.7772159787,10.5,10499854692.222784,47.655,-122.3035,60.0,10.7
2026-01-20T23:10:43+00:00,SAT-56362,304.81358933207116,40.31428296506828,2777.7566969878726,4.161164299720451,-145741.57548374595,10.5,10499854258.424517,47.655,-122.3035,60.0,10.716666666666667
2026-01-20T23:10:44+00:00,SAT-56362,304.6357338348366,40.308427825707255,2781.90676484946,4.173489715124432,-146173.2636676488,10.5,10499853826.736332,47.655,-122.3035,60.0,10.733333333333333
2026-01-20T23:10:45+00:00,SAT-56362,304.4583932492571,40.30216664720189,2786.0691252586776,4.185755039358395,-146602.84720459228,10.5,10499853397.152796,47.655,-122.3035,60.0,10.75
2026-01-20T23:10:46+00:00,SAT-56362,304.281569293103,40.295502408933686,2790.243718284598,4.19796043572047,-147030.33181396755,10.5,10499852969.668186,47.655,-122.3035,60.0,10.766666666666667
2026-01-20T23:10:47+00:00,SAT-56362,304.1052636314238,40.28843808652597,2794.430484159156,4.210106086666126,-147455.723886137,10.5,10499852544.276114,47.655,-122.3035,60.0,10.783333333333333
2026-01-20T23:10:48+00:00,SAT-56362,303.92947787622427,40.2809766514706,2798.6293632962584,4.222192183136579,-147879.03010866966,10.5,10499852120.96989,47.655,-122.3035,60.0,10.8
2026-01-20T23:10:49+00:00,SAT-56362,303.75421358652227,40.27312107077951,2802.84029630024,4.234218892393057,-148300.2563397612,10.5,10499851699.74366,47.655,-122.3035,60.0,10.816666666666666
2026-01-20T23:10:50+00:00,SAT-56362,303.5794722697156,40.26487430670953,2807.063223942253,4.246186382740661,-148719.4084741683,10.5,10499851280.591526,47.655,-122.3035,60.0,10.833333333333334
2026-01-20T23:10:51+00:00,SAT-56362,303.40525538193015,40.256239316449076,2811.2980871613063,4.258094856027518,-149136.4935814661,10.5,10499850863.506418,47.655,-122.3035,60.0,10.85
2026-01-20T23:10:52+00:00,SAT-56362,303.23156432716655,40.24721905172909,2815.5448270977176,4.269944479330875,-149551.51751340652,10.5,10499850448.482487,47.655,-122.3035,60.0,10.866666666666667
2026-01-20T23:10:53+00:00,SAT-56362,303.05840045906706,40.2378164585986,2819.803385058437,4.281735442477419,-149964.48691852318,10.5,10499850035.51308,47.655,-122.3035,60.0,10.883333333333333
2026-01-20T23:10:54+00:00,SAT-56362,302.8857650804915,40.22803447707189,2824.0737025397348,4.293467918212071,-150375.40784707383,10.5,10499849624.592154,47.655,-122.3035,60.0,10.9
2026-01-20T23:10:55+00:00,SAT-56362,302.71365944458637,40.21787604087951,2828.355721210165,4.305142102095255,-150784.28714841176,10.5,10499849215.712852,47.655,-122.3035,60.0,10.916666666666666
2026-01-20T23:10:56+00:00,SAT-56362,302.54208475439077,40.20734407712314,2832.649382933321,4.31675817249127,-151191.1310696093,10.5,10499848808.86893,47.655,-122.3035,60.0,10.933333333333334
2026-01-20T23:10:57+00:00,SAT-56362,302.37104216391134,40.19644150604039,2836.954629750686,4.32831633443732,-151595.9467919365,10.5,10499848404.053207,47.655,-122.3035,60.0,10.95
2026-01-20T23:10:58+00:00,SAT-56362,302.2005327776166,40.18517124065382,2841.271403908231,4.339816742551133,-151998.73973076037,10.5,10499848001.26027,47.655,-122.3035,60.0,10.966666666666667
2026-01-20T23:10:59+00:00,SAT-56362,302.03055765272916,40.17353618664629,2845.5996478061356,4.35125961103769,-152399.51738844527,10.5,10499847600.48261,47.655,-122.3035,60.0,10.983333333333333
2026-01-20T23:11:00+00:00,SAT-56362,301.8611177975162,40.161539241927976,2849.9393040582104,4.362645121951983,-152798.2861413272,10.5,10499847201.71386,47.655,-122.3035,60.0,11.0
2026-01-20T23:11:01+00:00,SAT-56362,301.69221417292283,40.14918329647091,2854.290315459837,4.373973458304459,-153195.05239920615,10.5,10499846804.947601,47.655,-122.3035,60.0,11.016666666666667
2026-01-20T23:11:02+00:00,SAT-56362,301.523847693022,40.1364712320542,2858.65262498892,4.385244836809171,-153589.82375232503,10.5,10499846410.176249,47.655,-122.3035,60.0,11.033333333333333
2026-01-20T23:11:03+00:00,SAT-56362,301.35601922423757,40.12340592191748,2863.0261758394972,4.396459420023268,-153982.60589412262,10.5,10499846017.394106,47.655,-122.3035,60.0,11.05
2026-01-20T23:11:04+00:00,SAT-56362,301.188729587824,40.10999023068385,2867.410911367734,4.407617411558897,-154373.40595595777,10.5,10499845626.594044,47.655,-122.3035,60.0,11.066666666666666
2026-01-20T23:11:05+00:00,SAT-56362,301.021979558817,40.096227014002125,2871.8067751328617,4.418719001129927,-154762.23058241254,10.5,10499845237.769417,47.655,-122.3035,60.0,11.083333333333334
2026-01-20T23:11:06+00:00,SAT-56362,300.85576986705325,40.082119118358854,2876.213710883322,4.429764386415547,-155149.0866970484,10.5,10499844850.913303,47.655,-122.3035,60.0,11.1
2026-01-20T23:11:07+00:00,SAT-56362,300.69010119733264,40.0676693808314,2880.631662564707,4.440753769908305,-155533.98139201087,10.5,10499844466.018608,47.655,-122.3035,60.0,11.116666666666667
2026-01-20T23:11:08+00:00,SAT-56362,300.5249741897927,40.05288062884696,2885.0605743245624,4.4516873355263265,-155916.92110889067,10.5,10499844083.078892,47.655,-122.3035,60.0,11.133333333333333
2026-01-20T23:11:09+00:00,SAT-56362,300.3603894409872,40.03775568004168,2889.5003904938603,4.462565287004752,-156297.9129833543,10.5,10499843702.087017,47.655,-122.3035,60.0,11.15
2026-01-20T23:11:10+00:00,SAT-56362,300.1963475037318,40.02229734197821,2893.9510556067667,4.4733878057770236,-156676.96336996826,10.5,10499843323.03663,47.655,-122.3035,60.0,11.166666666666666
2026-01-20T23:11:11+00:00,SAT-56362,300.03284888833724,40.00650841202914,2898.412514378395,4.48415511547305,-157054.080101198,10.5,10499842945.919899,47.655,-122.3035,60.0,11.183333333333334
2026-01-20T23:11:12+00:00,SAT-56362,299.8698940616713,39.99039167702287,2902.8847117468936,4.494867387439639,-157429.2691783334,10.5,10499842570.730822,47.655,-122.3035,60.0,11.2
2026-01-20T23:11:13+00:00,SAT-56362,299.7074834494347,39.97394991324696,2907.3675928213,4.505524838777092,-157802.53820514545,10.5,10499842197.461796,47.655,-122.3035,60.0,11.216666666666667
2026-01-20T23:11:14+00:00,SAT-56362,299.5456174351025,39.95718588609148,2911.8611029271733,4.516127645385352,-158173.89334239424,10.5,10499841826.106657,47.655,-122.3035,60.0,11.233333333333333
2026-01-20T23:11:15+00:00,SAT-56362,299.3842963617974,39.94010235002706,2916.3651875655046,4.526676044573069,-158543.34290163236,10.5,10499841456.657099,47.655,-122.3035,60.0,11.25
2026-01-20T23:11:16+00:00,SAT-56362,299.22352053075434,39.92270204818665,2920.879792473959,4.537170201646342,-158910.89267257883,10.5,10499841089.107327,47.655,-122.3035,60.0,11.266666666666667
2026-01-20T23:11:17+00:00,SAT-56362,299.0632902041986,39.9049877124809,2925.4048635550675,4.547610324294267,-159276.54992938414,10.5,10499840723.450071,47.655,-122.3035,60.0,11.283333333333333
2026-01-20T23:11:18+00:00,SAT-56362,298.9036056044539,39.886962063265074,2929.9403469184967,4.557996616640258,-159640.32182131385,10.5,10499840359.678179,47.655,-122.3035,60.0,11.3
2026-01-20T23:11:19+00:00,SAT-56362,298.74446691453267,39.86862780919295,2934.4861888774926,4.5683292873039605,-160002.21565511025,10.5,10499839997.784346,47.655,-122.3035,60.0,11.316666666666666
2026-01-20T23:11:20+00:00,SAT-56362,298.5858742785194,39.84998764703932,2939.0423359533643,4.578608525770033,-160362.2380673277,10.5,10499839637.761932,47.655,-122.3035,60.0,11.333333333333334
2026-01-20T23:11:21+00:00,SAT-56362,298.4278278026683,39.83104426163217,2943.6087348563988,4.58883453739636,-160720.39625046795,10.5,10499839279.60375,47.655,-122.3035,60.0,11.35
2026-01-20T23:11:22+00:00,SAT-56362,298.2703275554068,39.8118003256386,2948.185332501695,4.599007527715655,-161076.69740315608,10.5,10499838923.302597,47.655,-122.3035,60.0,11.366666666666667
2026-01-20T23:11:23+00:00,SAT-56362,298.11337356780155,39.792258499423546,2952.772076009337,4.609127691098603,-161431.1483330756,10.5,10499838568.851667,47.655,-122.3035,60.0,11.383333333333333
2026-01-20T23:11:24+00:00,SAT-56362,297.9569658344496,39.77242143096056,2957.3689126932595,4.619195217888246,-161783.75570684497,10.5,10499838216.244293,47.655,-122.3035,60.0,11.4
2026-01-20T23:11:25+00:00,SAT-56362,297.80110431404484,39.752291755723945,2961.975790057233,4.629210357476154,-162134.52825921198,10.5,10499837865.47174,47.655,-122.3035,60.0,11.416666666666666
2026-01-20T23:11:26+00:00,SAT-56362,297.64578892807145,39.73187209628827,2966.5926558537562,4.639173261826138,-162483.47131259204,10.5,10499837516.528687,47.655,-122.3035,60.0,11.433333333333334
2026-01-20T23:11:27+00:00,SAT-56362,297.491019564329,39.71116506265087,2971.2194579868838,4.64908416107942,-162830.59292750424,10.5,10499837169.407072,47.655,-122.3035,60.0,11.45
2026-01-20T23:11:28+00:00,SAT-56362,297.33679607497066,39.69017325175735,2975.8561445902005,4.658943242673552,-163175.89966880454,10.5,10499836824.10033,47.655,-122.3035,60.0,11.466666666666667
2026-01-20T23:11:29+00:00,SAT-56362,297.1831182783545,39.668899247583404,2980.502663984227,4.6687507214391255,-163519.39906076895,10.5,10499836480.600939,47.655,-122.3035,60.0,11.483333333333333
2026-01-20T23:11:30+00:00,SAT-56362,297.0299859586476,39.647345620898925,2985.1589647037426,4.6785067968153005,-163861.09808860053,10.5,10499836138.90191,47.655,-122.3035,60.0,11.5
2026-01-20T23:11:31+00:00,SAT-56362,296.87739886682806,39.62551492923379,2989.8249954824328,4.688211672104215,-164201.0038728001,10.5,10499835798.996128,47.655,-122.3035,60.0,11.516666666666667
2026-01-20T23:11:32+00:00,SAT-56362,296.7253567210188,39.60340971675957,2994.500705256745,4.69786555088956,-164539.12354372966,10.5,10499835460.876457,47.655,-122.3035,60.0,11.533333333333333
2026-01-20T23:11:33+00:00,SAT-56362,296.5738592069991,39.58103251418996,2999.1860431661653,4.707468632630824,-164875.4640873042,10.5,10499835124.535913,47.655,-122.3035,60.0,11.55
2026-01-20T23:11:34+00:00,SAT-56362,296.42290597878025,39.55838583871067,3003.880958549109,4.71702113684032,-165210.03319177352,10.5,10499834789.966808,47.655,-122.3035,60.0,11.566666666666666
2026-01-20T23:11:35+00:00,SAT-56362,296.27249665850957,39.535472193789076,3008.5854009629174,4.726523247166822,-165542.83728929443,10.5,10499834457.16271,47.655,-122.3035,60.0,11.583333333333334
2026-01-20T23:11:36+00:00,SAT-56362,296.12263083800036,39.51229406926973,3013.299320148092,4.735975167381044,-165873.88351677934,10.5,10499834126.116484,47.655,-122.3035,60.0,11.6
2026-01-20T23:11:37+00:00,SAT-56362,295.97330807864194,39.48885394119182,3018.02266604836,4.745377116745257,-166203.17955372046,10.5,10499833796.820446,47.655,-122.3035,60.0,11.616666666666667
2026-01-20T23:11:38+00:00,SAT-56362,295.82452791136365,39.465154271636955,3022.7553888261277,4.754729299088116,-166530.73253905948,10.5,10499833469.267462,47.655,-122.3035,60.0,11.633333333333333
2026-01-20T23:11:39+00:00,SAT-56362,295.6762898376316,39.44119750872834,3027.4974388470846,4.764031897830708,-166856.5488969787,10.5,10499833143.451103,47.655,-122.3035,60.0,11.65
2026-01-20T23:11:40+00:00,SAT-56362,295.5285933304551,39.41698608667143,3032.2487666598545,4.7732851324467225,-167180.63631437518,10.5,10499832819.363686,47.655,-122.3035,60.0,11.666666666666666
2026-01-20T23:11:41+00:00,SAT-56362,295.38143783384055,39.392522425500445,3037.009323031948,4.782489198253152,-167503.00163207605,10.5,10499832496.998367,47.655,-122.3035,60.0,11.683333333333334
2026-01-20T23:11:42+00:00,SAT-56362,295.2348227639334,39.36780893114218,3041.7790589256724,4.79164431465558,-167823.65253459307,10.5,10499832176.347466,47.655,-122.3035,60.0,11.7
2026-01-20T23:11:43+00:00,SAT-56362,295.0887475088053,39.34284799522994,3046.5579255221555,4.80075066466903,-168142.59543188647,10.5,10499831857.404568,47.655,-122.3035,60.0,11.716666666666667
2026-01-20T23:11:44+00:00,SAT-56362,294.9432114299413,39.317641995241814,3051.3458741850523,4.809808447376908,-168459.83729669923,10.5,10499831540.162703,47.655,-122.3035,60.0,11.733333333333333
2026-01-20T23:11:45+00:00,SAT-56362,294.79821386225825,39.29219329436349,3056.1428564765697,4.818817905873435,-168775.38664321924,10.5,10499831224.613358,47.655,-122.3035,60.0,11.75
2026-01-20T23:11:46+00:00,SAT-56362,294.65375411327125,39.266504241204885,3060.9488242013604,4.827779190513902,-169089.24873752485,10.5,10499830910.751263,47.655,-122.3035,60.0,11.766666666666667
2026-01-20T23:11:47+00:00,SAT-56362,294.5098314662107,39.24057717025298,3065.763729314033,4.8366925320494,-169401.4316614953,10.5,10499830598.568338,47.655,-122.3035,60.0,11.783333333333333
2026-01-20T23:11:48+00:00,SAT-56362,294.36644517816404,39.214414401397796,3070.5875239993306,4.845558132941975,-169711.94250620788,10.5,10499830288.057493,47.655,-122.3035,60.0,11.8
2026-01-20T23:11:49+00:00,SAT-56362,294.22359448134944,39.188018240044705,3075.420160643918,4.854376199390113,-170020.78849360574,10.5,10499829979.211506,47.655,-122.3035,60.0,11.816666666666666
2026-01-20T23:11:50+00:00,SAT-56362,294.08127858342476,39.16139097705966,3080.2615918401098,4.8631469089749455,-170327.97584333134,10.5,10499829672.024157,47.655,-122.3035,60.0,11.833333333333334
2026-01-20T23:11:51+00:00,SAT-56362,293.9394966687378,39.13453488889569,3085.1117703573273,4.871870495978673,-170633.51276093832,10.5,10499829366.48724,47.655,-122.3035,60.0,11.85
2026-01-20T23:11:52+00:00,SAT-56362,293.7982478971814,39.10745223724818,3089.97064919865,4.880547133333235,-170937.4053032347,10.5,10499829062.594696,47.655,-122.3035,60.0,11.866666666666667
2026-01-20T23:11:53+00:00,SAT-56362,293.65753140631597,39.08014526937135,3094.838181539628,4.889177038569907,-171239.66108908594,10.5,10499828760.338911,47.655,-122.3035,60.0,11.883333333333333
2026-01-20T23:11:54+00:00,SAT-56362,293.51734631056837,39.05261621780554,3099.7143207727613,4.897760408569978,-171540.28701410748,10.5,10499828459.712986,47.655,-122.3035,60.0,11.9
2026-01-20T23:11:55+00:00,SAT-56362,293.3776917022345,39.0248673004715,3104.5990204869086,4.9062974398564405,-171839.28996136595,10.5,10499828160.71004,47.655,-122.3035,60.0,11.916666666666666
2026-01-20T23:11:56+00:00,SAT-56362,293.23856665188134,38.996900720656285,3109.4922344669253,4.914788341046394,-172136.67723751455,10.5,10499827863.322762,47.655,-122.3035,60.0,11.933333333333334
2026-01-20T23:11:57+00:00,SAT-56362,293.09997020847044,38.96871866692805,3114.3939167057288,4.923233320433714,-172432.45613788586,10.5,10499827567.543861,47.655,-122.3035,60.0,11.95
2026-01-20T23:11:58+00:00,SAT-56362,292.9619013997531,38.94032331312496,3119.3040214039747,4.93163254068938,-172726.63235990578,10.5,10499827273.36764,47.655,-122.3035,60.0,11.966666666666667
2026-01-20T23:11:59+00:00,SAT-56362,292.82435923390824,38.911716818611694,3124.222502924556,4.939986246541542,-173019.2144749892,10.5,10499826980.785524,47.655,-122.3035,60.0,11.983333333333333
2026-01-20T23:12:00+00:00,SAT-56362,292.6873426977617,38.882901327793995,3129.1493158744397,4.94829459992223,-173310.20815468085,10.5,10499826689.791845,47.655,-122.3035,60.0,12.0
2026-01-20T23:12:01+00:00,SAT-56362,292.5508507593783,38.853878970597755,3134.0844150220955,4.9565578243124495,-173599.62122623084,10.5,10499826400.378775,47.655,-122.3035,60.0,12.016666666666667
2026-01-20T23:12:02+00:00,SAT-56362,292.414882366837,38.82465186210655,3139.0277553588767,4.964776118117638,-173887.4606386369,10.5,10499826112.539362,47.655,-122.3035,60.0,12.033333333333333
2026-01-20T23:12:03+00:00,SAT-56362,292.27943644929775,38.79522210270694,3143.9792920740124,4.9729496543607095,-174173.73245189324,10.5,10499825826.267548,47.655,-122.3035,60.0,12.05
2026-01-20T23:12:04+00:00,SAT-56362,292.14451191801754,38.76559177824587,3148.938980529295,4.98107865977019,-174458.44460699207,10.5,10499825541.555393,47.655,-122.3035,60.0,12.066666666666666
2026-01-20T23:12:05+00:00,SAT-56362,292.01010766538695,38.73576295971222,3153.906776312639,4.989163318955388,-174741.60356973213,10.5,10499825258.396431,47.655,-122.3035,60.0,12.083333333333334
2026-01-20T23:12:06+00:00,SAT-56362,291.8762225663527,38.70573770349795,3158.882635196077,4.9972038120888485,-175023.21565051816,10.5,10499824976.78435,47.655,-122.3035,60.0,12.1
2026-01-20T23:12:07+00:00,SAT-56362,291.7428554789461,38.67551805143433,3163.866513131334,5.00520037721868,-175303.28918680182,10.5,10499824696.710814,47.655,-122.3035,60.0,12.116666666666667
2026-01-20T23:12:08+00:00,SAT-56362,291.61000524315693,38.645106030452325,3168.8583663075465,5.0131531727107355,-175581.8297252252,10.5,10499824418.170275,47.655,-122.3035,60.0,12.133333333333333
2026-01-20T23:12:09+00:00,SAT-56362,291.4776706833417,38.61450365308059,3173.858151071797,5.021062402374864,-175858.84440407128,10.5,10499824141.155596,47.655,-122.3035,60.0,12.15
2026-01-20T23:12:10+00:00,SAT-56362,291.3458506074213,38.58371291718561,3178.865823974432,5.028928265481496,-176134.3402026335,10.5,10499823865.659798,47.655,-122.3035,60.0,12.166666666666666
2026-01-20T23:12:11+00:00,SAT-56362,291.21454380737606,38.55273580601553,3183.8813417645392,5.036750965000902,-176408.32422978923,10.5,10499823591.67577,47.655,-122.3035,60.0,12.183333333333334
2026-01-20T23:12:12+00:00,SAT-56362,291.08374905949927,38.521574288197236,3188.904661393633,5.044530686708751,-176680.80299218828,10.5,10499823319.197008,47.655,-122.3035,60.0,12.2
2026-01-20T23:12:13+00:00,SAT-56362,290.9534651251927,38.49023031786379,3193.9357399985106,5.052267611568889,-176951.78282795005,10.5,10499823048.217173,47.655,-122.3035,60.0,12.216666666666667
2026-01-20T23:12:14+00:00,SAT-56362,290.8236907514016,38.458705834709825,3198.974534896449,5.059961953857953,-177221.27124194865,10.5,10499822778.728758,47.655,-122.3035,60.0,12.233333333333333
2026-01-20T23:12:15+00:00,SAT-56362,290.6944246701804,38.42700276380723,3204.02100361843,5.067613906311681,-177489.27498460503,10.5,10499822510.725016,47.655,-122.3035,60.0,12.25
2026-01-20T23:12:16+00:00,SAT-56362,290.56566559953956,38.39512301576627,3209.075103887658,5.0752236399953246,-177755.8000473478,10.5,10499822244.199953,47.655,-122.3035,60.0,12.266666666666667
2026-01-20T23:12:17+00:00,SAT-56362,290.43741224431494,38.363068486902236,3214.1367935979465,5.082791363469569,-178020.8537348544,10.5,10499821979.146265,47.655,-122.3035,60.0,12.283333333333333
2026-01-20T23:12:18+00:00,SAT-56362,290.30966329558464,38.33084105902926,3219.2060308511136,5.090317255225265,-178284.44229862938,10.5,10499821715.557701,47.655,-122.3035,60.0,12.3
2026-01-20T23:12:19+00:00,SAT-56362,290.18241743172763,38.29844259968245,3224.2827739269915,5.097801535643273,-178546.57345734283,10.5,10499821453.426542,47.655,-122.3035,60.0,12.316666666666666
2026-01-20T23:12:20+00:00,SAT-56362,290.05567331775376,38.26587496188375,3229.3669813252063,5.105244360950352,-178807.2526827166,10.5,10499821192.747316,47.655,-122.3035,60.0,12.333333333333334
2026-01-20T23:12:21+00:00,SAT-56362,289.9294296071523,38.233139984587176,3234.458611701194,5.112645920557974,-179066.4866087416,10.5,10499820933.513391,47.655,-122.3035,60.0,12.35
2026-01-20T23:12:22+00:00,SAT-56362,289.80368494138463,38.200239492505695,3239.557623899297,5.120006437826697,-179324.28305844945,10.5,10499820675.716942,47.655,-122.3035,60.0,12.366666666666667
2026-01-20T23:12:23+00:00,SAT-56362,289.6784379494656,38.16717529592664,3244.6639769866233,5.127326075583019,-179580.64773471284,10.5,10499820419.352264,47.655,-122.3035,60.0,12.383333333333333
2026-01-20T23:12:24+00:00,SAT-56362,289.5536872496281,38.13394919114376,3249.7776301926715,5.13460501754991,-179835.58707228734,10.5,10499820164.412928,47.655,-122.3035,60.0,12.4
2026-01-20T23:12:25+00:00,SAT-56362,289.42943144917615,38.100562960363526,3254.8985429301747,5.141843463947664,-180089.1080837346,10.5,10499819910.891916,47.655,-122.3035,60.0,12.416666666666666
2026-01-20T23:12:26+00:00,SAT-56362,289.3056691443795,38.06701837163959,3260.0266748115514,5.1490415930699385,-180341.21701365267,10.5,10499819658.782986,47.655,-122.3035,60.0,12.433333333333334
2026-01-20T23:12:27+00:00,SAT-56362,289.18239892129805,38.03331717905888,3265.16198562704,5.1561996040636675,-180591.92083700953,10.5,10499819408.079163,47.655,-122.3035,60.0,12.45
2026-01-20T23:12:28+00:00,SAT-56362,289.0596193555796,37.99946112265008,3270.3044353654927,5.1633176654921344,-180841.22545760445,10.5,10499819158.774542,47.655,-122.3035,60.0,12.466666666666667
2026-01-20T23:12:29+00:00,SAT-56362,288.93732901345913,37.96545192862993,3275.453984183877,5.170395979640529,-181089.1379603204,10.5,10499818910.86204,47.655,-122.3035,60.0,12.483333333333333
2026-01-20T23:12:30+00:00,SAT-56362,288.8155264512618,37.93129130922904,3280.610592440905,5.177434722471814,-181335.66450812464,10.5,10499818664.335491,47.655,-122.3035,60.0,12.5
2026-01-20T23:12:31+00:00,SAT-56362,288.69421021629813,37.89698096291305,3285.774220670784,5.184434069252692,-181580.81123959852,10.5,10499818419.18876,47.655,-122.3035,60.0,12.516666666666667
2026-01-20T23:12:32+00:00,SAT-56362,288.57337884712746,37.86252257443781,3290.9448295825187,5.191394216342511,-181824.58503207698,10.5,10499818175.414968,47.655,-122.3035,60.0,12.533333333333333
2026-01-20T23:12:33+00:00,SAT-56362,288.45303087339244,37.827917814759005,3296.1223800809503,5.19831533777757,-182066.9919810474,10.5,10499817933.008018,47.655,-122.3035,60.0,12.55
2026-01-20T23:12:34+00:00,SAT-56362,288.33316481655004,37.7931683412325,3301.306833244494,5.205197633088004,-182308.0390748991,10.5,10499817691.960924,47.655,-122.3035,60.0,12.566666666666666
