satellites_20260121_005943/SAT-65283.csv

timestamp,satellite,azimuth_deg,elevation_deg,distance_km,relative_velocity_kms,doppler_shift_hz,tx_freq_ghz,rx_freq_hz,ue_lat,ue_lon,ue_alt_m,time_minutes
2026-01-20T23:00:00+00:00,SAT-65283,297.61325410475314,31.809645608189808,4081.48467229932,-1.2104257324169614,42394.22924501355,10.5,10500042394.229244,47.655,-122.3035,60.0,0.0
2026-01-20T23:00:01+00:00,SAT-65283,297.4866404925517,31.8305588499827,4080.2774743688565,-1.1990076720405811,41994.3204722852,10.5,10500041994.320473,47.655,-122.3035,60.0,0.016666666666666666
2026-01-20T23:00:02+00:00,SAT-65283,297.3598800596655,31.851254262165316,4079.0816640506077,-1.1875780169412165,41594.00560331232,10.5,10500041594.005604,47.655,-122.3035,60.0,0.03333333333333333
2026-01-20T23:00:03+00:00,SAT-65283,297.2329740654683,31.871731218305985,4077.8972529083785,-1.1761368575306559,41193.287804698164,10.5,10500041193.287806,47.655,-122.3035,60.0,0.05
2026-01-20T23:00:04+00:00,SAT-65283,297.1059237792885,31.891989096625533,4076.7242524158014,-1.1646842976341323,40792.17071284158,10.5,10500040792.170713,47.655,-122.3035,60.0,0.06666666666666667
2026-01-20T23:00:05+00:00,SAT-65283,296.9787304789579,31.912027280284065,4075.562673942961,-1.153220437017727,40390.657821972745,10.5,10500040390.657822,47.655,-122.3035,60.0,0.08333333333333333
2026-01-20T23:00:06+00:00,SAT-65283,296.8513954512563,31.931845157354086,4074.4125287604415,-1.141745367472538,39988.75234700417,10.5,10500039988.752348,47.655,-122.3035,60.0,0.1
2026-01-20T23:00:07+00:00,SAT-65283,296.7239199927848,31.95144212072997,4073.2738280472827,-1.130259195218529,39586.45800820831,10.5,10500039586.458008,47.655,-122.3035,60.0,0.11666666666666667
2026-01-20T23:00:08+00:00,SAT-65283,296.59630540837344,31.970817568426725,4072.1465828765845,-1.1187620184889904,39183.77824613053,10.5,10500039183.778246,47.655,-122.3035,60.0,0.13333333333333333
2026-01-20T23:00:09+00:00,SAT-65283,296.4685530119614,31.98997090348822,4071.0308042234783,-1.1072539405917887,38780.716679049285,10.5,10500038780.716679,47.655,-122.3035,60.0,0.15
2026-01-20T23:00:10+00:00,SAT-65283,296.3406641260086,32.008901534120874,4069.926502960061,-1.09573505368902,38377.27653487104,10.5,10500038377.276535,47.655,-122.3035,60.0,0.16666666666666666
2026-01-20T23:00:11+00:00,SAT-65283,296.212640082787,32.027608873547635,4068.833689866515,-1.0842054707833508,37973.461771427166,10.5,10500037973.461771,47.655,-122.3035,60.0,0.18333333333333332
2026-01-20T23:00:12+00:00,SAT-65283,296.0844822219588,32.046092340416024,4067.752375610321,-1.0726652858674854,37569.27568073977,10.5,10500037569.27568,47.655,-122.3035,60.0,0.2
2026-01-20T23:00:13+00:00,SAT-65283,295.9561918927697,32.06435135851403,4066.682570765216,-1.061114606514778,37164.72203048273,10.5,10500037164.72203,47.655,-122.3035,60.0,0.21666666666666667
2026-01-20T23:00:14+00:00,SAT-65283,295.8277704524519,32.08238535705151,4065.6242857976517,-1.0495535303786405,36759.80424089162,10.5,10500036759.804241,47.655,-122.3035,60.0,0.23333333333333334
2026-01-20T23:00:15+00:00,SAT-65283,295.69921926739636,32.100193770533906,4064.5775310766876,-1.0379821641481242,36354.526048668326,10.5,10500036354.526049,47.655,-122.3035,60.0,0.25
2026-01-20T23:00:16+00:00,SAT-65283,295.57053971204994,32.11777603896398,4063.5423168649772,-1.026400611368941,35948.89108042164,10.5,10500035948.89108,47.655,-122.3035,60.0,0.26666666666666666
2026-01-20T23:00:17+00:00,SAT-65283,295.44173316928106,32.13513160783293,4062.5186533219053,-1.0148089745510516,35542.90292648403,10.5,10500035542.902927,47.655,-122.3035,60.0,0.2833333333333333
2026-01-20T23:00:18+00:00,SAT-65283,295.31280103049465,32.152259928146535,4061.506550504619,-1.0032073581752918,35136.56524621631,10.5,10500035136.565247,47.655,-122.3035,60.0,0.3
2026-01-20T23:00:19+00:00,SAT-65283,295.183744695384,32.16916045650436,4060.5060183660657,-0.9915958696076616,34729.881800029965,10.5,10500034729.8818,47.655,-122.3035,60.0,0.31666666666666665
2026-01-20T23:00:20+00:00,SAT-65283,295.05456557152826,32.18583265519311,4059.5170667521106,-0.9799746109266431,34322.85616314521,10.5,10500034322.856163,47.655,-122.3035,60.0,0.3333333333333333
2026-01-20T23:00:21+00:00,SAT-65283,294.925265075066,32.20227599214019,4058.539705406813,-0.9683436911255556,33915.49215296915,10.5,10500033915.492153,47.655,-122.3035,60.0,0.35
2026-01-20T23:00:22+00:00,SAT-65283,294.7958446297798,32.21848994107528,4057.5739439655304,-0.9567032138898718,33507.79340100562,10.5,10500033507.793402,47.655,-122.3035,60.0,0.36666666666666664
2026-01-20T23:00:23+00:00,SAT-65283,294.666305667758,32.234473981483404,4056.619791960211,-0.9450532858466403,33099.763641784884,10.5,10500033099.763641,47.655,-122.3035,60.0,0.38333333333333336
2026-01-20T23:00:24+00:00,SAT-65283,294.5366496290038,32.250227598698096,4055.67725881646,-0.933394016926846,32691.406725555058,10.5,10500032691.406725,47.655,-122.3035,60.0,0.4
2026-01-20T23:00:25+00:00,SAT-65283,294.4068779609551,32.26575028400013,4054.746353850245,-0.9217255092643667,32282.72622947656,10.5,10500032282.726229,47.655,-122.3035,60.0,0.4166666666666667
2026-01-20T23:00:26+00:00,SAT-65283,294.2769921195287,32.28104153452705,4053.827086275672,-0.9100478764778299,31873.726132954336,10.5,10500031873.726133,47.655,-122.3035,60.0,0.43333333333333335
2026-01-20T23:00:27+00:00,SAT-65283,294.146993567513,32.29610085351064,4052.9194651935313,-0.8983612208510386,31464.410018399816,10.5,10500031464.410019,47.655,-122.3035,60.0,0.45
2026-01-20T23:00:28+00:00,SAT-65283,294.01688377612186,32.31092775012616,4052.023499602603,-0.8866656566475509,31054.781887806148,10.5,10500031054.781887,47.655,-122.3035,60.0,0.4666666666666667
2026-01-20T23:00:29+00:00,SAT-65283,293.88666422327697,32.32552173973607,4051.139198387706,-0.8749612884335847,30644.84540352459,10.5,10500030644.845404,47.655,-122.3035,60.0,0.48333333333333334
2026-01-20T23:00:30+00:00,SAT-65283,293.75633639496317,32.33988234376734,4050.266570329375,-0.8632482268485829,30234.60444061645,10.5,10500030234.60444,47.655,-122.3035,60.0,0.5
2026-01-20T23:00:31+00:00,SAT-65283,293.6259017843246,32.354009089854856,4049.405624097798,-0.8515265809128013,29824.062817432234,10.5,10500029824.062817,47.655,-122.3035,60.0,0.5166666666666667
2026-01-20T23:00:32+00:00,SAT-65283,293.4953618918866,32.36790151185323,4048.5563682544343,-0.8397964619314514,29413.224432351264,10.5,10500029413.224432,47.655,-122.3035,60.0,0.5333333333333333
2026-01-20T23:00:33+00:00,SAT-65283,293.36471822515745,32.38155914991551,4047.7188112497347,-0.828057981539071,29002.09319528727,10.5,10500029002.093195,47.655,-122.3035,60.0,0.55
2026-01-20T23:00:34+00:00,SAT-65283,293.2339722985529,32.39498155053702,4046.892961422813,-0.8163112438648082,28590.672753283496,10.5,10500028590.672752,47.655,-122.3035,60.0,0.5666666666666667
2026-01-20T23:00:35+00:00,SAT-65283,293.1031256345395,32.40816826647103,4046.078827008932,-0.80455636909654,28178.967315827773,10.5,10500028178.967316,47.655,-122.3035,60.0,0.5833333333333334
2026-01-20T23:00:36+00:00,SAT-65283,292.97217976106714,32.42111885703228,4045.2764161234863,-0.7927934621618279,27766.980557927152,10.5,10500027766.980558,47.655,-122.3035,60.0,0.6
2026-01-20T23:00:37+00:00,SAT-65283,292.8411362139615,32.43383288788256,4044.485736777224,-0.7810226361029783,27354.716438801377,10.5,10500027354.716438,47.655,-122.3035,60.0,0.6166666666666667
2026-01-20T23:00:38+00:00,SAT-65283,292.70999653559323,32.446309931203416,4043.70679686815,-0.7692440036944661,26942.178908289592,10.5,10500026942.178907,47.655,-122.3035,60.0,0.6333333333333333
2026-01-20T23:00:39+00:00,SAT-65283,292.5787622748841,32.458549565727644,4042.939604181799,-0.757457679146487,26529.37196651596,10.5,10500026529.371967,47.655,-122.3035,60.0,0.65
2026-01-20T23:00:40+00:00,SAT-65283,292.447434987012,32.47055137679948,4042.1841663897967,-0.7456637721806397,26116.299456394987,10.5,10500026116.299456,47.655,-122.3035,60.0,0.6666666666666666
2026-01-20T23:00:41+00:00,SAT-65283,292.31601623413667,32.482314956337945,4041.440491054342,-0.7338623964389303,25702.965358150428,10.5,10500025702.965359,47.655,-122.3035,60.0,0.6833333333333333
2026-01-20T23:00:42+00:00,SAT-65283,292.18450758470317,32.49383990293743,4040.7085856242934,-0.7220536666128381,25289.373688763048,10.5,10500025289.37369,47.655,-122.3035,60.0,0.7
2026-01-20T23:00:43+00:00,SAT-65283,292.05291061321,32.50512582191783,4039.988457434125,-0.7102376969166252,24875.528448499408,10.5,10500024875.528448,47.655,-122.3035,60.0,0.7166666666666667
2026-01-20T23:00:44+00:00,SAT-65283,291.9212269002407,32.51617232535259,4039.2801137044003,-0.6984145985487763,24461.433532000832,10.5,10500024461.433533,47.655,-122.3035,60.0,0.7333333333333333
2026-01-20T23:00:45+00:00,SAT-65283,291.7894580329791,32.52697903205556,4038.5835615447804,-0.6865844875810965,24047.093004592905,10.5,10500024047.093004,47.655,-122.3035,60.0,0.75
2026-01-20T23:00:46+00:00,SAT-65283,291.6576056042789,32.53754556769174,4037.898807949167,-0.6747474797652118,23632.51092038721,10.5,10500023632.51092,47.655,-122.3035,60.0,0.7666666666666667
2026-01-20T23:00:47+00:00,SAT-65283,291.5256712126609,32.54787156480505,4037.225859796014,-0.6629036889220215,23217.69126587309,10.5,10500023217.691265,47.655,-122.3035,60.0,0.7833333333333333
2026-01-20T23:00:48+00:00,SAT-65283,291.39365646264,32.55795666282107,4036.5647238502625,-0.6510532292271625,22802.638039964317,10.5,10500022802.63804,47.655,-122.3035,60.0,0.8
2026-01-20T23:00:49+00:00,SAT-65283,291.26156296461033,32.56780050808604,4035.9154067629797,-0.6391962178557844,22387.355346630287,10.5,10500022387.355347,47.655,-122.3035,60.0,0.8166666666666667
2026-01-20T23:00:50+00:00,SAT-65283,291.1293923342313,32.57740275394329,4035.277915068372,-0.6273327705935643,21971.847241175175,10.5,10500021971.84724,47.655,-122.3035,60.0,0.8333333333333334
2026-01-20T23:00:51+00:00,SAT-65283,290.9971461926184,32.58676306074449,4034.6522551851663,-0.6154630020196653,21556.11773664595,10.5,10500021556.117737,47.655,-122.3035,60.0,0.85
2026-01-20T23:00:52+00:00,SAT-65283,290.86482616657656,32.595881095861195,4034.038433417819,-0.6035870305269319,21140.170979660816,10.5,10500021140.17098,47.655,-122.3035,60.0,0.8666666666666667
2026-01-20T23:00:53+00:00,SAT-65283,290.73243388773193,32.604756533773575,4033.4364559527066,-0.5917049708027777,20724.010987058144,10.5,10500020724.010986,47.655,-122.3035,60.0,0.8833333333333333
2026-01-20T23:00:54+00:00,SAT-65283,290.5999709932902,32.613389056043175,4032.846328861826,-0.5798169421609419,20307.641937709755,10.5,10500020307.641937,47.655,-122.3035,60.0,0.9
2026-01-20T23:00:55+00:00,SAT-65283,290.4674391249613,32.62177835141212,4032.2680580981773,-0.5679230584797523,19891.06782011641,10.5,10500019891.06782,47.655,-122.3035,60.0,0.9166666666666666
2026-01-20T23:00:56+00:00,SAT-65283,290.33483993012675,32.6299241157508,4031.701649501187,-0.5560234400482214,19474.292847308134,10.5,10500019474.292847,47.655,-122.3035,60.0,0.9333333333333333
2026-01-20T23:00:57+00:00,SAT-65283,290.20217506034896,32.637826052179854,4031.1471087903124,-0.544118204002874,19057.32112190153,10.5,10500019057.321121,47.655,-122.3035,60.0,0.95
2026-01-20T23:00:58+00:00,SAT-65283,290.0694461720126,32.64548387105145,4030.6044415681868,-0.5322074682923705,18640.156774957595,10.5,10500018640.156775,47.655,-122.3035,60.0,0.9666666666666667
2026-01-20T23:00:59+00:00,SAT-65283,289.9366549260848,32.65289728998749,4030.07365331981,-0.520291348926513,18222.803869630323,10.5,10500018222.80387,47.655,-122.3035,60.0,0.9833333333333333
2026-01-20T23:01:00+00:00,SAT-65283,289.80380298855994,32.66006603387959,4029.5547494144803,-0.5083699669784965,17805.266646415144,10.5,10500017805.266647,47.655,-122.3035,60.0,1.0
2026-01-20T23:01:01+00:00,SAT-65283,289.67089202915145,32.66698983498458,4029.047735100747,-0.496443440166758,17387.54922830967,10.5,10500017387.549229,47.655,-122.3035,60.0,1.0166666666666666
2026-01-20T23:01:02+00:00,SAT-65283,289.5379237220535,32.673668432903725,4028.5526155097546,-0.4845118874106574,16969.655780372912,10.5,10500016969.65578,47.655,-122.3035,60.0,1.0333333333333334
2026-01-20T23:01:03+00:00,SAT-65283,289.4048997455919,32.68010157462284,4028.069395654043,-0.4725754281758912,16551.590486798894,10.5,10500016551.590487,47.655,-122.3035,60.0,1.05
2026-01-20T23:01:04+00:00,SAT-65283,289.271821782013,32.686289014543554,4027.5980804270093,-0.46063418026729325,16133.357473611224,10.5,10500016133.357473,47.655,-122.3035,60.0,1.0666666666666667
2026-01-20T23:01:05+00:00,SAT-65283,289.1386915178937,32.69223051448508,4027.138674604556,-0.44868826728441963,15714.961069789175,10.5,10500015714.96107,47.655,-122.3035,60.0,1.0833333333333333
2026-01-20T23:01:06+00:00,SAT-65283,289.0055106424383,32.69792584378172,4026.6911828393177,-0.4367378020205491,15296.405225830484,10.5,10500015296.405226,47.655,-122.3035,60.0,1.1
2026-01-20T23:01:07+00:00,SAT-65283,288.8722808505314,32.703374779165635,4026.2556096714356,-0.42478290991143575,14877.69433502585,10.5,10500014877.694336,47.655,-122.3035,60.0,1.1166666666666667
2026-01-20T23:01:08+00:00,SAT-65283,288.73900383903174,32.70857710495105,4025.831959515951,-0.412823710976227,14458.832600953503,10.5,10500014458.832602,47.655,-122.3035,60.0,1.1333333333333333
2026-01-20T23:01:09+00:00,SAT-65283,288.6056813082184,32.71353261298324,4025.420236668204,-0.40086032279156636,14039.82414164484,10.5,10500014039.824142,47.655,-122.3035,60.0,1.15
2026-01-20T23:01:10+00:00,SAT-65283,288.4723149625478,32.7182411026307,4025.0204453062734,-0.3888928679080441,13620.673249339927,10.5,10500013620.67325,47.655,-122.3035,60.0,1.1666666666666667
2026-01-20T23:01:11+00:00,SAT-65283,288.3389065090211,32.72270238086456,4024.632589486013,-0.3769214657303702,13201.384106096784,10.5,10500013201.384106,47.655,-122.3035,60.0,1.1833333333333333
2026-01-20T23:01:12+00:00,SAT-65283,288.20545765814836,32.72691626223967,4024.256673144191,-0.36494623808847926,12781.96097891506,10.5,10500012781.96098,47.655,-122.3035,60.0,1.2
2026-01-20T23:01:13+00:00,SAT-65283,288.07197012306517,32.73088256894113,4023.8927000960707,-0.3529673059788255,12362.4081056024,10.5,10500012362.408106,47.655,-122.3035,60.0,1.2166666666666666
2026-01-20T23:01:14+00:00,SAT-65283,287.9384456197399,32.73460113079129,4023.540674036241,-0.3409847897508993,11942.729701307038,10.5,10500011942.729702,47.655,-122.3035,60.0,1.2333333333333334
2026-01-20T23:01:15+00:00,SAT-65283,287.80488586716405,32.738071785260544,4023.200598539263,-0.3289988121728092,11522.930065887436,10.5,10500011522.930065,47.655,-122.3035,60.0,1.25
2026-01-20T23:01:16+00:00,SAT-65283,287.67129258638624,32.741294377507984,4022.872477057256,-0.31700949286220903,11103.01338885982,10.5,10500011103.01339,47.655,-122.3035,60.0,1.2666666666666666
2026-01-20T23:01:17+00:00,SAT-65283,287.5376675016507,32.74426876036546,4022.556312923042,-0.3050169556072043,10682.98400580726,10.5,10500010682.984005,47.655,-122.3035,60.0,1.2833333333333334
2026-01-20T23:01:18+00:00,SAT-65283,287.40401233869653,32.746994794392805,4022.2521093459827,-0.2930213199466749,10262.846103486987,10.5,10500010262.846104,47.655,-122.3035,60.0,1.3
2026-01-20T23:01:19+00:00,SAT-65283,287.27032882642294,32.749472347852404,4021.9598694162223,-0.2810227107451357,9842.604055182483,10.5,10500009842.604055,47.655,-122.3035,60.0,1.3166666666666667
2026-01-20T23:01:20+00:00,SAT-65283,287.13661869454484,32.751701296769056,4021.6795960993727,-0.2690212467755795,9422.262020826369,10.5,10500009422.26202,47.655,-122.3035,60.0,1.3333333333333333
2026-01-20T23:01:21+00:00,SAT-65283,287.0028836762269,32.753681524892,4021.4112922425884,-0.25701705301991984,9001.824377813928,10.5,10500009001.824377,47.655,-122.3035,60.0,1.35
2026-01-20T23:01:22+00:00,SAT-65283,286.8691255051906,32.755412923756424,4021.1549605683763,-0.24501025003042703,8581.295348395603,10.5,10500008581.29535,47.655,-122.3035,60.0,1.3666666666666667
2026-01-20T23:01:23+00:00,SAT-65283,286.7353459177184,32.75689539266132,4020.910603679013,-0.23300096113882507,8160.679252170056,10.5,10500008160.679253,47.655,-122.3035,60.0,1.3833333333333333
2026-01-20T23:01:24+00:00,SAT-65283,286.6015466512558,32.75812883869963,4020.6782240537705,-0.2209893090466454,7739.980386663953,10.5,10500007739.980387,47.655,-122.3035,60.0,1.4
2026-01-20T23:01:25+00:00,SAT-65283,286.4677294445877,32.75911317676304,4020.457824049548,-0.20897541532869654,7319.203009941342,10.5,10500007319.20301,47.655,-122.3035,60.0,1.4166666666666667
2026-01-20T23:01:26+00:00,SAT-65283,286.33389603848127,32.75984832954675,4020.2494059019937,-0.19695940403989917,6898.351466930303,10.5,10500006898.351467,47.655,-122.3035,60.0,1.4333333333333333
2026-01-20T23:01:27+00:00,SAT-65283,286.2000481741486,32.76033422756876,4020.0529717230306,-0.18494139716926075,6477.430030201886,10.5,10500006477.43003,47.655,-122.3035,60.0,1.45
2026-01-20T23:01:28+00:00,SAT-65283,286.0661875944207,32.76057080916967,4019.8685235029207,-0.1729215183254851,6056.443029055766,10.5,10500006056.44303,47.655,-122.3035,60.0,1.4666666666666666
2026-01-20T23:01:29+00:00,SAT-65283,285.9323160426394,32.76055802052397,4019.696063108644,-0.160899890076442,5635.394756337203,10.5,10500005635.394756,47.655,-122.3035,60.0,1.4833333333333334
2026-01-20T23:01:30+00:00,SAT-65283,285.79843526329745,32.7602958156449,4019.5355922849412,-0.14887663569439383,5214.289529562266,10.5,10500005214.28953,47.655,-122.3035,60.0,1.5
2026-01-20T23:01:31+00:00,SAT-65283,285.6645470014651,32.75978415639097,4019.3871126536087,-0.13685187838756718,4793.1316640042205,10.5,10500004793.131664,47.655,-122.3035,60.0,1.5166666666666666
2026-01-20T23:01:32+00:00,SAT-65283,285.530653002785,32.75902301247046,4019.2506257135637,-0.12482574140637098,4371.925476413737,10.5,10500004371.925476,47.655,-122.3035,60.0,1.5333333333333334
2026-01-20T23:01:33+00:00,SAT-65283,285.39675501332704,32.758012361445616,4019.126132840801,-0.11279834827361995,3950.675293082288,10.5,10500003950.675293,47.655,-122.3035,60.0,1.55
2026-01-20T23:01:34+00:00,SAT-65283,285.26285477926626,32.75675218873366,4019.0136352881227,-0.10076982177266902,3529.3854144023353,10.5,10500003529.385414,47.655,-122.3035,60.0,1.5666666666666667
2026-01-20T23:01:35+00:00,SAT-65283,285.1289540475875,32.75524248761737,4018.9131341858747,-0.08874028595437321,3108.060185159557,10.5,10500003108.060184,47.655,-122.3035,60.0,1.5833333333333333
2026-01-20T23:01:36+00:00,SAT-65283,284.99505456469865,32.75348325923515,4018.824630540683,-0.07670986420737722,2686.7039269462234,10.5,10500002686.703926,47.655,-122.3035,60.0,1.6
2026-01-20T23:01:37+00:00,SAT-65283,284.86115807691965,32.75147451258522,4018.7481252361135,-0.06467867958540888,2265.3209496244003,10.5,10500002265.32095,47.655,-122.3035,60.0,1.6166666666666667
2026-01-20T23:01:38+00:00,SAT-65283,284.72726633112336,32.74921626453955,4018.683619033007,-0.05264685629331381,1843.9156033731676,10.5,10500001843.915604,47.655,-122.3035,60.0,1.6333333333333333
2026-01-20T23:01:39+00:00,SAT-65283,284.5933810727754,32.74670853981384,4018.6311125683305,-0.040614517519498135,1422.4922027715934,10.5,10500001422.492203,47.655,-122.3035,60.0,1.65
2026-01-20T23:01:40+00:00,SAT-65283,284.45950404752534,32.743951370992775,4018.590606356191,-0.028581786849287565,1001.0550763005499,10.5,10500001001.055077,47.655,-122.3035,60.0,1.6666666666666667
2026-01-20T23:01:41+00:00,SAT-65283,284.32563700053686,32.74094479852103,4018.5621007874397,-0.016548788064180663,579.6085593117122,10.5,10500000579.608559,47.655,-122.3035,60.0,1.6833333333333333
2026-01-20T23:01:42+00:00,SAT-65283,284.19178167594345,32.73768887068966,4018.5455961294774,-0.004515644721551069,158.15697930695183,10.5,10500000158.156979,47.655,-122.3035,60.0,1.7
2026-01-20T23:01:43+00:00,SAT-65283,284.05793981723684,32.73418364364404,4018.541092526475,0.007517519488582215,-263.2953315660571,10.5,10499999736.704668,47.655,-122.3035,60.0,1.7166666666666666
2026-01-20T23:01:44+00:00,SAT-65283,283.92411316641426,32.73042918135865,4018.548589999245,0.019550580981401673,-684.7440448442421,10.5,10499999315.255955,47.655,-122.3035,60.0,1.7333333333333334
2026-01-20T23:01:45+00:00,SAT-65283,283.79030346542976,32.726425555675945,4018.5680884453436,0.0315834160770527,-1106.1848287359296,10.5,10499998893.815172,47.655,-122.3035,60.0,1.75
2026-01-20T23:01:46+00:00,SAT-65283,283.65651245384834,32.722172846236276,4018.599587638978,0.04361590111804237,-1527.6133522326468,10.5,10499998472.386648,47.655,-122.3035,60.0,1.7666666666666666
2026-01-20T23:01:47+00:00,SAT-65283,283.5227418708287,32.71767114053315,4018.6430872310266,0.05564791272487395,-1949.0252940625228,10.5,10499998050.974707,47.655,-122.3035,60.0,1.7833333333333334
2026-01-20T23:01:48+00:00,SAT-65283,283.3889934528857,32.712920533835955,4018.698586749317,0.06767932682890472,-2370.41630881688,10.5,10499997629.58369,47.655,-122.3035,60.0,1.8
2026-01-20T23:01:49+00:00,SAT-65283,283.2552689366268,32.70792112928104,4018.766085597941,0.07971002019293948,-2791.78208020785,10.5,10499997208.21792,47.655,-122.3035,60.0,1.8166666666666667
2026-01-20T23:01:50+00:00,SAT-65283,283.121570055653,32.70267303775681,4018.84558305808,0.09173986949135281,-3213.1182888503636,10.5,10499996786.881712,47.655,-122.3035,60.0,1.8333333333333333
2026-01-20T23:01:51+00:00,SAT-65283,282.98789854158764,32.697176377930205,4018.9370782879196,0.10376875071598012,-3634.4205914539425,10.5,10499996365.579409,47.655,-122.3035,60.0,1.85
2026-01-20T23:01:52+00:00,SAT-65283,282.8542561249368,32.691431276277946,4019.0405703219667,0.11579654073482773,-4055.6846754153207,10.5,10499995944.315325,47.655,-122.3035,60.0,1.8666666666666667
2026-01-20T23:01:53+00:00,SAT-65283,282.7206445335494,32.68543786701656,4019.1560580719265,0.12782311606472208,-4476.906215831426,10.5,10499995523.093784,47.655,-122.3035,60.0,1.8833333333333333
2026-01-20T23:01:54+00:00,SAT-65283,282.58706549315855,32.679196292116316,4019.2835403263484,0.13984835357621053,-4898.080900187992,10.5,10499995101.9191,47.655,-122.3035,60.0,1.9
2026-01-20T23:01:55+00:00,SAT-65283,282.4535207269122,32.672706701271295,4019.423015750982,0.1518721292402916,-5319.204384464741,10.5,10499994680.795616,47.655,-122.3035,60.0,1.9166666666666667
2026-01-20T23:01:56+00:00,SAT-65283,282.320011956232,32.66596925193327,4019.574482887878,0.1638943207792889,-5740.272385980215,10.5,10499994259.727613,47.655,-122.3035,60.0,1.9333333333333333
2026-01-20T23:01:57+00:00,SAT-65283,282.18654089896665,32.658984109210735,4019.7379401571347,0.1759148046104179,-6161.280576342544,10.5,10499993838.719423,47.655,-122.3035,60.0,1.95
2026-01-20T23:01:58+00:00,SAT-65283,282.05310927066455,32.65175144592109,4019.9133858555992,0.18793345755340396,-6582.224641257459,10.5,10499993417.775358,47.655,-122.3035,60.0,1.9666666666666666
2026-01-20T23:01:59+00:00,SAT-65283,281.91971878412517,32.64427144255902,4020.100818157266,0.19995015671155913,-7003.100276363093,10.5,10499992996.899723,47.655,-122.3035,60.0,1.9833333333333334
2026-01-20T23:02:00+00:00,SAT-65283,281.7863711490722,32.63654428726683,4020.3002351135597,0.21196477902658165,-7423.903171637185,10.5,10499992576.096828,47.655,-122.3035,60.0,2.0
2026-01-20T23:02:01+00:00,SAT-65283,281.65306807223055,32.62857017582797,4020.511634653176,0.2239772022894049,-7844.629046801276,10.5,10499992155.370953,47.655,-122.3035,60.0,2.0166666666666666
2026-01-20T23:02:02+00:00,SAT-65283,281.5198112566942,32.62034931161476,4020.7350145829255,0.2359873028557496,-8265.273571309692,10.5,10499991734.726429,47.655,-122.3035,60.0,2.033333333333333
2026-01-20T23:02:03+00:00,SAT-65283,281.38660240284554,32.611881905633545,4020.970372586307,0.24799495853941908,-8685.832465684978,10.5,10499991314.167534,47.655,-122.3035,60.0,2.05
2026-01-20T23:02:04+00:00,SAT-65283,281.2534432073029,32.60316817644558,4021.217706224957,0.26000004743678684,-9106.301460346484,10.5,10499990893.69854,47.655,-122.3035,60.0,2.066666666666667
2026-01-20T23:02:05+00:00,SAT-65283,281.12033536277846,32.59420835014217,4021.477012938934,0.27200244600979157,-9526.676228468734,10.5,10499990473.323772,47.655,-122.3035,60.0,2.0833333333333335
2026-01-20T23:02:06+00:00,SAT-65283,280.98728055893685,32.58500266038686,4021.7482900450877,0.284002032989065,-9946.952522685486,10.5,10499990053.047478,47.655,-122.3035,60.0,2.1
2026-01-20T23:02:07+00:00,SAT-65283,280.8542804810912,32.57555134831317,4022.031534739322,0.2959986853600123,-10367.126034505276,10.5,10499989632.873966,47.655,-122.3035,60.0,2.1166666666666667
2026-01-20T23:02:08+00:00,SAT-65283,280.721336811058,32.56585466256716,4022.326744094855,0.30799228225272585,-10787.192530552657,10.5,10499989212.80747,47.655,-122.3035,60.0,2.1333333333333333
2026-01-20T23:02:09+00:00,SAT-65283,280.58845122606624,32.55591285921285,4022.6339150643544,0.3199827003766474,-11207.147692670767,10.5,10499988792.852308,47.655,-122.3035,60.0,2.15
2026-01-20T23:02:10+00:00,SAT-65283,280.4556253998316,32.545726201794295,4022.9530444775305,0.3319698184436046,-11626.987272834758,10.5,10499988373.012728,47.655,-122.3035,60.0,2.1666666666666665
2026-01-20T23:02:11+00:00,SAT-65283,280.3228610015682,32.53529496124614,4023.2841290431247,0.3439535161005496,-12046.707055771798,10.5,10499987953.292944,47.655,-122.3035,60.0,2.183333333333333
2026-01-20T23:02:12+00:00,SAT-65283,280.1901596955824,32.52461941583924,4023.627165349849,0.355933670457401,-12466.30273735142,10.5,10499987533.697262,47.655,-122.3035,60.0,2.2
2026-01-20T23:02:13+00:00,SAT-65283,280.05752314229926,32.513699851245526,4023.9821498638516,0.36791016096798745,-12885.770095536787,10.5,10499987114.229904,47.655,-122.3035,60.0,2.216666666666667
2026-01-20T23:02:14+00:00,SAT-65283,279.9249529972198,32.50253656043403,4024.349078931057,0.3798828654146027,-13305.104849746847,10.5,10499986694.895151,47.655,-122.3035,60.0,2.2333333333333334
2026-01-20T23:02:15+00:00,SAT-65283,279.7924509115329,32.4911298437036,4024.727948775497,0.3918516648275728,-13724.30283316038,10.5,10499986275.697166,47.655,-122.3035,60.0,2.25
2026-01-20T23:02:16+00:00,SAT-65283,279.6600185308497,32.47948000855256,4025.118755502552,0.40381643641185383,-14143.359744975523,10.5,10499985856.640255,47.655,-122.3035,60.0,2.2666666666666666
2026-01-20T23:02:17+00:00,SAT-65283,279.5276574965696,32.467587369777185,4025.521495095133,0.41577706101328826,-14562.271411909658,10.5,10499985437.728588,47.655,-122.3035,60.0,2.283333333333333
2026-01-20T23:02:18+00:00,SAT-65283,279.39536944451095,32.45545224932891,4025.9361634173174,0.42773341706214996,-14981.033576076734,10.5,10499985018.966423,47.655,-122.3035,60.0,2.3
2026-01-20T23:02:19+00:00,SAT-65283,279.2631560057356,32.443074976367264,4026.362756211934,0.4396853851954029,-15399.64205687833,10.5,10499984600.357943,47.655,-122.3035,60.0,2.316666666666667
2026-01-20T23:02:20+00:00,SAT-65283,279.1310188057263,32.43045588716076,4026.801269102769,0.45163284581623026,-15818.092665528024,10.5,10499984181.907335,47.655,-122.3035,60.0,2.3333333333333335
2026-01-20T23:02:21+00:00,SAT-65283,278.99895946446793,32.41759532507033,4027.25169759433,0.4635756769894958,-16236.381131341557,10.5,10499983763.618868,47.655,-122.3035,60.0,2.35
2026-01-20T23:02:22+00:00,SAT-65283,278.8669795970995,32.40449364059003,4027.714037069514,0.47551376192121453,-16654.50336369954,10.5,10499983345.496635,47.655,-122.3035,60.0,2.3666666666666667
2026-01-20T23:02:23+00:00,SAT-65283,278.73508081232035,32.39115119116552,4028.188282794737,0.48744697824680483,-17072.45507687672,10.5,10499982927.544924,47.655,-122.3035,60.0,2.3833333333333333
2026-01-20T23:02:24+00:00,SAT-65283,278.60326471397957,32.377568341329145,4028.6744299143747,0.49937520941063657,-17490.2321886019,10.5,10499982509.76781,47.655,-122.3035,60.0,2.4
2026-01-20T23:02:25+00:00,SAT-65283,278.4715328993884,32.36374546250148,4029.17247345656,0.5112983352883606,-17907.830491612254,10.5,10499982092.169508,47.655,-122.3035,60.0,2.4166666666666665
2026-01-20T23:02:26+00:00,SAT-65283,278.3398869602811,32.349682933063825,4029.6824083296215,0.5232162359518009,-18325.245785515755,10.5,10499981674.754215,47.655,-122.3035,60.0,2.433333333333333
2026-01-20T23:02:27+00:00,SAT-65283,278.20832848269583,32.33538113832327,4030.204229322277,0.5351287956269692,-18742.474015417614,10.5,10499981257.525984,47.655,-122.3035,60.0,2.45
2026-01-20T23:02:28+00:00,SAT-65283,278.07685904584775,32.32084047035991,4030.7379311077825,0.5470358936858711,-19159.510956415208,10.5,10499980840.489044,47.655,-122.3035,60.0,2.466666666666667
2026-01-20T23:02:29+00:00,SAT-65283,277.9454802233718,32.30606132813757,4031.283508239085,0.5589374131861209,-19576.35251269153,10.5,10499980423.647488,47.655,-122.3035,60.0,2.4833333333333334
2026-01-20T23:02:30+00:00,SAT-65283,277.8141935823048,32.2910441173621,4031.840955152503,0.5708332342630703,-19992.994486079562,10.5,10499980007.005514,47.655,-122.3035,60.0,2.5
2026-01-20T23:02:31+00:00,SAT-65283,277.6830006838019,32.27578925053604,4032.410266164808,0.5827232423273915,-20409.432863176335,10.5,10499979590.567137,47.655,-122.3035,60.0,2.5166666666666666
2026-01-20T23:02:32+00:00,SAT-65283,277.55190308180715,32.26029714677355,4032.9914354784887,0.5946073206704805,-20825.663556352858,10.5,10499979174.336443,47.655,-122.3035,60.0,2.533333333333333
2026-01-20T23:02:33+00:00,SAT-65283,277.4209023235739,32.24456823182901,4033.5844571796374,0.6064853476402793,-21241.68230483948,10.5,10499978758.317696,47.655,-122.3035,60.0,2.55
2026-01-20T23:02:34+00:00,SAT-65283,277.2899999507278,32.22860293819896,4034.1893252330174,0.6183572096811796,-21657.48513143845,10.5,10499978342.514868,47.655,-122.3035,60.0,2.566666666666667
2026-01-20T23:02:35+00:00,SAT-65283,277.15919749739174,32.21240170486376,4034.8060334901397,0.6302227906705546,-22073.067969044187,10.5,10499977926.932032,47.655,-122.3035,60.0,2.5833333333333335
2026-01-20T23:02:36+00:00,SAT-65283,277.02849649073545,32.19596497732092,4035.4345756867015,0.6420819741325651,-22488.426738180093,10.5,10499977511.573261,47.655,-122.3035,60.0,2.6
2026-01-20T23:02:37+00:00,SAT-65283,276.8978984510724,32.17929320756568,4036.0749454422366,0.6539346409186437,-22903.557265759362,10.5,10499977096.442734,47.655,-122.3035,60.0,2.6166666666666667
2026-01-20T23:02:38+00:00,SAT-65283,276.76740489231827,32.162386854120385,4036.7271362574465,0.6657806800051328,-23318.455663263867,10.5,10499976681.544336,47.655,-122.3035,60.0,2.6333333333333333
2026-01-20T23:02:39+00:00,SAT-65283,276.63701732031393,32.14524638178372,4037.3911415223047,0.6776199738794247,-23733.117814905003,10.5,10499976266.882185,47.655,-122.3035,60.0,2.65
2026-01-20T23:02:40+00:00,SAT-65283,276.5067372341198,32.127872261764516,4038.066954509587,0.6894524065606861,-24147.539658543392,10.5,10499975852.460342,47.655,-122.3035,60.0,2.6666666666666665
2026-01-20T23:02:41+00:00,SAT-65283,276.3765661256992,32.11026497160885,4038.754568376397,0.7012778651646666,-24561.71724049509,10.5,10499975438.282759,47.655,-122.3035,60.0,2.683333333333333
2026-01-20T23:02:42+00:00,SAT-65283,276.2465054792273,32.09242499507229,4039.4539761672545,0.7130962331728363,-24975.6464797883,10.5,10499975024.35352,47.655,-122.3035,60.0,2.7
2026-01-20T23:02:43+00:00,SAT-65283,276.1165567718316,32.07435282218543,4040.1651708104723,0.7249073997846462,-25389.323495719116,10.5,10499974610.676504,47.655,-122.3035,60.0,2.716666666666667
2026-01-20T23:02:44+00:00,SAT-65283,275.98672147246805,32.05604894906216,4040.8881451238576,0.7367112453788848,-25802.744098646705,10.5,10499974197.255901,47.655,-122.3035,60.0,2.7333333333333334
2026-01-20T23:02:45+00:00,SAT-65283,275.85700104351736,32.03751387809064,4041.622891805915,0.7485076615502423,-26215.90449175857,10.5,10499973784.095509,47.655,-122.3035,60.0,2.75
2026-01-20T23:02:46+00:00,SAT-65283,275.7273969387136,32.018748117602414,4042.369403447035,0.7602965345210181,-26628.800690078366,10.5,10499973371.19931,47.655,-122.3035,60.0,2.7666666666666666
2026-01-20T23:02:47+00:00,SAT-65283,275.5979106041252,31.99975218197215,4043.1276725241305,0.7720777478890649,-27041.428616710502,10.5,10499972958.571383,47.655,-122.3035,60.0,2.783333333333333
2026-01-20T23:02:48+00:00,SAT-65283,275.46854347857845,31.980526591647916,4043.897691398025,0.7838511937237503,-27453.78449146769,10.5,10499972546.21551,47.655,-122.3035,60.0,2.8
2026-01-20T23:02:49+00:00,SAT-65283,275.3392969921449,31.961071872887,4044.6794523218987,0.7956167563288443,-27865.864262178555,10.5,10499972134.135738,47.655,-122.3035,60.0,2.816666666666667
2026-01-20T23:02:50+00:00,SAT-65283,275.21017256750656,31.941388557921798,4045.4729474335445,0.8073743255319571,-28277.66407013998,10.5,10499971722.33593,47.655,-122.3035,60.0,2.8333333333333335
2026-01-20T23:02:51+00:00,SAT-65283,275.0811716189648,31.921477184771856,4046.278168760875,0.8191237872997534,-28689.17992142221,10.5,10499971310.820078,47.655,-122.3035,60.0,2.85
2026-01-20T23:02:52+00:00,SAT-65283,274.9522955530726,31.901338297304136,4047.095108218075,0.8308650334957723,-29100.408028628957,10.5,10499970899.59197,47.655,-122.3035,60.0,2.8666666666666667
2026-01-20T23:02:53+00:00,SAT-65283,274.8235457676606,31.88097244503832,4047.9237576114815,0.8425979520728012,-29511.34446739288,10.5,10499970488.655533,47.655,-122.3035,60.0,2.8833333333333333
2026-01-20T23:02:54+00:00,SAT-65283,274.6949236524655,31.86038018320748,4048.764108635682,0.8543224331257742,-29921.985388373676,10.5,10499970078.014612,47.655,-122.3035,60.0,2.9
2026-01-20T23:02:55+00:00,SAT-65283,274.56643058877546,31.839562072658737,4049.616152875653,0.8660383645713955,-30332.32686594021,10.5,10499969667.673134,47.655,-122.3035,60.0,2.9166666666666665
2026-01-20T23:02:56+00:00,SAT-65283,274.43806794975836,31.818518679868795,4050.4798818045856,0.8777456406064404,-30742.365194416016,10.5,10499969257.634806,47.655,-122.3035,60.0,2.933333333333333
2026-01-20T23:02:57+00:00,SAT-65283,274.3098370994825,31.79725057673882,4051.3552867901503,0.8894441450706747,-31152.096305378316,10.5,10499968847.903694,47.655,-122.3035,60.0,2.95
2026-01-20T23:02:58+00:00,SAT-65283,274.18173939448656,31.77575834081681,4052.2423590841677,0.9011337763775729,-31561.516640837293,10.5,10499968438.483358,47.655,-122.3035,60.0,2.966666666666667
2026-01-20T23:02:59+00:00,SAT-65283,274.05377618157775,31.75404255488263,4053.1410898371414,0.9128144204246823,-31970.622204442396,10.5,10499968029.377796,47.655,-122.3035,60.0,2.9833333333333334
2026-01-20T23:03:00+00:00,SAT-65283,273.9259487996958,31.732103807223908,4054.0514700857784,0.9244859715688675,-32379.40929612415,10.5,10499967620.590704,47.655,-122.3035,60.0,3.0
2026-01-20T23:03:01+00:00,SAT-65283,273.79825857865137,31.70994269137469,4054.9734907614225,0.9361483213448495,-32787.87411696968,10.5,10499967212.125883,47.655,-122.3035,60.0,3.0166666666666666
2026-01-20T23:03:02+00:00,SAT-65283,273.6707068395525,31.687559806147174,4055.907142687244,0.9478013636231271,-33196.01294987492,10.5,10499966803.987051,47.655,-122.3035,60.0,3.033333333333333
2026-01-20T23:03:03+00:00,SAT-65283,273.54329489446707,31.664955755525614,4056.8524165805643,0.959444986899266,-33603.82188948293,10.5,10499966396.17811,47.655,-122.3035,60.0,3.05
2026-01-20T23:03:04+00:00,SAT-65283,273.4160240471567,31.642131148757585,4057.8093030474984,0.9710790888279698,-34011.29735122851,10.5,10499965988.702648,47.655,-122.3035,60.0,3.066666666666667
2026-01-20T23:03:05+00:00,SAT-65283,273.2888955918234,31.619086600079942,4058.7777925920896,0.982703564004967,-34418.435643408186,10.5,10499965581.564356,47.655,-122.3035,60.0,3.0833333333333335
2026-01-20T23:03:06+00:00,SAT-65283,273.16191081355066,31.595822728752594,4059.7578756132575,0.9943182986860983,-34825.2327822204,10.5,10499965174.767218,47.655,-122.3035,60.0,3.1
2026-01-20T23:03:07+00:00,SAT-65283,273.03507098937405,31.572340159215234,4060.74954239648,1.0059231982144166,-35231.68545237844,10.5,10499964768.314548,47.655,-122.3035,60.0,3.1166666666666667
2026-01-20T23:03:08+00:00,SAT-65283,272.9083773857946,31.548639520574664,4061.7527831328325,1.0175181481383213,-35637.789645303135,10.5,10499964362.210354,47.655,-122.3035,60.0,3.1333333333333333
2026-01-20T23:03:09+00:00,SAT-65283,272.78183126137014,31.524721447045344,4062.7675878992427,1.0291030508907981,-36043.54194378493,10.5,10499963956.458055,47.655,-122.3035,60.0,3.15
2026-01-20T23:03:10+00:00,SAT-65283,272.6554338645281,31.500586577489663,4063.793946675331,1.0406777973712926,-36448.93852666091,10.5,10499963551.061474,47.655,-122.3035,60.0,3.1666666666666665
2026-01-20T23:03:11+00:00,SAT-65283,272.529186435056,31.476235555653336,4064.8318493319093,1.052242283736784,-36853.97575690924,10.5,10499963146.024242,47.655,-122.3035,60.0,3.183333333333333
2026-01-20T23:03:12+00:00,SAT-65283,272.40309020342613,31.45166902999235,4065.881285636223,1.0637964122606771,-37258.650211731176,10.5,10499962741.349789,47.655,-122.3035,60.0,3.2
2026-01-20T23:03:13+00:00,SAT-65283,272.2771463900709,31.426887653476783,4066.9422452580507,1.0753400725733926,-37662.958025517175,10.5,10499962337.041975,47.655,-122.3035,60.0,3.216666666666667
2026-01-20T23:03:14+00:00,SAT-65283,272.1513562069332,31.401892083852474,4068.014717757097,1.0868731652752752,-38066.895716870866,10.5,10499961933.104282,47.655,-122.3035,60.0,3.2333333333333334
2026-01-20T23:03:15+00:00,SAT-65283,272.0257208561263,31.3766829833268,4069.098692593932,1.0983955892570187,-38470.459744516644,10.5,10499961529.540255,47.655,-122.3035,60.0,3.25
2026-01-20T23:03:16+00:00,SAT-65283,271.90024153019016,31.351261018567165,4070.194159128284,1.109907242752189,-38873.64654416351,10.5,10499961126.353456,47.655,-122.3035,60.0,3.2666666666666666
2026-01-20T23:03:17+00:00,SAT-65283,271.7749194121644,31.32562686066675,4071.301106618389,1.1214080237214368,-39276.45254196183,10.5,10499960723.547459,47.655,-122.3035,60.0,3.283333333333333
2026-01-20T23:03:18+00:00,SAT-65283,271.6497556756338,31.29978118510657,4072.419524220714,1.1328978286185416,-39678.87411128497,10.5,10499960321.125889,47.655,-122.3035,60.0,3.3
2026-01-20T23:03:19+00:00,SAT-65283,271.52475148491254,31.273724671742233,4073.549400988456,1.1443765633720246,-40080.90795735182,10.5,10499959919.092043,47.655,-122.3035,60.0,3.316666666666667
2026-01-20T23:03:20+00:00,SAT-65283,271.39990799398936,31.247458004533005,4074.6907258809924,1.1558441217329531,-40482.550358875305,10.5,10499959517.44964,47.655,-122.3035,60.0,3.3333333333333335
2026-01-20T23:03:21+00:00,SAT-65283,271.27522634791455,31.220981871782808,4075.843487751734,1.1673004088670098,-40883.797994356486,10.5,10499959116.202005,47.655,-122.3035,60.0,3.35
2026-01-20T23:03:22+00:00,SAT-65283,271.1507076815478,31.19429696582408,4077.007675359511,1.1787453211242975,-41284.64723353756,10.5,10499958715.352766,47.655,-122.3035,60.0,3.3666666666666667
2026-01-20T23:03:23+00:00,SAT-65283,271.0263531205447,31.167403983177152,4078.1832773597785,1.190178766492644,-41685.094853763,10.5,10499958314.905146,47.655,-122.3035,60.0,3.3833333333333333
2026-01-20T23:03:24+00:00,SAT-65283,270.90216378011996,31.140303624229432,4079.3702823162275,1.2016006422455872,-42085.1372571176,10.5,10499957914.862743,47.655,-122.3035,60.0,3.4
2026-01-20T23:03:25+00:00,SAT-65283,270.77814076621854,31.112996593439846,4080.5686786900937,1.2130108489539952,-42484.77096117257,10.5,10499957515.229038,47.655,-122.3035,60.0,3.4166666666666665
2026-01-20T23:03:26+00:00,SAT-65283,270.6542851751848,31.085483599215923,4081.77845484345,1.2244092940735891,-42883.992724635806,10.5,10499957116.007275,47.655,-122.3035,60.0,3.433333333333333
2026-01-20T23:03:27+00:00,SAT-65283,270.5305980930544,31.05776535370009,4082.999599046073,1.2357958791881192,-43282.79910055393,10.5,10499956717.2009,47.655,-122.3035,60.0,3.45
2026-01-20T23:03:28+00:00,SAT-65283,270.40708059620647,31.029842572865082,4084.2320994695833,1.24717051096455,-43681.18682000924,10.5,10499956318.81318,47.655,-122.3035,60.0,3.466666666666667
2026-01-20T23:03:29+00:00,SAT-65283,270.2837337508686,31.001715976343764,4085.475944192519,1.258533085015557,-44079.152226916085,10.5,10499955920.847773,47.655,-122.3035,60.0,3.4833333333333334
2026-01-20T23:03:30+00:00,SAT-65283,270.16055861425343,30.973386287643468,4086.7311211893075,1.2698835177806624,-44476.69239463308,10.5,10499955523.307606,47.655,-122.3035,60.0,3.5
2026-01-20T23:03:31+00:00,SAT-65283,270.0375562324944,30.94485423360815,4087.9976183510407,1.2812217018074694,-44873.803559722735,10.5,10499955126.19644,47.655,-122.3035,60.0,3.5166666666666666
2026-01-20T23:03:32+00:00,SAT-65283,269.9147276430657,30.916120544933076,4089.2754234616436,1.2925475575666985,-45270.4829367333,10.5,10499954729.517063,47.655,-122.3035,60.0,3.533333333333333
2026-01-20T23:03:33+00:00,SAT-65283,269.7920738720287,30.88718595545984,4090.5645242257233,1.303860977583591,-45666.72676144409,10.5,10499954333.27324,47.655,-122.3035,60.0,3.55
2026-01-20T23:03:34+00:00,SAT-65283,269.6695959368485,30.85805120278905,4091.8649082407,1.3151618763486463,-46062.53203895071,10.5,10499953937.46796,47.655,-122.3035,60.0,3.566666666666667
2026-01-20T23:03:35+00:00,SAT-65283,269.54729484423643,30.82871702771239,4093.176563018712,1.326450161436001,-46457.89553210844,10.5,10499953542.104467,47.655,-122.3035,60.0,3.5833333333333335
2026-01-20T23:03:36+00:00,SAT-65283,269.4251715909012,30.799184174334744,4094.4994759797173,1.3377257330043562,-46852.81374405269,10.5,10499953147.186256,47.655,-122.3035,60.0,3.6
2026-01-20T23:03:37+00:00,SAT-65283,269.30322716424007,30.769453390190094,4095.8336344441004,1.348988511105661,-47247.28387466452,10.5,10499952752.716125,47.655,-122.3035,60.0,3.6166666666666667
2026-01-20T23:03:38+00:00,SAT-65283,269.18146254054966,30.739525425743846,4097.17902565251,1.3602383926094188,-47641.30231187769,10.5,10499952358.69769,47.655,-122.3035,60.0,3.6333333333333333
2026-01-20T23:03:39+00:00,SAT-65283,269.0598786871815,30.709401034871313,4098.535636742739,1.3714752975640196,-48034.86625544865,10.5,10499951965.133745,47.655,-122.3035,60.0,3.65
2026-01-20T23:03:40+00:00,SAT-65283,268.9384765604673,30.679080974283956,4099.903454772842,1.3826991238274553,-48427.97212793218,10.5,10499951572.027872,47.655,-122.3035,60.0,3.6666666666666665
2026-01-20T23:03:41+00:00,SAT-65283,268.81725710776914,30.64856600398802,4101.282466699006,1.3939097924843762,-48820.61716537896,10.5,10499951179.382835,47.655,-122.3035,60.0,3.683333333333333
2026-01-20T23:03:42+00:00,SAT-65283,268.69622126542333,30.617856886707266,4102.6726593987105,1.4051072077272242,-49212.79801220301,10.5,10499950787.201988,47.655,-122.3035,60.0,3.7
2026-01-20T23:03:43+00:00,SAT-65283,268.57536996029046,30.586954388221134,4104.0740196538845,1.4162912864366568,-49604.511757213375,10.5,10499950395.488243,47.655,-122.3035,60.0,3.716666666666667
2026-01-20T23:03:44+00:00,SAT-65283,268.45470410868444,30.55585927703059,4105.486534163557,1.4274619348562907,-49995.75511666492,10.5,10499950004.244883,47.655,-122.3035,60.0,3.7333333333333334
2026-01-20T23:03:45+00:00,SAT-65283,268.3342246173404,30.524572324551723,4106.910189533253,1.43861906744105,-50386.52509440723,10.5,10499949613.474905,47.655,-122.3035,60.0,3.75
2026-01-20T23:03:46+00:00,SAT-65283,268.213932382724,30.493094304882405,4108.344972283182,1.4497625959319649,-50776.81859923785,10.5,10499949223.1814,47.655,-122.3035,60.0,3.7666666666666666
2026-01-20T23:03:47+00:00,SAT-65283,268.0938282913371,30.461425994818327,4109.7908688455245,1.4608924358517292,-51166.63267240418,10.5,10499948833.367327,47.655,-122.3035,60.0,3.783333333333333
2026-01-20T23:03:48+00:00,SAT-65283,267.97391321941905,30.429568173721318,4111.247865568214,1.4720085003201737,-51555.96427099518,10.5,10499948444.035728,47.655,-122.3035,60.0,3.8
2026-01-20T23:03:49+00:00,SAT-65283,267.8541880332192,30.39752162352777,4112.715948712534,1.4831107046282437,-51944.810428141456,10.5,10499948055.189571,47.655,-122.3035,60.0,3.816666666666667
2026-01-20T23:03:50+00:00,SAT-65283,267.73465358884437,30.36528712865281,4114.1951044552825,1.4941989624741236,-52333.168121188355,10.5,10499947666.831879,47.655,-122.3035,60.0,3.8333333333333335
2026-01-20T23:03:51+00:00,SAT-65283,267.61531073242907,30.33286547597805,4115.68531888719,1.5052731883361157,-52721.034354804266,10.5,10499947278.965645,47.655,-122.3035,60.0,3.85
2026-01-20T23:03:52+00:00,SAT-65283,267.49616030014124,30.300257454793147,4117.18657801369,1.5163332969100403,-53108.406141275984,10.5,10499946891.593859,47.655,-122.3035,60.0,3.8666666666666667
2026-01-20T23:03:53+00:00,SAT-65283,267.37720311819544,30.26746385674171,4118.698867755142,1.527379210735581,-53495.28076761557,10.5,10499946504.719233,47.655,-122.3035,60.0,3.8833333333333333
2026-01-20T23:03:54+00:00,SAT-65283,267.25844000227505,30.23448547560137,4120.2221739546485,1.5384108432420744,-53881.65520175221,10.5,10499946118.344799,47.655,-122.3035,60.0,3.9
2026-01-20T23:03:55+00:00,SAT-65283,267.139871758321,30.201323107441326,4121.756482368976,1.5494281085180182,-54267.52643470167,10.5,10499945732.473566,47.655,-122.3035,60.0,3.9166666666666665
2026-01-20T23:03:56+00:00,SAT-65283,267.02149918251445,30.167977550565087,4123.301778669204,1.5604309330895718,-54652.89189309928,10.5,10499945347.108107,47.655,-122.3035,60.0,3.933333333333333
2026-01-20T23:03:57+00:00,SAT-65283,266.90332306036527,30.134449605184507,4124.858048453139,1.5714192271395644,-55037.748431167754,10.5,10499944962.25157,47.655,-122.3035,60.0,3.95
2026-01-20T23:03:58+00:00,SAT-65283,266.7853441680232,30.10074007374131,4126.4252772290065,1.5823929185480528,-55422.09352296165,10.5,10499944577.906477,47.655,-122.3035,60.0,3.966666666666667
2026-01-20T23:03:59+00:00,SAT-65283,266.6675632709885,30.06684976046912,4128.003450433105,1.5933519147118047,-55805.92392512406,10.5,10499944194.076075,47.655,-122.3035,60.0,3.9833333333333334
2026-01-20T23:04:00+00:00,SAT-65283,266.5499811257089,30.032779471803753,4129.592553409378,1.6042961469952326,-56189.23723374637,10.5,10499943810.762766,47.655,-122.3035,60.0,4.0
