satellites_20260121_005943/SAT-53546.csv

timestamp,satellite,azimuth_deg,elevation_deg,distance_km,relative_velocity_kms,doppler_shift_hz,tx_freq_ghz,rx_freq_hz,ue_lat,ue_lon,ue_alt_m,time_minutes
2026-01-20T23:00:56+00:00,SAT-53546,194.65620613341304,30.17273663585598,1171.851658046914,-5.191067614132624,181813.14604116077,10.5,10500181813.146042,47.655,-122.3035,60.0,0.9333333333333333
2026-01-20T23:00:57+00:00,SAT-53546,194.66806724317732,30.424072117604965,1166.6744332797525,-5.172800815331108,181173.36547864936,10.5,10500181173.365479,47.655,-122.3035,60.0,0.95
2026-01-20T23:00:58+00:00,SAT-53546,194.68039234064983,30.677407998944588,1161.5154265999288,-5.15428397060777,180524.82725026252,10.5,10500180524.82725,47.655,-122.3035,60.0,0.9666666666666667
2026-01-20T23:00:59+00:00,SAT-53546,194.69319136920467,30.932763558852898,1156.3748873865761,-5.135513557298776,179867.40797741196,10.5,10500179867.407978,47.655,-122.3035,60.0,0.9833333333333333
2026-01-20T23:01:00+00:00,SAT-53546,194.7064745603766,31.190158151936867,1151.2530685320967,-5.116485963214846,179200.98114594957,10.5,10500179200.981146,47.655,-122.3035,60.0,1.0
2026-01-20T23:01:01+00:00,SAT-53546,194.7202524442427,31.44961119991215,1146.1502265314507,-5.097197599026167,178525.42104236243,10.5,10500178525.421041,47.655,-122.3035,60.0,1.0166666666666666
2026-01-20T23:01:02+00:00,SAT-53546,194.7345358604707,31.711142188147218,1141.066621459355,-5.0776448046932945,177840.5994765872,10.5,10500177840.599476,47.655,-122.3035,60.0,1.0333333333333334
2026-01-20T23:01:03+00:00,SAT-53546,194.7493359696938,31.97477065733854,1136.0025170408078,-5.05782390703511,177146.38779828363,10.5,10500177146.387798,47.655,-122.3035,60.0,1.05
2026-01-20T23:01:04+00:00,SAT-53546,194.7646642654774,32.240516197599916,1130.9581806641913,-5.03773116938889,176442.65513371705,10.5,10500176442.655134,47.655,-122.3035,60.0,1.0666666666666667
2026-01-20T23:01:05+00:00,SAT-53546,194.78053258672776,32.50839843963139,1125.9338834445875,-5.017362833381273,175729.2698487544,10.5,10500175729.269848,47.655,-122.3035,60.0,1.0833333333333333
2026-01-20T23:01:06+00:00,SAT-53546,194.7969531307501,32.77843704756639,1120.9299002454286,-4.996715113908695,175006.09937305792,10.5,10500175006.099373,47.655,-122.3035,60.0,1.1
2026-01-20T23:01:07+00:00,SAT-53546,194.81393846689673,33.05065171117897,1115.946509705157,-4.975784184515909,174273.00968797904,10.5,10500174273.009687,47.655,-122.3035,60.0,1.1166666666666667
2026-01-20T23:01:08+00:00,SAT-53546,194.83150155077936,33.32506213683675,1110.9839942784663,-4.954566175112304,173529.865246574,10.5,10500173529.865246,47.655,-122.3035,60.0,1.1333333333333333
2026-01-20T23:01:09+00:00,SAT-53546,194.84965573915898,33.60168803789307,1106.0426402798212,-4.933057197893391,172776.52988148425,10.5,10500172776.529882,47.655,-122.3035,60.0,1.15
2026-01-20T23:01:10+00:00,SAT-53546,194.86841480557734,33.88054912592629,1101.122737901122,-4.911253324407776,172012.8660017246,10.5,10500172012.866001,47.655,-122.3035,60.0,1.1666666666666667
2026-01-20T23:01:11+00:00,SAT-53546,194.88779295665157,34.16166510027782,1096.224581252246,-4.88915060965325,171238.73543663038,10.5,10500171238.735437,47.655,-122.3035,60.0,1.1833333333333333
2026-01-20T23:01:12+00:00,SAT-53546,194.90780484922718,34.445055638374434,1091.3484683775519,-4.866745070344301,170453.9986746937,10.5,10500170453.998674,47.655,-122.3035,60.0,1.2
2026-01-20T23:01:13+00:00,SAT-53546,194.9284656082628,34.73074038432785,1086.4947012940618,-4.844032688098012,169658.514975147,10.5,10500169658.514975,47.655,-122.3035,60.0,1.2166666666666666
2026-01-20T23:01:14+00:00,SAT-53546,194.94979084556059,35.01873893707986,1081.6635860264653,-4.821009429929169,168852.14308578862,10.5,10500168852.143085,47.655,-122.3035,60.0,1.2333333333333334
2026-01-20T23:01:15+00:00,SAT-53546,194.97179667951372,35.309070839187605,1076.8554326216827,-4.797671230631805,168034.7406259098,10.5,10500168034.740625,47.655,-122.3035,60.0,1.25
2026-01-20T23:01:16+00:00,SAT-53546,194.99449975570195,35.601755563943016,1072.0705551809992,-4.774014013299086,167206.16480498784,10.5,10500167206.164804,47.655,-122.3035,60.0,1.2666666666666666
2026-01-20T23:01:17+00:00,SAT-53546,195.01791726860833,35.896812503128956,1067.3092718717355,-4.750033672036968,166366.27181724552,10.5,10500166366.271818,47.655,-122.3035,60.0,1.2833333333333334
2026-01-20T23:01:18+00:00,SAT-53546,195.04206698431486,36.19426095305452,1062.5719049561574,-4.7257260678340325,165514.91669699491,10.5,10500165514.916697,47.655,-122.3035,60.0,1.3
2026-01-20T23:01:19+00:00,SAT-53546,195.06696726430397,36.49412009967456,1057.8587808245043,-4.701087065083934,164651.95459780816,10.5,10500164651.954597,47.655,-122.3035,60.0,1.3166666666666667
2026-01-20T23:01:20+00:00,SAT-53546,195.09263709062995,36.796409005222976,1053.170229991594,-4.676112515831218,163777.24024073945,10.5,10500163777.24024,47.655,-122.3035,60.0,1.3333333333333333
2026-01-20T23:01:21+00:00,SAT-53546,195.11909609227976,37.10114659323853,1048.5065871091383,-4.650798225580083,162890.6267168031,10.5,10500162890.626717,47.655,-122.3035,60.0,1.35
2026-01-20T23:01:22+00:00,SAT-53546,195.1463645726983,37.40835163062778,1043.8681910121597,-4.625140016596189,161991.96770407076,10.5,10500161991.967705,47.655,-122.3035,60.0,1.3666666666666667
2026-01-20T23:01:23+00:00,SAT-53546,195.174463539054,37.71804271298112,1039.2553847022746,-4.599133690209474,161081.1161473564,10.5,10500161081.116148,47.655,-122.3035,60.0,1.3833333333333333
2026-01-20T23:01:24+00:00,SAT-53546,195.20341473280922,38.03023824669684,1034.6685153685721,-4.572775052278355,160157.9251500808,10.5,10500160157.92515,47.655,-122.3035,60.0,1.4
2026-01-20T23:01:25+00:00,SAT-53546,195.2332406620321,38.344956431979426,1030.1079343831,-4.546059900784875,159222.2475398003,10.5,10500159222.24754,47.655,-122.3035,60.0,1.4166666666666667
2026-01-20T23:01:26+00:00,SAT-53546,195.2639646353415,38.66221524417808,1025.573997308717,-4.51898400429632,158273.93511384254,10.5,10500158273.935114,47.655,-122.3035,60.0,1.4333333333333333
2026-01-20T23:01:27+00:00,SAT-53546,195.29561079748083,38.98203241274221,1021.0670639284323,-4.491543176315885,157312.84124338042,10.5,10500157312.841244,47.655,-122.3035,60.0,1.45
2026-01-20T23:01:28+00:00,SAT-53546,195.3282041673099,39.304425404387125,1016.5874982005865,-4.463733222668832,156338.81903067336,10.5,10500156338.81903,47.655,-122.3035,60.0,1.4666666666666666
2026-01-20T23:01:29+00:00,SAT-53546,195.36177067746388,39.62941140180118,1012.1356682665115,-4.435549929649286,155351.72089391758,10.5,10500155351.720894,47.655,-122.3035,60.0,1.4833333333333334
2026-01-20T23:01:30+00:00,SAT-53546,195.39633721610485,39.95700728046355,1007.7119464700079,-4.406989121288339,154351.4005730176,10.5,10500154351.400574,47.655,-122.3035,60.0,1.5
2026-01-20T23:01:31+00:00,SAT-53546,195.43193167134862,40.28722958857785,1003.3167093197097,-4.378046621068462,153337.71178866294,10.5,10500153337.711788,47.655,-122.3035,60.0,1.5166666666666666
2026-01-20T23:01:32+00:00,SAT-53546,195.46858297787543,40.62009452325541,998.9503374896308,-4.348718300605997,152310.5099473949,10.5,10500152310.509947,47.655,-122.3035,60.0,1.5333333333333334
2026-01-20T23:01:33+00:00,SAT-53546,195.50632116651434,40.95561790930983,994.6132157711597,-4.31900000747062,151269.64961353867,10.5,10500151269.649614,47.655,-122.3035,60.0,1.55
2026-01-20T23:01:34+00:00,SAT-53546,195.5451774160627,41.29381517158874,990.3057330970423,-4.288887645222192,150214.9873124327,10.5,10500150214.987312,47.655,-122.3035,60.0,1.5666666666666667
2026-01-20T23:01:35+00:00,SAT-53546,195.58518410866532,41.6347013122061,986.0282824855407,-4.258377128896436,149146.37997134865,10.5,10500149146.37997,47.655,-122.3035,60.0,1.5833333333333333
2026-01-20T23:01:36+00:00,SAT-53546,195.6263748880171,41.97829088328904,981.7812610289881,-4.2274644516172915,148063.68725253773,10.5,10500148063.687252,47.655,-122.3035,60.0,1.6
2026-01-20T23:01:37+00:00,SAT-53546,195.66878472152771,42.32459796386626,977.5650698159085,-4.196145578201366,146966.76782680885,10.5,10500146966.767826,47.655,-122.3035,60.0,1.6166666666666667
2026-01-20T23:01:38+00:00,SAT-53546,195.7124499651451,42.673636127137044,973.3801139592489,-4.164416557366637,145855.4833035516,10.5,10500145855.483303,47.655,-122.3035,60.0,1.6333333333333333
2026-01-20T23:01:39+00:00,SAT-53546,195.75740843302773,43.02541841541783,969.226802512702,-4.132273482403094,144729.696853256,10.5,10500144729.696854,47.655,-122.3035,60.0,1.65
2026-01-20T23:01:40+00:00,SAT-53546,195.80369947100178,43.37995731079844,965.1055484262519,-4.099712505374695,143589.2737049252,10.5,10500143589.273705,47.655,-122.3035,60.0,1.6666666666666667
2026-01-20T23:01:41+00:00,SAT-53546,195.85136403462533,43.737264705779914,961.0167684875582,-4.06672980470612,142434.08001082623,10.5,10500142434.080011,47.655,-122.3035,60.0,1.6833333333333333
2026-01-20T23:01:42+00:00,SAT-53546,195.9004447715728,44.09735186977622,956.9608832956645,-4.033321657322539,141263.98537312986,10.5,10500141263.985373,47.655,-122.3035,60.0,1.7
2026-01-20T23:01:43+00:00,SAT-53546,195.95098610990277,44.46022942049021,952.9383171627616,-3.999484391226726,140078.86118296086,10.5,10500140078.861183,47.655,-122.3035,60.0,1.7166666666666666
2026-01-20T23:01:44+00:00,SAT-53546,196.0030343512594,44.82590728990575,948.9494980632448,-3.9652144152698297,138878.58166309577,10.5,10500138878.581663,47.655,-122.3035,60.0,1.7333333333333334
2026-01-20T23:01:45+00:00,SAT-53546,196.05663777024088,45.19439469151236,944.9948575530824,-3.9305082051046654,137663.02337598827,10.5,10500137663.023376,47.655,-122.3035,60.0,1.75
2026-01-20T23:01:46+00:00,SAT-53546,196.11184671987456,45.565700084818076,941.0748307031913,-3.8953623421015156,136432.06658676488,10.5,10500136432.066587,47.655,-122.3035,60.0,1.7666666666666666
2026-01-20T23:01:47+00:00,SAT-53546,196.16871374435323,45.93983114204678,937.1898559940021,-3.859773493581298,135185.5945709069,10.5,10500135185.59457,47.655,-122.3035,60.0,1.7833333333333334
2026-01-20T23:01:48+00:00,SAT-53546,196.22729369877018,46.31679471155941,933.340375229737,-3.8237383944521874,133923.49297108725,10.5,10500133923.492971,47.655,-122.3035,60.0,1.8
2026-01-20T23:01:49+00:00,SAT-53546,196.28764387638444,46.69659677795867,929.5268334710033,-3.787253958724466,132645.65370289233,10.5,10500132645.653704,47.655,-122.3035,60.0,1.8166666666666667
2026-01-20T23:01:50+00:00,SAT-53546,196.34982414594452,47.07924243144718,925.7496788561688,-3.750317117586503,131351.96928355776,10.5,10500131351.969284,47.655,-122.3035,60.0,1.8333333333333333
2026-01-20T23:01:51+00:00,SAT-53546,196.41389709570302,47.464735819926275,922.0093625842292,-3.712924995071543,130042.33898456246,10.5,10500130042.338985,47.655,-122.3035,60.0,1.85
2026-01-20T23:01:52+00:00,SAT-53546,196.47992818983477,47.8530801166228,918.3063387224779,-3.675074805551694,128716.66524143443,10.5,10500128716.665241,47.655,-122.3035,60.0,1.8666666666666667
2026-01-20T23:01:53+00:00,SAT-53546,196.5479859339613,48.24427747614758,914.6410641164076,-3.636763903374602,127374.85539223712,10.5,10500127374.855392,47.655,-122.3035,60.0,1.8833333333333333
2026-01-20T23:01:54+00:00,SAT-53546,196.61814205282585,48.63832899372524,911.0139982501087,-3.597989781594809,126016.82163313625,10.5,10500126016.821632,47.655,-122.3035,60.0,1.9
2026-01-20T23:01:55+00:00,SAT-53546,196.69047168037247,49.03523466270724,907.4256031079315,-3.558750086762824,124642.48153637556,10.5,10500124642.481537,47.655,-122.3035,60.0,1.9166666666666667
2026-01-20T23:01:56+00:00,SAT-53546,196.76505356349764,49.43499333190982,903.8763430214001,-3.5190425909970453,123251.75707211746,10.5,10500123251.757072,47.655,-122.3035,60.0,1.9333333333333333
2026-01-20T23:01:57+00:00,SAT-53546,196.84197027977896,49.83760265810626,900.366684543979,-3.478865278621132,121844.57764285011,10.5,10500121844.577642,47.655,-122.3035,60.0,1.95
2026-01-20T23:01:58+00:00,SAT-53546,196.92130847265577,50.243059066250694,896.8970962394342,-3.4382162589806757,120420.87702985875,10.5,10500120420.87703,47.655,-122.3035,60.0,1.9666666666666666
2026-01-20T23:01:59+00:00,SAT-53546,197.00315910203128,50.65135769824858,893.4680485571441,-3.397093837574407,118980.59588454114,10.5,10500118980.595884,47.655,-122.3035,60.0,1.9833333333333334
2026-01-20T23:02:00+00:00,SAT-53546,197.0876177148592,51.062492367679894,890.0800136364699,-3.355496498616921,117523.68111768065,10.5,10500117523.681118,47.655,-122.3035,60.0,2.0
2026-01-20T23:02:01+00:00,SAT-53546,197.17478473560652,51.47645551064654,886.733465128516,-3.313422933931094,116050.08691138081,10.5,10500116050.086912,47.655,-122.3035,60.0,2.0166666666666666
2026-01-20T23:02:02+00:00,SAT-53546,197.2647657794463,51.89323813804632,883.4288779890754,-3.2708720034351417,114559.77333515504,10.5,10500114559.773335,47.655,-122.3035,60.0,2.033333333333333
2026-01-20T23:02:03+00:00,SAT-53546,197.357671988425,52.31282978093386,880.1667283109826,-3.2278428224920055,113052.70940527148,10.5,10500113052.709406,47.655,-122.3035,60.0,2.05
2026-01-20T23:02:04+00:00,SAT-53546,197.4536203960535,52.735218444449,876.9474930693506,-3.1843346655369045,111528.86970938242,10.5,10500111528.869709,47.655,-122.3035,60.0,2.066666666666667
2026-01-20T23:02:05+00:00,SAT-53546,197.55273431789846,53.16039054746003,873.7716499629219,-3.1403470913206037,109988.2387930731,10.5,10500109988.238792,47.655,-122.3035,60.0,2.0833333333333335
2026-01-20T23:02:06+00:00,SAT-53546,197.6551437768961,53.588330875777096,870.6396771305114,-3.0958798484430465,108430.80785125018,10.5,10500108430.807852,47.655,-122.3035,60.0,2.1
2026-01-20T23:02:07+00:00,SAT-53546,197.76098596018832,54.019022520848004,867.5520529616642,-3.0509329459770993,106856.57720168379,10.5,10500106856.577202,47.655,-122.3035,60.0,2.1166666666666667
2026-01-20T23:02:08+00:00,SAT-53546,197.8704057154518,54.45244682502295,864.5092558368765,-3.0055066273313167,105265.55536957113,10.5,10500105265.55537,47.655,-122.3035,60.0,2.1333333333333333
2026-01-20T23:02:09+00:00,SAT-53546,197.9835560875157,54.88858332070579,861.5117638938846,-2.9596014059794435,103657.76033893474,10.5,10500103657.76034,47.655,-122.3035,60.0,2.15
2026-01-20T23:02:10+00:00,SAT-53546,198.1005989012516,55.32740967154861,858.5600547583211,-2.913218060894185,102033.2193926938,10.5,10500102033.219393,47.655,-122.3035,60.0,2.1666666666666665
2026-01-20T23:02:11+00:00,SAT-53546,198.22170539397027,55.76890161019363,855.6546052789228,-2.8663576197599494,100391.9685247034,10.5,10500100391.968525,47.655,-122.3035,60.0,2.183333333333333
2026-01-20T23:02:12+00:00,SAT-53546,198.34705690163577,56.213032870169926,852.795891279482,-2.819021414448209,98734.05438273631,10.5,10500098734.054382,47.655,-122.3035,60.0,2.2
2026-01-20T23:02:13+00:00,SAT-53546,198.47684560734052,56.659775122595484,849.9843872554724,-2.7712110455723478,97059.53302704384,10.5,10500097059.533028,47.655,-122.3035,60.0,2.216666666666667
2026-01-20T23:02:14+00:00,SAT-53546,198.61127535468336,57.10909790392827,847.2205661060217,-2.7229284332937587,95368.4717098002,10.5,10500095368.47171,47.655,-122.3035,60.0,2.2333333333333334
2026-01-20T23:02:15+00:00,SAT-53546,198.7505625366351,57.5609685476998,844.5048988152166,-2.674175749736489,93660.94650797764,10.5,10500093660.946508,47.655,-122.3035,60.0,2.25
2026-01-20T23:02:16+00:00,SAT-53546,198.89493706216746,58.01535210109315,841.8378542008128,-2.6249555195096823,91937.04584406744,10.5,10500091937.045843,47.655,-122.3035,60.0,2.2666666666666666
2026-01-20T23:02:17+00:00,SAT-53546,199.04464341732583,58.47221125300059,839.2198985626884,-2.5752705700874126,90196.86874817188,10.5,10500090196.868748,47.655,-122.3035,60.0,2.283333333333333
2026-01-20T23:02:18+00:00,SAT-53546,199.19994182352048,58.931506249203636,836.6514953807879,-2.5251240179246297,88440.5243717259,10.5,10500088440.524372,47.655,-122.3035,60.0,2.3
2026-01-20T23:02:19+00:00,SAT-53546,199.36110950518727,59.39319479921763,834.1331050269112,-2.474519348396571,86668.13478731342,10.5,10500086668.134787,47.655,-122.3035,60.0,2.316666666666667
2026-01-20T23:02:20+00:00,SAT-53546,199.5284420846988,59.85723199080199,831.6651843967769,-2.423460353267019,84879.83279854125,10.5,10500084879.832798,47.655,-122.3035,60.0,2.3333333333333335
2026-01-20T23:02:21+00:00,SAT-53546,199.70225511051174,60.32357018696402,829.2481866044519,-2.371951151651479,83075.76267425824,10.5,10500083075.762674,47.655,-122.3035,60.0,2.35
2026-01-20T23:02:22+00:00,SAT-53546,199.88288573863952,60.79215891867847,826.8825606558715,-2.3199962176030935,81256.08111473065,10.5,10500081256.081114,47.655,-122.3035,60.0,2.3666666666666667
2026-01-20T23:02:23+00:00,SAT-53546,200.07069458613594,61.26294477436954,824.5687510948487,-2.267600375000076,79420.95707257853,10.5,10500079420.957073,47.655,-122.3035,60.0,2.3833333333333333
2026-01-20T23:02:24+00:00,SAT-53546,200.26606777471454,61.735871279212766,822.307197654182,-2.2147687723218805,77570.57086933036,10.5,10500077570.57087,47.655,-122.3035,60.0,2.4
2026-01-20T23:02:25+00:00,SAT-53546,200.46941918538917,62.21087875865227,820.0983349319196,-2.161506927893585,75705.1157800729,10.5,10500075705.11578,47.655,-122.3035,60.0,2.4166666666666665
2026-01-20T23:02:26+00:00,SAT-53546,200.6811929555174,62.68790419882996,817.9425920225003,-2.1078206996327196,73824.79697385701,10.5,10500073824.796974,47.655,-122.3035,60.0,2.433333333333333
2026-01-20T23:02:27+00:00,SAT-53546,200.90186624185577,63.16688108733249,815.8403921780666,-2.0537163205002598,71929.83275534146,10.5,10500071929.832756,47.655,-122.3035,60.0,2.45
2026-01-20T23:02:28+00:00,SAT-53546,201.13195228892593,63.64773924609897,813.7921524344212,-1.9992003615399632,70020.45327027411,10.5,10500070020.45327,47.655,-122.3035,60.0,2.466666666666667
2026-01-20T23:02:29+00:00,SAT-53546,201.37200383425343,64.13040463881617,811.7982832738452,-1.9442797624253014,68096.90157537474,10.5,10500068096.901575,47.655,-122.3035,60.0,2.4833333333333334
2026-01-20T23:02:30+00:00,SAT-53546,201.62261690070716,64.61479916493788,809.8591882574531,-1.8889618188520494,66159.43319677014,10.5,10500066159.433197,47.655,-122.3035,60.0,2.5
2026-01-20T23:02:31+00:00,SAT-53546,201.88443502216748,65.10084042828107,807.9752636701179,-1.8332541843415786,64208.316193153114,10.5,10500064208.316193,47.655,-122.3035,60.0,2.5166666666666666
2026-01-20T23:02:32+00:00,SAT-53546,202.15815396113035,65.58844147969633,806.1468981636012,-1.7771648779729114,62243.83142659169,10.5,10500062243.831427,47.655,-122.3035,60.0,2.533333333333333
2026-01-20T23:02:33+00:00,SAT-53546,202.44452698566352,66.07751053191141,804.3744723919697,-1.720702257816042,60266.27163205167,10.5,10500060266.271631,47.655,-122.3035,60.0,2.55
2026-01-20T23:02:34+00:00,SAT-53546,202.74437077648838,66.56795063281925,802.6583586735078,-1.6638750578281822,58275.942709659204,10.5,10500058275.942709,47.655,-122.3035,60.0,2.566666666666667
2026-01-20T23:02:35+00:00,SAT-53546,203.05857206142593,67.0596593088463,800.9989206158339,-1.6066923453057296,56273.162234488766,10.5,10500056273.162235,47.655,-122.3035,60.0,2.5833333333333335
2026-01-20T23:02:36+00:00,SAT-53546,203.38809506577118,67.55252815072737,799.3965127834489,-1.5491635504330554,54258.26049148669,10.5,10500054258.260492,47.655,-122.3035,60.0,2.6
2026-01-20T23:02:37+00:00,SAT-53546,203.73398990735416,68.04644235446118,797.851480335817,-1.4912984253536592,52231.57904196983,10.5,10500052231.579042,47.655,-122.3035,60.0,2.6166666666666667
2026-01-20T23:02:38+00:00,SAT-53546,204.09740205763458,68.5412801879878,796.3641587062643,-1.4331070860319786,50193.4721898033,10.5,10500050193.472189,47.655,-122.3035,60.0,2.6333333333333333
2026-01-20T23:02:39+00:00,SAT-53546,204.47958304230863,69.03691239897785,794.9348732391284,-1.3745999663240422,48144.30537276039,10.5,10500048144.305372,47.655,-122.3035,60.0,2.65
2026-01-20T23:02:40+00:00,SAT-53546,204.8819025434616,69.53320152441604,793.5639388727145,-1.3157878269408172,46084.45547645692,10.5,10500046084.455477,47.655,-122.3035,60.0,2.6666666666666665
2026-01-20T23:02:41+00:00,SAT-53546,205.3058621244166,70.03000110481746,792.2516598133122,-1.2566817464031657,44014.310517555576,10.5,10500044014.310518,47.655,-122.3035,60.0,2.683333333333333
2026-01-20T23:02:42+00:00,SAT-53546,205.75311081568015,70.52715478020741,790.9983292182328,-1.1972931236168678,41934.26973395413,10.5,10500041934.269733,47.655,-122.3035,60.0,2.7
2026-01-20T23:02:43+00:00,SAT-53546,206.2254628483901,71.02449525294526,789.804228876279,-1.1376336462738053,39844.742478061125,10.5,10500039844.742477,47.655,-122.3035,60.0,2.716666666666667
2026-01-20T23:02:44+00:00,SAT-53546,206.72491784878142,71.52184307997163,788.6696289197286,-1.0777153091500302,37746.14885767178,10.5,10500037746.148857,47.655,-122.3035,60.0,2.7333333333333334
2026-01-20T23:02:45+00:00,SAT-53546,207.25368388801965,72.01900528539083,787.5947875180697,-1.0175503757261533,35638.91839175157,10.5,10500035638.918392,47.655,-122.3035,60.0,2.75
2026-01-20T23:02:46+00:00,SAT-53546,207.81420380089673,72.51577373690611,786.579950610012,-0.957151389993797,33523.49042394812,10.5,10500033523.490423,47.655,-122.3035,60.0,2.7666666666666666
2026-01-20T23:02:47+00:00,SAT-53546,208.4091852921751,73.01192326562642,785.6253516237249,-0.8965311540221405,31400.31333687679,10.5,10500031400.313337,47.655,-122.3035,60.0,2.783333333333333
2026-01-20T23:02:48+00:00,SAT-53546,209.04163538780142,73.50720946652181,784.7312112194468,-0.8357027184249856,29269.84421823696,10.5,10500029269.844217,47.655,-122.3035,60.0,2.8
2026-01-20T23:02:49+00:00,SAT-53546,209.71489988315057,74.00136612603492,783.8977370416043,-0.7746793682107758,27132.548365219867,10.5,10500027132.548365,47.655,-122.3035,60.0,2.816666666666667
2026-01-20T23:02:50+00:00,SAT-53546,210.4327085124309,74.49410220466297,783.125123485042,-0.7134746136754259,24988.898965536922,10.5,10500024988.898966,47.655,-122.3035,60.0,2.8333333333333335
2026-01-20T23:02:51+00:00,SAT-53546,211.19922664468154,74.98509829278663,782.4135514703364,-0.6521021681975638,22839.376319715226,10.5,10500022839.37632,47.655,-122.3035,60.0,2.85
2026-01-20T23:02:52+00:00,SAT-53546,212.0191143604425,75.47400243112742,781.763188241254,-0.5905759442797536,20684.46770244438,10.5,10500020684.467703,47.655,-122.3035,60.0,2.8666666666666667
2026-01-20T23:02:53+00:00,SAT-53546,212.89759382464254,75.96042518589698,781.1741871661591,-0.5289100280488218,18524.666469470118,10.5,10500018524.66647,47.655,-122.3035,60.0,2.8833333333333333
2026-01-20T23:02:54+00:00,SAT-53546,213.84052581471343,76.4439338207883,780.6466875648517,-0.46711867339646523,16360.471852373566,10.5,10500016360.471853,47.655,-122.3035,60.0,2.9
2026-01-20T23:02:55+00:00,SAT-53546,214.85449619401592,76.92404540841966,780.1808145412509,-0.4052162776432745,14192.388106222414,10.5,10500014192.388105,47.655,-122.3035,60.0,2.9166666666666665
2026-01-20T23:02:56+00:00,SAT-53546,215.9469128075849,77.40021866703115,779.776678840348,-0.34321737089724724,12020.92413686103,10.5,10500012020.924137,47.655,-122.3035,60.0,2.933333333333333
2026-01-20T23:02:57+00:00,SAT-53546,217.12611280532323,77.87184430029389,779.4343767157733,-0.2811365980943177,9846.592871893847,10.5,10500009846.592873,47.655,-122.3035,60.0,2.95
2026-01-20T23:02:58+00:00,SAT-53546,218.40147946960548,78.33823357124194,779.1539898152738,-0.21898869928883205,7669.9105703744435,10.5,10500007669.91057,47.655,-122.3035,60.0,2.966666666666667
2026-01-20T23:02:59+00:00,SAT-53546,219.7835661242686,78.79860481502996,778.9355850858498,-0.15678849671008013,5491.3963694705135,10.5,10500005491.39637,47.655,-122.3035,60.0,2.9833333333333334
2026-01-20T23:03:00+00:00,SAT-53546,221.2842223577654,79.25206759533644,778.7792146917975,-0.09455087275421974,3311.5715136479757,10.5,10500003311.571514,47.655,-122.3035,60.0,3.0
2026-01-20T23:03:01+00:00,SAT-53546,222.91671403887412,79.69760419688538,778.684915954704,-0.032290756749979506,1130.9588911499063,10.5,10500001130.95889,47.655,-122.3035,60.0,3.0166666666666666
2026-01-20T23:03:02+00:00,SAT-53546,224.69582316185105,80.13404824103121,778.6527113066387,0.029976896340704356,-1049.9177119972637,10.5,10499998950.082289,47.655,-122.3035,60.0,3.033333333333333
2026-01-20T23:03:03+00:00,SAT-53546,226.63790536442204,80.56006032251875,778.6826082645891,0.09223712222866536,-3230.534183088042,10.5,10499996769.465816,47.655,-122.3035,60.0,3.05
2026-01-20T23:03:04+00:00,SAT-53546,228.7608716564741,80.9741008779194,778.7745994211585,0.15447496506537792,-5410.366705043887,10.5,10499994589.633295,47.655,-122.3035,60.0,3.066666666666667
2026-01-20T23:03:05+00:00,SAT-53546,231.08404553896918,81.37440098447614,778.9286624529838,0.21667549624785118,-7588.892415040133,10.5,10499992411.107586,47.655,-122.3035,60.0,3.0833333333333335
2026-01-20T23:03:06+00:00,SAT-53546,233.62782740510758,81.75893260339495,779.1447601479082,0.27882383072193806,-9765.589975516828,10.5,10499990234.410025,47.655,-122.3035,60.0,3.1
2026-01-20T23:03:07+00:00,SAT-53546,236.41307637303237,82.12538102775926,779.422840448415,0.340905146871897,-11939.940270795332,10.5,10499988060.059729,47.655,-122.3035,60.0,3.1166666666666667
2026-01-20T23:03:08+00:00,SAT-53546,239.46010028638096,82.47112409134733,779.7628365148952,0.402904700689559,-14111.426903342479,10.5,10499985888.573097,47.655,-122.3035,60.0,3.1333333333333333
2026-01-20T23:03:09+00:00,SAT-53546,242.78713729343536,82.79322501026634,780.1646668030496,0.46480784806332237,-16279.536974425437,10.5,10499983720.463026,47.655,-122.3035,60.0,3.15
2026-01-20T23:03:10+00:00,SAT-53546,246.40823535722132,83.08844841921571,780.6282351635181,0.5266000563645464,-18443.761489916258,10.5,10499981556.23851,47.655,-122.3035,60.0,3.1666666666666665
2026-01-20T23:03:11+00:00,SAT-53546,250.33051401202,83.3533114891106,781.1534309530656,0.588266923812631,-20603.596038538853,10.5,10499979396.403961,47.655,-122.3035,60.0,3.183333333333333
2026-01-20T23:03:12+00:00,SAT-53546,254.55095289311555,83.58418275242468,781.7401291650814,0.6497941958319426,-22758.54136475774,10.5,10499977241.458635,47.655,-122.3035,60.0,3.2
2026-01-20T23:03:13+00:00,SAT-53546,259.0531019654034,83.7774383550264,782.3881905763911,0.7111677819788355,-24908.103961633926,10.5,10499975091.896038,47.655,-122.3035,60.0,3.216666666666667
2026-01-20T23:03:14+00:00,SAT-53546,263.8044077096798,83.92967683811602,783.0974619109514,0.7723737693970252,-27051.79654208901,10.5,10499972948.203459,47.655,-122.3035,60.0,3.2333333333333334
2026-01-20T23:03:15+00:00,SAT-53546,268.75507562053133,84.03797841635082,783.8677760169633,0.8333984379817219,-29189.138570017258,10.5,10499970810.86143,47.655,-122.3035,60.0,3.25
2026-01-20T23:03:16+00:00,SAT-53546,273.8393534701605,84.10017565736416,784.6989520591105,0.8942282729598492,-31319.65670089811,10.5,10499968680.3433,47.655,-122.3035,60.0,3.2666666666666666
2026-01-20T23:03:17+00:00,SAT-53546,278.9796660907183,84.1150866045325,785.5907957233425,0.9548499902265779,-33442.88566918874,10.5,10499966557.11433,47.655,-122.3035,60.0,3.283333333333333
2026-01-20T23:03:18+00:00,SAT-53546,284.0932023049852,84.08265828718893,786.5430994469284,1.0152505334755364,-35558.368187811895,10.5,10499964441.631813,47.655,-122.3035,60.0,3.3
2026-01-20T23:03:19+00:00,SAT-53546,289.0996740007062,84.0039842890044,787.5556426456479,1.0754170908660046,-37665.65553191151,10.5,10499962334.344467,47.655,-122.3035,60.0,3.316666666666667
2026-01-20T23:03:20+00:00,SAT-53546,293.92850393783885,83.8811911374915,788.628191957605,1.1353371250482842,-39764.30859046822,10.5,10499960235.69141,47.655,-122.3035,60.0,3.3333333333333335
2026-01-20T23:03:21+00:00,SAT-53546,298.5239279400786,83.71722180529069,789.7605015169866,1.1949983540607332,-41853.89719723268,10.5,10499958146.102802,47.655,-122.3035,60.0,3.35
2026-01-20T23:03:22+00:00,SAT-53546,302.8472801945047,83.51556604856626,790.9523132087697,1.254388788518749,-43934.00143324107,10.5,10499956065.998568,47.655,-122.3035,60.0,3.3666666666666667
2026-01-20T23:03:23+00:00,SAT-53546,306.8766294441081,83.27998968869049,792.203356960519,1.3134967323905642,-46004.21165398672,10.5,10499953995.788345,47.655,-122.3035,60.0,3.3833333333333333
2026-01-20T23:03:24+00:00,SAT-53546,310.60454049392524,83.01430184568713,793.5133510349566,1.3723107830381591,-48064.128490853065,10.5,10499951935.87151,47.655,-122.3035,60.0,3.4
2026-01-20T23:03:25+00:00,SAT-53546,314.0349089968324,82.72217982850034,794.8820023225734,1.4308198546566115,-50113.363672058826,10.5,10499949886.636328,47.655,-122.3035,60.0,3.4166666666666665
2026-01-20T23:03:26+00:00,SAT-53546,317.1796615938342,82.40705431041125,796.3090066576175,1.489013181731008,-52151.54014373365,10.5,10499947848.459856,47.655,-122.3035,60.0,3.433333333333333
2026-01-20T23:03:27+00:00,SAT-53546,320.05582161669696,82.07204664145831,797.7940491375306,1.5468803212075575,-54178.2921459597,10.5,10499945821.707853,47.655,-122.3035,60.0,3.45
2026-01-20T23:03:28+00:00,SAT-53546,322.6831642734872,81.7199456820684,799.3368044445483,1.6044111636908174,-56193.26560494588,10.5,10499943806.734396,47.655,-122.3035,60.0,3.466666666666667
2026-01-20T23:03:29+00:00,SAT-53546,325.08249220573936,81.35321145047739,800.9369371784693,1.6615959379963263,-58196.11829248028,10.5,10499941803.881708,47.655,-122.3035,60.0,3.4833333333333334
2026-01-20T23:03:30+00:00,SAT-53546,327.2744576486694,80.97399499965934,802.5941021939643,1.7184252163054756,-60186.5200064756,10.5,10499939813.479994,47.655,-122.3035,60.0,3.5
2026-01-20T23:03:31+00:00,SAT-53546,329.2788181726038,80.58416669818705,804.3079449430263,1.7748899198973427,-62164.152771722154,10.5,10499937835.847229,47.655,-122.3035,60.0,3.5166666666666666
2026-01-20T23:03:32+00:00,SAT-53546,331.11401198327525,80.1853476383378,806.0781018231372,1.83098131851862,-64128.710817820196,10.5,10499935871.289183,47.655,-122.3035,60.0,3.533333333333333
2026-01-20T23:03:33+00:00,SAT-53546,332.7969553799477,79.77894090479484,807.9042005248064,1.886691029070379,-66079.9005331848,10.5,10499933920.099466,47.655,-122.3035,60.0,3.55
2026-01-20T23:03:34+00:00,SAT-53546,334.34298666405886,79.36616086997303,809.7858603777993,1.942011050620475,-68017.4416913283,10.5,10499931982.55831,47.655,-122.3035,60.0,3.566666666666667
2026-01-20T23:03:35+00:00,SAT-53546,335.76590126700626,78.94805962389282,811.7226927322848,1.9969337114921473,-69941.06559767941,10.5,10499930058.934402,47.655,-122.3035,60.0,3.5833333333333335
2026-01-20T23:03:36+00:00,SAT-53546,337.07803954828853,78.525550264662,813.714301287213,2.0514517097357214,-71850.51650707329,10.5,10499928149.483494,47.655,-122.3035,60.0,3.6
2026-01-20T23:03:37+00:00,SAT-53546,338.29040161355636,78.09942707598928,815.760282459056,2.1055581037234945,-73745.55129434475,10.5,10499926254.448706,47.655,-122.3035,60.0,3.6166666666666667
2026-01-20T23:03:38+00:00,SAT-53546,339.4127725412035,77.67038283038163,817.8602257411696,2.1592463054375504,-75625.93921923905,10.5,10499924374.060781,47.655,-122.3035,60.0,3.6333333333333333
2026-01-20T23:03:39+00:00,SAT-53546,340.4538478209673,77.23902352360177,820.0137140564593,2.2125100968017803,-77491.46249842847,10.5,10499922508.537502,47.655,-122.3035,60.0,3.65
2026-01-20T23:03:40+00:00,SAT-53546,341.4213530843987,76.8058808631179,822.2203241263362,2.2653436033778274,-79341.91538423287,10.5,10499920658.084616,47.655,-122.3035,60.0,3.6666666666666665
2026-01-20T23:03:41+00:00,SAT-53546,342.322154967494,76.37142283474184,824.4796268134385,2.3177412977348393,-81177.1042826428,10.5,10499918822.895718,47.655,-122.3035,60.0,3.683333333333333
2026-01-20T23:03:42+00:00,SAT-53546,343.16236175560556,75.93606262942666,826.7911874677127,2.369698022890847,-82996.8485743357,10.5,10499917003.151426,47.655,-122.3035,60.0,3.7
2026-01-20T23:03:43+00:00,SAT-53546,343.9474135335925,75.50016618107183,829.1545662958758,2.4212089622229804,-84800.97956080435,10.5,10499915199.02044,47.655,-122.3035,60.0,3.716666666666667
2026-01-20T23:03:44+00:00,SAT-53546,344.68216217150103,75.06405854561953,831.5693187008662,2.472269637107424,-86589.34038169817,10.5,10499913410.659618,47.655,-122.3035,60.0,3.7333333333333334
2026-01-20T23:03:45+00:00,SAT-53546,345.37094185378703,74.62802930308757,834.0349956189414,2.5228759083538645,-88361.78606506363,10.5,10499911638.213936,47.655,-122.3035,60.0,3.75
2026-01-20T23:03:46+00:00,SAT-53546,346.01763100530184,74.19233714004426,836.5511438582063,2.573023980418126,-90118.1836748886,10.5,10499909881.816324,47.655,-122.3035,60.0,3.7666666666666666
2026-01-20T23:03:47+00:00,SAT-53546,346.6257065136728,73.75721374481772,839.1173064413433,2.6227103907404814,-91858.41193768475,10.5,10499908141.588062,47.655,-122.3035,60.0,3.783333333333333
2026-01-20T23:03:48+00:00,SAT-53546,347.19829112476526,73.32286712885319,841.7330229377084,2.6719319838677373,-93582.36033613374,10.5,10499906417.639664,47.655,-122.3035,60.0,3.8
2026-01-20T23:03:49+00:00,SAT-53546,347.7381948351372,72.88948446891065,844.3978297696192,2.720685936562466,-95289.92998851856,10.5,10499904710.070011,47.655,-122.3035,60.0,3.816666666666667
2026-01-20T23:03:50+00:00,SAT-53546,348.2479510466234,72.45723453834819,847.1112605436841,2.7689697391022987,-96981.03299374574,10.5,10499903018.967007,47.655,-122.3035,60.0,3.8333333333333335
2026-01-20T23:03:51+00:00,SAT-53546,348.72984814717563,72.02626979903613,849.8728463634822,2.8167811908107643,-98655.59227481642,10.5,10499901344.407724,47.655,-122.3035,60.0,3.85
2026-01-20T23:03:52+00:00,SAT-53546,349.18595711876225,71.5967282047629,852.6821161377841,2.864118379526994,-100313.54085976853,10.5,10499899686.45914,47.655,-122.3035,60.0,3.8666666666666667
2026-01-20T23:03:53+00:00,SAT-53546,349.61815569370845,71.16873476292987,855.538596868299,2.910979695635507,-101954.82237305924,10.5,10499898045.177628,47.655,-122.3035,60.0,3.8833333333333333
2026-01-20T23:03:54+00:00,SAT-53546,350.02814952169734,70.7424028863139,858.4418139514128,2.9573638110436984,-103579.39029926775,10.5,10499896420.609701,47.655,-122.3035,60.0,3.9
2026-01-20T23:03:55+00:00,SAT-53546,350.4174907376982,70.31783557134891,861.3912914589604,3.0032696917464317,-105187.20842316032,10.5,10499894812.791576,47.655,-122.3035,60.0,3.9166666666666665
2026-01-20T23:03:56+00:00,SAT-53546,350.7875942787666,69.89512642393139,864.3865524315289,3.048696539663335,-106778.24879258643,10.5,10499893221.751207,47.655,-122.3035,60.0,3.933333333333333
2026-01-20T23:03:57+00:00,SAT-53546,351.1397522368906,69.4743605646553,867.4271191137531,3.0936438614866963,-108352.49412982335,10.5,10499891647.50587,47.655,-122.3035,60.0,3.95
2026-01-20T23:03:58+00:00,SAT-53546,351.4751465200291,69.05561541370335,870.5125132582758,3.1381113944144237,-109909.93523043014,10.5,10499890090.06477,47.655,-122.3035,60.0,3.966666666666667
2026-01-20T23:03:59+00:00,SAT-53546,351.79486002350717,68.63896139129183,873.6422563556386,3.182099142823685,-111450.57224771376,10.5,10499888549.427752,47.655,-122.3035,60.0,3.9833333333333334
2026-01-20T23:04:00+00:00,SAT-53546,352.09988651605835,68.22446253105372,876.815869900748,3.225607321943775,-112974.41271991452,10.5,10499887025.58728,47.655,-122.3035,60.0,4.0
2026-01-20T23:04:01+00:00,SAT-53546,352.39113939438363,67.8121770301149,880.0328756031665,3.2686364204144045,-114481.47376126204,10.5,10499885518.52624,47.655,-122.3035,60.0,4.016666666666667
2026-01-20T23:04:02+00:00,SAT-53546,352.6694594602433,67.40215772955008,883.2927956597932,3.3111871105438784,-115971.778918837,10.5,10499884028.22108,47.655,-122.3035,60.0,4.033333333333333
2026-01-20T23:04:03+00:00,SAT-53546,352.9356218278476,66.99445255310773,886.5951529380422,3.35326031157826,-117445.36038852496,10.5,10499882554.639612,47.655,-122.3035,60.0,4.05
2026-01-20T23:04:04+00:00,SAT-53546,353.1903420822694,66.58910489124548,889.939471222123,3.3948571351455055,-118902.2571042391,10.5,10499881097.742895,47.655,-122.3035,60.0,4.066666666666666
2026-01-20T23:04:05+00:00,SAT-53546,353.4342817700789,66.18615395138525,893.3252754049081,3.4359789076520726,-120342.51552234431,10.5,10499879657.484478,47.655,-122.3035,60.0,4.083333333333333
2026-01-20T23:04:06+00:00,SAT-53546,353.66805330864713,65.78563506974959,896.7520917021399,3.4766271373570126,-121766.18846845251,10.5,10499878233.811531,47.655,-122.3035,60.0,4.1
2026-01-20T23:04:07+00:00,SAT-53546,353.8922243791903,65.3875799958097,900.2194478337972,3.5168035019028054,-123173.33470069969,10.5,10499876826.665298,47.655,-122.3035,60.0,4.116666666666666
2026-01-20T23:04:08+00:00,SAT-53546,354.1073218656822,64.99201715042012,903.7268731930283,3.556509901396996,-124564.02076888956,10.5,10499875435.97923,47.655,-122.3035,60.0,4.133333333333334
2026-01-20T23:04:09+00:00,SAT-53546,354.31383539632975,64.59897185351592,907.2738990680216,3.595748363257584,-125938.31768177648,10.5,10499874061.682318,47.655,-122.3035,60.0,4.15
2026-01-20T23:04:10+00:00,SAT-53546,354.5122205237765,64.20846654106751,910.8600587689771,3.6345210950246742,-127296.30275675273,10.5,10499872703.697243,47.655,-122.3035,60.0,4.166666666666667
2026-01-20T23:04:11+00:00,SAT-53546,354.7029015940668,63.82052095670339,914.4848878077484,3.6728304551863746,-128638.05859804832,10.5,10499871361.941402,47.655,-122.3035,60.0,4.183333333333334
2026-01-20T23:04:12+00:00,SAT-53546,354.88627433401973,63.435152329501875,918.1479240483876,3.7106789462206393,-129963.67285302658,10.5,10499870036.327147,47.655,-122.3035,60.0,4.2
2026-01-20T23:04:13+00:00,SAT-53546,355.0627081894739,63.05237553716497,921.8487078507516,3.7480692225701153,-131273.23849149738,10.5,10499868726.761509,47.655,-122.3035,60.0,4.216666666666667
2026-01-20T23:04:14+00:00,SAT-53546,355.2325484420539,62.67220325467579,925.5867822220615,3.7850040555184488,-132566.85257553647,10.5,10499867433.147425,47.655,-122.3035,60.0,4.233333333333333
2026-01-20T23:04:15+00:00,SAT-53546,355.39611812628107,62.294646094270234,929.361692933432,3.8214863342395002,-133844.61629623367,10.5,10499866155.383703,47.655,-122.3035,60.0,4.25
2026-01-20T23:04:16+00:00,SAT-53546,355.553719769868,61.91971273407437,933.1729886374468,3.8575191063711958,-135106.63639476066,10.5,10499864893.363605,47.655,-122.3035,60.0,4.266666666666667
2026-01-20T23:04:17+00:00,SAT-53546,355.7056369773466,61.547410032753795,937.020221026201,3.893105494303985,-136353.02223043866,10.5,10499863646.97777,47.655,-122.3035,60.0,4.283333333333333
2026-01-20T23:04:18+00:00,SAT-53546,355.8521358678265,61.177743143437525,940.9029449058535,3.928248726125322,-137583.8868645451,10.5,10499862416.113136,47.655,-122.3035,60.0,4.3
2026-01-20T23:04:19+00:00,SAT-53546,355.9934663868298,60.81071561615748,944.8207183020426,3.9629521406505357,-138799.34723651595,10.5,10499861200.652763,47.655,-122.3035,60.0,4.316666666666666
2026-01-20T23:04:20+00:00,SAT-53546,356.12986350349706,60.446329492374005,948.7731025703181,3.997219166235019,-139999.52342185905,10.5,10499860000.476578,47.655,-122.3035,60.0,4.333333333333333
2026-01-20T23:04:21+00:00,SAT-53546,356.26154830371473,60.08458539468095,952.7596624854431,4.031053341389656,-141184.53935419346,10.5,10499858815.460646,47.655,-122.3035,60.0,4.35
2026-01-20T23:04:22+00:00,SAT-53546,356.3887289907653,59.725482608417295,956.7799663512557,4.064458215742512,-142354.51935650888,10.5,10499857645.480644,47.655,-122.3035,60.0,4.366666666666666
2026-01-20T23:04:23+00:00,SAT-53546,356.5116017986264,59.369019166408144,960.8335860117562,4.0974374960445274,-143509.59325490284,10.5,10499856490.406746,47.655,-122.3035,60.0,4.383333333333334
2026-01-20T23:04:24+00:00,SAT-53546,356.6303518341636,59.01519191529411,964.9200970078113,4.129994899020073,-144649.8912247845,10.5,10499855350.108776,47.655,-122.3035,60.0,4.4
2026-01-20T23:04:25+00:00,SAT-53546,356.7451538456521,58.66399659016715,969.0390785871006,4.162134239034992,-145775.5468613804,10.5,10499854224.453138,47.655,-122.3035,60.0,4.416666666666667
2026-01-20T23:04:26+00:00,SAT-53546,356.8561729317525,58.315427876937775,973.1901138014982,4.193859364378792,-146886.69494806742,10.5,10499853113.305052,47.655,-122.3035,60.0,4.433333333333334
2026-01-20T23:04:27+00:00,SAT-53546,356.9635651919929,57.96947947605429,977.3727895409053,4.225174189731511,-147983.47259349955,10.5,10499852016.527407,47.655,-122.3035,60.0,4.45
2026-01-20T23:04:28+00:00,SAT-53546,357.06747832678633,57.62614415957984,981.5866965994642,4.256082670771912,-149066.01834227954,10.5,10499850933.981657,47.655,-122.3035,60.0,4.466666666666667
2026-01-20T23:04:29+00:00,SAT-53546,357.1680521899808,57.28541382681441,985.8314297164474,4.286588820952797,-150134.4727625015,10.5,10499849865.527237,47.655,-122.3035,60.0,4.483333333333333
2026-01-20T23:04:30+00:00,SAT-53546,357.2654192992234,56.94727955522468,990.1065876338777,4.316696673880807,-151188.97712813198,10.5,10499848811.022871,47.655,-122.3035,60.0,4.5
2026-01-20T23:04:31+00:00,SAT-53546,357.35970530657465,56.61173165129239,994.4117731166281,4.34641029657409,-152229.67388335016,10.5,10499847770.326117,47.655,-122.3035,60.0,4.516666666666667
2026-01-20T23:04:32+00:00,SAT-53546,357.45102943402065,56.27875969732212,998.7465929857447,4.375733801630744,-153256.70706873757,10.5,10499846743.29293,47.655,-122.3035,60.0,4.533333333333333
2026-01-20T23:04:33+00:00,SAT-53546,357.53950487691424,55.948352594607655,1003.1106581639044,4.404671326761145,-154270.22160441417,10.5,10499845729.778395,47.655,-122.3035,60.0,4.55
2026-01-20T23:04:34+00:00,SAT-53546,357.62523917721904,55.620498605689065,1007.5035837004608,4.433227009207344,-155270.36239409703,10.5,10499844729.637606,47.655,-122.3035,60.0,4.566666666666666
2026-01-20T23:04:35+00:00,SAT-53546,357.7083345691843,55.29518539607563,1011.924988770977,4.461405034423789,-156257.27603010542,10.5,10499843742.72397,47.655,-122.3035,60.0,4.583333333333333
2026-01-20T23:04:36+00:00,SAT-53546,357.78888830113806,54.97240007007373,1016.374496725309,4.48920957552421,-157231.1086725344,10.5,10499842768.891327,47.655,-122.3035,60.0,4.6
2026-01-20T23:04:37+00:00,SAT-53546,357.86699293323795,54.652129208990495,1020.8517350752985,4.516644823653719,-158192.00711301432,10.5,10499841807.992887,47.655,-122.3035,60.0,4.616666666666666
2026-01-20T23:04:38+00:00,SAT-53546,357.94273661490536,54.33435890505189,1025.3563355127558,4.543715001859141,-159140.1192605085,10.5,10499840859.88074,47.655,-122.3035,60.0,4.633333333333334
2026-01-20T23:04:39+00:00,SAT-53546,358.0162033432281,54.01907479250744,1029.8879339412765,4.570424313350729,-160075.5923292195,10.5,10499839924.407671,47.655,-122.3035,60.0,4.65
2026-01-20T23:04:40+00:00,SAT-53546,358.0874732026437,53.706262080646894,1034.4461704564583,4.596776939928195,-160998.57278346224,10.5,10499839001.427217,47.655,-122.3035,60.0,4.666666666666667
2026-01-20T23:04:41+00:00,SAT-53546,358.15662258841604,53.39590558506811,1039.0306893245468,4.622777108291576,-161909.20866015097,10.5,10499838090.79134,47.655,-122.3035,60.0,4.683333333333334
2026-01-20T23:04:42+00:00,SAT-53546,358.223724416111,53.08798975284771,1043.6411390272162,4.648429037713408,-162807.6477360574,10.5,10499837192.352264,47.655,-122.3035,60.0,4.7
2026-01-20T23:04:43+00:00,SAT-53546,358.28884831628943,52.782498689862706,1048.2771722541625,4.673736900490839,-163694.03614267643,10.5,10499836305.963858,47.655,-122.3035,60.0,4.716666666666667
2026-01-20T23:04:44+00:00,SAT-53546,358.3520608157836,52.479416189223066,1052.938445856252,4.698704892205609,-164568.52082702794,10.5,10499835431.479174,47.655,-122.3035,60.0,4.733333333333333
2026-01-20T23:04:45+00:00,SAT-53546,358.41342550825505,52.178725753637146,1057.624620868745,4.7233371835509255,-165431.24786442996,10.5,10499834568.752136,47.655,-122.3035,60.0,4.75
2026-01-20T23:04:46+00:00,SAT-53546,358.4730032130115,51.88041061969687,1062.335362486473,4.747637949034816,-166282.36346381193,10.5,10499833717.636536,47.655,-122.3035,60.0,4.766666666666667
2026-01-20T23:04:47+00:00,SAT-53546,358.5308521241192,51.584453779069264,1067.0703400676439,4.771611321340602,-167122.01236922486,10.5,10499832877.98763,47.655,-122.3035,60.0,4.783333333333333
2026-01-20T23:04:48+00:00,SAT-53546,358.58702794943696,51.29083800140989,1071.8292270921274,4.795261433010574,-167950.33931978047,10.5,10499832049.66068,47.655,-122.3035,60.0,4.8
2026-01-20T23:04:49+00:00,SAT-53546,358.6415840415698,50.99954585350263,1076.611701161317,4.818592387099984,-168767.48802182954,10.5,10499831232.511978,47.655,-122.3035,60.0,4.816666666666666
2026-01-20T23:04:50+00:00,SAT-53546,358.6945715202666,50.71055971918718,1081.4174439687176,4.841608278551119,-169573.60189757257,10.5,10499830426.398102,47.655,-122.3035,60.0,4.833333333333333
2026-01-20T23:04:51+00:00,SAT-53546,358.74603938763846,50.42386181696012,1086.2461412918597,4.864313170343685,-170368.8232497453,10.5,10499829631.17675,47.655,-122.3035,60.0,4.85
2026-01-20T23:04:52+00:00,SAT-53546,358.79603463603354,50.13943421806505,1091.0974829604156,4.88671109211373,-171153.29321324744,10.5,10499828846.706787,47.655,-122.3035,60.0,4.866666666666666
2026-01-20T23:04:53+00:00,SAT-53546,358.844602349469,49.857258863703485,1095.9711628229504,4.908806056280848,-171927.15231998565,10.5,10499828072.84768,47.655,-122.3035,60.0,4.883333333333334
2026-01-20T23:04:54+00:00,SAT-53546,358.891785799174,49.57731758041188,1100.866878729748,4.930602059572328,-172690.54055225578,10.5,10499827309.459448,47.655,-122.3035,60.0,4.9
2026-01-20T23:04:55+00:00,SAT-53546,358.9376265335,49.29959209455888,1105.7843325171614,4.95210304497122,-173443.59601000304,10.5,10499826556.40399,47.655,-122.3035,60.0,4.916666666666667
2026-01-20T23:04:56+00:00,SAT-53546,358.9821644622029,49.02406404820403,1110.7232299540124,4.97331294188971,-174186.4563178636,10.5,10499825813.543682,47.655,-122.3035,60.0,4.933333333333334
2026-01-20T23:04:57+00:00,SAT-53546,359.02543793622857,48.75071501188657,1115.6832807280573,4.99423563623345,-174919.25757669067,10.5,10499825080.742424,47.655,-122.3035,60.0,4.95
2026-01-20T23:04:58+00:00,SAT-53546,359.0674838226577,48.47952649837989,1120.6641984025941,5.014875011335352,-175642.13579722945,10.5,10499824357.864202,47.655,-122.3035,60.0,4.966666666666667
2026-01-20T23:04:59+00:00,SAT-53546,359.1083375757401,48.21047997350988,1125.665700413899,5.03523488349656,-176355.22464248879,10.5,10499823644.775358,47.655,-122.3035,60.0,4.983333333333333
2026-01-20T23:05:00+00:00,SAT-53546,359.14803330335025,47.9435568698317,1130.6875080043728,5.055319038907084,-177058.65672085845,10.5,10499822941.343279,47.655,-122.3035,60.0,5.0
2026-01-20T23:05:01+00:00,SAT-53546,359.1866038300725,47.67873859761683,1135.7293461925096,5.075131255202957,-177752.5643411318,10.5,10499822247.43566,47.655,-122.3035,60.0,5.016666666666667
2026-01-20T23:05:02+00:00,SAT-53546,359.2240807569776,47.41600655413653,1140.7909437643655,5.094675239441071,-178437.0773401219,10.5,10499821562.92266,47.655,-122.3035,60.0,5.033333333333333
2026-01-20T23:05:03+00:00,SAT-53546,359.2604945175744,47.15534213563096,1145.872033203168,5.113954698010894,-179112.325531266,10.5,10499820887.674469,47.655,-122.3035,60.0,5.05
2026-01-20T23:05:04+00:00,SAT-53546,359.2958744313352,46.89672674507253,1150.972350688651,5.132973269109727,-179778.4363396231,10.5,10499820221.56366,47.655,-122.3035,60.0,5.066666666666666
2026-01-20T23:05:05+00:00,SAT-53546,359.33024875374406,46.64014180289713,1156.091636029043,5.151734567626515,-180435.53637389507,10.5,10499819564.463627,47.655,-122.3035,60.0,5.083333333333333
2026-01-20T23:05:06+00:00,SAT-53546,359.36364472407683,46.38556875490764,1161.2296326378225,5.1702421743440885,-181083.75104824328,10.5,10499818916.248951,47.655,-122.3035,60.0,5.1
2026-01-20T23:05:07+00:00,SAT-53546,359.39608861051295,46.13298908027778,1166.3860874997017,5.188499641740732,-181723.20478548427,10.5,10499818276.795214,47.655,-122.3035,60.0,5.116666666666666
2026-01-20T23:05:08+00:00,SAT-53546,359.4276057529575,45.88238429882542,1171.5607511423977,5.206510447099557,-182354.01937478143,10.5,10499817645.980625,47.655,-122.3035,60.0,5.133333333333334
2026-01-20T23:05:09+00:00,SAT-53546,359.4582206032699,45.63373598011703,1176.7533775616384,5.224278056347244,-182976.31620754802,10.5,10499817023.683792,47.655,-122.3035,60.0,5.15
2026-01-20T23:05:10+00:00,SAT-53546,359.4879567638883,45.38702574902622,1181.9637242098354,5.241805904714003,-183590.21560007698,10.5,10499816409.784399,47.655,-122.3035,60.0,5.166666666666667
2026-01-20T23:05:11+00:00,SAT-53546,359.5168370243114,45.14223529188999,1187.1915519654701,5.259097361691814,-184195.8355662304,10.5,10499815804.164434,47.655,-122.3035,60.0,5.183333333333334
2026-01-20T23:05:12+00:00,SAT-53546,359.5448833955217,44.899346363917026,1192.4366250675307,5.276155765377639,-184793.2930202841,10.5,10499815206.70698,47.655,-122.3035,60.0,5.2
2026-01-20T23:05:13+00:00,SAT-53546,359.5721171428698,44.65834079459249,1197.6987110842008,5.292984447239982,-185382.704644357,10.5,10499814617.295355,47.655,-122.3035,60.0,5.216666666666667
2026-01-20T23:05:14+00:00,SAT-53546,359.59855881749075,44.41920049164692,1202.9775809062482,5.309586642868126,-185964.18376247253,10.5,10499814035.816238,47.655,-122.3035,60.0,5.233333333333333
2026-01-20T23:05:15+00:00,SAT-53546,359.6242282855894,44.181907448768236,1208.2730086514018,5.325965580931188,-186537.84345628027,10.5,10499813462.156544,47.655,-122.3035,60.0,5.25
2026-01-20T23:05:16+00:00,SAT-53546,359.6491447568565,43.94644374891521,1213.5847716574506,5.342124449744103,-187103.79539405584,10.5,10499812896.204605,47.655,-122.3035,60.0,5.266666666666667
2026-01-20T23:05:17+00:00,SAT-53546,359.6733268112558,43.71279156888392,1218.9126504419953,5.358066412013379,-187662.15034715942,10.5,10499812337.849653,47.655,-122.3035,60.0,5.283333333333333
2026-01-20T23:05:18+00:00,SAT-53546,359.69679242461643,43.48093318295349,1224.25642867691,5.3737945299227015,-188213.01556621667,10.5,10499811786.984434,47.655,-122.3035,60.0,5.3
2026-01-20T23:05:19+00:00,SAT-53546,359.719558992596,43.250850969492966,1229.6158930880863,5.38931190551619,-188756.49969793437,10.5,10499811243.500301,47.655,-122.3035,60.0,5.316666666666666
2026-01-20T23:05:20+00:00,SAT-53546,359.7416433542346,43.02252741121807,1234.9908334951879,5.404621534590821,-189292.70766779472,10.5,10499810707.292332,47.655,-122.3035,60.0,5.333333333333333
2026-01-20T23:05:21+00:00,SAT-53546,359.7630618136281,42.795945101520616,1240.3810427056862,5.419726440353378,-189821.74536128744,10.5,10499810178.254639,47.655,-122.3035,60.0,5.35
2026-01-20T23:05:22+00:00,SAT-53546,359.78383016127503,42.57108674486054,1245.7863165421988,5.434629520883128,-190343.71428140745,10.5,10499809656.285719,47.655,-122.3035,60.0,5.366666666666666
2026-01-20T23:05:23+00:00,SAT-53546,359.80396369366446,42.34793516334936,1251.206453717693,5.449333710947471,-190858.717216123,10.5,10499809141.282784,47.655,-122.3035,60.0,5.383333333333334
2026-01-20T23:05:24+00:00,SAT-53546,359.8234772327498,42.12647329635009,1256.6412558720779,5.463841877423777,-191366.85457560662,10.5,10499808633.145424,47.655,-122.3035,60.0,5.4
2026-01-20T23:05:25+00:00,SAT-53546,359.842385144003,41.90668420425968,1262.0905275044952,5.478156858000067,-191868.2257476961,10.5,10499808131.774252,47.655,-122.3035,60.0,5.416666666666667
2026-01-20T23:05:26+00:00,SAT-53546,359.8607013538588,41.688551070491464,1267.5540759442072,5.492281399697192,-192362.92694468156,10.5,10499807637.073055,47.655,-122.3035,60.0,5.433333333333334
2026-01-20T23:05:27+00:00,SAT-53546,359.8784393660881,41.4720572057105,1273.0317112601717,5.506218300815888,-192851.0561748916,10.5,10499807148.943825,47.655,-122.3035,60.0,5.45
2026-01-20T23:05:28+00:00,SAT-53546,359.89561227802585,41.25718604625863,1278.5232463121856,5.519970250244035,-193332.70761455368,10.5,10499806667.292385,47.655,-122.3035,60.0,5.466666666666667
2026-01-20T23:05:29+00:00,SAT-53546,359.9122327954224,41.043921158807784,1284.0284966417623,5.533539932601229,-193807.9752904021,10.5,10499806192.02471,47.655,-122.3035,60.0,5.483333333333333
2026-01-20T23:05:30+00:00,SAT-53546,359.9283132470608,40.832246240687084,1289.5472804678766,5.546929975206812,-194276.95122227367,10.5,10499805723.048779,47.655,-122.3035,60.0,5.5
2026-01-20T23:05:31+00:00,SAT-53546,359.9438655985082,40.622145122137695,1295.0794186298162,5.560142977969546,-194739.7264699709,10.5,10499805260.273531,47.655,-122.3035,60.0,5.516666666666667
2026-01-20T23:05:32+00:00,SAT-53546,359.958901465409,40.41360176726949,1300.6247345598445,5.573181513287496,-195196.3911297552,10.5,10499804803.60887,47.655,-122.3035,60.0,5.533333333333333
2026-01-20T23:05:33+00:00,SAT-53546,359.9734321261597,40.20660027491001,1306.1830542557634,5.586048102310099,-195647.03350294437,10.5,10499804352.966497,47.655,-122.3035,60.0,5.55
2026-01-20T23:05:34+00:00,SAT-53546,359.9874685339928,40.001124880217866,1311.7542062298005,5.5987452341382005,-196091.74076837883,10.5,10499803908.259232,47.655,-122.3035,60.0,5.566666666666666
2026-01-20T23:05:35+00:00,SAT-53546,0.0010213285800808583,39.797159955448635,1317.3380214766476,5.6112753630245225,-196530.59888437047,10.5,10499803469.401115,47.655,-122.3035,60.0,5.583333333333333
2026-01-20T23:05:36+00:00,SAT-53546,0.014100847150208567,39.594690010719766,1322.934333438704,5.623640915710833,-196963.69284568113,10.5,10499803036.307154,47.655,-122.3035,60.0,5.6
2026-01-20T23:05:37+00:00,SAT-53546,0.026717135151084228,39.39369969441048,1328.5429779786398,5.635844240790716,-197391.1049099925,10.5,10499802608.89509,47.655,-122.3035,60.0,5.616666666666666
2026-01-20T23:05:38+00:00,SAT-53546,0.03887995632508054,39.19417379526102,1334.163793301455,5.6478877293210346,-197812.91882223022,10.5,10499802187.081179,47.655,-122.3035,60.0,5.633333333333334
2026-01-20T23:05:39+00:00,SAT-53546,0.05059880269505288,38.99609724008304,1339.796619996831,5.65977366507651,-198229.21456984535,10.5,10499801770.78543,47.655,-122.3035,60.0,5.65
2026-01-20T23:05:40+00:00,SAT-53546,0.06188290373839899,38.79945509671205,1345.441300932134,5.671504355021933,-198640.07295250334,10.5,10499801359.927048,47.655,-122.3035,60.0,5.666666666666667
2026-01-20T23:05:41+00:00,SAT-53546,0.0727412355135599,38.604232572264884,1351.0976812755425,5.6830819955365195,-199045.570896695,10.5,10499800954.429104,47.655,-122.3035,60.0,5.683333333333334
2026-01-20T23:05:42+00:00,SAT-53546,0.08318252909280238,38.410415015965214,1356.7656083857578,5.694508850607202,-199445.78769681932,10.5,10499800554.212303,47.655,-122.3035,60.0,5.7
2026-01-20T23:05:43+00:00,SAT-53546,0.0932152790783667,38.21798791576276,1362.44493187943,5.7057870546762,-199840.79811007157,10.5,10499800159.201889,47.655,-122.3035,60.0,5.716666666666667
2026-01-20T23:05:44+00:00,SAT-53546,0.10284775131037481,38.026936901637924,1368.1355035019603,5.716918796190437,-200230.67878512005,10.5,10499799769.321215,47.655,-122.3035,60.0,5.733333333333333
2026-01-20T23:05:45+00:00,SAT-53546,0.11208799068821393,37.83724774260188,1373.837177181361,5.7279061345448445,-200615.50185068653,10.5,10499799384.49815,47.655,-122.3035,60.0,5.75
2026-01-20T23:05:46+00:00,SAT-53546,0.12094382827046715,37.64890634978521,1379.5498088995469,5.738751199166783,-200995.3418883247,10.5,10499799004.658112,47.655,-122.3035,60.0,5.766666666666667
2026-01-20T23:05:47+00:00,SAT-53546,0.12942288852844752,37.46189877283778,1385.2732567621829,5.749456014475502,-201370.2698017599,10.5,10499798629.730198,47.655,-122.3035,60.0,5.783333333333333
2026-01-20T23:05:48+00:00,SAT-53546,0.13753259595209585,37.276211202082486,1391.0073808939528,5.760022603475107,-201740.35644515324,10.5,10499798259.643555,47.655,-122.3035,60.0,5.8
2026-01-20T23:05:49+00:00,SAT-53546,0.145280181587588,37.091829967189724,1396.7520434371522,5.770452948476301,-202105.67124741062,10.5,10499797894.328753,47.655,-122.3035,60.0,5.816666666666666
2026-01-20T23:05:50+00:00,SAT-53546,0.15267268928105998,36.90874153709669,1402.5071085110992,5.780749025740184,-202466.28342555548,10.5,10499797533.716574,47.655,-122.3035,60.0,5.833333333333333
2026-01-20T23:05:51+00:00,SAT-53546,0.15971698170550125,36.726932518783514,1408.272442206104,5.790912732834097,-202822.2594404227,10.5,10499797177.740559,47.655,-122.3035,60.0,5.85
2026-01-20T23:05:52+00:00,SAT-53546,0.16641974605800816,36.54638965830176,1414.0479125049837,5.800945986101557,-203173.66641046837,10.5,10499796826.33359,47.655,-122.3035,60.0,5.866666666666666
2026-01-20T23:05:53+00:00,SAT-53546,0.17278749969520224,36.36709983868745,1419.8333893017893,5.8108506439528425,-203520.56942508157,10.5,10499796479.430574,47.655,-122.3035,60.0,5.883333333333334
2026-01-20T23:05:54+00:00,SAT-53546,0.1788265954280535,36.189050080259854,1425.6287443440249,5.820628560268211,-203863.0334149908,10.5,10499796136.966585,47.655,-122.3035,60.0,5.9
2026-01-20T23:05:55+00:00,SAT-53546,0.18454322670668716,36.01222753922498,1431.4338512281324,5.83028153601081,-204201.1214575435,10.5,10499795798.878542,47.655,-122.3035,60.0,5.916666666666667
2026-01-20T23:05:56+00:00,SAT-53546,0.1899434325366128,35.836619507740025,1437.248585346714,5.8398113435211,-204534.89562759965,10.5,10499795465.104372,47.655,-122.3035,60.0,5.933333333333334
2026-01-20T23:05:57+00:00,SAT-53546,0.19503310223679715,35.66221341318847,1443.0728238599854,5.849219753680703,-204864.4179489245,10.5,10499795135.58205,47.655,-122.3035,60.0,5.95
2026-01-20T23:05:58+00:00,SAT-53546,0.19981798009262186,35.488996816635115,1448.906445694323,5.8585084881420215,-205189.74872106765,10.5,10499794810.25128,47.655,-122.3035,60.0,5.966666666666667
2026-01-20T23:05:59+00:00,SAT-53546,0.20430366972892067,35.316957412685596,1454.7493314931635,5.867679253837631,-205510.94772802832,10.5,10499794489.052273,47.655,-122.3035,60.0,5.983333333333333
2026-01-20T23:06:00+00:00,SAT-53546,0.20849563841128546,35.14608302830164,1460.6013636023242,5.876733704525842,-205828.0728914179,10.5,10499794171.927109,47.655,-122.3035,60.0,6.0
2026-01-20T23:06:01+00:00,SAT-53546,0.21239922110301335,34.97636162271418,1466.4624260169712,5.885673519357652,-206141.18302220711,10.5,10499793858.816978,47.655,-122.3035,60.0,6.016666666666667
2026-01-20T23:06:02+00:00,SAT-53546,0.21601962451549345,34.80778128504771,1472.3324044069439,5.8945003002638785,-206450.33422678942,10.5,10499793549.665773,47.655,-122.3035,60.0,6.033333333333333
2026-01-20T23:06:03+00:00,SAT-53546,0.2193619308479645,34.640330234899295,1478.2111860397404,5.903215650527205,-206755.58265890618,10.5,10499793244.417341,47.655,-122.3035,60.0,6.05
2026-01-20T23:06:04+00:00,SAT-53546,0.22243110151974174,34.47399682063426,1484.0986597818662,5.911821146555904,-207056.9835310433,10.5,10499792943.016468,47.655,-122.3035,60.0,6.066666666666666
2026-01-20T23:06:05+00:00,SAT-53546,0.22523198071163303,34.308769518486926,1489.9947160720312,5.9203183116083755,-207354.5901941534,10.5,10499792645.409805,47.655,-122.3035,60.0,6.083333333333333
2026-01-20T23:06:06+00:00,SAT-53546,0.22776929878339763,34.144636932379605,1495.8992468681422,5.92870872459003,-207648.45794818268,10.5,10499792351.542051,47.655,-122.3035,60.0,6.1
2026-01-20T23:06:07+00:00,SAT-53546,0.23004767565148104,33.98158779071556,1501.8121457027999,5.936993809364439,-207938.6366628563,10.5,10499792061.363337,47.655,-122.3035,60.0,6.116666666666666
2026-01-20T23:06:08+00:00,SAT-53546,0.23207162386985306,33.81961094898799,1507.7333075286726,5.945175113105804,-208225.18052675942,10.5,10499791774.819473,47.655,-122.3035,60.0,6.133333333333334
2026-01-20T23:06:09+00:00,SAT-53546,0.2338455518464983,33.65869538472165,1513.6626288414768,5.953254043036041,-208508.138826756,10.5,10499791491.861174,47.655,-122.3035,60.0,6.15
2026-01-20T23:06:10+00:00,SAT-53546,0.23537376672735327,33.49883019962608,1519.600007540398,5.9612320655003,-208787.56292045597,10.5,10499791212.43708,47.655,-122.3035,60.0,6.166666666666667
