satellites_20260121_005943/SAT-60103.csv

timestamp,satellite,azimuth_deg,elevation_deg,distance_km,relative_velocity_kms,doppler_shift_hz,tx_freq_ghz,rx_freq_hz,ue_lat,ue_lon,ue_alt_m,time_minutes
2026-01-20T23:07:43+00:00,SAT-60103,205.0182459823192,30.041316808022515,1337.667174936809,-5.580288955822706,195445.32383179036,10.5,10500195445.323832,47.655,-122.3035,60.0,7.716666666666667
2026-01-20T23:07:44+00:00,SAT-60103,205.05735484292842,30.24260523802416,1332.1017667515353,-5.567019975731792,194980.58802127643,10.5,10500194980.58802,47.655,-122.3035,60.0,7.733333333333333
2026-01-20T23:07:45+00:00,SAT-60103,205.09721642863144,30.445332433942365,1326.5495921624054,-5.553577394517675,194509.7719650959,10.5,10500194509.771965,47.655,-122.3035,60.0,7.75
2026-01-20T23:07:46+00:00,SAT-60103,205.13784494390575,30.649512229664985,1321.0108243076065,-5.539958771461778,194032.79017896,10.5,10500194032.790178,47.655,-122.3035,60.0,7.766666666666667
2026-01-20T23:07:47+00:00,SAT-60103,205.1792549509481,30.85515855121641,1315.4856387595353,-5.526161554533201,193549.55327995145,10.5,10500193549.55328,47.655,-122.3035,60.0,7.783333333333333
2026-01-20T23:07:48+00:00,SAT-60103,205.22146138030425,31.062285411803366,1309.974213635814,-5.512183254089841,193059.97407027276,10.5,10500193059.97407,47.655,-122.3035,60.0,7.8
2026-01-20T23:07:49+00:00,SAT-60103,205.26447954319767,31.270906913024824,1304.4767295370686,-5.4980212394794545,192563.9604133546,10.5,10500192563.960413,47.655,-122.3035,60.0,7.816666666666666
2026-01-20T23:07:50+00:00,SAT-60103,205.3083251427697,31.481037238472208,1298.9933696875612,-5.483672932267087,192061.42200149817,10.5,10500192061.422,47.655,-122.3035,60.0,7.833333333333333
2026-01-20T23:07:51+00:00,SAT-60103,205.35301428725748,31.692690654270613,1293.5243198831133,-5.469135679864965,191552.26592985916,10.5,10500191552.26593,47.655,-122.3035,60.0,7.85
2026-01-20T23:07:52+00:00,SAT-60103,205.39856350266692,31.90588150478852,1288.0697685650612,-5.45440679040958,191036.39791799095,10.5,10500191036.397919,47.655,-122.3035,60.0,7.866666666666666
2026-01-20T23:07:53+00:00,SAT-60103,205.44498974622027,32.12062420941489,1282.6299068594262,-5.439483541103361,190513.72260200517,10.5,10500190513.722603,47.655,-122.3035,60.0,7.883333333333334
2026-01-20T23:07:54+00:00,SAT-60103,205.4923104203688,32.336933259469596,1277.2049286077659,-5.424363202047886,189984.14436931163,10.5,10500189984.14437,47.655,-122.3035,60.0,7.9
2026-01-20T23:07:55+00:00,SAT-60103,205.54054338759394,32.554823215856935,1271.7950303742566,-5.409042969709027,189447.5650282863,10.5,10500189447.56503,47.655,-122.3035,60.0,7.916666666666667
2026-01-20T23:07:56+00:00,SAT-60103,205.5897069851758,32.77430870390966,1266.4004115191335,-5.393520010200756,188903.88532425303,10.5,10500188903.885324,47.655,-122.3035,60.0,7.933333333333334
2026-01-20T23:07:57+00:00,SAT-60103,205.63982004092392,32.995404409662086,1261.02127422896,-5.377791476642881,188353.00554742524,10.5,10500188353.005547,47.655,-122.3035,60.0,7.95
2026-01-20T23:07:58+00:00,SAT-60103,205.6909018897042,33.218125076621305,1255.6578235295883,-5.361854462967427,187794.82391500985,10.5,10500187794.823915,47.655,-122.3035,60.0,7.966666666666667
2026-01-20T23:07:59+00:00,SAT-60103,205.7429723901917,33.44248550043182,1250.3102673451885,-5.345706059518642,187229.23851855454,10.5,10500187229.238518,47.655,-122.3035,60.0,7.983333333333333
2026-01-20T23:08:00+00:00,SAT-60103,205.7960519428082,33.66850052555134,1244.9788165018288,-5.329343252107591,186656.1437884128,10.5,10500186656.14379,47.655,-122.3035,60.0,8.0
2026-01-20T23:08:01+00:00,SAT-60103,205.85016150740003,33.89618503745871,1239.6636848317269,-5.312763077149035,186075.43592729364,10.5,10500186075.435926,47.655,-122.3035,60.0,8.016666666666667
2026-01-20T23:08:02+00:00,SAT-60103,205.90532262317464,34.12555396105661,1234.3650891227835,-5.295962485093378,185487.00812707059,10.5,10500185487.008127,47.655,-122.3035,60.0,8.033333333333333
2026-01-20T23:08:03+00:00,SAT-60103,205.96155742807943,34.356622253082264,1229.083249204317,-5.278938390975475,184890.75233921493,10.5,10500184890.752338,47.655,-122.3035,60.0,8.05
2026-01-20T23:08:04+00:00,SAT-60103,206.01888867945152,34.589404896290525,1223.8183879823841,-5.261687669066129,184286.5590874683,10.5,10500184286.559088,47.655,-122.3035,60.0,8.066666666666666
2026-01-20T23:08:05+00:00,SAT-60103,206.07733977548855,34.823916893086604,1218.5707314804354,-5.24420722997538,183674.32016832623,10.5,10500183674.320168,47.655,-122.3035,60.0,8.083333333333334
2026-01-20T23:08:06+00:00,SAT-60103,206.13693477847497,35.06017326224957,1213.3405088030734,-5.2264938284676745,183053.9219199123,10.5,10500183053.92192,47.655,-122.3035,60.0,8.1
2026-01-20T23:08:07+00:00,SAT-60103,206.19769843676661,35.298189026804444,1208.1279522914817,-5.208544250323606,182425.25176666674,10.5,10500182425.251766,47.655,-122.3035,60.0,8.116666666666667
2026-01-20T23:08:08+00:00,SAT-60103,206.2596562098446,35.53797920975314,1202.9332974924923,-5.190355291919132,181788.19750412428,10.5,10500181788.197504,47.655,-122.3035,60.0,8.133333333333333
2026-01-20T23:08:09+00:00,SAT-60103,206.3228342942359,35.77955882863227,1197.7567831480183,-5.171923611612205,181142.6420938453,10.5,10500181142.642094,47.655,-122.3035,60.0,8.15
2026-01-20T23:08:10+00:00,SAT-60103,206.38725964868783,36.022942882889815,1192.5986513327036,-5.153245932477484,180488.47076404296,10.5,10500180488.470764,47.655,-122.3035,60.0,8.166666666666666
2026-01-20T23:08:11+00:00,SAT-60103,206.45296002293182,36.268146350084024,1187.4591473893793,-5.134318844307214,179825.56407481656,10.5,10500179825.564075,47.655,-122.3035,60.0,8.183333333333334
2026-01-20T23:08:12+00:00,SAT-60103,206.5199639851759,36.515184172524954,1182.3385200619905,-5.115139020249052,179153.8055057244,10.5,10500179153.805506,47.655,-122.3035,60.0,8.2
2026-01-20T23:08:13+00:00,SAT-60103,206.58830095357578,36.76407125356592,1177.237021412462,-5.095702983952474,178473.0733002662,10.5,10500178473.0733,47.655,-122.3035,60.0,8.216666666666667
2026-01-20T23:08:14+00:00,SAT-60103,206.65800122601198,37.01482244246067,1172.1549069698,-5.076007311899956,177783.24755237685,10.5,10500177783.247553,47.655,-122.3035,60.0,8.233333333333333
2026-01-20T23:08:15+00:00,SAT-60103,206.7290960138488,37.26745252830268,1167.0924356773985,-5.056048507219824,177084.20578681855,10.5,10500177084.205788,47.655,-122.3035,60.0,8.25
2026-01-20T23:08:16+00:00,SAT-60103,206.80161747549874,37.521976227460186,1162.049869966198,-5.03582306113586,176375.82511140598,10.5,10500176375.825111,47.655,-122.3035,60.0,8.266666666666667
2026-01-20T23:08:17+00:00,SAT-60103,206.87559875227433,37.77840817339311,1157.0274757665584,-5.0153274022174985,175657.9804395337,10.5,10500175657.98044,47.655,-122.3035,60.0,8.283333333333333
2026-01-20T23:08:18+00:00,SAT-60103,206.95107400512134,38.03676290341933,1152.025522570747,-4.994557956513403,174930.5465963081,10.5,10500174930.546597,47.655,-122.3035,60.0,8.3
2026-01-20T23:08:19+00:00,SAT-60103,207.0280784538665,38.29705484785844,1147.0442834354508,-4.973511154384991,174193.3985578864,10.5,10500174193.398558,47.655,-122.3035,60.0,8.316666666666666
2026-01-20T23:08:20+00:00,SAT-60103,207.10664841836794,38.55929831903522,1142.0840349774776,-4.952183299800186,173446.40687359107,10.5,10500173446.406874,47.655,-122.3035,60.0,8.333333333333334
2026-01-20T23:08:21+00:00,SAT-60103,207.18682135945986,38.823507492832285,1137.14505749981,-4.930570780647844,172689.44503201064,10.5,10500172689.445032,47.655,-122.3035,60.0,8.35
2026-01-20T23:08:22+00:00,SAT-60103,207.2686359251019,39.089696400490006,1132.2276349079107,-4.9086698699225595,171922.3824976507,10.5,10500171922.382498,47.655,-122.3035,60.0,8.366666666666667
2026-01-20T23:08:23+00:00,SAT-60103,207.35213199540473,39.35787890932777,1127.332054824308,-4.886476890353445,171145.0904769298,10.5,10500171145.090477,47.655,-122.3035,60.0,8.383333333333333
2026-01-20T23:08:24+00:00,SAT-60103,207.43735073250878,39.628068711476146,1122.4586085389956,-4.863988049527211,170357.43614349267,10.5,10500170357.436144,47.655,-122.3035,60.0,8.4
2026-01-20T23:08:25+00:00,SAT-60103,207.52433462988205,39.9002793029352,1117.607591124267,-4.841199661376445,169559.29039566655,10.5,10500169559.290396,47.655,-122.3035,60.0,8.416666666666666
2026-01-20T23:08:26+00:00,SAT-60103,207.6131275678707,40.17452397398493,1112.7793013286541,-4.818107869054868,168750.5181503803,10.5,10500168750.51815,47.655,-122.3035,60.0,8.433333333333334
2026-01-20T23:08:27+00:00,SAT-60103,207.70377486682816,40.45081578347463,1107.97404174725,-4.794708919730746,167930.98796759202,10.5,10500167930.987968,47.655,-122.3035,60.0,8.45
2026-01-20T23:08:28+00:00,SAT-60103,207.79632334781274,40.72916754752878,1103.1921187179719,-4.770998960704365,167100.5649094609,10.5,10500167100.564909,47.655,-122.3035,60.0,8.466666666666667
2026-01-20T23:08:29+00:00,SAT-60103,207.89082139232875,41.00959181593266,1098.4338424211628,-4.746974203606847,166259.11629128407,10.5,10500166259.116291,47.655,-122.3035,60.0,8.483333333333333
2026-01-20T23:08:30+00:00,SAT-60103,207.9873190081265,41.29210085698749,1093.6995268154324,-4.722630731057477,165406.50490981835,10.5,10500165406.50491,47.655,-122.3035,60.0,8.5
2026-01-20T23:08:31+00:00,SAT-60103,208.08586789427065,41.57670663014721,1088.9894897663241,-4.697964718314473,164542.59680642787,10.5,10500164542.596806,47.655,-122.3035,60.0,8.516666666666667
2026-01-20T23:08:32+00:00,SAT-60103,208.1865215138821,41.86342077060543,1084.3040529539253,-4.672972297287446,163667.25650422525,10.5,10500163667.256504,47.655,-122.3035,60.0,8.533333333333333
2026-01-20T23:08:33+00:00,SAT-60103,208.28933516763112,42.152254564925215,1079.6435419160973,-4.6476495411779855,162780.3464701198,10.5,10500162780.34647,47.655,-122.3035,60.0,8.55
2026-01-20T23:08:34+00:00,SAT-60103,208.39436607043828,42.44321892451172,1075.008286107029,-4.621992601663164,161881.73191956425,10.5,10500161881.73192,47.655,-122.3035,60.0,8.566666666666666
2026-01-20T23:08:35+00:00,SAT-60103,208.50167343500604,42.73632436631669,1070.3986188189704,-4.595997540686872,160971.27492517556,10.5,10500160971.274925,47.655,-122.3035,60.0,8.583333333333334
2026-01-20T23:08:36+00:00,SAT-60103,208.61131855567544,43.031580982053086,1065.8148772717254,-4.569660501270689,160048.84039925458,10.5,10500160048.840399,47.655,-122.3035,60.0,8.6
2026-01-20T23:08:37+00:00,SAT-60103,208.72336490048554,43.328998416791926,1061.2574025317915,-4.542977539256052,159114.2902006846,10.5,10500159114.290201,47.655,-122.3035,60.0,8.616666666666667
2026-01-20T23:08:38+00:00,SAT-60103,208.83787820376722,43.628585835656274,1056.7265395993068,-4.515944784190117,158167.48876983498,10.5,10500158167.48877,47.655,-122.3035,60.0,8.633333333333333
2026-01-20T23:08:39+00:00,SAT-60103,208.95492656741055,43.930351899412194,1052.222637334541,-4.488558334888746,157208.29947073534,10.5,10500157208.29947,47.655,-122.3035,60.0,8.65
2026-01-20T23:08:40+00:00,SAT-60103,209.0745805646619,44.23430473199397,1047.7460484885453,-4.460814318076442,156236.58664489366,10.5,10500156236.586645,47.655,-122.3035,60.0,8.666666666666666
2026-01-20T23:08:41+00:00,SAT-60103,209.19691335074364,44.54045189037106,1043.2971296753171,-4.432708824419891,155252.21337092094,10.5,10500155252.213371,47.655,-122.3035,60.0,8.683333333333334
2026-01-20T23:08:42+00:00,SAT-60103,209.3220007774383,44.84880032858205,1038.8762414077623,-4.4042380255566265,154255.04556336964,10.5,10500154255.045563,47.655,-122.3035,60.0,8.7
2026-01-20T23:08:43+00:00,SAT-60103,209.44992151683482,45.15935636808934,1034.4837480169406,-4.37539808132116,153244.94872340045,10.5,10500153244.948723,47.655,-122.3035,60.0,8.716666666666667
2026-01-20T23:08:44+00:00,SAT-60103,209.5807571890108,45.47212566029141,1030.1200176638363,-4.346185147176293,152221.7881990583,10.5,10500152221.788198,47.655,-122.3035,60.0,8.733333333333333
2026-01-20T23:08:45+00:00,SAT-60103,209.71459249651363,45.78711314762904,1025.7854223437191,-4.316595439704735,151185.43147906582,10.5,10500151185.431479,47.655,-122.3035,60.0,8.75
2026-01-20T23:08:46+00:00,SAT-60103,209.8515153679478,46.104323027537944,1021.4803378251869,-4.286625184806644,150135.74637848217,10.5,10500150135.746378,47.655,-122.3035,60.0,8.766666666666667
2026-01-20T23:08:47+00:00,SAT-60103,209.99161710763752,46.423758710876186,1017.2051436408731,-4.256270650379937,149072.60218330557,10.5,10500149072.602182,47.655,-122.3035,60.0,8.783333333333333
2026-01-20T23:08:48+00:00,SAT-60103,210.13499255431503,46.74542278071996,1012.9602230455607,-4.225528107652889,147995.86829617753,10.5,10500147995.868296,47.655,-122.3035,60.0,8.8
2026-01-20T23:08:49+00:00,SAT-60103,210.28174024704208,47.06931694618942,1008.7459630128617,-4.19439391751353,146905.41726000348,10.5,10500146905.41726,47.655,-122.3035,60.0,8.816666666666666
2026-01-20T23:08:50+00:00,SAT-60103,210.431962603094,47.39544200060792,1004.5627541457948,-4.162864466560854,145801.12251819545,10.5,10500145801.122519,47.655,-122.3035,60.0,8.833333333333334
2026-01-20T23:08:51+00:00,SAT-60103,210.58576610336286,47.723797772668576,1000.4109906511447,-4.130936156766867,144682.85805259354,10.5,10500144682.858053,47.655,-122.3035,60.0,8.85
2026-01-20T23:08:52+00:00,SAT-60103,210.74326148745118,48.054383074305,996.2910703241294,-4.0986054718865566,143550.5007094236,10.5,10500143550.50071,47.655,-122.3035,60.0,8.866666666666667
2026-01-20T23:08:53+00:00,SAT-60103,210.90456396198138,48.38719565121373,992.2033944668345,-4.065868962587503,142403.9296784737,10.5,10500142403.929678,47.655,-122.3035,60.0,8.883333333333333
2026-01-20T23:08:54+00:00,SAT-60103,211.06979341999332,48.72223212975374,988.1483678214805,-4.032723224719297,141243.02573199695,10.5,10500141243.025732,47.655,-122.3035,60.0,8.9
2026-01-20T23:08:55+00:00,SAT-60103,211.23907467169775,49.05948795935698,984.1263985253605,-3.999164916299002,140067.67181961436,10.5,10500140067.67182,47.655,-122.3035,60.0,8.916666666666666
2026-01-20T23:08:56+00:00,SAT-60103,211.412537688841,49.39895735341466,980.1378980488382,-3.9651907719411703,138877.75357371496,10.5,10500138877.753574,47.655,-122.3035,60.0,8.933333333333334
2026-01-20T23:08:57+00:00,SAT-60103,211.59031786344624,49.740633228321784,976.1832811189556,-3.9307976264346616,137673.16013521576,10.5,10500137673.160135,47.655,-122.3035,60.0,8.95
2026-01-20T23:08:58+00:00,SAT-60103,211.77255628236085,50.084507141473196,972.2629656195248,-3.8959823500679933,136453.78188838201,10.5,10500136453.781889,47.655,-122.3035,60.0,8.966666666666667
2026-01-20T23:08:59+00:00,SAT-60103,211.9594000144576,50.43056922035729,968.3773725557237,-3.8607419511750054,135219.51405241006,10.5,10500135219.514053,47.655,-122.3035,60.0,8.983333333333333
2026-01-20T23:09:00+00:00,SAT-60103,212.1510024191212,50.7788080970231,964.5269259164185,-3.8250734990042528,133970.25397998723,10.5,10500133970.25398,47.655,-122.3035,60.0,9.0
2026-01-20T23:09:01+00:00,SAT-60103,212.34752346880805,51.129210832182096,960.7120526134115,-3.7889741645591615,132705.90258768684,10.5,10500132705.902588,47.655,-122.3035,60.0,9.016666666666667
2026-01-20T23:09:02+00:00,SAT-60103,212.54913009224887,51.48176283898737,956.9331823799579,-3.752441241536939,131426.36508933743,10.5,10500131426.36509,47.655,-122.3035,60.0,9.033333333333333
2026-01-20T23:09:03+00:00,SAT-60103,212.75599653873334,51.836447804656615,953.1907476483984,-3.7154721213729505,130131.5501219713,10.5,10500130131.550121,47.655,-122.3035,60.0,9.05
2026-01-20T23:09:04+00:00,SAT-60103,212.9683047623429,52.19324760555321,949.4851834526823,-3.6780643134674844,128821.37045425134,10.5,10500128821.370455,47.655,-122.3035,60.0,9.066666666666666
2026-01-20T23:09:05+00:00,SAT-60103,213.1862448297987,52.55214221952222,945.8169273107176,-3.6402154630022854,127495.74361048135,10.5,10500127495.74361,47.655,-122.3035,60.0,9.083333333333334
2026-01-20T23:09:06+00:00,SAT-60103,213.4100153533625,52.913109635176255,942.18641908895,-3.6019233244448996,126154.5909426162,10.5,10500126154.590942,47.655,-122.3035,60.0,9.1
2026-01-20T23:09:07+00:00,SAT-60103,213.63982394766154,53.27612575346297,938.5941008933701,-3.563185809386255,124797.83930573624,10.5,10500124797.839306,47.655,-122.3035,60.0,9.116666666666667
2026-01-20T23:09:08+00:00,SAT-60103,213.8758877165496,53.6411642885532,935.040416912809,-3.524000961275408,123425.42017315121,10.5,10500123425.420174,47.655,-122.3035,60.0,9.133333333333333
2026-01-20T23:09:09+00:00,SAT-60103,214.1184337672357,54.00819666048734,931.5258132874302,-3.484366978925088,122037.27045966387,10.5,10500122037.27046,47.655,-122.3035,60.0,9.15
2026-01-20T23:09:10+00:00,SAT-60103,214.3676997565396,54.377191884118375,928.0507379537823,-3.44428220632011,120633.33216461755,10.5,10500120633.332165,47.655,-122.3035,60.0,9.166666666666666
2026-01-20T23:09:11+00:00,SAT-60103,214.62393446892455,54.74811645050024,924.6156405000124,-3.40374517130205,119213.55372679696,10.5,10500119213.553726,47.655,-122.3035,60.0,9.183333333333334
2026-01-20T23:09:12+00:00,SAT-60103,214.8873984317991,55.12093420549297,921.2209719825005,-3.362754545968124,117777.88863742963,10.5,10500117777.888638,47.655,-122.3035,60.0,9.2
2026-01-20T23:09:13+00:00,SAT-60103,215.1583645644947,55.49560621681137,917.8671847819883,-3.321309208647191,116326.29761084753,10.5,10500116326.297611,47.655,-122.3035,60.0,9.216666666666667
2026-01-20T23:09:14+00:00,SAT-60103,215.43711887070256,55.87209063998225,914.5547323978975,-3.2794082070417505,114858.74729356394,10.5,10500114858.747293,47.655,-122.3035,60.0,9.233333333333333
2026-01-20T23:09:15+00:00,SAT-60103,215.72396116924182,56.25034257202368,911.2840692794078,-3.237050766156042,113375.21054194914,10.5,10500113375.210543,47.655,-122.3035,60.0,9.25
2026-01-20T23:09:16+00:00,SAT-60103,216.01920586856855,56.63031389697125,908.0556506486282,-3.1942363348247116,111875.66805186098,10.5,10500111875.668053,47.655,-122.3035,60.0,9.266666666666667
2026-01-20T23:09:17+00:00,SAT-60103,216.32318279122006,57.01195312725747,904.869932277363,-3.150964550228395,110360.1071158306,10.5,10500110360.107117,47.655,-122.3035,60.0,9.283333333333333
2026-01-20T23:09:18+00:00,SAT-60103,216.63623804357442,57.39520523091428,901.7273702992685,-3.107235274896949,108828.5229190721,10.5,10500108828.522919,47.655,-122.3035,60.0,9.3
2026-01-20T23:09:19+00:00,SAT-60103,216.9587349398914,57.78001145226971,898.6284209851046,-3.063048569806581,107280.9175972302,10.5,10500107280.917597,47.655,-122.3035,60.0,9.316666666666666
2026-01-20T23:09:20+00:00,SAT-60103,217.29105497712297,58.16630911773563,895.5735405448175,-3.0184047526818056,105717.30227836139,10.5,10500105717.302279,47.655,-122.3035,60.0,9.333333333333334
2026-01-20T23:09:21+00:00,SAT-60103,217.63359887181272,58.554031436372696,892.5631848714762,-2.973304337789826,104137.69497427842,10.5,10500104137.694975,47.655,-122.3035,60.0,9.35
2026-01-20T23:09:22+00:00,SAT-60103,217.98678764909846,58.943107279574896,889.5978093452538,-2.927748108233904,102542.12311257007,10.5,10500102542.123112,47.655,-122.3035,60.0,9.366666666666667
2026-01-20T23:09:23+00:00,SAT-60103,218.35106380058085,59.33346095558001,886.6778685653086,-2.881737083770982,100930.62240943803,10.5,10500100930.62241,47.655,-122.3035,60.0,9.383333333333333
2026-01-20T23:09:24+00:00,SAT-60103,218.72689250203686,59.725011964637304,883.8038161137611,-2.835272513329413,99303.2366076362,10.5,10500099303.236609,47.655,-122.3035,60.0,9.4
2026-01-20T23:09:25+00:00,SAT-60103,219.11476289497762,60.11767473652994,880.9761043271338,-2.7883559703454033,97660.02081555613,10.5,10500097660.020815,47.655,-122.3035,60.0,9.416666666666666
2026-01-20T23:09:26+00:00,SAT-60103,219.51518944804212,60.51135836350275,878.1951839727094,-2.7409891966739806,96001.03604032892,10.5,10500096001.036041,47.655,-122.3035,60.0,9.433333333333334
2026-01-20T23:09:27+00:00,SAT-60103,219.92871336533983,60.905966292809325,875.4615040805598,-2.6931742991709413,94326.3560729566,10.5,10500094326.356073,47.655,-122.3035,60.0,9.45
2026-01-20T23:09:28+00:00,SAT-60103,220.35590409111845,61.3013960262082,872.77551157952,-2.6449136079880935,92636.06252521198,10.5,10500092636.062525,47.655,-122.3035,60.0,9.466666666666667
2026-01-20T23:09:29+00:00,SAT-60103,220.79736086352014,61.69753877806796,870.1376510744866,-2.5962097399142134,90930.247048107,10.5,10500090930.247047,47.655,-122.3035,60.0,9.483333333333333
2026-01-20T23:09:30+00:00,SAT-60103,221.25371434481755,62.09427911885989,867.5483645605455,-2.5470656166643435,89209.01197246132,10.5,10500089209.011972,47.655,-122.3035,60.0,9.5
2026-01-20T23:09:31+00:00,SAT-60103,221.72562832087172,62.491494596689826,865.0080911188589,-2.4974844400397966,87472.4694389005,10.5,10500087472.469439,47.655,-122.3035,60.0,9.516666666666667
2026-01-20T23:09:32+00:00,SAT-60103,222.21380145836937,62.88905532848814,862.5172666373259,-2.4474697195948734,85720.74236686158,10.5,10500085720.742367,47.655,-122.3035,60.0,9.533333333333333
2026-01-20T23:09:33+00:00,SAT-60103,222.71896912343558,63.28682356706967,860.0763235036499,-2.397025252137057,83953.96373660308,10.5,10500083953.963737,47.655,-122.3035,60.0,9.55
2026-01-20T23:09:34+00:00,SAT-60103,223.24190524468472,63.684653234709856,857.6856903188518,-2.3461551551430984,82172.27775957772,10.5,10500082172.27776,47.655,-122.3035,60.0,9.566666666666666
2026-01-20T23:09:35+00:00,SAT-60103,223.78342422075167,64.08238942995526,855.3457915774558,-2.29486384746534,80375.83920268624,10.5,10500080375.839203,47.655,-122.3035,60.0,9.583333333333334
2026-01-20T23:09:36+00:00,SAT-60103,224.3443828477055,64.47986789735306,853.057047366917,-2.2431560647481845,78564.81392822744,10.5,10500078564.813929,47.655,-122.3035,60.0,9.6
2026-01-20T23:09:37+00:00,SAT-60103,224.92568225523655,64.87691446383134,850.8198730516748,-2.1910368511676164,76739.37860458108,10.5,10500076739.378605,47.655,-122.3035,60.0,9.616666666666667
2026-01-20T23:09:38+00:00,SAT-60103,225.52826982308395,65.27334443592588,848.6346789654436,-2.1385115788768325,74899.72138727634,10.5,10500074899.721388,47.655,-122.3035,60.0,9.633333333333333
2026-01-20T23:09:39+00:00,SAT-60103,226.1531410556583,65.66896196102365,846.5018700841106,-2.085585939889085,73046.04163469445,10.5,10500073046.041636,47.655,-122.3035,60.0,9.65
2026-01-20T23:09:40+00:00,SAT-60103,226.8013413721675,66.06355934638492,844.4218457067278,-2.032265940763479,71178.54972194307,10.5,10500071178.549723,47.655,-122.3035,60.0,9.666666666666666
2026-01-20T23:09:41+00:00,SAT-60103,227.47396776756247,66.45691633499817,842.3949991418064,-1.9785579100136768,69297.46730034017,10.5,10500069297.4673,47.655,-122.3035,60.0,9.683333333333334
2026-01-20T23:09:42+00:00,SAT-60103,228.17217029365068,66.84879933977128,840.4217173862194,-1.9244685148118064,67403.02788245583,10.5,10500067403.027882,47.655,-122.3035,60.0,9.7
2026-01-20T23:09:43+00:00,SAT-60103,228.89715329917445,67.23896063790733,838.5023807874471,-1.870004727266307,65495.47566101954,10.5,10500065495.47566,47.655,-122.3035,60.0,9.716666666666667
2026-01-20T23:09:44+00:00,SAT-60103,229.6501763319654,67.62713751597812,836.6373627394535,-1.815173857198922,63575.066656909294,10.5,10500063575.066656,47.655,-122.3035,60.0,9.733333333333333
2026-01-20T23:09:45+00:00,SAT-60103,230.43255463213708,68.01305138018506,834.8270293458737,-1.7599835253443676,61642.06778049053,10.5,10500061642.06778,47.655,-122.3035,60.0,9.75
2026-01-20T23:09:46+00:00,SAT-60103,231.245659082618,68.39640682253484,833.0717391099304,-1.704441675816583,59696.75726823695,10.5,10500059696.757269,47.655,-122.3035,60.0,9.766666666666667
2026-01-20T23:09:47+00:00,SAT-60103,232.0909154999892,68.77689065504705,831.3718426119159,-1.6485565824182769,57739.424903717576,10.5,10500057739.424904,47.655,-122.3035,60.0,9.783333333333333
2026-01-20T23:09:48+00:00,SAT-60103,232.96980311128885,69.15417091705443,829.727682180384,-1.5923368092042187,55770.37063635636,10.5,10500055770.370636,47.655,-122.3035,60.0,9.8
2026-01-20T23:09:49+00:00,SAT-60103,233.88385201440713,69.52789585369398,828.1395916026711,-1.5357912554990911,53789.90615814777,10.5,10500053789.906158,47.655,-122.3035,60.0,9.816666666666666
2026-01-20T23:09:50+00:00,SAT-60103,234.8346394599784,69.89769289561542,826.60789579052,-1.4789291198378989,51798.35364069746,10.5,10500051798.353642,47.655,-122.3035,60.0,9.833333333333334
2026-01-20T23:09:51+00:00,SAT-60103,235.8237846818908,70.26316763664408,825.1329104816683,-1.4217599005018886,49796.04575399235,10.5,10500049796.045753,47.655,-122.3035,60.0,9.85
2026-01-20T23:09:52+00:00,SAT-60103,236.85294203175033,70.6239028359125,823.7149419409011,-1.3642933919400433,47783.325541066326,10.5,10500047783.32554,47.655,-122.3035,60.0,9.866666666666667
2026-01-20T23:09:53+00:00,SAT-60103,237.92379212697256,70.9794574672889,822.3542866646729,-1.3065396902268573,45760.54660915453,10.5,10500045760.54661,47.655,-122.3035,60.0,9.883333333333333
2026-01-20T23:09:54+00:00,SAT-60103,239.03803070582478,71.32936584741991,821.0512310802867,-1.2485091686010827,43728.07227295681,10.5,10500043728.072273,47.655,-122.3035,60.0,9.9
2026-01-20T23:09:55+00:00,SAT-60103,240.1973548321618,71.67313687018435,819.8060512694685,-1.1902124785360395,41686.27559212452,10.5,10500041686.275593,47.655,-122.3035,60.0,9.916666666666666
2026-01-20T23:09:56+00:00,SAT-60103,241.40344611966472,72.01025339609932,818.6190126908753,-1.1316605396537407,39635.53901801051,10.5,10500039635.539019,47.655,-122.3035,60.0,9.933333333333334
2026-01-20T23:09:57+00:00,SAT-60103,242.6579506198126,72.34017184386514,817.4903699126605,-1.0728645403935824,37576.25441708948,10.5,10500037576.254417,47.655,-122.3035,60.0,9.95
2026-01-20T23:09:58+00:00,SAT-60103,243.96245505544965,72.66232204519434,816.4203663443748,-1.0138359197061408,35508.82242979734,10.5,10500035508.82243,47.655,-122.3035,60.0,9.966666666666667
2026-01-20T23:09:59+00:00,SAT-60103,245.31845909278334,72.97610742401122,815.4092339871211,-0.9545863492151663,33433.651845768734,10.5,10500033433.651846,47.655,-122.3035,60.0,9.983333333333333
2026-01-20T23:10:00+00:00,SAT-60103,246.72734342896905,73.28090557396753,814.4571932015039,-0.8951277474824235,31351.160103452126,10.5,10500031351.160103,47.655,-122.3035,60.0,10.0
2026-01-20T23:10:01+00:00,SAT-60103,248.19033363322137,73.57606932574875,813.5644524613481,-0.8354722471051614,29261.772137724005,10.5,10500029261.772139,47.655,-122.3035,60.0,10.016666666666667
2026-01-20T23:10:02+00:00,SAT-60103,249.7084597294026,73.86092837678629,812.7312081402351,-0.7756321943824679,27165.920368203235,10.5,10500027165.920368,47.655,-122.3035,60.0,10.033333333333333
2026-01-20T23:10:03+00:00,SAT-60103,251.28251181850408,74.13479158292414,811.9576442983711,-0.7156201276656157,25064.04394098855,10.5,10500025064.043941,47.655,-122.3035,60.0,10.05
2026-01-20T23:10:04+00:00,SAT-60103,252.91299222449766,74.39694999357518,811.2439324910458,-0.65544878772295,22956.589091680802,10.5,10500022956.589092,47.655,-122.3035,60.0,10.066666666666666
2026-01-20T23:10:05+00:00,SAT-60103,254.60006506824902,74.64668072379617,810.5902315667569,-0.595131070462618,20844.007489532938,10.5,10500020844.00749,47.655,-122.3035,60.0,10.083333333333334
2026-01-20T23:10:06+00:00,SAT-60103,256.3435043487335,74.88325171173369,809.996687512482,-0.5346800453460059,18726.756882366473,10.5,10500018726.756882,47.655,-122.3035,60.0,10.1
2026-01-20T23:10:07+00:00,SAT-60103,258.1426422825065,75.10592743294117,809.4634332805904,-0.47410892256906656,16605.29994712275,10.5,10500016605.299948,47.655,-122.3035,60.0,10.116666666666667
2026-01-20T23:10:08+00:00,SAT-60103,259.996319802169,75.31397557093187,808.9905886484815,-0.4134310500877093,14480.104185679507,10.5,10500014480.104185,47.655,-122.3035,60.0,10.133333333333333
2026-01-20T23:10:09+00:00,SAT-60103,261.9028416978435,75.50667463356926,808.578260081194,-0.3526598919062697,12351.64116442126,10.5,10500012351.641165,47.655,-122.3035,60.0,10.15
2026-01-20T23:10:10+00:00,SAT-60103,263.85993906714884,75.68332243753467,808.2265406156662,-0.29180901595786607,10220.386089758114,10.5,10500010220.38609,47.655,-122.3035,60.0,10.166666666666666
2026-01-20T23:10:11+00:00,SAT-60103,265.8647420159732,75.84324533801832,807.9355097570842,-0.23089208185452426,8086.817379083315,10.5,10500008086.817379,47.655,-122.3035,60.0,10.183333333333334
2026-01-20T23:10:12+00:00,SAT-60103,267.9137655480194,75.98580801609116,807.705233387448,-0.16992282031647443,5951.41594030021,10.5,10500005951.415941,47.655,-122.3035,60.0,10.2
2026-01-20T23:10:13+00:00,SAT-60103,270.0029112917656,76.11042356967162,807.5357636946522,-0.10891502521228563,3814.664893034097,10.5,10500003814.664892,47.655,-122.3035,60.0,10.216666666666667
2026-01-20T23:10:14+00:00,SAT-60103,272.1274873815141,76.21656360855327,807.4271391095072,-0.04788252977799261,1677.048735725441,10.5,10500001677.048737,47.655,-122.3035,60.0,10.233333333333333
2026-01-20T23:10:15+00:00,SAT-60103,274.2822477951313,76.30376799143482,807.3793842664753,0.013160802395927807,-460.9469700443297,10.5,10499999539.05303,47.655,-122.3035,60.0,10.25
2026-01-20T23:10:16+00:00,SAT-60103,276.46145171661897,76.37165383352547,807.3925099733982,0.07420109600936123,-2598.8362525727475,10.5,10499997401.163748,47.655,-122.3035,60.0,10.266666666666667
2026-01-20T23:10:17+00:00,SAT-60103,278.6589420490011,76.41992339364613,807.4665131998182,0.1352244796200895,-4736.1332752771905,10.5,10499995263.866724,47.655,-122.3035,60.0,10.283333333333333
2026-01-20T23:10:18+00:00,SAT-60103,280.8682410201486,76.44837047986574,807.601377080826,0.19621710008244142,-6872.352842397506,10.5,10499993127.647158,47.655,-122.3035,60.0,10.3
2026-01-20T23:10:19+00:00,SAT-60103,283.0826595107181,76.45688506158147,807.7970709353083,0.25716513946440417,-9007.010991504809,10.5,10499990992.989008,47.655,-122.3035,60.0,10.316666666666666
2026-01-20T23:10:20+00:00,SAT-60103,285.29541574457426,76.44545585459319,808.0535503010673,0.3180548306248132,-11139.625539080569,10.5,10499988860.37446,47.655,-122.3035,60.0,10.333333333333334
2026-01-20T23:10:21+00:00,SAT-60103,287.49975811735555,76.41417074212,808.3707569854772,0.37887247056174483,-13269.716548033775,10.5,10499986730.283451,47.655,-122.3035,60.0,10.35
2026-01-20T23:10:22+00:00,SAT-60103,289.6890866582611,76.36321500772938,808.7486191294507,0.4396044392350699,-15396.806986946398,10.5,10499984603.193012,47.655,-122.3035,60.0,10.366666666666667
2026-01-20T23:10:23+00:00,SAT-60103,291.85706775705677,76.29286746789656,809.1870512901812,0.5002372100319704,-17520.423096620027,10.5,10499982479.576904,47.655,-122.3035,60.0,10.383333333333333
2026-01-20T23:10:24+00:00,SAT-60103,293.9977372542653,76.20349469880327,809.6859545343196,0.5607573704317893,-19640.095113846353,10.5,10499980359.904886,47.655,-122.3035,60.0,10.4
2026-01-20T23:10:25+00:00,SAT-60103,296.1055880328836,76.09554363754685,810.2452165517637,0.6211516267003308,-21755.357435821395,10.5,10499978244.642565,47.655,-122.3035,60.0,10.416666666666666
2026-01-20T23:10:26+00:00,SAT-60103,298.1756392965345,75.96953290562998,810.8647117741261,0.6814068352838648,-23865.749719696352,10.5,10499976134.25028,47.655,-122.3035,60.0,10.433333333333334
2026-01-20T23:10:27+00:00,SAT-60103,300.203486192074,75.82604323032947,811.544301524516,0.7415099941701537,-25970.816580004204,10.5,10499974029.18342,47.655,-122.3035,60.0,10.45
2026-01-20T23:10:28+00:00,SAT-60103,302.18532945701673,75.66570735970869,812.2838341587017,0.8014482729750632,-28070.108642420095,10.5,10499971929.891357,47.655,-122.3035,60.0,10.466666666666667
2026-01-20T23:10:29+00:00,SAT-60103,304.1179861856738,75.4891998330251,813.0831452362821,0.8612090249599254,-30163.182964660227,10.5,10499969836.817036,47.655,-122.3035,60.0,10.483333333333333
2026-01-20T23:10:30+00:00,SAT-60103,305.9988834992639,75.2972269405606,813.9420577038421,0.9207797864458179,-32249.603015967426,10.5,10499967750.396984,47.655,-122.3035,60.0,10.5
2026-01-20T23:10:31+00:00,SAT-60103,307.8260375916126,75.09051715323346,814.860382077524,0.9801483056101824,-34328.939685690544,10.5,10499965671.060314,47.655,-122.3035,60.0,10.516666666666667
2026-01-20T23:10:32+00:00,SAT-60103,309.59802106397535,74.86981223194117,815.8379166543194,1.0393025418462167,-36400.77126084765,10.5,10499963599.228739,47.655,-122.3035,60.0,10.533333333333333
2026-01-20T23:10:33+00:00,SAT-60103,311.31392142693693,74.63585917702976,816.8744477227206,1.0982306856664092,-38464.684123232,10.5,10499961535.315876,47.655,-122.3035,60.0,10.55
2026-01-20T23:10:34+00:00,SAT-60103,312.9732936535813,74.38940310770397,817.9697497932252,1.1569211584047256,-40520.27273898137,10.5,10499959479.72726,47.655,-122.3035,60.0,10.566666666666666
2026-01-20T23:10:35+00:00,SAT-60103,314.5761093271631,74.13118111748855,819.1235858285409,1.2153626362574343,-42567.14050058945,10.5,10499957432.859499,47.655,-122.3035,60.0,10.583333333333334
2026-01-20T23:10:36+00:00,SAT-60103,316.1227046445096,73.86191709768296,820.3357074977683,1.2735440438407866,-44604.899501268505,10.5,10499955395.100498,47.655,-122.3035,60.0,10.6
2026-01-20T23:10:37+00:00,SAT-60103,317.6137290461653,73.5823174985831,821.6058554241589,1.3314545795760853,-46633.171424041946,10.5,10499953366.828575,47.655,-122.3035,60.0,10.616666666666667
2026-01-20T23:10:38+00:00,SAT-60103,319.05009592426137,73.29306795908745,822.9337594581893,1.3890837065018347,-48651.587219946894,10.5,10499951348.41278,47.655,-122.3035,60.0,10.633333333333333
2026-01-20T23:10:39+00:00,SAT-60103,320.4329363824904,72.99483073352619,824.319138941474,1.4464211778836962,-50659.788005003145,10.5,10499949340.211994,47.655,-122.3035,60.0,10.65
2026-01-20T23:10:40+00:00,SAT-60103,321.7635567635706,72.68824282012253,825.7617029962166,1.503457024055916,-52657.424599344384,10.5,10499947342.575401,47.655,-122.3035,60.0,10.666666666666666
2026-01-20T23:10:41+00:00,SAT-60103,323.0434002854375,72.3739147081927,827.2611508015416,1.5601815846956955,-54644.15865760306,10.5,10499945355.841343,47.655,-122.3035,60.0,10.683333333333334
2026-01-20T23:10:42+00:00,SAT-60103,324.2740129781071,72.05242964442603,828.8171719020115,1.6165854800400357,-56619.6616608026,10.5,10499943380.338339,47.655,-122.3035,60.0,10.7
2026-01-20T23:10:43+00:00,SAT-60103,325.4570138328271,71.72434334566746,830.4294464874382,1.6726596551725186,-58583.616467467786,10.5,10499941416.383533,47.655,-122.3035,60.0,10.716666666666667
2026-01-20T23:10:44+00:00,SAT-60103,326.59406905943933,71.3901840641413,832.0976457168634,1.7283953511928873,-60535.71630386151,10.5,10499939464.283695,47.655,-122.3035,60.0,10.733333333333333
2026-01-20T23:10:45+00:00,SAT-60103,327.68687013598316,71.05045294937446,833.8214320137865,1.7837841218997414,-62475.66534828333,10.5,10499937524.334652,47.655,-122.3035,60.0,10.75
2026-01-20T23:10:46+00:00,SAT-60103,328.73711537561576,70.70562463479276,835.600459378028,1.8388178508972146,-64403.17933021769,10.5,10499935596.82067,47.655,-122.3035,60.0,10.766666666666667
2026-01-20T23:10:47+00:00,SAT-60103,329.74649466507987,70.35614799507186,837.434373714656,1.8934887244185588,-66317.98457850087,10.5,10499933682.01542,47.655,-122.3035,60.0,10.783333333333333
2026-01-20T23:10:48+00:00,SAT-60103,330.71667699969754,70.00244703666465,839.3228131358095,1.9477892635933953,-68219.81915145661,10.5,10499931780.18085,47.655,-122.3035,60.0,10.8
2026-01-20T23:10:49+00:00,SAT-60103,331.64930050709825,69.64492187134775,841.2654082947,2.0017122991541303,-70108.4319510078,10.5,10499929891.568048,47.655,-122.3035,60.0,10.816666666666666
2026-01-20T23:10:50+00:00,SAT-60103,332.545964601351,69.28394975179995,843.2617826943897,2.0552509965669072,-71983.58360286878,10.5,10499928016.416397,47.655,-122.3035,60.0,10.833333333333334
2026-01-20T23:10:51+00:00,SAT-60103,333.40822399110397,68.91988613378683,845.3115530216323,2.108398840156862,-73845.04590054449,10.5,10499926154.9541,47.655,-122.3035,60.0,10.85
2026-01-20T23:10:52+00:00,SAT-60103,334.23758424542854,68.55306575170071,847.4143294648821,2.161149630137699,-75692.60170129375,10.5,10499924307.398298,47.655,-122.3035,60.0,10.866666666666667
2026-01-20T23:10:53+00:00,SAT-60103,335.0354986776923,68.18380368856289,849.5697160293395,2.213497509421303,-77526.0458651154,10.5,10499922473.954134,47.655,-122.3035,60.0,10.883333333333333
2026-01-20T23:10:54+00:00,SAT-60103,335.80336633880074,67.81239642277794,851.7773108787358,2.2654369145124034,-79345.18353487142,10.5,10499920654.816465,47.655,-122.3035,60.0,10.9
2026-01-20T23:10:55+00:00,SAT-60103,336.54253089969944,67.43912285515006,854.0367066281427,2.3169626296342294,-81149.83203199664,10.5,10499918850.167969,47.655,-122.3035,60.0,10.916666666666666
2026-01-20T23:10:56+00:00,SAT-60103,337.2542802947403,67.06424529160864,856.3474906907646,2.3680697374273842,-82939.81912976454,10.5,10499917060.18087,47.655,-122.3035,60.0,10.933333333333334
2026-01-20T23:10:57+00:00,SAT-60103,337.93984694614153,66.68801039428602,858.7092455755588,2.4187536368271094,-84714.98367942481,10.5,10499915285.016321,47.655,-122.3035,60.0,10.95
2026-01-20T23:10:58+00:00,SAT-60103,338.6004084717052,66.31065008642567,861.1215492026878,2.469010044087984,-86475.17564609257,10.5,10499913524.824354,47.655,-122.3035,60.0,10.966666666666667
2026-01-20T23:10:59+00:00,SAT-60103,339.23708876571834,65.93238241231866,863.5839752199915,2.5188349926846927,-88220.25610527291,10.5,10499911779.743895,47.655,-122.3035,60.0,10.983333333333333
2026-01-20T23:11:00+00:00,SAT-60103,339.8509593658243,65.55341235178473,866.0960933193624,2.5682247969508087,-89950.0959693372,10.5,10499910049.90403,47.655,-122.3035,60.0,11.0
2026-01-20T23:11:01+00:00,SAT-60103,340.44304102513536,65.1739325946348,868.6574695168546,2.6171760882546398,-91664.57725455427,10.5,10499908335.422745,47.655,-122.3035,60.0,11.016666666666667
2026-01-20T23:11:02+00:00,SAT-60103,341.0143054480551,64.79412426481231,871.2676664688739,2.6656857887172767,-93363.59216058532,10.5,10499906636.407839,47.655,-122.3035,60.0,11.033333333333333
2026-01-20T23:11:03+00:00,SAT-60103,341.5656771243025,64.41415760494462,873.9262437621546,2.7137511048217284,-95047.04284664876,10.5,10499904952.957153,47.655,-122.3035,60.0,11.05
2026-01-20T23:11:04+00:00,SAT-60103,342.09803522661286,64.03419261965821,876.6327581973635,2.761369558244588,-96714.84251137557,10.5,10499903285.157488,47.655,-122.3035,60.0,11.066666666666666
2026-01-20T23:11:05+00:00,SAT-60103,342.6122155463761,63.65437967429067,879.3867641034528,2.8085388951447685,-98366.91221571715,10.5,10499901633.087784,47.655,-122.3035,60.0,11.083333333333334
2026-01-20T23:11:06+00:00,SAT-60103,343.10901241776577,63.274860067758155,882.1878135615439,2.8552571991683338,-100003.1848408525,10.5,10499899996.815159,47.655,-122.3035,60.0,11.1
2026-01-20T23:11:07+00:00,SAT-60103,343.58918064868845,62.895766553320975,885.0354567415144,2.9015227634067187,-101623.60060362342,10.5,10499898376.399397,47.655,-122.3035,60.0,11.116666666666667
2026-01-20T23:11:08+00:00,SAT-60103,344.0534373974176,62.51722384233601,887.9292421108853,2.947334195818279,-103228.11074884322,10.5,10499896771.889252,47.655,-122.3035,60.0,11.133333333333333
2026-01-20T23:11:09+00:00,SAT-60103,344.5024640245247,62.13934906134301,890.8687167488481,2.9926903222572934,-104816.6741529621,10.5,10499895183.325848,47.655,-122.3035,60.0,11.15
2026-01-20T23:11:10+00:00,SAT-60103,344.93690787594295,61.762252191472584,893.8534265635793,3.0375902427286823,-106389.25929434544,10.5,10499893610.740705,47.655,-122.3035,60.0,11.166666666666666
2026-01-20T23:11:11+00:00,SAT-60103,345.357384016006,61.38603647182553,896.8829165656607,3.0820332830139985,-107945.84255901122,10.5,10499892054.15744,47.655,-122.3035,60.0,11.183333333333334
2026-01-20T23:11:12+00:00,SAT-60103,345.7644768891975,61.01079878223628,899.9567310932534,3.126019015642224,-109486.40897511621,10.5,10499890513.591024,47.655,-122.3035,60.0,11.2
2026-01-20T23:11:13+00:00,SAT-60103,346.1587419181648,60.63662999827568,903.0744140581872,3.1695472375456393,-111010.95143036991,10.5,10499888989.048569,47.655,-122.3035,60.0,11.216666666666667
2026-01-20T23:11:14+00:00,SAT-60103,346.5407070301523,60.26361532560993,906.2355091697661,3.2126179794644245,-112519.47100142344,10.5,10499887480.529,47.655,-122.3035,60.0,11.233333333333333
2026-01-20T23:11:15+00:00,SAT-60103,346.910874115516,59.89183461138822,909.439560167952,3.2552314666722015,-114011.97557831196,10.5,10499885988.024422,47.655,-122.3035,60.0,11.25
2026-01-20T23:11:16+00:00,SAT-60103,347.2697204128813,59.521362639830436,912.6861110173796,3.2973881662780786,-115488.4815211723,10.5,10499884511.518478,47.655,-122.3035,60.0,11.266666666666667
2026-01-20T23:11:17+00:00,SAT-60103,347.6176998320027,59.152269403355476,915.9747061485477,3.3390887118642683,-116949.01102073361,10.5,10499883050.98898,47.655,-122.3035,60.0,11.283333333333333
2026-01-20T23:11:18+00:00,SAT-60103,347.9552442019248,58.78462036459489,919.304890623847,3.3803339481376384,-118393.59366220348,10.5,10499881606.406338,47.655,-122.3035,60.0,11.3
2026-01-20T23:11:19+00:00,SAT-60103,348.282764459899,58.41847669675199,922.6762103481229,3.421124926099718,-119822.26625610121,10.5,10499880177.733744,47.655,-122.3035,60.0,11.316666666666666
2026-01-20T23:11:20+00:00,SAT-60103,348.60065177715956,58.053895509285894,926.0882122744197,3.4614628397620324,-121235.07062176106,10.5,10499878764.929379,47.655,-122.3035,60.0,11.333333333333334
2026-01-20T23:11:21+00:00,SAT-60103,348.9092786188098,57.690930066017565,929.540444546609,3.5013490867358037,-122632.05570943996,10.5,10499877367.94429,47.655,-122.3035,60.0,11.35
2026-01-20T23:11:22+00:00,SAT-60103,349.2089997522211,57.32962998331665,933.0324567024469,3.5407852290576147,-124013.2762282664,10.5,10499875986.723772,47.655,-122.3035,60.0,11.366666666666667
2026-01-20T23:11:23+00:00,SAT-60103,349.5001531966946,56.9700414200603,936.5637998375604,3.579772977745624,-125378.79210533394,10.5,10499874621.207895,47.655,-122.3035,60.0,11.383333333333333
2026-01-20T23:11:24+00:00,SAT-60103,349.78306111968175,56.61220725747009,940.134026754032,3.61831419326052,-126728.66850184558,10.5,10499873271.3315,47.655,-122.3035,60.0,11.4
2026-01-20T23:11:25+00:00,SAT-60103,350.0580306834649,56.25616726793866,943.7426921094439,3.6564109120882122,-128062.9767441522,10.5,10499871937.023256,47.655,-122.3035,60.0,11.416666666666666
2026-01-20T23:11:26+00:00,SAT-60103,350.3253548465856,55.90195827114411,947.389352592433,3.694065272751543,-129381.79173236975,10.5,10499870618.208267,47.655,-122.3035,60.0,11.433333333333334
2026-01-20T23:11:27+00:00,SAT-60103,350.5853131148644,55.54961428792474,951.0735670244574,3.7312795856211376,-130685.1943854503,10.5,10499869314.805614,47.655,-122.3035,60.0,11.45
2026-01-20T23:11:28+00:00,SAT-60103,350.8381722553549,55.19916667847315,954.7948965311836,3.7680562636206534,-131973.26921418702,10.5,10499868026.730785,47.655,-122.3035,60.0,11.466666666666667
2026-01-20T23:11:29+00:00,SAT-60103,351.08418696520056,54.85064427890447,958.5529046447679,3.8043978302462294,-133246.10460208912,10.5,10499866753.895397,47.655,-122.3035,60.0,11.483333333333333
2026-01-20T23:11:30+00:00,SAT-60103,351.32360050353753,54.504073529120916,962.3471574141334,3.840306956340389,-134503.79409335938,10.5,10499865496.205906,47.655,-122.3035,60.0,11.5
2026-01-20T23:11:31+00:00,SAT-60103,351.5566452900929,54.15947859004516,966.1772235519235,3.875786411831229,-135746.43470259648,10.5,10499864253.565298,47.655,-122.3035,60.0,11.516666666666667
2026-01-20T23:11:32+00:00,SAT-60103,351.7835434668916,53.81688145851239,970.0426745333233,3.9108390434596845,-136974.1261347098,10.5,10499863025.873865,47.655,-122.3035,60.0,11.533333333333333
2026-01-20T23:11:33+00:00,SAT-60103,352.0045074272016,53.476302077587384,973.9430846726669,3.945467827045627,-138186.97261549885,10.5,10499861813.027384,47.655,-122.3035,60.0,11.55
2026-01-20T23:11:34+00:00,SAT-60103,352.2197403177602,53.13775843621606,977.8780312521739,3.97967581381514,-139385.08101180775,10.5,10499860614.918987,47.655,-122.3035,60.0,11.566666666666666
2026-01-20T23:11:35+00:00,SAT-60103,352.429436509736,52.80126666795313,981.8470945971522,4.013466142941871,-140568.56127077632,10.5,10499859431.438728,47.655,-122.3035,60.0,11.583333333333334
2026-01-20T23:11:36+00:00,SAT-60103,352.63378204409094,52.46684114320148,985.849858163713,4.046842031585274,-141737.5260709373,10.5,10499858262.473928,47.655,-122.3035,60.0,11.6
2026-01-20T23:11:37+00:00,SAT-60103,352.8329550515488,52.13449455726731,989.8859086165472,4.079806784082036,-142892.0911441387,10.5,10499857107.908855,47.655,-122.3035,60.0,11.616666666666667
2026-01-20T23:11:38+00:00,SAT-60103,353.0271261496491,51.80423801291919,993.9548359158716,4.112363751696581,-144032.37386583656,10.5,10499855967.626135,47.655,-122.3035,60.0,11.633333333333333
2026-01-20T23:11:39+00:00,SAT-60103,353.2164588158481,51.476081101761395,998.0562333642305,4.144516380426643,-145158.494929448,10.5,10499854841.50507,47.655,-122.3035,60.0,11.65
2026-01-20T23:11:40+00:00,SAT-60103,353.4011097422613,51.15003197750225,1002.1896977009759,4.176268131116836,-146270.57554839083,10.5,10499853729.424452,47.655,-122.3035,60.0,11.666666666666666
2026-01-20T23:11:41+00:00,SAT-60103,353.5812291672799,50.826097431585914,1006.3548291170765,4.207622579354582,-147368.74095486122,10.5,10499852631.259045,47.655,-122.3035,60.0,11.683333333333334
2026-01-20T23:11:42+00:00,SAT-60103,353.7569611934143,50.50428295720357,1010.5512313695527,4.238583302042701,-148453.11642712628,10.5,10499851546.883574,47.655,-122.3035,60.0,11.7
2026-01-20T23:11:43+00:00,SAT-60103,353.92844408289733,50.184592818594076,1014.77851178279,4.269153946498249,-149523.82970965738,10.5,10499850476.17029,47.655,-122.3035,60.0,11.716666666666667
2026-01-20T23:11:44+00:00,SAT-60103,354.0958105402028,49.867030111572326,1019.0362813187643,4.299338184663937,-150581.00940942063,10.5,10499849418.990591,47.655,-122.3035,60.0,11.733333333333333
2026-01-20T23:11:45+00:00,SAT-60103,354.25918797742696,49.55159682434807,1023.3241546016025,4.329139746629682,-151624.78616994317,10.5,10499848375.21383,47.655,-122.3035,60.0,11.75
2026-01-20T23:11:46+00:00,SAT-60103,354.41869876671916,49.2382938928025,1027.6417499755744,4.3585623864154375,-152655.2914728832,10.5,10499847344.708527,47.655,-122.3035,60.0,11.766666666666667
2026-01-20T23:11:47+00:00,SAT-60103,354.57446047789534,48.927121255444455,1031.9886895289594,4.387609876063773,-153672.6574311273,10.5,10499846327.34257,47.655,-122.3035,60.0,11.783333333333333
2026-01-20T23:11:48+00:00,SAT-60103,354.72658610322515,48.61807790598537,1036.3645991120204,4.416286032571327,-154677.0177320436,10.5,10499845322.982267,47.655,-122.3035,60.0,11.8
2026-01-20T23:11:49+00:00,SAT-60103,354.8751842713073,48.311161941414035,1040.7691083818381,4.444594691495055,-155668.5067130611,10.5,10499844331.493286,47.655,-122.3035,60.0,11.816666666666666
2026-01-20T23:11:50+00:00,SAT-60103,355.0203594487086,48.00637060950189,1045.2018508208225,4.472539704203008,-156647.25926538013,10.5,10499843352.740734,47.655,-122.3035,60.0,11.833333333333334
2026-01-20T23:11:51+00:00,SAT-60103,355.162212131008,47.70370035413648,1049.6624637524812,4.5001249299135795,-157613.41055515342,10.5,10499842386.589445,47.655,-122.3035,60.0,11.85
2026-01-20T23:11:52+00:00,SAT-60103,355.3008390236356,47.40314685893325,1054.1505883492482,4.527354248132792,-158567.0964590921,10.5,10499841432.903542,47.655,-122.3035,60.0,11.866666666666667
2026-01-20T23:11:53+00:00,SAT-60103,355.4363332137689,47.10470508787923,1058.6658696527193,4.554231555588581,-159508.45345709161,10.5,10499840491.546543,47.655,-122.3035,60.0,11.883333333333333
2026-01-20T23:11:54+00:00,SAT-60103,355.56878433325556,46.80836932419547,1063.2079565908264,4.580760744599949,-160437.61787462802,10.5,10499839562.382126,47.655,-122.3035,60.0,11.9
2026-01-20T23:11:55+00:00,SAT-60103,355.69827871256695,46.51413320869853,1067.7765019734406,4.60694571874284,-161354.72643144286,10.5,10499838645.27357,47.655,-122.3035,60.0,11.916666666666666
2026-01-20T23:11:56+00:00,SAT-60103,355.8248995273757,46.221989775281855,1072.3711625036,4.632790363648849,-162259.91521879085,10.5,10499837740.084782,47.655,-122.3035,60.0,11.933333333333334
2026-01-20T23:11:57+00:00,SAT-60103,355.9487269369376,45.93193148650509,1076.9915987596125,4.658298606714177,-163153.32179069982,10.5,10499836846.67821,47.655,-122.3035,60.0,11.95
2026-01-20T23:11:58+00:00,SAT-60103,356.069838217103,45.64395026377086,1081.637475236709,4.683474316817591,-164035.08165166952,10.5,10499835964.918348,47.655,-122.3035,60.0,11.966666666666667
2026-01-20T23:11:59+00:00,SAT-60103,356.1883078840367,45.358037522176,1086.3084602886815,4.708321404018264,-164905.33174851173,10.5,10499835094.668251,47.655,-122.3035,60.0,11.983333333333333
2026-01-20T23:12:00+00:00,SAT-60103,356.3042078143934,45.0741841976418,1091.004226168956,4.732843726756891,-165764.2072201408,10.5,10499834235.79278,47.655,-122.3035,60.0,12.0
2026-01-20T23:12:01+00:00,SAT-60103,356.41760735720175,44.79238077828286,1095.724448979108,4.757045197370232,-166611.84509313919,10.5,10499833388.154907,47.655,-122.3035,60.0,12.016666666666667
2026-01-20T23:12:02+00:00,SAT-60103,356.5285734428502,44.51261732806332,1100.4688087226186,4.7809296355916935,-167448.37915072826,10.5,10499832551.62085,47.655,-122.3035,60.0,12.033333333333333
2026-01-20T23:12:03+00:00,SAT-60103,356.63717068324416,44.23488351782494,1105.2369892125155,4.804500903494086,-168273.9446590344,10.5,10499831726.055342,47.655,-122.3035,60.0,12.05
2026-01-20T23:12:04+00:00,SAT-60103,356.74346147030013,43.959168647057595,1110.0286781136003,4.827762835796944,-169088.6759261566,10.5,10499830911.324074,47.655,-122.3035,60.0,12.066666666666666
2026-01-20T23:12:05+00:00,SAT-60103,356.8475060680657,43.68546166860949,1114.8435669151684,4.850719244756489,-169892.70647343347,10.5,10499830107.293526,47.655,-122.3035,60.0,12.083333333333334
2026-01-20T23:12:06+00:00,SAT-60103,356.94936270053614,43.41375121191962,1119.6813509086053,4.87337391677834,-170686.16891680637,10.5,10499829313.831083,47.655,-122.3035,60.0,12.1
2026-01-20T23:12:07+00:00,SAT-60103,357.0490876352488,43.144025605332146,1124.5417291616056,4.895730620259355,-171469.19524147347,10.5,10499828530.804758,47.655,-122.3035,60.0,12.116666666666667
2026-01-20T23:12:08+00:00,SAT-60103,357.1467352630789,42.87627289688509,1129.424404500211,4.917793132181616,-172241.91773332396,10.5,10499827758.082266,47.655,-122.3035,60.0,12.133333333333333
2026-01-20T23:12:09+00:00,SAT-60103,357.2423581748154,42.610480872705395,1134.3290835173736,4.939565147113529,-173004.4657917714,10.5,10499826995.534208,47.655,-122.3035,60.0,12.15
2026-01-20T23:12:10+00:00,SAT-60103,357.3360072323374,42.346637079347545,1139.2554764907613,4.961050403057864,-173756.9703374845,10.5,10499826243.029663,47.655,-122.3035,60.0,12.166666666666666
2026-01-20T23:12:11+00:00,SAT-60103,357.4277316389547,42.08472883843278,1144.2032974260778,4.98225254408275,-174499.55900114364,10.5,10499825500.440998,47.655,-122.3035,60.0,12.183333333333334
2026-01-20T23:12:12+00:00,SAT-60103,357.5175790038784,41.82474326773514,1149.1722639633765,5.003175251982362,-175232.36073475474,10.5,10499824767.639265,47.655,-122.3035,60.0,12.2
2026-01-20T23:12:13+00:00,SAT-60103,357.60559540618647,41.566667294476,1154.1620974146867,5.023822133586933,-175955.50186476938,10.5,10499824044.498135,47.655,-122.3035,60.0,12.216666666666667
2026-01-20T23:12:14+00:00,SAT-60103,357.69182545379675,41.31048767371431,1159.1725226892509,5.044196788905495,-176669.10847873197,10.5,10499823330.891521,47.655,-122.3035,60.0,12.233333333333333
2026-01-20T23:12:15+00:00,SAT-60103,357.7763123410252,41.05619100241311,1164.2032682867193,5.064302775484559,-177373.30517696968,10.5,10499822626.694822,47.655,-122.3035,60.0,12.25
2026-01-20T23:12:16+00:00,SAT-60103,357.8590979028847,40.80376373459418,1169.2540662548024,5.0841436597367835,-178068.21687033976,10.5,10499821931.783129,47.655,-122.3035,60.0,12.266666666666667
2026-01-20T23:12:17+00:00,SAT-60103,357.9402226678439,40.55319219325075,1174.3246521981132,5.103722911815206,-178753.9650982803,10.5,10499821246.034903,47.655,-122.3035,60.0,12.283333333333333
2026-01-20T23:12:18+00:00,SAT-60103,358.01972590648455,40.30446258676961,1179.4147651821636,5.123044009592218,-179430.6716705938,10.5,10499820569.32833,47.655,-122.3035,60.0,12.3
2026-01-20T23:12:19+00:00,SAT-60103,358.0976456797194,40.05756101955186,1184.5241477410636,5.142110411444638,-180098.45771426545,10.5,10499819901.542286,47.655,-122.3035,60.0,12.316666666666666
2026-01-20T23:12:20+00:00,SAT-60103,358.1740188844205,39.81247350342122,1189.6525458580777,5.160925513478144,-180757.44217528153,10.5,10499819242.557825,47.655,-122.3035,60.0,12.333333333333334
2026-01-20T23:12:21+00:00,SAT-60103,358.2488812963967,39.56918597048137,1194.79970890352,5.179492712085549,-181407.7440096851,10.5,10499818592.255991,47.655,-122.3035,60.0,12.35
2026-01-20T23:12:22+00:00,SAT-60103,358.32226761244897,39.32768428241951,1199.9653896350399,5.197815305551151,-182049.47873734398,10.5,10499817950.521263,47.655,-122.3035,60.0,12.366666666666667
2026-01-20T23:12:23+00:00,SAT-60103,358.39421148917876,39.087954243878926,1205.1493440997763,5.215896644734829,-182682.7637195453,10.5,10499817317.23628,47.655,-122.3035,60.0,12.383333333333333
2026-01-20T23:12:24+00:00,SAT-60103,358.4647455822767,38.84998160830491,1210.3513316867918,5.233739976378755,-183307.71267093357,10.5,10499816692.287329,47.655,-122.3035,60.0,12.4
2026-01-20T23:12:25+00:00,SAT-60103,358.53390158193173,38.61375209056385,1215.5711150232335,5.251348560621006,-183924.43977533473,10.5,10499816075.560225,47.655,-122.3035,60.0,12.416666666666666
2026-01-20T23:12:26+00:00,SAT-60103,358.6017102483423,38.379251373684156,1220.808459987693,5.268725578440627,-184533.05644409035,10.5,10499815466.943556,47.655,-122.3035,60.0,12.433333333333334
2026-01-20T23:12:27+00:00,SAT-60103,358.66820144450844,38.146465119338124,1226.0631356312576,5.285874197001969,-185133.67360469315,10.5,10499814866.326395,47.655,-122.3035,60.0,12.45
2026-01-20T23:12:28+00:00,SAT-60103,358.7334041684999,37.91537897493309,1231.3349141637343,5.302797571978034,-185726.40178216007,10.5,10499814273.598217,47.655,-122.3035,60.0,12.466666666666667
2026-01-20T23:12:29+00:00,SAT-60103,358.79734658438065,37.685978580267246,1236.6235709421871,5.319498780984089,-186311.3487675962,10.5,10499813688.651232,47.655,-122.3035,60.0,12.483333333333333
2026-01-20T23:12:30+00:00,SAT-60103,358.8600560510437,37.45824957664639,1241.9288843930885,5.335980885260059,-186888.62177857262,10.5,10499813111.378222,47.655,-122.3035,60.0,12.5
2026-01-20T23:12:31+00:00,SAT-60103,358.9215591506091,37.23217761295536,1247.250635995988,5.352246914119751,-187458.32691447288,10.5,10499812541.673086,47.655,-122.3035,60.0,12.516666666666667
2026-01-20T23:12:32+00:00,SAT-60103,358.9818817154516,37.0077483520442,1252.58861025167,5.36829987518336,-188020.56951487847,10.5,10499811979.430485,47.655,-122.3035,60.0,12.533333333333333
2026-01-20T23:12:33+00:00,SAT-60103,359.0410488542639,36.78494747637276,1257.9425946605197,5.384142675369113,-188575.45139236187,10.5,10499811424.548607,47.655,-122.3035,60.0,12.55
2026-01-20T23:12:34+00:00,SAT-60103,359.09908497614725,36.56376069655974,1263.3123796220875,5.399778282499022,-189123.07649260384,10.5,10499810876.923508,47.655,-122.3035,60.0,12.566666666666666
2026-01-20T23:12:35+00:00,SAT-60103,359.15601381556377,36.344173752971294,1268.6977584958336,5.415209531632088,-189663.54411136292,10.5,10499810336.455889,47.655,-122.3035,60.0,12.583333333333334
2026-01-20T23:12:36+00:00,SAT-60103,359.2118584541283,36.12617242494413,1274.0985274687143,5.430439328244717,-190196.956010713,10.5,10499809803.04399,47.655,-122.3035,60.0,12.6
2026-01-20T23:12:37+00:00,SAT-60103,359.26664134373533,35.90974253149189,1279.5144856254171,5.445470402815207,-190723.40782355398,10.5,10499809276.592176,47.655,-122.3035,60.0,12.616666666666667
2026-01-20T23:12:38+00:00,SAT-60103,359.32038432618754,35.69486994155089,1284.945434773825,5.460305589690544,-191242.99882070656,10.5,10499808757.001179,47.655,-122.3035,60.0,12.633333333333333
2026-01-20T23:12:39+00:00,SAT-60103,359.3731086549348,35.48154057288645,1290.3911795486094,5.474947608253064,-191755.8242464431,10.5,10499808244.175753,47.655,-122.3035,60.0,12.65
2026-01-20T23:12:40+00:00,SAT-60103,359.4248350137065,35.269740399423235,1295.851527296574,5.48939917062239,-192261.9790906651,10.5,10499807738.02091,47.655,-122.3035,60.0,12.666666666666666
2026-01-20T23:12:41+00:00,SAT-60103,359.47558353553666,35.059455454089424,1301.326288069408,5.503662920864718,-192761.55595975512,10.5,10499807238.44404,47.655,-122.3035,60.0,12.683333333333334
2026-01-20T23:12:42+00:00,SAT-60103,359.52537382042163,34.85067183377219,1306.815274555817,5.517741500539713,-193254.6473723064,10.5,10499806745.352627,47.655,-122.3035,60.0,12.7
2026-01-20T23:12:43+00:00,SAT-60103,359.57422495296385,34.64337570155032,1312.3183020790223,5.531637530326567,-193741.34511558976,10.5,10499806258.654884,47.655,-122.3035,60.0,12.716666666666667
2026-01-20T23:12:44+00:00,SAT-60103,359.62215551910924,34.43755328947111,1317.8351885759344,5.5453535448211975,-194221.73796187554,10.5,10499805778.262037,47.655,-122.3035,60.0,12.733333333333333
2026-01-20T23:12:45+00:00,SAT-60103,359.6691836216999,34.233190903530314,1323.3657545113028,5.558892076359976,-194695.9146042952,10.5,10499805304.085396,47.655,-122.3035,60.0,12.75
2026-01-20T23:12:46+00:00,SAT-60103,359.7153268961682,34.03027492533329,1328.9098228754592,5.572255628486081,-195163.96272752082,10.5,10499804836.037273,47.655,-122.3035,60.0,12.766666666666667
2026-01-20T23:12:47+00:00,SAT-60103,359.7606025254028,33.82879181459833,1334.4672191556026,5.585446660422372,-195625.9684639395,10.5,10499804374.031536,47.655,-122.3035,60.0,12.783333333333333
2026-01-20T23:12:48+00:00,SAT-60103,359.80502725392904,33.628728112040186,1340.037771291597,5.598467584561287,-196082.01630573877,10.5,10499803917.983694,47.655,-122.3035,60.0,12.8
2026-01-20T23:12:49+00:00,SAT-60103,359.8486174015378,33.43007044217396,1345.6213096292663,5.611320801610023,-196532.19033583972,10.5,10499803467.809664,47.655,-122.3035,60.0,12.816666666666666
2026-01-20T23:12:50+00:00,SAT-60103,359.8913888767012,33.232805514695144,1351.2176669087387,5.624008686153535,-196976.57372225192,10.5,10499803023.426277,47.655,-122.3035,60.0,12.833333333333334
2026-01-20T23:12:51+00:00,SAT-60103,359.93335718936595,33.03692012628414,1356.8266782383957,5.6365335343465235,-197415.2468860257,10.5,10499802584.753115,47.655,-122.3035,60.0,12.85
2026-01-20T23:12:52+00:00,SAT-60103,359.9745374628739,32.84240116403088,1362.4481810166508,5.648897654797107,-197848.2906843828,10.5,10499802151.709316,47.655,-122.3035,60.0,12.866666666666667
2026-01-20T23:12:53+00:00,SAT-60103,0.014944446153729527,32.64923560560684,1368.0820149443682,5.661103317576369,-198275.78462481496,10.5,10499801724.215376,47.655,-122.3035,60.0,12.883333333333333
2026-01-20T23:12:54+00:00,SAT-60103,0.05459252506719848,32.457410521074806,1373.7280219864313,5.6731527328164635,-198697.80611549897,10.5,10499801302.193884,47.655,-122.3035,60.0,12.9
2026-01-20T23:12:55+00:00,SAT-60103,0.09349573319531627,32.266913075293594,1379.3860463119602,5.685048111569166,-199114.4325968208,10.5,10499800885.567404,47.655,-122.3035,60.0,12.916666666666666
2026-01-20T23:12:56+00:00,SAT-60103,0.13166776268799182,32.0777305281456,1385.0559342952317,5.696791624781105,-199525.7401045146,10.5,10499800474.259895,47.655,-122.3035,60.0,12.933333333333334
2026-01-20T23:12:57+00:00,SAT-60103,0.16912197441799223,31.88985023606477,1390.7375344756801,5.708385372532494,-199931.80219227256,10.5,10499800068.197807,47.655,-122.3035,60.0,12.95
