satellites_20260121_005943/SAT-58768.csv

timestamp,satellite,azimuth_deg,elevation_deg,distance_km,relative_velocity_kms,doppler_shift_hz,tx_freq_ghz,rx_freq_hz,ue_lat,ue_lon,ue_alt_m,time_minutes
2026-01-20T23:00:00+00:00,SAT-58768,227.49341741888801,58.664474847475965,866.1749151094949,-3.897179474276736,136495.71024200256,10.5,10500136495.710241,47.655,-122.3035,60.0,0.0
2026-01-20T23:00:01+00:00,SAT-58768,227.8257513981765,59.040497588620404,862.2881281138162,-3.8565427172506292,135072.43911763653,10.5,10500135072.439117,47.655,-122.3035,60.0,0.016666666666666666
2026-01-20T23:00:02+00:00,SAT-58768,228.16913228814033,59.418663297183066,858.4418695104783,-3.815352754219933,133629.7923789307,10.5,10500133629.79238,47.655,-122.3035,60.0,0.03333333333333333
2026-01-20T23:00:03+00:00,SAT-58768,228.52405683354084,59.79891547229095,854.6366910302696,-3.773605639957552,132167.63184734387,10.5,10500132167.631847,47.655,-122.3035,60.0,0.05
2026-01-20T23:00:04+00:00,SAT-58768,228.8910498540756,60.18119231087426,850.8731483386853,-3.731297643977283,130685.8268654693,10.5,10500130685.826866,47.655,-122.3035,60.0,0.06666666666666667
2026-01-20T23:00:05+00:00,SAT-58768,229.27066606392637,60.565426355092335,847.1518008217587,-3.6884252518296563,129184.25434242042,10.5,10500129184.254343,47.655,-122.3035,60.0,0.08333333333333333
2026-01-20T23:00:06+00:00,SAT-58768,229.66349201153912,60.95154411263976,843.4732113706006,-3.6449851282742856,127662.79746397088,10.5,10500127662.797464,47.655,-122.3035,60.0,0.1
2026-01-20T23:00:07+00:00,SAT-58768,230.07014814132498,61.33946564349546,839.8379462026684,-3.6009741390285077,126121.3464542838,10.5,10500126121.346455,47.655,-122.3035,60.0,0.11666666666666667
2026-01-20T23:00:08+00:00,SAT-58768,230.49129098852205,61.72910411640565,836.2465746613439,-3.556389430115221,124559.8013550088,10.5,10500124559.801355,47.655,-122.3035,60.0,0.13333333333333333
2026-01-20T23:00:09+00:00,SAT-58768,230.92761552045812,62.12036533895425,832.6996689363757,-3.511228371537277,122978.07005252082,10.5,10500122978.070053,47.655,-122.3035,60.0,0.15
2026-01-20T23:00:10+00:00,SAT-58768,231.37985761348432,62.51314724374923,829.1978038404958,-3.4654885573127903,121376.06827915697,10.5,10500121376.06828,47.655,-122.3035,60.0,0.16666666666666666
2026-01-20T23:00:11+00:00,SAT-58768,231.84879667464813,62.907339333189746,825.7415565860025,-3.419167896747099,119753.72280994654,10.5,10500119753.72281,47.655,-122.3035,60.0,0.18333333333333332
2026-01-20T23:00:12+00:00,SAT-58768,232.33525842321754,63.302822089873516,822.3315064703135,-3.3722645538933684,118110.96934226534,10.5,10500118110.969343,47.655,-122.3035,60.0,0.2
2026-01-20T23:00:13+00:00,SAT-58768,232.8401178128762,63.69946633194464,818.9682346218971,-3.3247769950834627,116447.75416056784,10.5,10500116447.75416,47.655,-122.3035,60.0,0.21666666666666667
2026-01-20T23:00:14+00:00,SAT-58768,233.36430210662792,64.09713252150205,815.6523236988005,-3.2767039797886297,114764.0338162897,10.5,10500114764.033815,47.655,-122.3035,60.0,0.23333333333333334
2026-01-20T23:00:15+00:00,SAT-58768,233.9087940912923,64.49567001537038,812.3843575962914,-3.2280446144155794,113059.77701201403,10.5,10500113059.777012,47.655,-122.3035,60.0,0.25
2026-01-20T23:00:16+00:00,SAT-58768,234.47463543230114,64.89491626131687,809.1649211008476,-3.1787983106175988,111334.96314135024,10.5,10500111334.96314,47.655,-122.3035,60.0,0.26666666666666666
2026-01-20T23:00:17+00:00,SAT-58768,235.06293013841787,65.29469592345662,805.9945995857249,-3.1289648413232385,109589.58425129562,10.5,10500109589.584251,47.655,-122.3035,60.0,0.2833333333333333
2026-01-20T23:00:18+00:00,SAT-58768,235.67484813096593,65.69481994380419,802.8739786506451,-3.0785443222714197,107823.6443955168,10.5,10500107823.644396,47.655,-122.3035,60.0,0.3
2026-01-20T23:00:19+00:00,SAT-58768,236.3116288748347,66.09508452579404,799.8036437798999,-3.027537263125636,106037.1614245852,10.5,10500106037.161425,47.655,-122.3035,60.0,0.31666666666666665
2026-01-20T23:00:20+00:00,SAT-58768,236.97458504413933,66.4952700435394,796.7841799494759,-2.9759445413392602,104230.16607062954,10.5,10500104230.16607,47.655,-122.3035,60.0,0.3333333333333333
2026-01-20T23:00:21+00:00,SAT-58768,237.66510615389578,66.8951398619009,793.8161712602467,-2.9237674273034027,102402.70282812027,10.5,10500102402.702827,47.655,-122.3035,60.0,0.35
2026-01-20T23:00:22+00:00,SAT-58768,238.3846620979739,67.29443906908895,790.9002005460829,-2.8710076050582645,100554.8306792687,10.5,10500100554.830679,47.655,-122.3035,60.0,0.36666666666666664
2026-01-20T23:00:23+00:00,SAT-58768,239.13480650475785,67.69289311710013,788.0368489613047,-2.8176671823351787,98686.62344574183,10.5,10500098686.623446,47.655,-122.3035,60.0,0.38333333333333336
2026-01-20T23:00:24+00:00,SAT-58768,239.91717979595484,68.09020636493966,785.2266955581225,-2.7637486977405494,96798.17004027421,10.5,10500096798.17004,47.655,-122.3035,60.0,0.4
2026-01-20T23:00:25+00:00,SAT-58768,240.73351180744112,68.48606052175361,782.4703168569093,-2.709255102342544,94889.57382175609,10.5,10500094889.573822,47.655,-122.3035,60.0,0.4166666666666667
2026-01-20T23:00:26+00:00,SAT-58768,241.58562378908965,68.8801129850675,779.7682864348396,-2.654189861937487,92960.95617703503,10.5,10500092960.956177,47.655,-122.3035,60.0,0.43333333333333335
2026-01-20T23:00:27+00:00,SAT-58768,242.47542960817543,69.27199509304782,777.121174412534,-2.5985568414379956,91012.45247169945,10.5,10500091012.45247,47.655,-122.3035,60.0,0.45
2026-01-20T23:00:28+00:00,SAT-58768,243.40493582812968,69.66131026316859,774.5295470560065,-2.542360417050548,89044.21597901155,10.5,10500089044.215979,47.655,-122.3035,60.0,0.4666666666666667
2026-01-20T23:00:29+00:00,SAT-58768,244.3762404208156,70.04763205856084,771.9939662667348,-2.48560543523331,87056.41644243684,10.5,10500087056.416443,47.655,-122.3035,60.0,0.48333333333333334
2026-01-20T23:00:30+00:00,SAT-58768,245.39152968908314,70.43050217256115,769.5149891126621,-2.428297222851253,85049.24043131918,10.5,10500085049.24043,47.655,-122.3035,60.0,0.5
2026-01-20T23:00:31+00:00,SAT-58768,246.45307297215905,70.80942835812291,767.0931673490717,-2.3704416348475505,83022.89301053491,10.5,10500083022.893011,47.655,-122.3035,60.0,0.5166666666666667
2026-01-20T23:00:32+00:00,SAT-58768,247.5632146359212,71.18388233536974,764.7290468919172,-2.312044991036793,80977.59552672377,10.5,10500080977.595528,47.655,-122.3035,60.0,0.5333333333333333
2026-01-20T23:00:33+00:00,SAT-58768,248.7243627046235,71.55329769684647,762.4231673541898,-2.2531141524604337,78913.58828257966,10.5,10500078913.588282,47.655,-122.3035,60.0,0.55
2026-01-20T23:00:34+00:00,SAT-58768,249.93897352338712,71.91706788135447,760.1760615061359,-2.1936564845557234,76831.12924687083,10.5,10500076831.129248,47.655,-122.3035,60.0,0.5666666666666667
2026-01-20T23:00:35+00:00,SAT-58768,251.20953165371407,72.27454426163189,757.9882547722056,-2.1336798725419324,74730.4945933306,10.5,10500074730.494593,47.655,-122.3035,60.0,0.5833333333333334
2026-01-20T23:00:36+00:00,SAT-58768,252.53852421745495,72.62503443394095,755.8602647126572,-2.0731927415043123,72611.97940408255,10.5,10500072611.979404,47.655,-122.3035,60.0,0.6
2026-01-20T23:00:37+00:00,SAT-58768,253.92840884956988,72.96780080927071,753.7926004851303,-2.012204012386961,70475.89612832452,10.5,10500070475.896128,47.655,-122.3035,60.0,0.6166666666666667
2026-01-20T23:00:38+00:00,SAT-58768,255.38157437255768,73.30205961567742,751.7857623501095,-1.9507231722843155,68322.57704423409,10.5,10500068322.577044,47.655,-122.3035,60.0,0.6333333333333333
2026-01-20T23:00:39+00:00,SAT-58768,256.9002934803946,73.62698047365863,749.8402411062847,-1.8887602082016997,66152.37193898269,10.5,10500066152.371939,47.655,-122.3035,60.0,0.65
2026-01-20T23:00:40+00:00,SAT-58768,258.4866666866179,73.9416866880665,747.9565175919715,-1.8263256410807602,63965.64930045033,10.5,10500063965.6493,47.655,-122.3035,60.0,0.6666666666666666
2026-01-20T23:00:41+00:00,SAT-58768,260.14255719152345,74.24525646173973,746.1350621526003,-1.7634305362661264,61762.79668381227,10.5,10500061762.796684,47.655,-122.3035,60.0,0.6833333333333333
2026-01-20T23:00:42+00:00,SAT-58768,261.86951661831154,74.53672523417433,744.3763340977642,-1.700086454622165,59544.21899944105,10.5,10500059544.219,47.655,-122.3035,60.0,0.7
2026-01-20T23:00:43+00:00,SAT-58768,263.6687020422668,74.81508935433678,742.6807812070211,-1.6363054995354327,57310.34015913117,10.5,10500057310.340158,47.655,-122.3035,60.0,0.7166666666666667
2026-01-20T23:00:44+00:00,SAT-58768,265.54078558540346,75.07931132444124,741.0488391888177,-1.57210027282826,55061.60153200629,10.5,10500055061.601532,47.655,-122.3035,60.0,0.7333333333333333
2026-01-20T23:00:45+00:00,SAT-58768,267.4858585392134,75.32832680593192,739.4809311833836,-1.5074838847395544,52798.46229408921,10.5,10500052798.462294,47.655,-122.3035,60.0,0.75
2026-01-20T23:00:46+00:00,SAT-58768,269.5033331433467,75.56105356911252,737.9774672556701,-1.4424699475557905,50521.39920523217,10.5,10500050521.399206,47.655,-122.3035,60.0,0.7666666666666667
2026-01-20T23:00:47+00:00,SAT-58768,271.59184620153087,75.77640249647504,736.5388438946411,-1.3770725675731315,48230.9063275964,10.5,10500048230.906328,47.655,-122.3035,60.0,0.7833333333333333
2026-01-20T23:00:48+00:00,SAT-58768,273.7491698534425,75.97329066435226,735.1654435205814,-1.3113063106162435,45927.49381797509,10.5,10500045927.493818,47.655,-122.3035,60.0,0.8
2026-01-20T23:00:49+00:00,SAT-58768,275.9721357613326,76.15065640651517,733.8576340267936,-1.2451862290415372,43611.68887356112,10.5,10500043611.688873,47.655,-122.3035,60.0,0.8166666666666667
2026-01-20T23:00:50+00:00,SAT-58768,278.2565797858806,76.30747613162198,732.6157682943629,-1.1787278134296069,41284.03404001201,10.5,10500041284.03404,47.655,-122.3035,60.0,0.8333333333333334
2026-01-20T23:00:51+00:00,SAT-58768,280.59731416683917,76.44278248246364,731.4401837551023,-1.111947003411075,38945.08759061673,10.5,10500038945.087591,47.655,-122.3035,60.0,0.85
2026-01-20T23:00:52+00:00,SAT-58768,282.9881339029819,76.55568327414036,730.3312019437003,-1.044860145061639,36595.422034090036,10.5,10500036595.422033,47.655,-122.3035,60.0,0.8666666666666667
2026-01-20T23:00:53+00:00,SAT-58768,285.4218624476349,76.64538047534411,729.289128092359,-0.97748401016881,34235.62478937514,10.5,10500034235.62479,47.655,-122.3035,60.0,0.8833333333333333
2026-01-20T23:00:54+00:00,SAT-58768,287.890439835619,76.71118838644331,728.3142507062173,-0.9098357424736961,31866.296302803617,10.5,10500031866.296303,47.655,-122.3035,60.0,0.9
2026-01-20T23:00:55+00:00,SAT-58768,290.3850530667086,76.75255008662388,727.4068411923901,-0.8419328521113321,29488.049853372184,10.5,10500029488.049854,47.655,-122.3035,60.0,0.9166666666666666
2026-01-20T23:00:56+00:00,SAT-58768,292.8963053605107,76.7690512438159,726.5671534945511,-0.773793209642147,27101.51134369946,10.5,10500027101.511343,47.655,-122.3035,60.0,0.9333333333333333
2026-01-20T23:00:57+00:00,SAT-58768,295.41441726598464,76.76043046800287,725.7954237334679,-0.7054349945259759,24707.3174953679,10.5,10500024707.317495,47.655,-122.3035,60.0,0.95
2026-01-20T23:00:58+00:00,SAT-58768,297.9294493153583,76.72658556941398,725.0918698989274,-0.6368766970249606,22306.115915571456,10.5,10500022306.115915,47.655,-122.3035,60.0,0.9666666666666667
2026-01-20T23:00:59+00:00,SAT-58768,300.4315339768974,76.66757533569407,724.4566915397611,-0.5681370853007681,19898.563944720936,10.5,10500019898.563944,47.655,-122.3035,60.0,0.9833333333333333
2026-01-20T23:01:00+00:00,SAT-58768,302.91110342267046,76.58361673362671,723.8900694866879,-0.4992351795914349,17485.327752007914,10.5,10500017485.327751,47.655,-122.3035,60.0,1.0
2026-01-20T23:01:01+00:00,SAT-58768,305.3591001813487,76.47507774769511,723.3921656009087,-0.43019023035410553,15067.081569870941,10.5,10500015067.08157,47.655,-122.3035,60.0,1.0166666666666666
2026-01-20T23:01:02+00:00,SAT-58768,307.76715955113514,76.34246634371434,722.9631225445021,-0.361021690100637,12644.506707559296,10.5,10500012644.506708,47.655,-122.3035,60.0,1.0333333333333334
2026-01-20T23:01:03+00:00,SAT-58768,310.12775543381815,76.18641626845064,722.6030635789084,-0.29174918431662744,10218.290532594347,10.5,10500010218.290533,47.655,-122.3035,60.0,1.05
2026-01-20T23:01:04+00:00,SAT-58768,312.43430471953343,76.0076705394694,722.3120923924166,-0.22239249174388778,7789.125780178305,10.5,10500007789.12578,47.655,-122.3035,60.0,1.0666666666666667
2026-01-20T23:01:05+00:00,SAT-58768,314.68122899673114,75.80706352866636,722.0902929473175,-0.15297150810523838,5357.709282683165,10.5,10500005357.709282,47.655,-122.3035,60.0,1.0833333333333333
2026-01-20T23:01:06+00:00,SAT-58768,316.8639753862437,75.58550253144554,721.9377293632338,-0.08350622233468986,2924.741137131087,10.5,10500002924.741137,47.655,-122.3035,60.0,1.1
2026-01-20T23:01:07+00:00,SAT-58768,318.9790010538586,75.3439496080212,721.8544458241587,-0.01401668656617626,490.9236540728811,10.5,10500000490.923655,47.655,-122.3035,60.0,1.1166666666666667
2026-01-20T23:01:08+00:00,SAT-58768,321.02372753015766,75.08340435486163,721.8404665154234,0.05547701141106707,-1943.039607141165,10.5,10499998056.960392,47.655,-122.3035,60.0,1.1333333333333333
2026-01-20T23:01:09+00:00,SAT-58768,322.9964718667421,74.80488809980406,721.8957955881374,0.1249547785817809,-4376.444904123304,10.5,10499995623.555096,47.655,-122.3035,60.0,1.15
2026-01-20T23:01:10+00:00,SAT-58768,324.89636175302763,74.50942984754343,722.0204171539763,0.19439654462500564,-6808.589289336156,10.5,10499993191.410711,47.655,-122.3035,60.0,1.1666666666666667
2026-01-20T23:01:11+00:00,SAT-58768,326.72324115639316,74.1980541589986,722.2142953078155,0.26378229086456634,-9238.771624061157,10.5,10499990761.228376,47.655,-122.3035,60.0,1.1833333333333333
2026-01-20T23:01:12+00:00,SAT-58768,328.4775722443772,73.87177100702633,722.4773741792379,0.33309208042060806,-11666.293634432874,10.5,10499988333.706366,47.655,-122.3035,60.0,1.2
2026-01-20T23:01:13+00:00,SAT-58768,330.16033820743553,73.53156755472537,722.8095780141107,0.4023060830370209,-14090.460781000435,10.5,10499985909.539219,47.655,-122.3035,60.0,1.2166666666666666
2026-01-20T23:01:14+00:00,SAT-58768,331.7729504509622,73.1784017333618,723.2108112809262,0.47140460644812904,-16510.583357321666,10.5,10499983489.416643,47.655,-122.3035,60.0,1.2333333333333334
2026-01-20T23:01:15+00:00,SAT-58768,333.3171626228848,72.81319743663005,723.6809588084238,0.5403681234430444,-18925.977437871254,10.5,10499981074.022562,47.655,-122.3035,60.0,1.25
2026-01-20T23:01:16+00:00,SAT-58768,334.7949929380235,72.4368411360429,724.2198859502043,0.6091772983876248,-21335.96580695189,10.5,10499978664.034193,47.655,-122.3035,60.0,1.2666666666666666
2026-01-20T23:01:17+00:00,SAT-58768,336.20865553521946,72.05017970785197,724.8274387757963,0.6778130141834984,-23739.878902913337,10.5,10499976260.121098,47.655,-122.3035,60.0,1.2833333333333334
2026-01-20T23:01:18+00:00,SAT-58768,337.5605010062995,71.65401926804186,725.5034442886086,0.7462563925389182,-26137.05552812353,10.5,10499973862.944471,47.655,-122.3035,60.0,1.3
2026-01-20T23:01:19+00:00,SAT-58768,338.8529657995642,71.24912482868334,726.2477106641009,0.8144888319532341,-28526.844179345426,10.5,10499971473.15582,47.655,-122.3035,60.0,1.3166666666666667
2026-01-20T23:01:20+00:00,SAT-58768,340.08852995284616,70.83622059563828,727.0600275258355,0.882492015709412,-30908.603327668858,10.5,10499969091.396673,47.655,-122.3035,60.0,1.3333333333333333
2026-01-20T23:01:21+00:00,SAT-58768,341.26968235756584,70.4159907737911,727.940166229503,0.9502479492217057,-33281.70272658397,10.5,10499966718.297274,47.655,-122.3035,60.0,1.35
2026-01-20T23:01:22+00:00,SAT-58768,342.39889277296425,69.98908073657455,728.8878801841935,1.0177389693355714,-35645.52373770357,10.5,10499964354.476263,47.655,-122.3035,60.0,1.3666666666666667
2026-01-20T23:01:23+00:00,SAT-58768,343.47858969881054,69.5560984664464,729.9029051829441,1.0849477776820033,-37999.46049897304,10.5,10499962000.539501,47.655,-122.3035,60.0,1.3833333333333333
2026-01-20T23:01:24+00:00,SAT-58768,344.51114331268144,69.11761616755076,730.9849597665523,1.1518574532825283,-40342.920366150596,10.5,10499959657.079634,47.655,-122.3035,60.0,1.4
2026-01-20T23:01:25+00:00,SAT-58768,345.49885267542805,68.67417198900846,732.1337455999594,1.2184514633719992,-42675.32429186724,10.5,10499957324.675709,47.655,-122.3035,60.0,1.4166666666666667
2026-01-20T23:01:26+00:00,SAT-58768,346.4439365068661,68.22627180279048,733.348947859429,1.2847137122663397,-44996.108537181964,10.5,10499955003.891462,47.655,-122.3035,60.0,1.4333333333333333
2026-01-20T23:01:27+00:00,SAT-58768,347.3485269356722,67.7743909794541,734.6302356684627,1.3506285117127494,-47304.72363312045,10.5,10499952695.276367,47.655,-122.3035,60.0,1.45
2026-01-20T23:01:28+00:00,SAT-58768,348.21466561809893,67.3189761573071,735.9772625041443,1.416180632599286,-49600.636191763384,10.5,10499950399.363808,47.655,-122.3035,60.0,1.4666666666666666
2026-01-20T23:01:29+00:00,SAT-58768,349.0443018190521,66.86044695149303,737.3896666550567,1.4813553070887535,-51883.328980984275,10.5,10499948116.671019,47.655,-122.3035,60.0,1.4833333333333334
2026-01-20T23:01:30+00:00,SAT-58768,349.8392920174058,66.39919760397694,738.8670716813265,1.5461382353283457,-54152.30115944955,10.5,10499945847.698841,47.655,-122.3035,60.0,1.5
2026-01-20T23:01:31+00:00,SAT-58768,350.60140070693683,65.93559856039784,740.4090868813606,1.6105156087224282,-56407.069091729776,10.5,10499943592.930908,47.655,-122.3035,60.0,1.5166666666666666
2026-01-20T23:01:32+00:00,SAT-58768,351.33230212187635,65.46999796172172,742.015307781793,1.6744741048801983,-58647.166171345394,10.5,10499941352.833828,47.655,-122.3035,60.0,1.5333333333333334
2026-01-20T23:01:33+00:00,SAT-58768,352.0335826429899,65.00272305514481,743.6853166223935,1.7380009083598171,-60872.14354731393,10.5,10499939127.856453,47.655,-122.3035,60.0,1.55
2026-01-20T23:01:34+00:00,SAT-58768,352.7067437088622,64.53408151538714,745.4186828616645,1.8010837171679082,-63081.57035178995,10.5,10499936918.429647,47.655,-122.3035,60.0,1.5666666666666667
2026-01-20T23:01:35+00:00,SAT-58768,353.3532050727921,64.06436268126394,747.2149636889199,1.863710743427734,-65275.03372346747,10.5,10499934724.966276,47.655,-122.3035,60.0,1.5833333333333333
2026-01-20T23:01:36+00:00,SAT-58768,353.9743082817856,63.59383871094021,749.0737045370319,1.9258707152779118,-67452.13887408093,10.5,10499932547.861126,47.655,-122.3035,60.0,1.6
2026-01-20T23:01:37+00:00,SAT-58768,354.57132028227784,63.122765658099915,750.994439597069,1.987552899208286,-69612.50987070196,10.5,10499930387.49013,47.655,-122.3035,60.0,1.6166666666666667
2026-01-20T23:01:38+00:00,SAT-58768,355.1454370822798,62.65138446797076,752.9766923552128,2.048747066940773,-71755.78847576652,10.5,10499928244.211525,47.655,-122.3035,60.0,1.6333333333333333
2026-01-20T23:01:39+00:00,SAT-58768,355.69778739470337,62.17992191028384,755.0199760966417,2.109443550340474,-73881.63607029426,10.5,10499926118.36393,47.655,-122.3035,60.0,1.65
2026-01-20T23:01:40+00:00,SAT-58768,356.22943624228867,61.708591432837046,757.1237944641813,2.169633179764804,-75989.73149461432,10.5,10499924010.268505,47.655,-122.3035,60.0,1.6666666666666667
2026-01-20T23:01:41+00:00,SAT-58768,356.7413884587967,61.237593966595256,759.2876419554667,2.2293073236405996,-78079.772434523,10.5,10499921920.227566,47.655,-122.3035,60.0,1.6833333333333333
2026-01-20T23:01:42+00:00,SAT-58768,357.2345920897779,60.76711866341577,761.5110044595776,2.288457895345288,-80151.47566229143,10.5,10499919848.524338,47.655,-122.3035,60.0,1.7
2026-01-20T23:01:43+00:00,SAT-58768,357.709941665509,60.29734357856025,763.7933598005352,2.3470772965130653,-82204.57505100808,10.5,10499917795.42495,47.655,-122.3035,60.0,1.7166666666666666
2026-01-20T23:01:44+00:00,SAT-58768,358.1682813226919,59.82843631458518,766.1341782242577,2.405158463544246,-84238.82320353297,10.5,10499915761.176796,47.655,-122.3035,60.0,1.7333333333333334
2026-01-20T23:01:45+00:00,SAT-58768,358.61040779076876,59.36055460886562,768.5329229318991,2.462694866066121,-86253.99139859038,10.5,10499913746.008602,47.655,-122.3035,60.0,1.75
2026-01-20T23:01:46+00:00,SAT-58768,359.037073227864,58.89384687903864,770.9890506116557,2.519680438909013,-88249.8672082826,10.5,10499911750.132792,47.655,-122.3035,60.0,1.7666666666666666
2026-01-20T23:01:47+00:00,SAT-58768,359.4489878961387,58.42845274141388,773.5020119027276,2.5761096606602796,-90226.2572493833,10.5,10499909773.74275,47.655,-122.3035,60.0,1.7833333333333334
2026-01-20T23:01:48+00:00,SAT-58768,359.84682270361435,57.96450347805662,776.0712519376261,2.631977466208332,-92182.98412025924,10.5,10499907817.01588,47.655,-122.3035,60.0,1.8
2026-01-20T23:01:49+00:00,SAT-58768,0.23121158793839952,57.50212248610703,778.696210797258,2.6872793091263563,-94119.88858581205,10.5,10499905880.111414,47.655,-122.3035,60.0,1.8166666666666667
2026-01-20T23:01:50+00:00,SAT-58768,0.6027537708255896,57.04142568475533,781.3763240282267,2.742011092153695,-96036.82714264213,10.5,10499903963.172857,47.655,-122.3035,60.0,1.8333333333333333
2026-01-20T23:01:51+00:00,SAT-58768,0.9620158684644882,56.58252190562019,784.1110230908012,2.796169206640563,-97933.67340056936,10.5,10499902066.3266,47.655,-122.3035,60.0,1.85
2026-01-20T23:01:52+00:00,SAT-58768,1.30953387957575,56.12551324987042,786.8997358462241,2.8497504835162704,-99810.31636533311,10.5,10499900189.683634,47.655,-122.3035,60.0,1.8666666666666667
2026-01-20T23:01:53+00:00,SAT-58768,1.6458150453550981,55.670495428935354,789.7418869951176,2.902752205515852,-101666.66086682022,10.5,10499898333.339132,47.655,-122.3035,60.0,1.8833333333333333
2026-01-20T23:01:54+00:00,SAT-58768,1.9713395956290127,55.217558080559975,792.6368985280855,2.955172108145428,-103502.62759287625,10.5,10499896497.372408,47.655,-122.3035,60.0,1.9
2026-01-20T23:01:55+00:00,SAT-58768,2.286562385692171,54.76678506393745,795.5841901772758,3.0070083192387376,-105318.15097231946,10.5,10499894681.849028,47.655,-122.3035,60.0,1.9166666666666667
2026-01-20T23:01:56+00:00,SAT-58768,2.5919144237461738,54.3182547447252,798.5831798076633,3.058259403654559,-107113.18074043367,10.5,10499892886.81926,47.655,-122.3035,60.0,1.9333333333333333
2026-01-20T23:01:57+00:00,SAT-58768,2.88780430651074,53.87204025519846,801.6332838529081,3.1089243254990855,-108887.6806158359,10.5,10499891112.319384,47.655,-122.3035,60.0,1.95
2026-01-20T23:01:58+00:00,SAT-58768,3.1746195597620366,53.428209743609415,804.7339177135392,3.1590024261468126,-110641.627530675,10.5,10499889358.372469,47.655,-122.3035,60.0,1.9666666666666666
2026-01-20T23:01:59+00:00,SAT-58768,3.4527278918621724,52.986826611060486,807.8844961332163,3.208493422872035,-112375.01158270088,10.5,10499887624.988417,47.655,-122.3035,60.0,1.9833333333333334
2026-01-20T23:02:00+00:00,SAT-58768,3.7224783675069943,52.54794973409852,811.0844335736273,3.257397409802897,-114087.83606867927,10.5,10499885912.16393,47.655,-122.3035,60.0,2.0
2026-01-20T23:02:01+00:00,SAT-58768,3.9842025068271294,52.111633673838675,814.3331445903374,3.3057148182260034,-115780.11609409146,10.5,10499884219.883905,47.655,-122.3035,60.0,2.0166666666666666
2026-01-20T23:02:02+00:00,SAT-58768,4.2382153114895145,51.67792887795111,817.6300441690481,3.353446430841344,-117451.87907240185,10.5,10499882548.120928,47.655,-122.3035,60.0,2.033333333333333
2026-01-20T23:02:03+00:00,SAT-58768,4.484816226859443,51.24688186899986,820.9745480760739,3.4005933357076734,-119103.16311203055,10.5,10499880896.836887,47.655,-122.3035,60.0,2.05
2026-01-20T23:02:04+00:00,SAT-58768,4.724290039951951,50.81853542777969,824.3660731628863,3.447156955613043,-120734.01804503352,10.5,10499879265.981955,47.655,-122.3035,60.0,2.066666666666667
2026-01-20T23:02:05+00:00,SAT-58768,4.9569077228376734,50.392928762604214,827.8040376999511,3.493138992280525,-122344.503472951,10.5,10499877655.496527,47.655,-122.3035,60.0,2.0833333333333335
2026-01-20T23:02:06+00:00,SAT-58768,5.182927219281034,49.970097675926574,831.2878616549189,3.538541442071951,-123934.68931681891,10.5,10499876065.310682,47.655,-122.3035,60.0,2.1
2026-01-20T23:02:07+00:00,SAT-58768,5.402594183243566,49.550074719824195,834.8169669864786,3.5833665814698508,-125504.65530868502,10.5,10499874495.344692,47.655,-122.3035,60.0,2.1166666666666667
2026-01-20T23:02:08+00:00,SAT-58768,5.616142670389845,49.13288934477864,838.3907779237312,3.6276169384500685,-127054.48998895669,10.5,10499872945.510012,47.655,-122.3035,60.0,2.1333333333333333
2026-01-20T23:02:09+00:00,SAT-58768,5.823795785040685,48.71856804366623,842.0087212170121,3.6712952959948346,-128584.29082944363,10.5,10499871415.709171,47.655,-122.3035,60.0,2.15
2026-01-20T23:02:10+00:00,SAT-58768,6.025766287429237,48.307134487695244,845.6702263922176,3.714404656939072,-130094.16300212682,10.5,10499869905.836998,47.655,-122.3035,60.0,2.1666666666666665
2026-01-20T23:02:11+00:00,SAT-58768,6.222257161804847,47.89860965898581,849.3747259700715,3.756948280118169,-131584.2206452064,10.5,10499868415.779354,47.655,-122.3035,60.0,2.183333333333333
2026-01-20T23:02:12+00:00,SAT-58768,6.4134621517176384,47.49301197238034,853.1216557214426,3.798929604276417,-133054.58419805337,10.5,10499866945.415802,47.655,-122.3035,60.0,2.2
2026-01-20T23:02:13+00:00,SAT-58768,6.599566258947636,47.09035739899882,856.9104548467743,3.8403522879725656,-134505.3817988708,10.5,10499865494.6182,47.655,-122.3035,60.0,2.216666666666667
2026-01-20T23:02:14+00:00,SAT-58768,6.780746214358335,46.69065957927202,860.7405661953123,3.8812201583719688,-135936.74749117828,10.5,10499864063.252508,47.655,-122.3035,60.0,2.2333333333333334
2026-01-20T23:02:15+00:00,SAT-58768,6.957170918110184,46.29392993542246,864.6114364332619,3.921537256864651,-137348.82282154955,10.5,10499862651.17718,47.655,-122.3035,60.0,2.25
2026-01-20T23:02:16+00:00,SAT-58768,7.129001855653811,45.900177773729624,868.5225162574416,3.9613077377853685,-138741.75329236058,10.5,10499861258.246708,47.655,-122.3035,60.0,2.2666666666666666
2026-01-20T23:02:17+00:00,SAT-58768,7.296393484739586,45.509410391592,872.4732605079263,4.000535978797283,-140115.69222789278,10.5,10499859884.307772,47.655,-122.3035,60.0,2.283333333333333
2026-01-20T23:02:18+00:00,SAT-58768,7.459493604266346,45.121633168562994,876.4631283907801,4.039226427452419,-141470.79540023117,10.5,10499858529.2046,47.655,-122.3035,60.0,2.3
2026-01-20T23:02:19+00:00,SAT-58768,7.618443695384166,44.73684966743261,880.4915835477593,4.077383725200581,-142807.22537258125,10.5,10499857192.774628,47.655,-122.3035,60.0,2.316666666666667
2026-01-20T23:02:20+00:00,SAT-58768,7.773379247684694,44.355061718682876,884.5580942496927,4.115012624735295,-144125.14860437415,10.5,10499855874.851397,47.655,-122.3035,60.0,2.3333333333333335
2026-01-20T23:02:21+00:00,SAT-58768,7.92443006335339,43.97626950844175,888.6621335074287,4.152117973634206,-145424.73487828422,10.5,10499854575.265121,47.655,-122.3035,60.0,2.35
2026-01-20T23:02:22+00:00,SAT-58768,8.07172054340368,43.60047166352871,892.8031791664666,4.188704732177267,-146706.15792429744,10.5,10499853293.842075,47.655,-122.3035,60.0,2.3666666666666667
2026-01-20T23:02:23+00:00,SAT-58768,8.215369958284494,43.22766533069098,896.9807140193581,4.224777979949024,-147969.59565095115,10.5,10499852030.404348,47.655,-122.3035,60.0,2.3833333333333333
2026-01-20T23:02:24+00:00,SAT-58768,8.355492703353308,42.857846251459456,901.1942259246939,4.260342881257308,-149215.2289341506,10.5,10499850784.771067,47.655,-122.3035,60.0,2.4
2026-01-20T23:02:25+00:00,SAT-58768,8.492198538875158,42.49100883631436,905.4432078916011,4.295404637829149,-150443.23996037972,10.5,10499849556.76004,47.655,-122.3035,60.0,2.4166666666666665
2026-01-20T23:02:26+00:00,SAT-58768,8.625592815196523,42.12714623917908,909.7271581170628,4.3299685809979165,-151653.8154554846,10.5,10499848346.184544,47.655,-122.3035,60.0,2.433333333333333
2026-01-20T23:02:27+00:00,SAT-58768,8.755776688311173,41.76625042059021,914.045580115178,4.364040067050695,-152847.14301929603,10.5,10499847152.856981,47.655,-122.3035,60.0,2.45
2026-01-20T23:02:28+00:00,SAT-58768,8.88284732040163,41.40831221641965,918.3979827420499,4.397624553133195,-154023.41378414046,10.5,10499845976.586216,47.655,-122.3035,60.0,2.466666666666667
2026-01-20T23:02:29+00:00,SAT-58768,9.006898071639402,41.05332139709972,922.7838802963747,4.430727465180335,-155182.81778921044,10.5,10499844817.18221,47.655,-122.3035,60.0,2.4833333333333334
2026-01-20T23:02:30+00:00,SAT-58768,9.128018677930516,40.701266734413494,927.2027924883146,4.463354375434994,-156325.55019802213,10.5,10499843674.449802,47.655,-122.3035,60.0,2.5
2026-01-20T23:02:31+00:00,SAT-58768,9.246295423934228,40.35213605112738,931.654244585415,4.4955108111310915,-157451.80459768762,10.5,10499842548.195402,47.655,-122.3035,60.0,2.5166666666666666
2026-01-20T23:02:32+00:00,SAT-58768,9.361811301702335,40.00591628300994,936.1377673677164,4.527202366651716,-158561.7769271668,10.5,10499841438.223072,47.655,-122.3035,60.0,2.533333333333333
2026-01-20T23:02:33+00:00,SAT-58768,9.47464616386701,39.662593529206134,940.6528971947238,4.558434653385628,-159655.66372103032,10.5,10499840344.336279,47.655,-122.3035,60.0,2.55
2026-01-20T23:02:34+00:00,SAT-58768,9.584876867450358,39.322153103951216,945.199176022367,4.589213296422684,-160733.66199371894,10.5,10499839266.338007,47.655,-122.3035,60.0,2.566666666666667
2026-01-20T23:02:35+00:00,SAT-58768,9.692577410109397,38.98457958593612,949.7761514166659,4.619543938944092,-161795.96939330932,10.5,10499838204.030607,47.655,-122.3035,60.0,2.5833333333333335
2026-01-20T23:02:36+00:00,SAT-58768,9.797819059353753,38.64985686497722,954.3833765717728,4.649432261724461,-162842.78488455783,10.5,10499837157.215115,47.655,-122.3035,60.0,2.6
2026-01-20T23:02:37+00:00,SAT-58768,9.900670475546839,38.31796818496986,959.020410347466,4.678883859389554,-163874.304414924,10.5,10499836125.695585,47.655,-122.3035,60.0,2.6166666666666667
2026-01-20T23:02:38+00:00,SAT-58768,10.001197825891353,37.988896193388015,963.6868171832306,4.7079044255732105,-164890.7273995489,10.5,10499835109.2726,47.655,-122.3035,60.0,2.6333333333333333
2026-01-20T23:02:39+00:00,SAT-58768,10.099464896607163,37.66262297548921,968.3821671970022,4.736499594074521,-165892.25115790762,10.5,10499834107.748842,47.655,-122.3035,60.0,2.65
2026-01-20T23:02:40+00:00,SAT-58768,10.195533196020847,37.339130097747514,973.1060361254926,4.764674994047323,-166879.07284677884,10.5,10499833120.927153,47.655,-122.3035,60.0,2.6666666666666665
2026-01-20T23:02:41+00:00,SAT-58768,10.289462053710754,37.01839864529001,977.8580053195558,4.79243626669229,-167851.39004487245,10.5,10499832148.609955,47.655,-122.3035,60.0,2.683333333333333
2026-01-20T23:02:42+00:00,SAT-58768,10.38130871490942,36.70040925647482,982.6376617562036,4.819788972143075,-168809.39749158832,10.5,10499831190.602509,47.655,-122.3035,60.0,2.7
2026-01-20T23:02:43+00:00,SAT-58768,10.471128428580839,36.38514216166257,987.4445979577542,4.846738730714178,-169753.29203411404,10.5,10499830246.707966,47.655,-122.3035,60.0,2.716666666666667
2026-01-20T23:02:44+00:00,SAT-58768,10.558974533698231,36.07257721105031,992.2784120518531,4.87329107741464,-170683.26753187942,10.5,10499829316.732468,47.655,-122.3035,60.0,2.7333333333333334
2026-01-20T23:02:45+00:00,SAT-58768,10.644898538657461,35.76269391031354,997.1387076863947,4.899451538275554,-171599.51752986832,10.5,10499828400.48247,47.655,-122.3035,60.0,2.75
2026-01-20T23:02:46+00:00,SAT-58768,10.728950198232903,35.45547144959799,1002.0250940205682,4.9252256216121015,-172502.23495257864,10.5,10499827497.765047,47.655,-122.3035,60.0,2.7666666666666666
2026-01-20T23:02:47+00:00,SAT-58768,10.811177586625224,35.15088873163794,1006.9371857071893,4.950618772199289,-173391.61049906246,10.5,10499826608.389502,47.655,-122.3035,60.0,2.783333333333333
2026-01-20T23:02:48+00:00,SAT-58768,10.891627166256123,34.848924401160986,1011.8746028293294,4.9756364370847574,-174267.8349479691,10.5,10499825732.165052,47.655,-122.3035,60.0,2.8
2026-01-20T23:02:49+00:00,SAT-58768,10.970343854327261,34.54955686888446,1016.8369709025819,5.000283968435198,-175131.09575481576,10.5,10499824868.904245,47.655,-122.3035,60.0,2.816666666666667
2026-01-20T23:02:50+00:00,SAT-58768,11.047371084756152,34.25276433992227,1021.8239207804346,5.024566750743385,-175981.58150731577,10.5,10499824018.418493,47.655,-122.3035,60.0,2.8333333333333335
2026-01-20T23:02:51+00:00,SAT-58768,11.122750869077594,33.95852483339906,1026.8350886865094,5.048490074080703,-176819.477486146,10.5,10499823180.522514,47.655,-122.3035,60.0,2.85
2026-01-20T23:02:52+00:00,SAT-58768,11.196523852619512,33.6668162082612,1031.8701161203926,5.072059171042056,-177644.96695891392,10.5,10499822355.033041,47.655,-122.3035,60.0,2.8666666666666667
2026-01-20T23:02:53+00:00,SAT-58768,11.268729368654542,33.37761618562072,1036.9286498003119,5.095279291664072,-178458.23380410977,10.5,10499821541.766195,47.655,-122.3035,60.0,2.8833333333333333
2026-01-20T23:02:54+00:00,SAT-58768,11.339405491059207,33.090902365757636,1042.0103416805314,5.118155582678689,-179259.4582820567,10.5,10499820740.541718,47.655,-122.3035,60.0,2.9
2026-01-20T23:02:55+00:00,SAT-58768,11.408589082898203,32.80665225087365,1047.114848848323,5.140693148982464,-180048.81918782584,10.5,10499819951.180813,47.655,-122.3035,60.0,2.9166666666666665
2026-01-20T23:02:56+00:00,SAT-58768,11.476315843650196,32.5248432632376,1052.2418334822414,5.1628970670288,-180826.49432028874,10.5,10499819173.50568,47.655,-122.3035,60.0,2.933333333333333
2026-01-20T23:02:57+00:00,SAT-58768,11.542620354437554,32.24545276167349,1057.3909628237582,5.184772343205634,-181592.65902432796,10.5,10499818407.340975,47.655,-122.3035,60.0,2.95
2026-01-20T23:02:58+00:00,SAT-58768,11.607536120702626,31.968458059324984,1062.561909107382,5.206323935696006,-182347.48695648665,10.5,10499817652.513044,47.655,-122.3035,60.0,2.966666666666667
2026-01-20T23:02:59+00:00,SAT-58768,11.67109561324036,31.693836439322986,1067.7543495125828,5.227556747833465,-183091.14985224672,10.5,10499816908.850147,47.655,-122.3035,60.0,2.9833333333333334
2026-01-20T23:03:00+00:00,SAT-58768,11.733330307326783,31.421565169899917,1072.9679661090886,5.24847562001362,-183823.81724273734,10.5,10499816176.182756,47.655,-122.3035,60.0,3.0
2026-01-20T23:03:01+00:00,SAT-58768,11.794270720026331,31.15162151910034,1078.2024457941156,5.269085375953455,-184545.65807493153,10.5,10499815454.341925,47.655,-122.3035,60.0,3.0166666666666666
2026-01-20T23:03:02+00:00,SAT-58768,11.853946446378083,30.883982766322298,1083.4574802757331,5.289390707958169,-185256.83669320584,10.5,10499814743.163307,47.655,-122.3035,60.0,3.033333333333333
2026-01-20T23:03:03+00:00,SAT-58768,11.912386192731446,30.618626218889897,1088.7327659418036,5.309396326739283,-185957.518086604,10.5,10499814042.481913,47.655,-122.3035,60.0,3.05
2026-01-20T23:03:04+00:00,SAT-58768,11.96961781026659,30.35552922034387,1094.028003878338,5.329106850216156,-186647.8639941957,10.5,10499813352.136005,47.655,-122.3035,60.0,3.066666666666667
2026-01-20T23:03:05+00:00,SAT-58768,12.025668325877177,30.09466916363449,1099.3428997769538,5.348526828695731,-187328.033786978,10.5,10499812671.966213,47.655,-122.3035,60.0,3.0833333333333335
