satellites_20260121_005943/SAT-64025.csv

timestamp,satellite,azimuth_deg,elevation_deg,distance_km,relative_velocity_kms,doppler_shift_hz,tx_freq_ghz,rx_freq_hz,ue_lat,ue_lon,ue_alt_m,time_minutes
2026-01-20T23:06:29+00:00,SAT-64025,249.1688922824763,30.00522234021032,3523.992267318791,-4.863581545858517,170343.19866550624,10.5,10500170343.198666,47.655,-122.3035,60.0,6.483333333333333
2026-01-20T23:06:30+00:00,SAT-64025,249.23648511716607,30.071596535709265,3519.1416553237214,-4.858565424743748,170167.51288589573,10.5,10500170167.512886,47.655,-122.3035,60.0,6.5
2026-01-20T23:06:31+00:00,SAT-64025,249.30441232862725,30.138007184956464,3514.296046073444,-4.853523069948123,169990.9082918133,10.5,10500169990.90829,47.655,-122.3035,60.0,6.516666666666667
2026-01-20T23:06:32+00:00,SAT-64025,249.3726756683299,30.204453859727018,3509.455465731682,-4.848454387356455,169813.38158694698,10.5,10500169813.381586,47.655,-122.3035,60.0,6.533333333333333
2026-01-20T23:06:33+00:00,SAT-64025,249.44127689718843,30.27093612507547,3504.6199405560255,-4.843359274476571,169634.92918158733,10.5,10500169634.929182,47.655,-122.3035,60.0,6.55
2026-01-20T23:06:34+00:00,SAT-64025,249.51021778548358,30.3374535391488,3499.789496906281,-4.838237598520811,169455.5464249488,10.5,10500169455.546425,47.655,-122.3035,60.0,6.566666666666666
2026-01-20T23:06:35+00:00,SAT-64025,249.5795001124257,30.404005652704186,3494.964161274689,-4.833089252310708,169275.2295631881,10.5,10500169275.229563,47.655,-122.3035,60.0,6.583333333333333
2026-01-20T23:06:36+00:00,SAT-64025,249.64912566656204,30.47059200937856,3490.1439602603846,-4.827914127289502,169093.97479418837,10.5,10500169093.974794,47.655,-122.3035,60.0,6.6
2026-01-20T23:06:37+00:00,SAT-64025,249.7190962457766,30.537212145600147,3485.328920570768,-4.822712115279568,168911.77832911146,10.5,10500168911.77833,47.655,-122.3035,60.0,6.616666666666666
2026-01-20T23:06:38+00:00,SAT-64025,249.78941365731697,30.60386559051499,3480.5190690211293,-4.817483107212876,168728.63634793376,10.5,10500168728.636349,47.655,-122.3035,60.0,6.633333333333334
2026-01-20T23:06:39+00:00,SAT-64025,249.86007971780612,30.670551865901423,3475.7144325355357,-4.812226964958343,168544.5440127203,10.5,10500168544.544012,47.655,-122.3035,60.0,6.65
2026-01-20T23:06:40+00:00,SAT-64025,249.93109625282045,30.73727048569303,3470.9150381758172,-4.806943595474144,168359.49806475287,10.5,10500168359.498064,47.655,-122.3035,60.0,6.666666666666667
2026-01-20T23:06:41+00:00,SAT-64025,250.00246509758173,30.80402095652002,3466.120913096598,-4.801632888584839,168173.49464522154,10.5,10500168173.494646,47.655,-122.3035,60.0,6.683333333333334
2026-01-20T23:06:42+00:00,SAT-64025,250.0741880967383,30.870802777397444,3461.332084562382,-4.796294721869433,167986.52946642524,10.5,10500167986.529467,47.655,-122.3035,60.0,6.7
2026-01-20T23:06:43+00:00,SAT-64025,250.14626710416655,30.9376154394754,3456.548579959771,-4.790928963807259,167798.5979219538,10.5,10500167798.597921,47.655,-122.3035,60.0,6.716666666666667
2026-01-20T23:06:44+00:00,SAT-64025,250.21870398286632,31.004458425835224,3451.770426806534,-4.785535527850014,167609.69698051957,10.5,10500167609.696981,47.655,-122.3035,60.0,6.733333333333333
2026-01-20T23:06:45+00:00,SAT-64025,250.29150060565865,31.07133121203043,3446.997652706759,-4.780114290663432,167419.82232243495,10.5,10500167419.822323,47.655,-122.3035,60.0,6.75
2026-01-20T23:06:46+00:00,SAT-64025,250.36465885463934,31.13823326549548,3442.230285387537,-4.774665135707639,167228.96986598044,10.5,10500167228.969866,47.655,-122.3035,60.0,6.766666666666667
2026-01-20T23:06:47+00:00,SAT-64025,250.43818062129435,31.20516404556166,3437.468352692191,-4.769187914225692,167037.13440105878,10.5,10500167037.134401,47.655,-122.3035,60.0,6.783333333333333
2026-01-20T23:06:48+00:00,SAT-64025,250.5120678059884,31.272123002922484,3432.7118826124033,-4.763682571119453,166844.31399790003,10.5,10500166844.313997,47.655,-122.3035,60.0,6.8
2026-01-20T23:06:49+00:00,SAT-64025,250.5863223194787,31.33910958085503,3427.960903194807,-4.758148940053166,166650.5028307225,10.5,10500166650.50283,47.655,-122.3035,60.0,6.816666666666666
2026-01-20T23:06:50+00:00,SAT-64025,250.66094608114815,31.406123213588376,3423.215442651927,-4.75258692409509,166455.6975045665,10.5,10500166455.697504,47.655,-122.3035,60.0,6.833333333333333
2026-01-20T23:06:51+00:00,SAT-64025,250.73594102011245,31.473163327185482,3418.475529292963,-4.746996401630271,166259.89375996188,10.5,10500166259.89376,47.655,-122.3035,60.0,6.85
2026-01-20T23:06:52+00:00,SAT-64025,250.81130907484732,31.540229339111956,3413.741191548404,-4.741377250359173,166063.08731346176,10.5,10500166063.087313,47.655,-122.3035,60.0,6.866666666666666
2026-01-20T23:06:53+00:00,SAT-64025,250.88705219316265,31.6073206581427,3409.012457970712,-4.735729364173646,165865.2744487097,10.5,10500165865.274448,47.655,-122.3035,60.0,6.883333333333334
2026-01-20T23:06:54+00:00,SAT-64025,250.96317233249283,31.67443668450035,3404.289357218176,-4.730052608032578,165666.45043599486,10.5,10500165666.450436,47.655,-122.3035,60.0,6.9
2026-01-20T23:06:55+00:00,SAT-64025,251.03967145940493,31.74157680936194,3399.571918083765,-4.724346871067321,165466.61139222814,10.5,10500165466.611393,47.655,-122.3035,60.0,6.916666666666667
2026-01-20T23:06:56+00:00,SAT-64025,251.1165515500074,31.808740415109977,3394.860169471021,-4.71861204592458,165265.75355744304,10.5,10500165265.753557,47.655,-122.3035,60.0,6.933333333333334
2026-01-20T23:06:57+00:00,SAT-64025,251.1938145900127,31.875926875294766,3390.154140390552,-4.712847984522327,165063.87174518057,10.5,10500165063.871746,47.655,-122.3035,60.0,6.95
2026-01-20T23:06:58+00:00,SAT-64025,251.2714625740495,31.94313555396786,3385.453860000655,-4.707054595065909,164860.96274040372,10.5,10500164860.96274,47.655,-122.3035,60.0,6.966666666666667
2026-01-20T23:06:59+00:00,SAT-64025,251.34949750660178,32.010365806388165,3380.759357551176,-4.701231736877043,164657.02161596392,10.5,10500164657.021616,47.655,-122.3035,60.0,6.983333333333333
2026-01-20T23:07:00+00:00,SAT-64025,251.42792140119116,32.07761697823843,3376.0706624322643,-4.695379301613442,164452.04457725596,10.5,10500164452.044577,47.655,-122.3035,60.0,7.0
2026-01-20T23:07:01+00:00,SAT-64025,251.50673628089993,32.14488840599089,3371.3878041421212,-4.689497159898104,164246.02709295004,10.5,10500164246.027094,47.655,-122.3035,60.0,7.016666666666667
2026-01-20T23:07:02+00:00,SAT-64025,251.5859441780271,32.21217941651746,3366.7108123079834,-4.683585202480551,164038.9653366323,10.5,10500164038.965336,47.655,-122.3035,60.0,7.033333333333333
2026-01-20T23:07:03+00:00,SAT-64025,251.66554713440576,32.279489327281446,3362.0397166660423,-4.6776432914274,163830.8544772921,10.5,10500163830.854477,47.655,-122.3035,60.0,7.05
2026-01-20T23:07:04+00:00,SAT-64025,251.74554720091112,32.346817445836315,3357.3745470900585,-4.671671320997933,163621.6908114423,10.5,10500163621.690811,47.655,-122.3035,60.0,7.066666666666666
2026-01-20T23:07:05+00:00,SAT-64025,251.82594643799757,32.41416307018741,3352.71533355925,-4.665669148634984,163411.46934612788,10.5,10500163411.469347,47.655,-122.3035,60.0,7.083333333333333
2026-01-20T23:07:06+00:00,SAT-64025,251.90674691503477,32.481525488172295,3348.0621061950114,-4.659636675914169,163200.18663411064,10.5,10500163200.186634,47.655,-122.3035,60.0,7.1
2026-01-20T23:07:07+00:00,SAT-64025,251.98795071108805,32.54890397799499,3343.4148952169,-4.653573763800791,162987.83780580736,10.5,10500162987.837807,47.655,-122.3035,60.0,7.116666666666666
2026-01-20T23:07:08+00:00,SAT-64025,252.06955991415805,32.61629780754792,3338.773730983136,-4.647480289072393,162774.41854544627,10.5,10500162774.418545,47.655,-122.3035,60.0,7.133333333333334
2026-01-20T23:07:09+00:00,SAT-64025,252.15157662145901,32.683706234539216,3334.138643974834,-4.641356140094437,162559.9249431138,10.5,10500162559.924944,47.655,-122.3035,60.0,7.15
2026-01-20T23:07:10+00:00,SAT-64025,252.2340029395973,32.751128506563276,3329.5096647844466,-4.635201173222671,162344.35196778047,10.5,10500162344.351967,47.655,-122.3035,60.0,7.166666666666667
2026-01-20T23:07:11+00:00,SAT-64025,252.31684098396494,32.81856386053789,3324.8868241476857,-4.629015296087136,162127.6963842597,10.5,10500162127.696384,47.655,-122.3035,60.0,7.183333333333334
2026-01-20T23:07:12+00:00,SAT-64025,252.40009287965864,32.88601152334635,3320.2701528923885,-4.622798340500124,161909.95230190645,10.5,10500161909.952301,47.655,-122.3035,60.0,7.2
2026-01-20T23:07:13+00:00,SAT-64025,252.48376076005206,32.953470710639635,3315.6596820141294,-4.616550217843351,161691.11661693364,10.5,10500161691.116617,47.655,-122.3035,60.0,7.216666666666667
2026-01-20T23:07:14+00:00,SAT-64025,252.56784676822588,33.02094062788534,3311.055442596867,-4.610270782890479,161471.18424290058,10.5,10500161471.184242,47.655,-122.3035,60.0,7.233333333333333
2026-01-20T23:07:15+00:00,SAT-64025,252.6523530559066,33.08842046944884,3306.4574658693978,-4.60395994235218,161250.15191242032,10.5,10500161250.151913,47.655,-122.3035,60.0,7.25
2026-01-20T23:07:16+00:00,SAT-64025,252.73728178438597,33.15590941924148,3301.865783153559,-4.597617519200261,161028.0134252168,10.5,10500161028.013426,47.655,-122.3035,60.0,7.266666666666667
2026-01-20T23:07:17+00:00,SAT-64025,252.8226351229149,33.22340664940085,3297.280425947743,-4.591243431117857,160804.76589820517,10.5,10500160804.765898,47.655,-122.3035,60.0,7.283333333333333
2026-01-20T23:07:18+00:00,SAT-64025,252.90841525044686,33.29091132156476,3292.701425832441,-4.584837524509776,160580.40395183206,10.5,10500160580.403952,47.655,-122.3035,60.0,7.3
2026-01-20T23:07:19+00:00,SAT-64025,252.99462435425173,33.35842258572705,3288.12881454133,-4.578399708528173,160354.92440422173,10.5,10500160354.924404,47.655,-122.3035,60.0,7.316666666666666
2026-01-20T23:07:20+00:00,SAT-64025,253.08126463107095,33.42593958104931,3283.5626238986915,-4.57192980161408,160128.32089641108,10.5,10500160128.320896,47.655,-122.3035,60.0,7.333333333333333
2026-01-20T23:07:21+00:00,SAT-64025,253.16833828530875,33.49346143442676,3279.002885909882,-4.565427727847594,159900.590769364,10.5,10500159900.590769,47.655,-122.3035,60.0,7.35
2026-01-20T23:07:22+00:00,SAT-64025,253.25584753104764,33.56098726192916,3274.449632655975,-4.55889332524637,159671.72834977348,10.5,10500159671.72835,47.655,-122.3035,60.0,7.366666666666666
2026-01-20T23:07:23+00:00,SAT-64025,253.34379459030714,33.62851616742953,3269.9028963795963,-4.552326513173209,159441.73081338385,10.5,10500159441.730814,47.655,-122.3035,60.0,7.383333333333334
2026-01-20T23:07:24+00:00,SAT-64025,253.43218169459806,33.69604724369477,3265.362709403791,-4.545727101861899,159210.59151377963,10.5,10500159210.591515,47.655,-122.3035,60.0,7.4
2026-01-20T23:07:25+00:00,SAT-64025,253.52101108269653,33.763579570666366,3260.8291042408678,-4.5390950023257,158978.30733426873,10.5,10500158978.307335,47.655,-122.3035,60.0,7.416666666666667
2026-01-20T23:07:26+00:00,SAT-64025,253.610285002585,33.831112216838335,3256.3021134918818,-4.532430087094963,158744.87381032485,10.5,10500158744.87381,47.655,-122.3035,60.0,7.433333333333334
2026-01-20T23:07:27+00:00,SAT-64025,253.70000571063508,33.89864423857791,3251.781769885019,-4.525732223553296,158510.28629716102,10.5,10500158510.286297,47.655,-122.3035,60.0,7.45
2026-01-20T23:07:28+00:00,SAT-64025,253.79017547143164,33.96617467994122,3247.2681062807283,-4.519001252719393,158274.5392265793,10.5,10500158274.539227,47.655,-122.3035,60.0,7.466666666666667
2026-01-20T23:07:29+00:00,SAT-64025,253.88079655715077,34.03370257216701,3242.7611556980164,-4.512237103935967,158037.6301238627,10.5,10500158037.630123,47.655,-122.3035,60.0,7.483333333333333
2026-01-20T23:07:30+00:00,SAT-64025,253.97187124931855,34.101226934878625,3238.2609512263575,-4.505439605968529,157799.55299165516,10.5,10500157799.552992,47.655,-122.3035,60.0,7.5
2026-01-20T23:07:31+00:00,SAT-64025,254.06340183665952,34.16874677447494,3233.7675261260047,-4.4986086373525564,157560.3035757552,10.5,10500157560.303576,47.655,-122.3035,60.0,7.516666666666667
2026-01-20T23:07:32+00:00,SAT-64025,254.1553906160352,34.236261084759185,3229.2809137783515,-4.491744073257587,157319.87750407204,10.5,10500157319.877504,47.655,-122.3035,60.0,7.533333333333333
2026-01-20T23:07:33+00:00,SAT-64025,254.24783989230818,34.303768846771746,3224.8011476892893,-4.484845787759463,157078.270366209,10.5,10500157078.270367,47.655,-122.3035,60.0,7.55
2026-01-20T23:07:34+00:00,SAT-64025,254.34075197822412,34.37126902866348,3220.3282614902973,-4.477913651608246,156835.47763528654,10.5,10500156835.477634,47.655,-122.3035,60.0,7.566666666666666
2026-01-20T23:07:35+00:00,SAT-64025,254.43412919426922,34.438760585528065,3215.86228894176,-4.470947515779158,156591.49409182655,10.5,10500156591.494091,47.655,-122.3035,60.0,7.583333333333333
2026-01-20T23:07:36+00:00,SAT-64025,254.52797386813165,34.506242458992006,3211.4032639526895,-4.463947288826693,156346.31653302058,10.5,10500156346.316532,47.655,-122.3035,60.0,7.6
2026-01-20T23:07:37+00:00,SAT-64025,254.62228833587113,34.57371357796123,3206.9512205233,-4.456912802286671,156099.93905854042,10.5,10500156099.939058,47.655,-122.3035,60.0,7.616666666666666
2026-01-20T23:07:38+00:00,SAT-64025,254.71707494013788,34.64117285734849,3202.5061928218192,-4.4498439417527225,155852.35766139114,10.5,10500155852.357662,47.655,-122.3035,60.0,7.633333333333334
2026-01-20T23:07:39+00:00,SAT-64025,254.81233603124372,34.70861919876682,3198.0682151305778,-4.442740584149774,155603.568030963,10.5,10500155603.568031,47.655,-122.3035,60.0,7.65
2026-01-20T23:07:40+00:00,SAT-64025,254.9080739668787,34.776051490284736,3193.6373218546523,-4.435602584029394,155353.56507303676,10.5,10500155353.565073,47.655,-122.3035,60.0,7.666666666666667
2026-01-20T23:07:41+00:00,SAT-64025,255.00429111150464,34.843468605968226,3189.2135475441805,-4.428429822017367,155102.34460662233,10.5,10500155102.344606,47.655,-122.3035,60.0,7.683333333333334
2026-01-20T23:07:42+00:00,SAT-64025,255.10098983681064,34.91086940615748,3184.7969268683555,-4.421222164003134,154849.90193460073,10.5,10500154849.901934,47.655,-122.3035,60.0,7.7
2026-01-20T23:07:43+00:00,SAT-64025,255.19817252128183,34.97825273712321,3180.387494630123,-4.413979471153252,154596.2321944375,10.5,10500154596.232195,47.655,-122.3035,60.0,7.716666666666667
2026-01-20T23:07:44+00:00,SAT-64025,255.29584154995484,35.04561743087727,3175.9852857708925,-4.4067016395215335,154341.33174549742,10.5,10500154341.331745,47.655,-122.3035,60.0,7.733333333333333
2026-01-20T23:07:45+00:00,SAT-64025,255.3939993151009,35.112962305581114,3171.590335335743,-4.399388499980059,154085.19466420542,10.5,10500154085.194664,47.655,-122.3035,60.0,7.75
2026-01-20T23:07:46+00:00,SAT-64025,255.4926482145973,35.18028616443578,3167.2026785384296,-4.3920399481338865,153827.81729420894,10.5,10500153827.817295,47.655,-122.3035,60.0,7.766666666666667
2026-01-20T23:07:47+00:00,SAT-64025,255.59179065327777,35.247587796544785,3162.822350696824,-4.384655841039596,153569.19462902483,10.5,10500153569.19463,47.655,-122.3035,60.0,7.783333333333333
2026-01-20T23:07:48+00:00,SAT-64025,255.69142904191202,35.31486597620753,3158.4493872713606,-4.377236055574341,153309.32235637022,10.5,10500153309.322357,47.655,-122.3035,60.0,7.8
2026-01-20T23:07:49+00:00,SAT-64025,255.7915657975204,35.38211946309763,3154.083823845268,-4.3697804635900015,153048.1959879558,10.5,10500153048.195988,47.655,-122.3035,60.0,7.816666666666666
2026-01-20T23:07:50+00:00,SAT-64025,255.8922033431095,35.44934700206851,3149.725696129581,-4.36228890782559,152785.81001583667,10.5,10500152785.810017,47.655,-122.3035,60.0,7.833333333333333
2026-01-20T23:07:51+00:00,SAT-64025,255.99334410683576,35.516547322581395,3145.375039992176,-4.3547612942014995,152522.16114494696,10.5,10500152522.161144,47.655,-122.3035,60.0,7.85
2026-01-20T23:07:52+00:00,SAT-64025,256.09499052333877,35.58371913955307,3141.031891394759,-4.34719745753258,152257.24358980404,10.5,10500152257.24359,47.655,-122.3035,60.0,7.866666666666666
2026-01-20T23:07:53+00:00,SAT-64025,256.1971450319003,35.650861152142795,3136.69628646378,-4.339597296139814,151991.05378917855,10.5,10500151991.05379,47.655,-122.3035,60.0,7.883333333333334
2026-01-20T23:07:54+00:00,SAT-64025,256.2998100777862,35.717972044604124,3132.3682614270965,-4.331960645026095,151723.58596417392,10.5,10500151723.585964,47.655,-122.3035,60.0,7.9
2026-01-20T23:07:55+00:00,SAT-64025,256.4029881105578,35.78505048518743,3128.0478526771235,-4.324287406031314,151454.83667680793,10.5,10500151454.836678,47.655,-122.3035,60.0,7.916666666666667
2026-01-20T23:07:56+00:00,SAT-64025,256.5066815855139,35.85209512704705,3123.7350967041752,-4.316577429044634,151184.80066956405,10.5,10500151184.800669,47.655,-122.3035,60.0,7.933333333333334
2026-01-20T23:07:57+00:00,SAT-64025,256.61089296224594,35.91910460731612,3119.430030148275,-4.30883058621981,150913.4734647261,10.5,10500150913.473465,47.655,-122.3035,60.0,7.95
2026-01-20T23:07:58+00:00,SAT-64025,256.7156247049939,35.98607754732633,3115.1326897769513,-4.301046745909123,150640.85045143397,10.5,10500150640.85045,47.655,-122.3035,60.0,7.966666666666667
2026-01-20T23:07:59+00:00,SAT-64025,256.82087928237036,36.05301255242658,3110.8431124890317,-4.293225769200863,150366.92676441197,10.5,10500150366.926764,47.655,-122.3035,60.0,7.983333333333333
2026-01-20T23:08:00+00:00,SAT-64025,256.9266591669631,36.11990821174447,3106.561335321882,-4.285367550483908,150091.69870471203,10.5,10500150091.698704,47.655,-122.3035,60.0,8.0
2026-01-20T23:08:01+00:00,SAT-64025,257.03296683600024,36.186763098580904,3102.287395418199,-4.277471921251392,149815.16037051077,10.5,10500149815.16037,47.655,-122.3035,60.0,8.016666666666667
2026-01-20T23:08:02+00:00,SAT-64025,257.1398047695227,36.253575769308476,3098.021330088738,-4.2695387685855195,149537.30780694942,10.5,10500149537.307806,47.655,-122.3035,60.0,8.033333333333333
2026-01-20T23:08:03+00:00,SAT-64025,257.24717545160195,36.320344764111276,3093.7631767568687,-4.261567975916941,149258.13693127624,10.5,10500149258.13693,47.655,-122.3035,60.0,8.05
2026-01-20T23:08:04+00:00,SAT-64025,257.355081370027,36.38706860680435,3089.512972962221,-4.253559389751596,148977.64236748,10.5,10500148977.642368,47.655,-122.3035,60.0,8.066666666666666
2026-01-20T23:08:05+00:00,SAT-64025,257.46352501512916,36.45374580413548,3085.2707563975086,-4.245512882373857,148695.81964241908,10.5,10500148695.819643,47.655,-122.3035,60.0,8.083333333333334
2026-01-20T23:08:06+00:00,SAT-64025,257.5725088802136,36.52037484606191,3081.036564882821,-4.237428330332059,148412.66443229408,10.5,10500148412.664433,47.655,-122.3035,60.0,8.1
2026-01-20T23:08:07+00:00,SAT-64025,257.68203546144264,36.58695420569354,3076.8104363613697,-4.229305598555619,148128.17200636183,10.5,10500148128.172007,47.655,-122.3035,60.0,8.116666666666667
2026-01-20T23:08:08+00:00,SAT-64025,257.7921072572794,36.65348233898825,3072.5924089110767,-4.221144556286705,147842.3377849299,10.5,10500147842.337786,47.655,-122.3035,60.0,8.133333333333333
2026-01-20T23:08:09+00:00,SAT-64025,257.9027267683676,36.71995768469516,3068.3825207402733,-4.212945072519474,147555.15717961953,10.5,10500147555.157179,47.655,-122.3035,60.0,8.15
2026-01-20T23:08:10+00:00,SAT-64025,258.0138964972531,36.78637866422885,3064.1808101879474,-4.2047070097596455,147266.62537479936,10.5,10500147266.625376,47.655,-122.3035,60.0,8.166666666666666
2026-01-20T23:08:11+00:00,SAT-64025,258.12561894796033,36.85274368144173,3059.987315730214,-4.196430254964907,146976.73841124956,10.5,10500146976.73841,47.655,-122.3035,60.0,8.183333333333334
2026-01-20T23:08:12+00:00,SAT-64025,258.2378966263815,36.91905112288891,3055.8020759559286,-4.188114663752059,146685.4912320597,10.5,10500146685.491232,47.655,-122.3035,60.0,8.2
2026-01-20T23:08:13+00:00,SAT-64025,258.35073203915806,36.985299357210735,3051.625129597947,-4.17976010549439,146392.87926212972,10.5,10500146392.879263,47.655,-122.3035,60.0,8.216666666666667
2026-01-20T23:08:14+00:00,SAT-64025,258.46412769376536,37.05148673522828,3047.4565155194005,-4.171366461303541,146098.89833748646,10.5,10500146098.898338,47.655,-122.3035,60.0,8.233333333333333
2026-01-20T23:08:15+00:00,SAT-64025,258.5780860985568,37.11761159000623,3043.2962727019935,-4.162933586528985,145803.5433918566,10.5,10500145803.543392,47.655,-122.3035,60.0,8.25
2026-01-20T23:08:16+00:00,SAT-64025,258.69260976175144,37.18367223632613,3039.1444402716957,-4.1544613627158755,145506.81027645027,10.5,10500145506.810276,47.655,-122.3035,60.0,8.266666666666667
2026-01-20T23:08:17+00:00,SAT-64025,258.8077011918687,37.24966697097744,3035.001057472614,-4.145949656433653,145208.69431796498,10.5,10500145208.694319,47.655,-122.3035,60.0,8.283333333333333
2026-01-20T23:08:18+00:00,SAT-64025,258.9233628969916,37.31559407240341,3030.86616368193,-4.137398335126911,144909.19087374964,10.5,10500144909.190874,47.655,-122.3035,60.0,8.3
2026-01-20T23:08:19+00:00,SAT-64025,259.03959738448805,37.3814518005929,3026.7397984090303,-4.128807280349954,144608.29579533494,10.5,10500144608.295795,47.655,-122.3035,60.0,8.316666666666666
2026-01-20T23:08:20+00:00,SAT-64025,259.1564071610791,37.44723839718681,3022.6220012814283,-4.120176349110066,144306.0040745111,10.5,10500144306.004074,47.655,-122.3035,60.0,8.333333333333334
2026-01-20T23:08:21+00:00,SAT-64025,259.27379473181657,37.51295208496935,3018.512812069249,-4.1115054270674545,144002.31170661497,10.5,10500144002.311707,47.655,-122.3035,60.0,8.35
2026-01-20T23:08:22+00:00,SAT-64025,259.3917626005665,37.5785910682059,3014.4122706566536,-4.102794372143696,143697.21371545913,10.5,10500143697.213715,47.655,-122.3035,60.0,8.366666666666667
2026-01-20T23:08:23+00:00,SAT-64025,259.51031326885555,37.64415353208515,3010.3204170695026,-4.094043063172078,143390.70585727287,10.5,10500143390.705856,47.655,-122.3035,60.0,8.383333333333333
2026-01-20T23:08:24+00:00,SAT-64025,259.6294492361343,37.70963764293538,3006.2372914544985,-4.085251379702996,143082.78391340136,10.5,10500143082.783913,47.655,-122.3035,60.0,8.4
2026-01-20T23:08:25+00:00,SAT-64025,259.74917299944906,37.77504154812183,3002.162934078475,-4.076419180272964,142773.44292919512,10.5,10500142773.442928,47.655,-122.3035,60.0,8.416666666666666
2026-01-20T23:08:26+00:00,SAT-64025,259.86948705242963,37.840363375596894,2998.0973853493497,-4.067546348594695,142462.67883178138,10.5,10500142462.678831,47.655,-122.3035,60.0,8.433333333333334
2026-01-20T23:08:27+00:00,SAT-64025,259.9903938856883,37.90560123418797,2994.0406857910175,-4.058632754210207,142150.48705196974,10.5,10500142150.487053,47.655,-122.3035,60.0,8.45
2026-01-20T23:08:28+00:00,SAT-64025,260.11189598599196,37.970753213260465,2989.9928760574853,-4.049678267711502,141836.86305734472,10.5,10500141836.863058,47.655,-122.3035,60.0,8.466666666666667
2026-01-20T23:08:29+00:00,SAT-64025,260.23399583591595,38.035817382621566,2985.953996931821,-4.040682773439445,141521.80279703427,10.5,10500141521.802797,47.655,-122.3035,60.0,8.483333333333333
2026-01-20T23:08:30+00:00,SAT-64025,260.3566959138544,38.100791792631924,2981.924089312444,-4.031646135424926,141205.30150882486,10.5,10500141205.301508,47.655,-122.3035,60.0,8.5
2026-01-20T23:08:31+00:00,SAT-64025,260.47999869299997,38.16567447377058,2977.9031942333804,-4.022568228469522,140887.3548077383,10.5,10500140887.354807,47.655,-122.3035,60.0,8.516666666666667
2026-01-20T23:08:32+00:00,SAT-64025,260.6039066412442,38.23046343670015,2973.89135285352,-4.013448935051485,140567.9585776657,10.5,10500140567.958578,47.655,-122.3035,60.0,8.533333333333333
2026-01-20T23:08:33+00:00,SAT-64025,260.7284222210033,38.29515667228336,2969.888606448962,-4.004288123635401,140247.1082116806,10.5,10500140247.108212,47.655,-122.3035,60.0,8.55
2026-01-20T23:08:34+00:00,SAT-64025,260.8535478883414,38.3597521512545,2965.8949964269896,-3.9950856809543343,139924.7997426957,10.5,10500139924.799742,47.655,-122.3035,60.0,8.566666666666666
2026-01-20T23:08:35+00:00,SAT-64025,260.97928609311595,38.42424782440775,2961.9105643078515,-3.9858414697640434,139601.02836383713,10.5,10500139601.028364,47.655,-122.3035,60.0,8.583333333333334
2026-01-20T23:08:36+00:00,SAT-64025,261.1056392777425,38.48864162211099,2957.9353517486734,-3.976555374079628,139275.79001282313,10.5,10500139275.790012,47.655,-122.3035,60.0,8.6
2026-01-20T23:08:37+00:00,SAT-64025,261.23260987743777,38.55293145454648,2953.9694005222577,-3.967227274769294,138949.08051715425,10.5,10500138949.080517,47.655,-122.3035,60.0,8.616666666666667
2026-01-20T23:08:38+00:00,SAT-64025,261.3602003196347,38.61711521156242,2950.0127525202215,-3.957857060158862,138620.89596552844,10.5,10500138620.895966,47.655,-122.3035,60.0,8.633333333333333
2026-01-20T23:08:39+00:00,SAT-64025,261.4884130237764,38.68119076269624,2946.065449745556,-3.9484445646916764,138291.23055945124,10.5,10500138291.23056,47.655,-122.3035,60.0,8.65
2026-01-20T23:08:40+00:00,SAT-64025,261.6172503990109,38.74515595620752,2942.12753436637,-3.938989718496667,137960.08185174226,10.5,10500137960.081852,47.655,-122.3035,60.0,8.666666666666666
2026-01-20T23:08:41+00:00,SAT-64025,261.7467148468974,38.80900862053248,2938.1990486204563,-3.9294923805667343,137627.4449037364,10.5,10500137627.444904,47.655,-122.3035,60.0,8.683333333333334
2026-01-20T23:08:42+00:00,SAT-64025,261.8768087585276,38.872746563041325,2934.280034886238,-3.9199524249106408,137293.31530268758,10.5,10500137293.315302,47.655,-122.3035,60.0,8.7
2026-01-20T23:08:43+00:00,SAT-64025,262.0075345145076,38.936367570191976,2930.3705356677933,-3.910369742109686,136957.6892162901,10.5,10500136957.689217,47.655,-122.3035,60.0,8.716666666666667
2026-01-20T23:08:44+00:00,SAT-64025,262.1388944849879,38.99986940770981,2926.4705935783295,-3.9007442037560467,136620.56214715878,10.5,10500136620.562147,47.655,-122.3035,60.0,8.733333333333333
2026-01-20T23:08:45+00:00,SAT-64025,262.2708910284968,39.06324982019605,2922.5802513591166,-3.891075715149069,136281.93077847618,10.5,10500136281.930779,47.655,-122.3035,60.0,8.75
2026-01-20T23:08:46+00:00,SAT-64025,262.4035264925511,39.1265065315898,2918.699551845875,-3.88136412573322,135941.78983715063,10.5,10500135941.789837,47.655,-122.3035,60.0,8.766666666666667
2026-01-20T23:08:47+00:00,SAT-64025,262.5368032111708,39.18963724418147,2914.8285380244765,-3.8716093420839828,135600.13605106043,10.5,10500135600.136051,47.655,-122.3035,60.0,8.783333333333333
2026-01-20T23:08:48+00:00,SAT-64025,262.67072350629536,39.2526396394615,2910.967252973972,-3.8618112351445393,135256.96490008986,10.5,10500135256.964901,47.655,-122.3035,60.0,8.8
2026-01-20T23:08:49+00:00,SAT-64025,262.8052896859758,39.31551137746445,2907.115739902121,-3.8519697125286676,134912.27314848264,10.5,10500134912.273148,47.655,-122.3035,60.0,8.816666666666666
2026-01-20T23:08:50+00:00,SAT-64025,262.940504045093,39.37825009729351,2903.274042108826,-3.842084626793171,134566.05563215434,10.5,10500134566.055632,47.655,-122.3035,60.0,8.833333333333334
2026-01-20T23:08:51+00:00,SAT-64025,263.0763688627879,39.44085341615175,2899.442203041037,-3.8321558903895716,134218.30928478696,10.5,10500134218.309284,47.655,-122.3035,60.0,8.85
2026-01-20T23:08:52+00:00,SAT-64025,263.2128864040178,39.50331893024964,2895.620266233022,-3.8221833705352934,133869.02945577295,10.5,10500133869.029455,47.655,-122.3035,60.0,8.866666666666667
2026-01-20T23:08:53+00:00,SAT-64025,263.35005891730765,39.56564421400212,2891.808275351475,-3.812166974368926,133518.212892713,10.5,10500133518.212893,47.655,-122.3035,60.0,8.883333333333333
2026-01-20T23:08:54+00:00,SAT-64025,263.4878886355782,39.62782682061693,2888.0062741557044,-3.8021065807949115,133165.8553543284,10.5,10500133165.855354,47.655,-122.3035,60.0,8.9
2026-01-20T23:08:55+00:00,SAT-64025,263.6263777744944,39.68986428157393,2884.2143065257915,-3.792002065781201,132811.95249649213,10.5,10500132811.952496,47.655,-122.3035,60.0,8.916666666666666
2026-01-20T23:08:56+00:00,SAT-64025,263.76552853167885,39.75175410652085,2880.432416465519,-3.781853348745484,132456.5014968708,10.5,10500132456.501497,47.655,-122.3035,60.0,8.933333333333334
2026-01-20T23:08:57+00:00,SAT-64025,263.9053430877166,39.81349378392772,2876.660648059037,-3.771660294511466,132099.49762101885,10.5,10500132099.497622,47.655,-122.3035,60.0,8.95
2026-01-20T23:08:58+00:00,SAT-64025,264.0458236034184,39.87508078014633,2872.8990455253106,-3.7614228078616314,131740.93753401606,10.5,10500131740.937534,47.655,-122.3035,60.0,8.966666666666667
2026-01-20T23:08:59+00:00,SAT-64025,264.1869722206638,39.93651254001429,2869.14765317827,-3.751140774818552,131380.81724389075,10.5,10500131380.817244,47.655,-122.3035,60.0,8.983333333333333
2026-01-20T23:09:00+00:00,SAT-64025,264.3287910609999,39.997786486505525,2865.406515445518,-3.7408140955800606,131019.1332551489,10.5,10500131019.133255,47.655,-122.3035,60.0,9.0
2026-01-20T23:09:01+00:00,SAT-64025,264.47128222550066,40.058900020921676,2861.6756768541927,-3.730442661040012,130655.88174643181,10.5,10500130655.881746,47.655,-122.3035,60.0,9.016666666666667
2026-01-20T23:09:02+00:00,SAT-64025,264.6144477936871,40.11985052270227,2857.9551820402485,-3.720026366685045,130291.05905723941,10.5,10500130291.059057,47.655,-122.3035,60.0,9.033333333333333
2026-01-20T23:09:03+00:00,SAT-64025,264.75828982300834,40.18063534946808,2854.2450757438746,-3.7095651056055403,129924.66144314468,10.5,10500129924.661444,47.655,-122.3035,60.0,9.05
2026-01-20T23:09:04+00:00,SAT-64025,264.90281034799773,40.241251836951456,2850.545402811884,-3.699058790969102,129556.68586290977,10.5,10500129556.685863,47.655,-122.3035,60.0,9.066666666666666
2026-01-20T23:09:05+00:00,SAT-64025,265.0480113803661,40.30169729929989,2846.856208177691,-3.68850728926233,129187.12764033065,10.5,10500129187.12764,47.655,-122.3035,60.0,9.083333333333334
2026-01-20T23:09:06+00:00,SAT-64025,265.19389490634626,40.36196902829037,2843.1775369078664,-3.6779105253993127,128815.98414558108,10.5,10500128815.984146,47.655,-122.3035,60.0,9.1
2026-01-20T23:09:07+00:00,SAT-64025,265.3404628883152,40.42206429426894,2839.5094341438685,-3.6672684024198485,128443.25198270466,10.5,10500128443.251984,47.655,-122.3035,60.0,9.116666666666667
2026-01-20T23:09:08+00:00,SAT-64025,265.4877172631369,40.481980345777735,2835.851945123855,-3.656580799961232,128068.92693609036,10.5,10500128068.926935,47.655,-122.3035,60.0,9.133333333333333
2026-01-20T23:09:09+00:00,SAT-64025,265.6356599404229,40.54171440916495,2832.205115206027,-3.6458476453597286,127693.00646074675,10.5,10500127693.00646,47.655,-122.3035,60.0,9.15
2026-01-20T23:09:10+00:00,SAT-64025,265.78429280370204,40.60126368935981,2828.568989821055,-3.635068811149245,127315.48609227211,10.5,10500127315.486092,47.655,-122.3035,60.0,9.166666666666666
2026-01-20T23:09:11+00:00,SAT-64025,265.93361770734924,40.6606253689758,2824.9436145267355,-3.624244248441579,126936.36411839479,10.5,10500126936.364119,47.655,-122.3035,60.0,9.183333333333334
2026-01-20T23:09:12+00:00,SAT-64025,266.08363647906833,40.719796609600955,2821.329034929623,-3.61337380736628,126555.63529001769,10.5,10500126555.63529,47.655,-122.3035,60.0,9.2
2026-01-20T23:09:13+00:00,SAT-64025,266.234350914808,40.77877455015496,2817.725296785743,-3.602457438205225,126173.29786580174,10.5,10500126173.297865,47.655,-122.3035,60.0,9.216666666666667
2026-01-20T23:09:14+00:00,SAT-64025,266.38576278217255,40.83755630854136,2814.1324459007064,-3.591495024428194,125789.34776436581,10.5,10500125789.347765,47.655,-122.3035,60.0,9.233333333333333
2026-01-20T23:09:15+00:00,SAT-64025,266.537873816741,40.89613898057389,2810.5505281963433,-3.5804865028970125,125403.78277434396,10.5,10500125403.782774,47.655,-122.3035,60.0,9.25
2026-01-20T23:09:16+00:00,SAT-64025,266.6906857235177,40.95451964087319,2806.9795896574537,-3.56943174452081,125016.59837442778,10.5,10500125016.598375,47.655,-122.3035,60.0,9.266666666666667
2026-01-20T23:09:17+00:00,SAT-64025,266.8442001731788,41.012695341817505,2803.419676397585,-3.558330688710135,124627.7924425184,10.5,10500124627.792442,47.655,-122.3035,60.0,9.283333333333333
2026-01-20T23:09:18+00:00,SAT-64025,266.9984188042174,41.070663114697666,2799.8708345907116,-3.547183248378987,124237.36192849577,10.5,10500124237.361929,47.655,-122.3035,60.0,9.3
2026-01-20T23:09:19+00:00,SAT-64025,267.1533432208859,41.12841996932182,2796.333110497662,-3.535989332064073,123845.3036289284,10.5,10500123845.303629,47.655,-122.3035,60.0,9.316666666666666
2026-01-20T23:09:20+00:00,SAT-64025,267.30897499212654,41.185962893990684,2792.806550470483,-3.524748843260556,123451.61416380874,10.5,10500123451.614164,47.655,-122.3035,60.0,9.333333333333334
2026-01-20T23:09:21+00:00,SAT-64025,267.46531565039993,41.243288855465416,2789.2912009574716,-3.5134617262548438,123056.2915818111,10.5,10500123056.291582,47.655,-122.3035,60.0,9.35
2026-01-20T23:09:22+00:00,SAT-64025,267.62236669265803,41.300394799688966,2785.7871084624862,-3.502127872359059,122659.33207622627,10.5,10500122659.332077,47.655,-122.3035,60.0,9.366666666666667
2026-01-20T23:09:23+00:00,SAT-64025,267.7801295769823,41.35727765098538,2782.2943195977873,-3.4907472254159306,122260.73368018909,10.5,10500122260.73368,47.655,-122.3035,60.0,9.383333333333333
2026-01-20T23:09:24+00:00,SAT-64025,267.9386057240763,41.41393431298257,2778.812881031639,-3.479319682771674,121860.49279832977,10.5,10500121860.492798,47.655,-122.3035,60.0,9.4
2026-01-20T23:09:25+00:00,SAT-64025,268.0977965141596,41.470361667930206,2775.3428395346878,-3.4678451848751295,121458.6073449148,10.5,10500121458.607346,47.655,-122.3035,60.0,9.416666666666666
2026-01-20T23:09:26+00:00,SAT-64025,268.2577032880341,41.526556577481124,2771.8842419369726,-3.4563236529395276,121055.07456049825,10.5,10500121055.07456,47.655,-122.3035,60.0,9.433333333333334
2026-01-20T23:09:27+00:00,SAT-64025,268.4183273452148,41.58251588246409,2768.4371351471073,-3.4447550067083257,120649.89163415652,10.5,10500120649.891634,47.655,-122.3035,60.0,9.45
2026-01-20T23:09:28+00:00,SAT-64025,268.57966994290115,41.63823640295431,2765.0015661537504,-3.4331391702280816,120243.05590567879,10.5,10500120243.055906,47.655,-122.3035,60.0,9.466666666666667
2026-01-20T23:09:29+00:00,SAT-64025,268.7417322951696,41.69371493844078,2761.5775820213094,-3.421476086979166,119834.56539550853,10.5,10500119834.565395,47.655,-122.3035,60.0,9.483333333333333
2026-01-20T23:09:30+00:00,SAT-64025,268.9045155729603,41.74894826824882,2758.1652298705626,-3.4097656723267233,119424.41713937512,10.5,10500119424.41714,47.655,-122.3035,60.0,9.5
2026-01-20T23:09:31+00:00,SAT-64025,269.0680209016889,41.803933151195565,2754.764556906695,-3.3980078727333596,119012.60926217254,10.5,10500119012.609262,47.655,-122.3035,60.0,9.516666666666667
2026-01-20T23:09:32+00:00,SAT-64025,269.23224936177905,41.85866632621379,2751.3756103882893,-3.3862025983468356,118599.13861689533,10.5,10500118599.138617,47.655,-122.3035,60.0,9.533333333333333
2026-01-20T23:09:33+00:00,SAT-64025,269.397201985836,41.913144511890245,2747.998437663538,-3.3743498102039746,118184.00383888821,10.5,10500118184.00384,47.655,-122.3035,60.0,9.55
2026-01-20T23:09:34+00:00,SAT-64025,269.5628797601713,41.967364407421485,2744.6330861194942,-3.3624494275821983,117767.20210090504,10.5,10500117767.2021,47.655,-122.3035,60.0,9.566666666666666
2026-01-20T23:09:35+00:00,SAT-64025,269.72928362166704,42.02132269208015,2741.2796032237193,-3.3505014031743783,117348.73174605002,10.5,10500117348.731747,47.655,-122.3035,60.0,9.583333333333334
2026-01-20T23:09:36+00:00,SAT-64025,269.89641445844643,42.07501602590034,2737.938036490953,-3.3385056569475893,116928.58997123166,10.5,10500116928.589972,47.655,-122.3035,60.0,9.6
2026-01-20T23:09:37+00:00,SAT-64025,270.0642731071277,42.128441049307355,2734.6084335157575,-3.326462144999266,116506.77523879634,10.5,10500116506.775238,47.655,-122.3035,60.0,9.616666666666667
2026-01-20T23:09:38+00:00,SAT-64025,270.23286035364765,42.18159438386006,2731.290841936478,-3.3143708192259007,116083.28586395578,10.5,10500116083.285864,47.655,-122.3035,60.0,9.633333333333333
2026-01-20T23:09:39+00:00,SAT-64025,270.4021769319851,42.23447263235369,2727.985309439437,-3.3022315910671476,115658.11874495205,10.5,10500115658.118746,47.655,-122.3035,60.0,9.65
2026-01-20T23:09:40+00:00,SAT-64025,270.57222352096653,42.28707237834876,2724.691883799279,-3.2900444553310355,115231.27369994034,10.5,10500115231.2737,47.655,-122.3035,60.0,9.666666666666666
2026-01-20T23:09:41+00:00,SAT-64025,270.7430007475905,42.339390187691265,2721.410612795829,-3.2778093188837496,114802.74746698054,10.5,10500114802.747467,47.655,-122.3035,60.0,9.683333333333334
2026-01-20T23:09:42+00:00,SAT-64025,270.91450918128464,42.39142260729992,2718.141544301796,-3.2655261575609646,114372.53919973574,10.5,10500114372.5392,47.655,-122.3035,60.0,9.7
2026-01-20T23:09:43+00:00,SAT-64025,271.0867493364927,42.44316616646918,2714.8847262139884,-3.253194907365615,113940.64665675796,10.5,10500113940.646656,47.655,-122.3035,60.0,9.716666666666667
2026-01-20T23:09:44+00:00,SAT-64025,271.25972166944723,42.49461737644328,2711.6402064930426,-3.240815539316976,113507.06882301971,10.5,10500113507.068823,47.655,-122.3035,60.0,9.733333333333333
2026-01-20T23:09:45+00:00,SAT-64025,271.4334265789625,42.545772731191256,2708.4080331284968,-3.228387998892215,113071.80378890071,10.5,10500113071.80379,47.655,-122.3035,60.0,9.75
2026-01-20T23:09:46+00:00,SAT-64025,271.60786440395816,42.59662870722647,2705.188254164268,-3.215912244409687,112634.85009453345,10.5,10500112634.850094,47.655,-122.3035,60.0,9.766666666666667
2026-01-20T23:09:47+00:00,SAT-64025,271.7830354230239,42.64718176404568,2701.9809176858435,-3.2033882444390493,112196.20663909435,10.5,10500112196.206638,47.655,-122.3035,60.0,9.783333333333333
2026-01-20T23:09:48+00:00,SAT-64025,271.95893985391285,42.697428344532945,2698.7860718100565,-3.1908159503665394,111755.87171992387,10.5,10500111755.87172,47.655,-122.3035,60.0,9.8
2026-01-20T23:09:49+00:00,SAT-64025,272.13557785143604,42.74736487493996,2695.603764702224,-3.1781953348890672,111313.84438075226,10.5,10500111313.844381,47.655,-122.3035,60.0,9.816666666666666
2026-01-20T23:09:50+00:00,SAT-64025,272.3129495075631,42.79698776548287,2692.4340445548946,-3.1655263561313567,110870.12315493022,10.5,10500110870.123156,47.655,-122.3035,60.0,9.833333333333334
2026-01-20T23:09:51+00:00,SAT-64025,272.4910548494505,42.8462934103803,2689.2769596023795,-3.1528089989377865,110424.70751164379,10.5,10500110424.707512,47.655,-122.3035,60.0,9.85
2026-01-20T23:09:52+00:00,SAT-64025,272.6698938398873,42.895278188550876,2686.1325580941057,-3.140043214942604,109977.59575691975,10.5,10500109977.595757,47.655,-122.3035,60.0,9.866666666666667
2026-01-20T23:09:53+00:00,SAT-64025,272.84946637420467,42.94393846337986,2683.0008883277364,-3.1272289903461203,109528.7874074346,10.5,10500109528.787407,47.655,-122.3035,60.0,9.883333333333333
2026-01-20T23:09:54+00:00,SAT-64025,273.02977228119255,42.99227058355428,2679.8819986146977,-3.1143662867060824,109078.28111677802,10.5,10500109078.281116,47.655,-122.3035,60.0,9.9
2026-01-20T23:09:55+00:00,SAT-64025,273.21081132048596,43.04027088298445,2676.7759373047566,-3.101455094404432,108626.07654808492,10.5,10500108626.076548,47.655,-122.3035,60.0,9.916666666666666
2026-01-20T23:09:56+00:00,SAT-64025,273.39258318317394,43.087935681565064,2673.6827527572705,-3.0884953925741727,108172.17297050486,10.5,10500108172.17297,47.655,-122.3035,60.0,9.933333333333334
2026-01-20T23:09:57+00:00,SAT-64025,273.57508748998015,43.13526128532248,2670.60249335241,-3.075487147049215,107716.56918739683,10.5,10500107716.569187,47.655,-122.3035,60.0,9.95
2026-01-20T23:09:58+00:00,SAT-64025,273.7583237893276,43.18224398654388,2667.5352075044193,-3.0624303572796645,107259.2651795012,10.5,10500107259.265179,47.655,-122.3035,60.0,9.966666666666667
2026-01-20T23:09:59+00:00,SAT-64025,273.9422915582363,43.228880064635945,2664.4809436280925,-3.0493250015294704,106800.26018552954,10.5,10500106800.260185,47.655,-122.3035,60.0,9.983333333333333
2026-01-20T23:10:00+00:00,SAT-64025,274.12699019991385,43.27516578614981,2661.4397501599,-3.036171078393913,106339.55415628263,10.5,10500106339.554155,47.655,-122.3035,60.0,10.0
2026-01-20T23:10:01+00:00,SAT-64025,274.31241904386764,43.32109740545276,2658.411675537716,-3.0229685605871808,105877.14613609592,10.5,10500105877.146135,47.655,-122.3035,60.0,10.016666666666667
2026-01-20T23:10:02+00:00,SAT-64025,274.49857734316777,43.3666711647049,2655.396768226623,-3.0097174565340334,105413.03642004014,10.5,10500105413.03642,47.655,-122.3035,60.0,10.033333333333333
2026-01-20T23:10:03+00:00,SAT-64025,274.6854642755432,43.41188329478053,2652.395076683307,-2.9964177540560013,104947.22458157374,10.5,10500104947.22458,47.655,-122.3035,60.0,10.05
2026-01-20T23:10:04+00:00,SAT-64025,274.87307894098427,43.45673001534646,2649.406649376595,-2.9830694610218496,104479.7108962942,10.5,10500104479.710896,47.655,-122.3035,60.0,10.066666666666666
2026-01-20T23:10:05+00:00,SAT-64025,275.0614203618794,43.501207535561164,2646.4315347674687,-2.9696725625692,104010.49484365815,10.5,10500104010.494844,47.655,-122.3035,60.0,10.083333333333334
2026-01-20T23:10:06+00:00,SAT-64025,275.25048748044503,43.54531205414416,2643.4697813317334,-2.956227069026095,103539.57678539731,10.5,10500103539.576786,47.655,-122.3035,60.0,10.1
2026-01-20T23:10:07+00:00,SAT-64025,275.44027915922595,43.58903976017136,2640.521437534891,-2.9427329856399034,103066.95690529674,10.5,10500103066.956905,47.655,-122.3035,60.0,10.116666666666667
2026-01-20T23:10:08+00:00,SAT-64025,275.6307941796751,43.632386833427844,2637.586551837213,-2.929190327473242,102592.63573091303,10.5,10500102592.63573,47.655,-122.3035,60.0,10.133333333333333
2026-01-20T23:10:09+00:00,SAT-64025,275.8220312417004,43.67534944498959,2634.6651726839464,-2.9155990899841524,102116.61310316752,10.5,10500102116.613104,47.655,-122.3035,60.0,10.15
2026-01-20T23:10:10+00:00,SAT-64025,276.01398896125903,43.71792375738268,2631.757348524869,-2.901959295885991,101638.88981757809,10.5,10500101638.889818,47.655,-122.3035,60.0,10.166666666666666
2026-01-20T23:10:11+00:00,SAT-64025,276.20666587108326,43.760105925443966,2628.8631277871054,-2.8882709556846775,101159.46624210644,10.5,10500101159.466242,47.655,-122.3035,60.0,10.183333333333334
2026-01-20T23:10:12+00:00,SAT-64025,276.40006041879013,43.80189209660789,2625.9825588873023,-2.874534094650423,100678.3432618223,10.5,10500100678.343262,47.655,-122.3035,60.0,10.2
2026-01-20T23:10:13+00:00,SAT-64025,276.5941709668006,43.84327841159953,2623.1156902169046,-2.8607487238070233,100195.52126282558,10.5,10500100195.521263,47.655,-122.3035,60.0,10.216666666666667
2026-01-20T23:10:14+00:00,SAT-64025,276.7889957903149,43.88426100471553,2620.262570156361,-2.84691487365173,99711.00131325907,10.5,10500099711.001314,47.655,-122.3035,60.0,10.233333333333333
2026-01-20T23:10:15+00:00,SAT-64025,276.9845330775737,43.92483600460233,2617.423247055706,-2.8330325630776123,99224.78407483797,10.5,10500099224.784075,47.655,-122.3035,60.0,10.25
2026-01-20T23:10:16+00:00,SAT-64025,277.18078092802955,43.96499953459738,2614.5977692461292,-2.8191018350810797,98736.87105347839,10.5,10500098736.871054,47.655,-122.3035,60.0,10.266666666666667
2026-01-20T23:10:17+00:00,SAT-64025,277.3777373530105,44.00474771358893,2611.786185015942,-2.805122706764743,98247.26284818615,10.5,10500098247.262848,47.655,-122.3035,60.0,10.283333333333333
2026-01-20T23:10:18+00:00,SAT-64025,277.5754002728497,44.044076656173665,2608.9885426363953,-2.791095214764642,97755.96074211027,10.5,10500097755.960743,47.655,-122.3035,60.0,10.3
2026-01-20T23:10:19+00:00,SAT-64025,277.77376751725217,44.08298247347232,2606.2048903422033,-2.7770194008046025,97262.96619659566,10.5,10500097262.966196,47.655,-122.3035,60.0,10.316666666666666
2026-01-20T23:10:20+00:00,SAT-64025,277.97283682469816,44.12146127374589,2603.4352763264674,-2.7628952999380663,96768.28043936213,10.5,10500096768.28044,47.655,-122.3035,60.0,10.333333333333334
2026-01-20T23:10:21+00:00,SAT-64025,278.1726058409349,44.15950916285755,2600.679748747329,-2.748722961840975,96271.90521027129,10.5,10500096271.90521,47.655,-122.3035,60.0,10.35
2026-01-20T23:10:22+00:00,SAT-64025,278.37307211913105,44.197122245042245,2597.9383557133865,-2.734502422641656,95773.84177468996,10.5,10500095773.841774,47.655,-122.3035,60.0,10.366666666666667
2026-01-20T23:10:23+00:00,SAT-64025,278.57423311785783,44.234296623292934,2595.211145297205,-2.7202337399686725,95274.09215101422,10.5,10500095274.092152,47.655,-122.3035,60.0,10.383333333333333
2026-01-20T23:10:24+00:00,SAT-64025,278.77608620180405,44.27102840024181,2592.4981655138763,-2.705916953565319,94772.65773122235,10.5,10500094772.657732,47.655,-122.3035,60.0,10.4
2026-01-20T23:10:25+00:00,SAT-64025,278.97862863945556,44.307313678509836,2589.799464338854,-2.6915521313648236,94269.54089462334,10.5,10500094269.540895,47.655,-122.3035,60.0,10.416666666666666
2026-01-20T23:10:26+00:00,SAT-64025,279.1818576043754,44.34314856169213,2587.1150896798395,-2.6771393235681193,93764.74339946621,10.5,10500093764.743399,47.655,-122.3035,60.0,10.433333333333334
2026-01-20T23:10:27+00:00,SAT-64025,279.38577017293096,44.378529154729335,2584.4450893944672,-2.6626785790989813,93258.26695926854,10.5,10500093258.26696,47.655,-122.3035,60.0,10.45
2026-01-20T23:10:28+00:00,SAT-64025,279.5903633233029,44.41345156451739,2581.7895112915794,-2.648169985712734,92750.11464759299,10.5,10500092750.114647,47.655,-122.3035,60.0,10.466666666666667
2026-01-20T23:10:29+00:00,SAT-64025,279.79563393770263,44.447911901050546,2579.1484030924953,-2.633613593779038,92240.28822859812,10.5,10500092240.288229,47.655,-122.3035,60.0,10.483333333333333
2026-01-20T23:10:30+00:00,SAT-64025,280.00157879859256,44.481906277564754,2576.5218124682997,-2.619009472414765,91728.79012304917,10.5,10500091728.790123,47.655,-122.3035,60.0,10.5
2026-01-20T23:10:31+00:00,SAT-64025,280.2081945893235,44.515430811437184,2573.909787021145,-2.6043576895323075,91215.62270952537,10.5,10500091215.62271,47.655,-122.3035,60.0,10.516666666666667
2026-01-20T23:10:32+00:00,SAT-64025,280.4154778932611,44.548481624828064,2571.312374285451,-2.589658335715232,90700.78916064638,10.5,10500090700.78916,47.655,-122.3035,60.0,10.533333333333333
2026-01-20T23:10:33+00:00,SAT-64025,280.6234251948683,44.58105484563536,2568.7296217052976,-2.574911480502233,90184.29191195146,10.5,10500090184.291912,47.655,-122.3035,60.0,10.55
2026-01-20T23:10:34+00:00,SAT-64025,280.8320328772416,44.613146607899544,2566.16157665541,-2.5601172010547923,89666.13366596207,10.5,10500089666.133665,47.655,-122.3035,60.0,10.566666666666666
2026-01-20T23:10:35+00:00,SAT-64025,281.04129722197365,44.6447530525851,2563.6082864335585,-2.545275590664781,89146.31769015416,10.5,10500089146.31769,47.655,-122.3035,60.0,10.583333333333334
2026-01-20T23:10:36+00:00,SAT-64025,281.25121440985447,44.67587032847459,2561.0697982444685,-2.530386722131631,88624.8465342718,10.5,10500088624.846535,47.655,-122.3035,60.0,10.6
2026-01-20T23:10:37+00:00,SAT-64025,281.46178051838604,44.70649459261256,2558.546159220263,-2.515450714079935,88101.72435305,10.5,10500088101.724354,47.655,-122.3035,60.0,10.616666666666667
2026-01-20T23:10:38+00:00,SAT-64025,281.6729915251327,44.736622011573054,2556.037416374754,-2.5004676309285814,87576.9534027107,10.5,10500087576.953403,47.655,-122.3035,60.0,10.633333333333333
2026-01-20T23:10:39+00:00,SAT-64025,281.88484330235536,44.7662487615157,2553.5436166575078,-2.4854375870244776,87050.53768816631,10.5,10500087050.537687,47.655,-122.3035,60.0,10.65
2026-01-20T23:10:40+00:00,SAT-64025,282.09733162078174,44.79537102951152,2551.0648069040485,-2.4703606766749164,86522.48051245713,10.5,10500086522.480513,47.655,-122.3035,60.0,10.666666666666666
2026-01-20T23:10:41+00:00,SAT-64025,282.31045214725305,44.82398501403098,2548.601033855845,-2.4552370099577576,85992.78573097543,10.5,10500085992.78573,47.655,-122.3035,60.0,10.683333333333334
2026-01-20T23:10:42+00:00,SAT-64025,282.524200445613,44.85208692586657,2546.1523441445797,-2.440066689832229,85461.45694978892,10.5,10500085461.45695,47.655,-122.3035,60.0,10.7
2026-01-20T23:10:43+00:00,SAT-64025,282.73857197552775,44.87967298879147,2543.718784299254,-2.424849818656332,84928.49775390775,10.5,10500084928.497753,47.655,-122.3035,60.0,10.716666666666667
2026-01-20T23:10:44+00:00,SAT-64025,282.9535620919336,44.90673944030796,2541.3004007467807,-2.4095865264662266,84393.91269774831,10.5,10500084393.912697,47.655,-122.3035,60.0,10.733333333333333
2026-01-20T23:10:45+00:00,SAT-64025,283.16916604711776,44.933282532714706,2538.897239784385,-2.39427692017204,83857.70552575547,10.5,10500083857.705526,47.655,-122.3035,60.0,10.75
2026-01-20T23:10:46+00:00,SAT-64025,283.38537898818197,44.95929853360799,2536.509347602667,-2.3789211221978137,83319.88052573707,10.5,10500083319.880526,47.655,-122.3035,60.0,10.766666666666667
2026-01-20T23:10:47+00:00,SAT-64025,283.6021959580504,44.98478372682611,2534.136770270128,-2.363519252408199,82780.44189586013,10.5,10500082780.441896,47.655,-122.3035,60.0,10.783333333333333
2026-01-20T23:10:48+00:00,SAT-64025,283.8196118948865,45.009734413195346,2531.7795537357265,-2.348071447880739,82239.39443716011,10.5,10500082239.394438,47.655,-122.3035,60.0,10.8
2026-01-20T23:10:49+00:00,SAT-64025,284.0376216333849,45.03414691149337,2529.437743811707,-2.3325778331419817,81696.74251108347,10.5,10500081696.742512,47.655,-122.3035,60.0,10.816666666666666
2026-01-20T23:10:50+00:00,SAT-64025,284.2562199032975,45.05801755910077,2527.11138618612,-2.3170385383246503,81152.49067542862,10.5,10500081152.490675,47.655,-122.3035,60.0,10.833333333333334
2026-01-20T23:10:51+00:00,SAT-64025,284.47540132966503,45.08134271285206,2524.8005264172307,-2.3014537047544956,80606.64388002116,10.5,10500080606.64388,47.655,-122.3035,60.0,10.85
2026-01-20T23:10:52+00:00,SAT-64025,284.6951604336942,45.104118749947396,2522.505209922356,-2.285823475160466,80059.20712383262,10.5,10500080059.207125,47.655,-122.3035,60.0,10.866666666666667
2026-01-20T23:10:53+00:00,SAT-64025,284.9154916327026,45.126342068762085,2520.225481976462,-2.270147993777874,79510.18545859374,10.5,10500079510.18546,47.655,-122.3035,60.0,10.883333333333333
2026-01-20T23:10:54+00:00,SAT-64025,285.13638924012326,45.148009089665166,2517.9613877106676,-2.2544274026551605,78959.58385944182,10.5,10500078959.583858,47.655,-122.3035,60.0,10.9
2026-01-20T23:10:55+00:00,SAT-64025,285.3578474651207,45.16911625580795,2515.7129721144197,-2.23866185873059,78407.40782301867,10.5,10500078407.407824,47.655,-122.3035,60.0,10.916666666666666
2026-01-20T23:10:56+00:00,SAT-64025,285.5798604140358,45.18966003407645,2513.4802800206458,-2.2228515166493397,77853.66276565258,10.5,10500077853.662766,47.655,-122.3035,60.0,10.933333333333334
2026-01-20T23:10:57+00:00,SAT-64025,285.80242209008225,45.2096369158824,2511.263356108041,-2.206996525415347,77298.35390609174,10.5,10500077298.353907,47.655,-122.3035,60.0,10.95
2026-01-20T23:10:58+00:00,SAT-64025,286.02552639274643,45.22904341793241,2509.062244906693,-2.1910970615429934,76741.48742661641,10.5,10500076741.487427,47.655,-122.3035,60.0,10.966666666666667
2026-01-20T23:10:59+00:00,SAT-64025,286.24916712067085,45.24787608329197,2506.876990770648,-2.1751532810440586,76183.06879141908,10.5,10500076183.068792,47.655,-122.3035,60.0,10.983333333333333
2026-01-20T23:11:00+00:00,SAT-64025,286.4733379695821,45.26613148202432,2504.707637898353,-2.159165356344805,75623.1040395968,10.5,10500075623.10404,47.655,-122.3035,60.0,11.0
2026-01-20T23:11:01+00:00,SAT-64025,286.6980325341011,45.283806212158495,2502.554230316292,-2.14313345084856,75061.59889422529,10.5,10500075061.598894,47.655,-122.3035,60.0,11.016666666666667
2026-01-20T23:11:02+00:00,SAT-64025,286.92324430690445,45.30089690044119,2500.416811887979,-2.1270577565693927,74498.56008044946,10.5,10500074498.56008,47.655,-122.3035,60.0,11.033333333333333
2026-01-20T23:11:03+00:00,SAT-64025,287.14896668199674,45.31740020339332,2498.295426285427,-2.110938440422937,73933.9934443609,10.5,10500073933.993444,47.655,-122.3035,60.0,11.05
2026-01-20T23:11:04+00:00,SAT-64025,287.3751929522123,45.333312807936366,2496.1901170141787,-2.094775687329023,73367.90546263421,10.5,10500073367.905462,47.655,-122.3035,60.0,11.066666666666666
2026-01-20T23:11:05+00:00,SAT-64025,287.6019163113851,45.34863143236432,2494.100927395349,-2.0785696873755644,72800.30279295225,10.5,10500072800.302794,47.655,-122.3035,60.0,11.083333333333334
2026-01-20T23:11:06+00:00,SAT-64025,287.8291298552738,45.363352827208814,2492.027900560473,-2.062320627344507,72231.19197720886,10.5,10500072231.191977,47.655,-122.3035,60.0,11.1
2026-01-20T23:11:07+00:00,SAT-64025,288.0568265814611,45.377473776042045,2489.9710794548014,-2.046028706132232,71660.57998159659,10.5,10500071660.57998,47.655,-122.3035,60.0,11.116666666666667
2026-01-20T23:11:08+00:00,SAT-64025,288.28499939117364,45.39099109638717,2487.930506825219,-2.0296941143841716,71088.47348332492,10.5,10500071088.473484,47.655,-122.3035,60.0,11.133333333333333
2026-01-20T23:11:09+00:00,SAT-64025,288.51364108864965,45.403901640492975,2485.906225228473,-2.013317058181409,70514.87970022512,10.5,10500070514.8797,47.655,-122.3035,60.0,11.15
2026-01-20T23:11:10+00:00,SAT-64025,288.74274438344275,45.41620229625668,2483.89827701578,-1.9968977388272526,69939.80568279057,10.5,10500069939.805683,47.655,-122.3035,60.0,11.166666666666666
2026-01-20T23:11:11+00:00,SAT-64025,288.97230189030535,45.427889988018904,2481.90670433759,-1.9804363728258654,69363.25901391284,10.5,10500069363.259014,47.655,-122.3035,60.0,11.183333333333334
2026-01-20T23:11:12+00:00,SAT-64025,289.20230613156525,45.438961677470836,2479.9315491284246,-1.9639331555831745,68785.24653753408,10.5,10500068785.246538,47.655,-122.3035,60.0,11.2
2026-01-20T23:11:13+00:00,SAT-64025,289.43274953509274,45.44941436435909,2477.9728531279234,-1.9473883158239949,68205.77626456482,10.5,10500068205.776264,47.655,-122.3035,60.0,11.216666666666667
2026-01-20T23:11:14+00:00,SAT-64025,289.6636244389706,45.459245087484206,2476.030657847608,-1.9308020741538219,67624.85592154266,10.5,10500067624.85592,47.655,-122.3035,60.0,11.233333333333333
2026-01-20T23:11:15+00:00,SAT-64025,289.89492309115656,45.468450925461774,2474.1050045789852,-1.914174643703764,67042.49297322056,10.5,10500067042.492973,47.655,-122.3035,60.0,11.25
2026-01-20T23:11:16+00:00,SAT-64025,290.12663764923116,45.47702899749918,2472.195934400998,-1.897506257303019,66458.6955742619,10.5,10500066458.695574,47.655,-122.3035,60.0,11.266666666666667
2026-01-20T23:11:17+00:00,SAT-64025,290.3587601835494,45.48497646429447,2470.303488160381,-1.8807971418061522,65873.47167007317,10.5,10500065873.47167,47.655,-122.3035,60.0,11.283333333333333
2026-01-20T23:11:18+00:00,SAT-64025,290.5912826772825,45.49229052880712,2468.42770647762,-1.8640475325219665,65286.82950216396,10.5,10500065286.829502,47.655,-122.3035,60.0,11.3
2026-01-20T23:11:19+00:00,SAT-64025,290.82419702825456,45.49896843708898,2466.568629738518,-1.8472576727403476,64698.7775915752,10.5,10500064698.777592,47.655,-122.3035,60.0,11.316666666666666
2026-01-20T23:11:20+00:00,SAT-64025,291.0574950508849,45.50500747909607,2464.726298086239,-1.8304277882140398,64109.32384512294,10.5,10500064109.323845,47.655,-122.3035,60.0,11.333333333333334
2026-01-20T23:11:21+00:00,SAT-64025,291.29116847465775,45.51040498942373,2462.9007514387927,-1.8135581386804465,63518.477359909724,10.5,10500063518.47736,47.655,-122.3035,60.0,11.35
2026-01-20T23:11:22+00:00,SAT-64025,291.52520894961043,45.51515834818491,2461.0920294551493,-1.7966489632920346,62926.246512066566,10.5,10500062926.246511,47.655,-122.3035,60.0,11.366666666666667
2026-01-20T23:11:23+00:00,SAT-64025,291.75960804447146,45.5192649817229,2459.300171555759,-1.7797005212261483,62332.64037908038,10.5,10500062332.640379,47.655,-122.3035,60.0,11.383333333333333
2026-01-20T23:11:24+00:00,SAT-64025,291.99435725041974,45.52272236342219,2457.5252169025894,-1.7627130577526964,61737.66755134084,10.5,10500061737.667551,47.655,-122.3035,60.0,11.4
2026-01-20T23:11:25+00:00,SAT-64025,292.22944798008433,45.525528014444795,2455.767204412991,-1.745686839168166,61141.33735567738,10.5,10500061141.337357,47.655,-122.3035,60.0,11.416666666666666
2026-01-20T23:11:26+00:00,SAT-64025,292.46487157162903,45.527679504510076,2454.0261727387274,-1.7286221281627148,60543.65899261049,10.5,10500060543.658993,47.655,-122.3035,60.0,11.433333333333334
2026-01-20T23:11:27+00:00,SAT-64025,292.70061928925816,45.529174452630926,2452.302160269573,-1.7115191909332177,59944.64178548076,10.5,10500059944.641785,47.655,-122.3035,60.0,11.45
2026-01-20T23:11:28+00:00,SAT-64025,292.9366823248741,45.53001052784702,2450.5952051298154,-1.6943782931480014,59344.29503911675,10.5,10500059344.295038,47.655,-122.3035,60.0,11.466666666666667
2026-01-20T23:11:29+00:00,SAT-64025,293.1730517991486,45.53018544995219,2448.9053451787827,-1.6771997152244378,58742.62857492098,10.5,10500058742.628574,47.655,-122.3035,60.0,11.483333333333333
2026-01-20T23:11:30+00:00,SAT-64025,293.4097187648409,45.529696990208734,2447.232617996132,-1.6599837232389545,58139.65171201546,10.5,10500058139.651712,47.655,-122.3035,60.0,11.5
2026-01-20T23:11:31+00:00,SAT-64025,293.64667420590933,45.52854297206066,2445.5770608961548,-1.642730610147213,57535.37471094665,10.5,10500057535.37471,47.655,-122.3035,60.0,11.516666666666667
2026-01-20T23:11:32+00:00,SAT-64025,293.8839090427573,45.526721271807894,2443.938710900968,-1.6254406532644121,56929.80728446586,10.5,10500056929.807285,47.655,-122.3035,60.0,11.533333333333333
2026-01-20T23:11:33+00:00,SAT-64025,294.1214141312094,45.52422981930067,2442.3176047561124,-1.6081141391395957,56322.95946873271,10.5,10500056322.959469,47.655,-122.3035,60.0,11.55
2026-01-20T23:11:34+00:00,SAT-64025,294.3591802651478,45.52106659861153,2440.713778921344,-1.5907513668905908,55714.84174011877,10.5,10500055714.84174,47.655,-122.3035,60.0,11.566666666666666
2026-01-20T23:11:35+00:00,SAT-64025,294.5971981798898,45.51722964865895,2439.1272695580983,-1.5733526222812415,55105.464107282634,10.5,10500055105.464108,47.655,-122.3035,60.0,11.583333333333334
2026-01-20T23:11:36+00:00,SAT-64025,294.83545855137135,45.51271706390045,2437.55811254281,-1.555918208752292,54494.837198002715,10.5,10500054494.837198,47.655,-122.3035,60.0,11.6
2026-01-20T23:11:37+00:00,SAT-64025,295.073952000444,45.507526994913576,2436.006343449281,-1.5384484257727493,53882.97150095039,10.5,10500053882.9715,47.655,-122.3035,60.0,11.616666666666667
2026-01-20T23:11:38+00:00,SAT-64025,295.3126690935435,45.50165764904405,2434.4719975526436,-1.520943582284328,53269.87783657134,10.5,10500053269.877836,47.655,-122.3035,60.0,11.633333333333333
2026-01-20T23:11:39+00:00,SAT-64025,295.55160034581934,45.495107290969436,2432.9551098199117,-1.5034039822974865,52655.56685259777,10.5,10500052655.566853,47.655,-122.3035,60.0,11.65
2026-01-20T23:11:40+00:00,SAT-64025,295.79073622165726,45.487874243333884,2431.455714914901,-1.485829941743995,52040.04961429666,10.5,10500052040.049614,47.655,-122.3035,60.0,11.666666666666666
2026-01-20T23:11:41+00:00,SAT-64025,296.03006713826085,45.47995688727135,2429.9738471863343,-1.4682217752195132,51423.33714013876,10.5,10500051423.337141,47.655,-122.3035,60.0,11.683333333333334
2026-01-20T23:11:42+00:00,SAT-64025,296.26958346688843,45.47135366298718,2428.509540669182,-1.4505798018413325,50805.44060696147,10.5,10500050805.440607,47.655,-122.3035,60.0,11.7
2026-01-20T23:11:43+00:00,SAT-64025,296.5092755352091,45.46206307028962,2427.062829080146,-1.432904342011015,50186.371236582796,10.5,10500050186.371237,47.655,-122.3035,60.0,11.716666666666667
