satellites_20260121_005943/SAT-55405.csv

timestamp,satellite,azimuth_deg,elevation_deg,distance_km,relative_velocity_kms,doppler_shift_hz,tx_freq_ghz,rx_freq_hz,ue_lat,ue_lon,ue_alt_m,time_minutes
2026-01-20T23:05:18+00:00,SAT-55405,249.47251412393007,30.007086417479595,3510.0882527967865,-6.75533459861425,236600.39268049106,10.5,10500236600.392681,47.655,-122.3035,60.0,5.3
2026-01-20T23:05:19+00:00,SAT-55405,249.436338003721,30.048891973925357,3503.350932423768,-6.755819485694891,236617.37547712543,10.5,10500236617.375477,47.655,-122.3035,60.0,5.316666666666666
2026-01-20T23:05:20+00:00,SAT-55405,249.40004918718228,30.090736008666013,3496.613128456702,-6.756299355237636,236634.1825383585,10.5,10500236634.182539,47.655,-122.3035,60.0,5.333333333333333
2026-01-20T23:05:21+00:00,SAT-55405,249.36364696285568,30.132618709307444,3489.8748458997447,-6.756774206820657,236650.8138494161,10.5,10500236650.813848,47.655,-122.3035,60.0,5.35
2026-01-20T23:05:22+00:00,SAT-55405,249.32713061320766,30.17454026470651,3483.1360897574755,-6.757244027120467,236667.26894365335,10.5,10500236667.268944,47.655,-122.3035,60.0,5.366666666666666
2026-01-20T23:05:23+00:00,SAT-55405,249.29049941459363,30.216500864894183,3476.396865047761,-6.757708791908707,236683.5469724906,10.5,10500236683.546972,47.655,-122.3035,60.0,5.383333333333334
2026-01-20T23:05:24+00:00,SAT-55405,249.25375263727105,30.258500701018907,3469.6571768126305,-6.758168418361816,236699.64503509644,10.5,10500236699.645035,47.655,-122.3035,60.0,5.4
2026-01-20T23:05:25+00:00,SAT-55405,249.21688954558,30.3005399649827,3462.9170301767176,-6.758622973833651,236715.56549048785,10.5,10500236715.56549,47.655,-122.3035,60.0,5.416666666666667
2026-01-20T23:05:26+00:00,SAT-55405,249.17990939720437,30.342618850396175,3456.176430197481,-6.7590723637795795,236731.3050273119,10.5,10500236731.305027,47.655,-122.3035,60.0,5.433333333333334
2026-01-20T23:05:27+00:00,SAT-55405,249.14281144384,30.384737551566943,3449.4353820266715,-6.759516597282003,236746.8639636726,10.5,10500236746.863964,47.655,-122.3035,60.0,5.45
2026-01-20T23:05:28+00:00,SAT-55405,249.10559493065256,30.426896264160085,3442.6938908069824,-6.759955631043638,236762.24078311605,10.5,10500236762.240784,47.655,-122.3035,60.0,5.466666666666667
2026-01-20T23:05:29+00:00,SAT-55405,249.06825909644868,30.469095184876196,3435.9519617242877,-6.760389444948642,236777.4347811003,10.5,10500236777.434782,47.655,-122.3035,60.0,5.483333333333333
2026-01-20T23:05:30+00:00,SAT-55405,249.03080317350742,30.51133451160636,3429.209599984526,-6.760818006715915,236792.44482700466,10.5,10500236792.444826,47.655,-122.3035,60.0,5.5
2026-01-20T23:05:31+00:00,SAT-55405,248.99322638755027,30.553614443362246,3422.466810825828,-6.761241312980528,236807.27080297514,10.5,10500236807.270803,47.655,-122.3035,60.0,5.516666666666667
2026-01-20T23:05:32+00:00,SAT-55405,248.9555279575547,30.595935180468743,3415.723599489682,-6.761659296509074,236821.91035421338,10.5,10500236821.910355,47.655,-122.3035,60.0,5.533333333333333
2026-01-20T23:05:33+00:00,SAT-55405,248.9177070959633,30.638296924167275,3408.97997128463,-6.762071970628093,236836.36394747123,10.5,10500236836.363947,47.655,-122.3035,60.0,5.55
2026-01-20T23:05:34+00:00,SAT-55405,248.879763008248,30.680699877134504,3402.235931505924,-6.762479284537967,236850.62980353113,10.5,10500236850.629803,47.655,-122.3035,60.0,5.566666666666666
2026-01-20T23:05:35+00:00,SAT-55405,248.84169489312293,30.7231442430829,3395.491485499478,-6.762881216925487,236864.70717591437,10.5,10500236864.707176,47.655,-122.3035,60.0,5.583333333333333
2026-01-20T23:05:36+00:00,SAT-55405,248.80350194234444,30.76563022695922,3388.746638632464,-6.76327773937405,236878.59506935137,10.5,10500236878.59507,47.655,-122.3035,60.0,5.6
2026-01-20T23:05:37+00:00,SAT-55405,248.7651833406564,30.808158034904157,3382.0013963003953,-6.7636688238807485,236892.29250306176,10.5,10500236892.292503,47.655,-122.3035,60.0,5.616666666666666
2026-01-20T23:05:38+00:00,SAT-55405,248.72673826572426,30.850727874265758,3375.2557639267116,-6.764054447776439,236905.7986830763,10.5,10500236905.798683,47.655,-122.3035,60.0,5.633333333333334
2026-01-20T23:05:39+00:00,SAT-55405,248.68816588801576,30.893339953641444,3368.5097469574625,-6.764434559348234,236919.11179819092,10.5,10500236919.111797,47.655,-122.3035,60.0,5.65
2026-01-20T23:05:40+00:00,SAT-55405,248.64946537088434,30.935994482701464,3361.7633508902727,-6.764809169554879,236932.23223222725,10.5,10500236932.232233,47.655,-122.3035,60.0,5.666666666666667
2026-01-20T23:05:41+00:00,SAT-55405,248.61063587015678,30.97869167259548,3355.0165812118366,-6.765178214970038,236945.15776372663,10.5,10500236945.157764,47.655,-122.3035,60.0,5.683333333333334
2026-01-20T23:05:42+00:00,SAT-55405,248.57167653444628,31.02143173548955,3348.2694434721066,-6.765541676924763,236957.8877388237,10.5,10500236957.88774,47.655,-122.3035,60.0,5.7
2026-01-20T23:05:43+00:00,SAT-55405,248.5325865048202,31.064214884856607,3341.5219432396534,-6.7658995203000565,236970.42092750242,10.5,10500236970.420927,47.655,-122.3035,60.0,5.716666666666667
2026-01-20T23:05:44+00:00,SAT-55405,248.49336491482808,31.10704133538382,3334.774086118074,-6.766251719636139,236982.75643805374,10.5,10500236982.756437,47.655,-122.3035,60.0,5.733333333333333
2026-01-20T23:05:45+00:00,SAT-55405,248.45401089034408,31.1499113030388,3328.025877736357,-6.766598258048423,236994.89367910795,10.5,10500236994.893679,47.655,-122.3035,60.0,5.75
2026-01-20T23:05:46+00:00,SAT-55405,248.41452354946304,31.192825005138598,3321.27732374033,-6.766939096913227,237006.83129790035,10.5,10500237006.831299,47.655,-122.3035,60.0,5.766666666666667
2026-01-20T23:05:47+00:00,SAT-55405,248.37490200249619,31.23578266021417,3314.528429814342,-6.767274182535094,237018.56741378893,10.5,10500237018.567413,47.655,-122.3035,60.0,5.783333333333333
2026-01-20T23:05:48+00:00,SAT-55405,248.33514535198344,31.27878448792364,3307.7792016962935,-6.767603506670193,237030.1017380398,10.5,10500237030.101738,47.655,-122.3035,60.0,5.8
2026-01-20T23:05:49+00:00,SAT-55405,248.29525269235842,31.321830709353787,3301.029645132308,-6.767927026096978,237041.43275685163,10.5,10500237041.432756,47.655,-122.3035,60.0,5.816666666666666
2026-01-20T23:05:50+00:00,SAT-55405,248.25522311005463,31.364921546803576,3294.2797659116136,-6.768244731552122,237052.56014578353,10.5,10500237052.560146,47.655,-122.3035,60.0,5.833333333333333
2026-01-20T23:05:51+00:00,SAT-55405,248.21505568321837,31.408057224011046,3287.5295698326795,-6.768556550602113,237063.4813679075,10.5,10500237063.481367,47.655,-122.3035,60.0,5.85
2026-01-20T23:05:52+00:00,SAT-55405,248.17474948196386,31.451237965756086,3280.779062766212,-6.768862490496707,237074.19667714063,10.5,10500237074.196676,47.655,-122.3035,60.0,5.866666666666666
2026-01-20T23:05:53+00:00,SAT-55405,248.13430356785238,31.494463998381146,3274.02825057569,-6.769162512669135,237084.7047227116,10.5,10500237084.704723,47.655,-122.3035,60.0,5.883333333333334
2026-01-20T23:05:54+00:00,SAT-55405,248.09371699404377,31.53773554950723,3267.2771391630545,-6.769456531383744,237095.00250179513,10.5,10500237095.002502,47.655,-122.3035,60.0,5.9
2026-01-20T23:05:55+00:00,SAT-55405,248.05298880543603,31.581052847733194,3260.5257345157547,-6.769744582480187,237105.0912696475,10.5,10500237105.09127,47.655,-122.3035,60.0,5.916666666666667
2026-01-20T23:05:56+00:00,SAT-55405,248.01211803795593,31.62441612343613,3253.7740425854945,-6.770026596965092,237114.96860982897,10.5,10500237114.96861,47.655,-122.3035,60.0,5.933333333333334
2026-01-20T23:05:57+00:00,SAT-55405,247.9711037189799,31.667825608097804,3247.0220693927877,-6.770302552384295,237124.6337358997,10.5,10500237124.633736,47.655,-122.3035,60.0,5.95
2026-01-20T23:05:58+00:00,SAT-55405,247.92994486702196,31.711281534618866,3240.269820980543,-6.770572395804669,237134.08479391772,10.5,10500237134.084793,47.655,-122.3035,60.0,5.966666666666667
2026-01-20T23:05:59+00:00,SAT-55405,247.88864049175726,31.75478413712337,3233.5173034444606,-6.770836121572272,237143.3215858581,10.5,10500237143.321587,47.655,-122.3035,60.0,5.983333333333333
2026-01-20T23:06:00+00:00,SAT-55405,247.84718959370872,31.79833365128259,3226.764522885879,-6.771093653307772,237152.34143659347,10.5,10500237152.341436,47.655,-122.3035,60.0,6.0
2026-01-20T23:06:01+00:00,SAT-55405,247.80559116448302,31.84193031385715,3220.0114854823137,-6.771344995834682,237161.14451506367,10.5,10500237161.144516,47.655,-122.3035,60.0,6.016666666666667
2026-01-20T23:06:02+00:00,SAT-55405,247.76384418626535,31.885574363239737,3213.258197406468,-6.771590089371619,237169.72872747187,10.5,10500237169.728727,47.655,-122.3035,60.0,6.033333333333333
2026-01-20T23:06:03+00:00,SAT-55405,247.72194763203046,31.92926603903878,3206.5046648906678,-6.771828897820241,237178.09280950134,10.5,10500237178.09281,47.655,-122.3035,60.0,6.05
2026-01-20T23:06:04+00:00,SAT-55405,247.67990046533436,31.97300558224587,3199.750894203242,-6.772061400772476,237186.23604637512,10.5,10500237186.236046,47.655,-122.3035,60.0,6.066666666666666
2026-01-20T23:06:05+00:00,SAT-55405,247.6377016400906,32.01679323534227,3192.996891632871,-6.772287549871211,237194.15674442257,10.5,10500237194.156744,47.655,-122.3035,60.0,6.083333333333333
2026-01-20T23:06:06+00:00,SAT-55405,247.59535010064383,32.06062924213035,3186.2426635164666,-6.772507295084246,237201.85315130436,10.5,10500237201.853151,47.655,-122.3035,60.0,6.1
2026-01-20T23:06:07+00:00,SAT-55405,247.5528447816322,32.104513847725556,3179.4882162408358,-6.772720616137165,237209.32455692475,10.5,10500237209.324556,47.655,-122.3035,60.0,6.116666666666666
2026-01-20T23:06:08+00:00,SAT-55405,247.51018460774844,32.14844729876628,3172.7335562130083,-6.772927468125198,237216.5693885287,10.5,10500237216.56939,47.655,-122.3035,60.0,6.133333333333334
2026-01-20T23:06:09+00:00,SAT-55405,247.46736849372365,32.192429843256015,3165.9786898847983,-6.773127817969335,237223.5864875494,10.5,10500237223.586487,47.655,-122.3035,60.0,6.15
2026-01-20T23:06:10+00:00,SAT-55405,247.42439534417457,32.23646173065281,3159.22362374101,-6.773321608904476,237230.37386583287,10.5,10500237230.373865,47.655,-122.3035,60.0,6.166666666666667
2026-01-20T23:06:11+00:00,SAT-55405,247.38126405359685,32.28054321172123,3152.468364323063,-6.7735088241924055,237236.93093713606,10.5,10500237236.930937,47.655,-122.3035,60.0,6.183333333333334
2026-01-20T23:06:12+00:00,SAT-55405,247.33797350603533,32.32467453880566,3145.712918189068,-6.773689406025158,237243.25567677943,10.5,10500237243.255676,47.655,-122.3035,60.0,6.2
2026-01-20T23:06:13+00:00,SAT-55405,247.2945225751801,32.368855965565785,3138.9572919547927,-6.773863313866105,237249.34666499885,10.5,10500237249.346664,47.655,-122.3035,60.0,6.216666666666667
2026-01-20T23:06:14+00:00,SAT-55405,247.25091012416124,32.413087747102146,3132.20149227643,-6.774030517932555,237255.2028586784,10.5,10500237255.202858,47.655,-122.3035,60.0,6.233333333333333
2026-01-20T23:06:15+00:00,SAT-55405,247.20713500534512,32.45737014003391,3125.445525839879,-6.774190976706508,237260.82280368215,10.5,10500237260.822803,47.655,-122.3035,60.0,6.25
2026-01-20T23:06:16+00:00,SAT-55405,247.16319606029458,32.50170340243143,3118.689399372443,-6.774344636666326,237266.20462545598,10.5,10500237266.204626,47.655,-122.3035,60.0,6.266666666666667
2026-01-20T23:06:17+00:00,SAT-55405,247.11909211968805,32.546087793744704,3111.9331196548083,-6.774491460994534,237271.34703449614,10.5,10500237271.347034,47.655,-122.3035,60.0,6.283333333333333
2026-01-20T23:06:18+00:00,SAT-55405,247.07482200311438,32.59052357492218,3105.1766935043765,-6.7746314066256055,237276.2485224657,10.5,10500237276.248522,47.655,-122.3035,60.0,6.3
2026-01-20T23:06:19+00:00,SAT-55405,247.0303845189548,32.63501100837769,3098.4201277815014,-6.774764430428962,237280.9075787494,10.5,10500237280.90758,47.655,-122.3035,60.0,6.316666666666666
2026-01-20T23:06:20+00:00,SAT-55405,246.9857784642749,32.67955035800074,3091.6634293895536,-6.774890493817514,237285.32285186404,10.5,10500237285.322851,47.655,-122.3035,60.0,6.333333333333333
2026-01-20T23:06:21+00:00,SAT-55405,246.9410026246366,32.72414188919125,3084.906605270386,-6.775009529737243,237289.49199329445,10.5,10500237289.491993,47.655,-122.3035,60.0,6.35
2026-01-20T23:06:22+00:00,SAT-55405,246.8960557741491,32.76878586868225,3078.1496624327283,-6.775121533495766,237293.41483869334,10.5,10500237293.414839,47.655,-122.3035,60.0,6.366666666666666
2026-01-20T23:06:23+00:00,SAT-55405,246.85093667494743,32.81348256496185,3071.3926078899885,-6.775226419757897,237297.0883992616,10.5,10500237297.0884,47.655,-122.3035,60.0,6.383333333333334
2026-01-20T23:06:24+00:00,SAT-55405,246.80564407754207,32.858232247745555,3064.6354487406834,-6.7753241709295775,237300.51205878088,10.5,10500237300.512058,47.655,-122.3035,60.0,6.4
2026-01-20T23:06:25+00:00,SAT-55405,246.7601767202526,32.90303518843273,3057.8781921008763,-6.775414718182601,237303.68340659628,10.5,10500237303.683407,47.655,-122.3035,60.0,6.416666666666667
2026-01-20T23:06:26+00:00,SAT-55405,246.71453332939427,32.947891659777426,3051.120845155275,-6.775498037244396,237306.60159257962,10.5,10500237306.601593,47.655,-122.3035,60.0,6.433333333333334
2026-01-20T23:06:27+00:00,SAT-55405,246.66871261883728,32.992801936189885,3044.363415112797,-6.7755740523820815,237309.2639642451,10.5,10500237309.263964,47.655,-122.3035,60.0,6.45
2026-01-20T23:06:28+00:00,SAT-55405,246.62271329019018,33.03776629340405,3037.605909257888,-6.77564275562779,237311.67024252424,10.5,10500237311.670242,47.655,-122.3035,60.0,6.466666666666667
2026-01-20T23:06:29+00:00,SAT-55405,246.576534032224,33.082785008936774,3030.8483348829423,-6.775704064527947,237313.8175395441,10.5,10500237313.81754,47.655,-122.3035,60.0,6.483333333333333
2026-01-20T23:06:30+00:00,SAT-55405,246.5301735211776,33.1278583615992,3024.0906993625863,-6.775757941232375,237315.70452963142,10.5,10500237315.704529,47.655,-122.3035,60.0,6.5
2026-01-20T23:06:31+00:00,SAT-55405,246.4836304203227,33.17298663179973,3017.333010109197,-6.775804336446299,237317.3294862746,10.5,10500237317.329487,47.655,-122.3035,60.0,6.516666666666667
2026-01-20T23:06:32+00:00,SAT-55405,246.4369033798888,33.218170101478165,3010.5752745843147,-6.775843194167965,237318.69044805536,10.5,10500237318.690449,47.655,-122.3035,60.0,6.533333333333333
2026-01-20T23:06:33+00:00,SAT-55405,246.38999103692396,33.2634090540659,3003.8175003053307,-6.775874481487097,237319.78626231657,10.5,10500237319.786263,47.655,-122.3035,60.0,6.55
2026-01-20T23:06:34+00:00,SAT-55405,246.34289201502042,33.308703774653004,2997.0596948224616,-6.775898129535338,237320.6145169971,10.5,10500237320.614517,47.655,-122.3035,60.0,6.566666666666666
2026-01-20T23:06:35+00:00,SAT-55405,246.295604924335,33.3540545497476,2990.301865754605,-6.775914098685269,237321.17382417715,10.5,10500237321.173824,47.655,-122.3035,60.0,6.583333333333333
2026-01-20T23:06:36+00:00,SAT-55405,246.24812836127808,33.399461667487174,2983.544020760183,-6.7759223187436115,237321.4617253911,10.5,10500237321.461725,47.655,-122.3035,60.0,6.6
2026-01-20T23:06:37+00:00,SAT-55405,246.2004609085007,33.44492541743106,2976.786167567622,-6.775922754543078,237321.47698893188,10.5,10500237321.47699,47.655,-122.3035,60.0,6.616666666666666
2026-01-20T23:06:38+00:00,SAT-55405,246.15260113452916,33.49044609081217,2970.0283139404246,-6.775915352390254,237321.2177342289,10.5,10500237321.217733,47.655,-122.3035,60.0,6.633333333333334
2026-01-20T23:06:39+00:00,SAT-55405,246.1045475936917,33.5360239804143,2963.270467695641,-6.775900041024086,237320.68146541866,10.5,10500237320.681465,47.655,-122.3035,60.0,6.65
2026-01-20T23:06:40+00:00,SAT-55405,246.0562988260624,33.58165938046037,2956.5126367213925,-6.775876788849566,237319.8670759104,10.5,10500237319.867075,47.655,-122.3035,60.0,6.666666666666667
2026-01-20T23:06:41+00:00,SAT-55405,246.00785335702076,33.62735258689044,2949.7548289373135,-6.7758455113904095,237318.77160698717,10.5,10500237318.771606,47.655,-122.3035,60.0,6.683333333333334
2026-01-20T23:06:42+00:00,SAT-55405,245.95920969741226,33.67310389700338,2942.9970523472866,-6.775806199474769,237317.39473741222,10.5,10500237317.394737,47.655,-122.3035,60.0,6.7
2026-01-20T23:06:43+00:00,SAT-55405,245.91036634288673,33.71891360998652,2936.239314964344,-6.775758750029071,237315.7328571129,10.5,10500237315.732857,47.655,-122.3035,60.0,6.716666666666667
2026-01-20T23:06:44+00:00,SAT-55405,245.86132177430574,33.76478202627036,2929.481624904315,-6.7757030997469165,237313.78374883143,10.5,10500237313.783749,47.655,-122.3035,60.0,6.733333333333333
2026-01-20T23:06:45+00:00,SAT-55405,245.81207445728523,33.8107094478078,2922.7239903461673,-6.775639255068979,237311.5476381473,10.5,10500237311.547638,47.655,-122.3035,60.0,6.75
2026-01-20T23:06:46+00:00,SAT-55405,245.7626228415965,33.85669617856916,2915.966419462445,-6.775567098935473,237309.0204251318,10.5,10500237309.020426,47.655,-122.3035,60.0,6.766666666666667
2026-01-20T23:06:47+00:00,SAT-55405,245.71296536171263,33.90274252368502,2909.2089205424404,-6.775486595823363,237306.2008656179,10.5,10500237306.200865,47.655,-122.3035,60.0,6.783333333333333
2026-01-20T23:06:48+00:00,SAT-55405,245.6631004361223,33.94884879002416,2902.451501910872,-6.775397662440509,237303.0860423625,10.5,10500237303.086042,47.655,-122.3035,60.0,6.8
2026-01-20T23:06:49+00:00,SAT-55405,245.6130264674177,33.99501528586184,2895.6941719755314,-6.775300273099451,237299.67505568214,10.5,10500237299.675056,47.655,-122.3035,60.0,6.816666666666666
2026-01-20T23:06:50+00:00,SAT-55405,245.56274184173463,34.041242321289005,2888.9369391698274,-6.775194343218698,237295.9649431752,10.5,10500237295.964943,47.655,-122.3035,60.0,6.833333333333333
2026-01-20T23:06:51+00:00,SAT-55405,245.51224492890225,34.08753020780497,2882.1798120115236,-6.775079822618664,237291.95394734037,10.5,10500237291.953947,47.655,-122.3035,60.0,6.85
2026-01-20T23:06:52+00:00,SAT-55405,245.46153408203912,34.1338792585649,2875.4227990684317,-6.774956631087022,237287.6392588026,10.5,10500237287.63926,47.655,-122.3035,60.0,6.866666666666666
2026-01-20T23:06:53+00:00,SAT-55405,245.41060763750716,34.18028978817168,2868.665908988361,-6.774824734217294,237283.01967250148,10.5,10500237283.019672,47.655,-122.3035,60.0,6.883333333333334
2026-01-20T23:06:54+00:00,SAT-55405,245.3594639144198,34.22676211300242,2861.9091504534354,-6.774684021565701,237278.09132022882,10.5,10500237278.09132,47.655,-122.3035,60.0,6.9
2026-01-20T23:06:55+00:00,SAT-55405,245.30810121490538,34.27329655067974,2855.1525322559273,-6.7745344862224846,237272.8539599755,10.5,10500237272.85396,47.655,-122.3035,60.0,6.916666666666667
2026-01-20T23:06:56+00:00,SAT-55405,245.25651782321287,34.31989342080222,2848.3960631950013,-6.774376004428514,237267.3032571733,10.5,10500237267.303257,47.655,-122.3035,60.0,6.933333333333334
2026-01-20T23:06:57+00:00,SAT-55405,245.20471200624684,34.36655304412557,2841.6397521932513,-6.774208585321574,237261.43953186617,10.5,10500237261.439531,47.655,-122.3035,60.0,6.95
2026-01-20T23:06:58+00:00,SAT-55405,245.15268201247358,34.41327574350437,2834.883608164157,-6.774032062964357,237255.2569722276,10.5,10500237255.256971,47.655,-122.3035,60.0,6.966666666666667
2026-01-20T23:06:59+00:00,SAT-55405,245.10042607282782,34.46006184265722,2828.127640186694,-6.773846462157479,237248.75644688008,10.5,10500237248.756447,47.655,-122.3035,60.0,6.983333333333333
2026-01-20T23:07:00+00:00,SAT-55405,245.04794239923245,34.506911667518544,2821.3718573151023,-6.773651644833888,237241.9331201315,10.5,10500237241.93312,47.655,-122.3035,60.0,7.0
2026-01-20T23:07:01+00:00,SAT-55405,244.99522918542766,34.55382554509091,2814.616268741321,-6.773447593312623,237234.7863727197,10.5,10500237234.786373,47.655,-122.3035,60.0,7.016666666666667
2026-01-20T23:07:02+00:00,SAT-55405,244.9422846059332,34.60080380429608,2807.8608836749245,-6.773234190818503,237227.31211468397,10.5,10500237227.312115,47.655,-122.3035,60.0,7.033333333333333
2026-01-20T23:07:03+00:00,SAT-55405,244.88910681645328,34.64784677527607,2801.1057114419477,-6.773011406615409,237219.50926951537,10.5,10500237219.50927,47.655,-122.3035,60.0,7.05
2026-01-20T23:07:04+00:00,SAT-55405,244.83569395306068,34.69495479000497,2794.3507613990832,-6.77277913974193,237211.37430111822,10.5,10500237211.374302,47.655,-122.3035,60.0,7.066666666666666
2026-01-20T23:07:05+00:00,SAT-55405,244.78204413241062,34.74212818179247,2787.5960430037144,-6.772537346147608,237202.9056666592,10.5,10500237202.905666,47.655,-122.3035,60.0,7.083333333333333
2026-01-20T23:07:06+00:00,SAT-55405,244.72815545108915,34.78936728568828,2780.8415657571563,-6.772285923093784,237194.0997677958,10.5,10500237194.099768,47.655,-122.3035,60.0,7.1
2026-01-20T23:07:07+00:00,SAT-55405,244.67402598576993,34.836672438065534,2774.0873392631906,-6.772024801631298,237184.95418963683,10.5,10500237184.95419,47.655,-122.3035,60.0,7.116666666666666
2026-01-20T23:07:08+00:00,SAT-55405,244.61965379269571,34.88404397686048,2767.3333731943635,-6.7717539235903335,237175.4668948293,10.5,10500237175.466894,47.655,-122.3035,60.0,7.133333333333334
2026-01-20T23:07:09+00:00,SAT-55405,244.56503690735224,34.93148224165071,2760.5796772812364,-6.771473189118916,237165.63438613465,10.5,10500237165.634386,47.655,-122.3035,60.0,7.15
2026-01-20T23:07:10+00:00,SAT-55405,244.51017334446703,34.97898757335397,2753.826261353955,-6.771182544149075,237155.45476986375,10.5,10500237155.45477,47.655,-122.3035,60.0,7.166666666666667
2026-01-20T23:07:11+00:00,SAT-55405,244.45506109742308,35.026560314558544,2747.07313529659,-6.770881886952996,237144.9244830784,10.5,10500237144.924482,47.655,-122.3035,60.0,7.183333333333334
2026-01-20T23:07:12+00:00,SAT-55405,244.39969813830237,35.07420080917537,2740.3203090946695,-6.770571161476579,237134.04156252684,10.5,10500237134.041563,47.655,-122.3035,60.0,7.2
2026-01-20T23:07:13+00:00,SAT-55405,244.34408241728704,35.12190940276814,2733.567792789623,-6.770250270262586,237122.8025948443,10.5,10500237122.802595,47.655,-122.3035,60.0,7.216666666666667
2026-01-20T23:07:14+00:00,SAT-55405,244.28821186265048,35.169686442251994,2726.8155965200813,-6.769919137426694,237111.20492224084,10.5,10500237111.204922,47.655,-122.3035,60.0,7.233333333333333
2026-01-20T23:07:15+00:00,SAT-55405,244.23208438031514,35.21753227604238,2720.0637305003543,-6.769577675161227,237099.24546932027,10.5,10500237099.24547,47.655,-122.3035,60.0,7.25
2026-01-20T23:07:16+00:00,SAT-55405,244.17569785363,35.26544725396895,2713.312205032327,-6.769225817677649,237086.92193188966,10.5,10500237086.921932,47.655,-122.3035,60.0,7.266666666666667
2026-01-20T23:07:17+00:00,SAT-55405,244.11905014292378,35.3134317274318,2706.5610304834963,-6.7688634573400925,237074.23054008573,10.5,10500237074.23054,47.655,-122.3035,60.0,7.283333333333333
2026-01-20T23:07:18+00:00,SAT-55405,244.0621390854724,35.36148604908914,2699.810217328709,-6.768490537964864,237061.16932611782,10.5,10500237061.169327,47.655,-122.3035,60.0,7.3
2026-01-20T23:07:19+00:00,SAT-55405,244.0049624948366,35.4096105732309,2693.0597760988453,-6.768106938356792,237047.7340452184,10.5,10500237047.734045,47.655,-122.3035,60.0,7.316666666666666
2026-01-20T23:07:20+00:00,SAT-55405,243.9475181609984,35.457805655295374,2686.3097174456575,-6.767712600307944,237033.92265869945,10.5,10500237033.922659,47.655,-122.3035,60.0,7.333333333333333
2026-01-20T23:07:21+00:00,SAT-55405,243.88980384958896,35.506071652327066,2679.560052078951,-6.767307405856953,237019.73103505492,10.5,10500237019.731035,47.655,-122.3035,60.0,7.35
2026-01-20T23:07:22+00:00,SAT-55405,243.8318173019827,35.55440892252542,2672.810790826176,-6.7668913008037075,237005.15727596765,10.5,10500237005.157276,47.655,-122.3035,60.0,7.366666666666666
2026-01-20T23:07:23+00:00,SAT-55405,243.77355623451743,35.60281782571384,2666.061944568841,-6.766464176433899,236990.19757380267,10.5,10500236990.197575,47.655,-122.3035,60.0,7.383333333333334
2026-01-20T23:07:24+00:00,SAT-55405,243.71501833852196,35.65129872292272,2659.313524296878,-6.7660259357878365,236974.84853262146,10.5,10500236974.848532,47.655,-122.3035,60.0,7.4
2026-01-20T23:07:25+00:00,SAT-55405,243.65620127992906,35.69985197647493,2652.565541096919,-6.765576491049716,236959.10707674312,10.5,10500236959.107077,47.655,-122.3035,60.0,7.416666666666667
2026-01-20T23:07:26+00:00,SAT-55405,243.59710269881066,35.748477950034435,2645.8180061431785,-6.765115737125789,236942.96952534004,10.5,10500236942.969526,47.655,-122.3035,60.0,7.433333333333334
2026-01-20T23:07:27+00:00,SAT-55405,243.5377202091981,35.79717700847831,2639.070930714685,-6.764643612860448,236926.43373648415,10.5,10500236926.433737,47.655,-122.3035,60.0,7.45
2026-01-20T23:07:28+00:00,SAT-55405,243.47805139834514,35.8459495182004,2632.324326151459,-6.764159981843438,236909.49493251127,10.5,10500236909.494932,47.655,-122.3035,60.0,7.466666666666667
2026-01-20T23:07:29+00:00,SAT-55405,243.41809382696897,35.894795846552604,2625.578203929567,-6.76366476893701,236892.15048177965,10.5,10500236892.150482,47.655,-122.3035,60.0,7.483333333333333
2026-01-20T23:07:30+00:00,SAT-55405,243.3578450283806,35.943716362276405,2618.8325756000136,-6.763157881419007,236874.39713676713,10.5,10500236874.397137,47.655,-122.3035,60.0,7.5
2026-01-20T23:07:31+00:00,SAT-55405,243.29730250826657,35.99271143536747,2612.0874528062786,-6.762639195585181,236856.23056482765,10.5,10500236856.230564,47.655,-122.3035,60.0,7.516666666666667
2026-01-20T23:07:32+00:00,SAT-55405,243.23646374451715,36.0417814368238,2605.342847315215,-6.762108616265788,236837.6474327142,10.5,10500236837.647432,47.655,-122.3035,60.0,7.533333333333333
2026-01-20T23:07:33+00:00,SAT-55405,243.17532618665115,36.09092673885018,2598.5987709885926,-6.7615660402292,236818.6441248185,10.5,10500236818.644125,47.655,-122.3035,60.0,7.55
2026-01-20T23:07:34+00:00,SAT-55405,243.1138872554402,36.14014771477254,2591.8552357911376,-6.761011398445954,236799.21822343682,10.5,10500236799.218224,47.655,-122.3035,60.0,7.566666666666666
2026-01-20T23:07:35+00:00,SAT-55405,243.0521443422702,36.18944473928608,2585.1122537564206,-6.760444533365382,236779.3642104783,10.5,10500236779.36421,47.655,-122.3035,60.0,7.583333333333333
2026-01-20T23:07:36+00:00,SAT-55405,242.99009480940697,36.238818187768075,2578.369837075144,-6.7598653728568685,236759.07955962364,10.5,10500236759.07956,47.655,-122.3035,60.0,7.6
2026-01-20T23:07:37+00:00,SAT-55405,242.9277359889192,36.288268436901326,2571.627998009948,-6.75927379151973,236738.35987881047,10.5,10500236738.359879,47.655,-122.3035,60.0,7.616666666666666
2026-01-20T23:07:38+00:00,SAT-55405,242.8650651826702,36.337795864252854,2564.886748948539,-6.758669680260524,236717.20134712494,10.5,10500236717.201347,47.655,-122.3035,60.0,7.633333333333334
2026-01-20T23:07:39+00:00,SAT-55405,242.8020796617731,36.387400848380054,2558.146102387426,-6.758052939268954,236695.60046878835,10.5,10500236695.60047,47.655,-122.3035,60.0,7.65
2026-01-20T23:07:40+00:00,SAT-55405,242.73877666605676,36.43708376887029,2551.4060709226615,-6.757423450823536,236673.55312069634,10.5,10500236673.553122,47.655,-122.3035,60.0,7.666666666666667
2026-01-20T23:07:41+00:00,SAT-55405,242.67515340379268,36.48684500618971,2544.666667267707,-6.756781106513877,236651.05550585833,10.5,10500236651.055506,47.655,-122.3035,60.0,7.683333333333334
2026-01-20T23:07:42+00:00,SAT-55405,242.61120705113683,36.53668494172221,2537.927904244144,-6.756125774353268,236628.10300154152,10.5,10500236628.103,47.655,-122.3035,60.0,7.7
2026-01-20T23:07:43+00:00,SAT-55405,242.54693475190982,36.58660395757328,2531.189794805189,-6.755457365894702,236604.6925099576,10.5,10500236604.69251,47.655,-122.3035,60.0,7.716666666666667
2026-01-20T23:07:44+00:00,SAT-55405,242.48233361672197,36.636602436863676,2524.45235199227,-6.754775722934953,236580.81849016034,10.5,10500236580.818491,47.655,-122.3035,60.0,7.733333333333333
2026-01-20T23:07:45+00:00,SAT-55405,242.41740072312774,36.68668076317905,2517.715589004596,-6.754080765909677,236556.47815546984,10.5,10500236556.478155,47.655,-122.3035,60.0,7.75
2026-01-20T23:07:46+00:00,SAT-55405,242.35213311445693,36.73683932113426,2510.979519120729,-6.753372350544936,236531.66645280257,10.5,10500236531.666452,47.655,-122.3035,60.0,7.766666666666667
2026-01-20T23:07:47+00:00,SAT-55405,242.2865277998847,36.787078495851155,2504.2441557631187,-6.752650359171592,236506.3792608876,10.5,10500236506.379261,47.655,-122.3035,60.0,7.783333333333333
2026-01-20T23:07:48+00:00,SAT-55405,242.22058175369534,36.83739867312344,2497.5095124715717,-6.751914662186997,236480.61204049192,10.5,10500236480.61204,47.655,-122.3035,60.0,7.8
2026-01-20T23:07:49+00:00,SAT-55405,242.15429191491393,36.88780023930226,2490.7756029151506,-6.751165155820297,236454.3611571213,10.5,10500236454.361156,47.655,-122.3035,60.0,7.816666666666666
2026-01-20T23:07:50+00:00,SAT-55405,242.08765518652444,36.93828358144707,2484.042440866412,-6.7504016780881315,236427.62093743324,10.5,10500236427.620937,47.655,-122.3035,60.0,7.833333333333333
2026-01-20T23:07:51+00:00,SAT-55405,242.02066843549994,36.988849086850614,2477.3100402594655,-6.749624122279593,236400.38764396045,10.5,10500236400.387644,47.655,-122.3035,60.0,7.85
2026-01-20T23:07:52+00:00,SAT-55405,241.95332849175782,37.039497143419375,2470.5784151348457,-6.748832351461982,236372.65648074046,10.5,10500236372.65648,47.655,-122.3035,60.0,7.866666666666666
2026-01-20T23:07:53+00:00,SAT-55405,241.8856321479109,37.090228139403536,2463.8475796696544,-6.74802623826526,236344.42298673582,10.5,10500236344.422987,47.655,-122.3035,60.0,7.883333333333334
2026-01-20T23:07:54+00:00,SAT-55405,241.81757615861278,37.14104246342655,2457.117548168024,-6.747205636552864,236315.68204362591,10.5,10500236315.682043,47.655,-122.3035,60.0,7.9
2026-01-20T23:07:55+00:00,SAT-55405,241.74915724019553,37.191940504298834,2450.3883350798355,-6.74637040377017,236286.42865854478,10.5,10500236286.42866,47.655,-122.3035,60.0,7.916666666666667
2026-01-20T23:07:56+00:00,SAT-55405,241.68037207005165,37.24292265099547,2443.6599549971424,-6.745520442106719,236256.65940575645,10.5,10500236256.659407,47.655,-122.3035,60.0,7.933333333333334
2026-01-20T23:07:57+00:00,SAT-55405,241.61121728567275,37.293989292962564,2436.9324226095478,-6.744655553560094,236226.3673503787,10.5,10500236226.36735,47.655,-122.3035,60.0,7.95
2026-01-20T23:07:58+00:00,SAT-55405,241.5416894849602,37.34514081928245,2430.2057528041305,-6.743775642067101,236195.5491278722,10.5,10500236195.549128,47.655,-122.3035,60.0,7.966666666666667
2026-01-20T23:07:59+00:00,SAT-55405,241.47178522471938,37.39637761941932,2423.4799605637754,-6.742880534719686,236164.19868226539,10.5,10500236164.198683,47.655,-122.3035,60.0,7.983333333333333
2026-01-20T23:08:00+00:00,SAT-55405,241.40150102073972,37.44770008256454,2416.755061043815,-6.7419701145266755,236132.31191603257,10.5,10500236132.311916,47.655,-122.3035,60.0,8.0
2026-01-20T23:08:01+00:00,SAT-55405,241.33083334669482,37.49910859802199,2410.0310695162607,-6.741044198678878,236099.88242642255,10.5,10500236099.882427,47.655,-122.3035,60.0,8.016666666666667
2026-01-20T23:08:02+00:00,SAT-55405,241.25977863409628,37.55060355462825,2403.3080014354446,-6.740102666107162,236066.90597308223,10.5,10500236066.905973,47.655,-122.3035,60.0,8.033333333333333
2026-01-20T23:08:03+00:00,SAT-55405,241.1883332711165,37.60218534118202,2396.5858723764472,-6.7391453361846345,236033.37622969373,10.5,10500236033.37623,47.655,-122.3035,60.0,8.05
2026-01-20T23:08:04+00:00,SAT-55405,241.11649360248953,37.65385434591368,2389.8646980944923,-6.738172089262126,235999.2890056371,10.5,10500235999.289005,47.655,-122.3035,60.0,8.066666666666666
2026-01-20T23:08:05+00:00,SAT-55405,241.04425592828164,37.70561095689793,2383.144494464135,-6.737182745758156,235964.6380112092,10.5,10500235964.638012,47.655,-122.3035,60.0,8.083333333333334
2026-01-20T23:08:06+00:00,SAT-55405,240.9716165037829,37.757455561511755,2376.425277539032,-6.736177153721615,235929.41792443942,10.5,10500235929.417925,47.655,-122.3035,60.0,8.1
2026-01-20T23:08:07+00:00,SAT-55405,240.89857153860112,37.80938854659232,2369.707063524387,-6.73515515209207,235893.62310431016,10.5,10500235893.623104,47.655,-122.3035,60.0,8.116666666666667
2026-01-20T23:08:08+00:00,SAT-55405,240.82511719601783,37.86141029828018,2362.9898687860336,-6.7341165899653515,235857.24826551904,10.5,10500235857.248266,47.655,-122.3035,60.0,8.133333333333333
2026-01-20T23:08:09+00:00,SAT-55405,240.7512495922287,37.913521202035,2356.2737098403086,-6.7330612675470505,235820.28641042075,10.5,10500235820.286411,47.655,-122.3035,60.0,8.15
2026-01-20T23:08:10+00:00,SAT-55405,240.6769647960764,37.96572164215955,2349.5586034028083,-6.731989052758983,235782.7329130786,10.5,10500235782.732914,47.655,-122.3035,60.0,8.166666666666666
2026-01-20T23:08:11+00:00,SAT-55405,240.60225882770936,38.01801200227107,2342.8445663208568,-6.730899763738265,235744.581403885,10.5,10500235744.581404,47.655,-122.3035,60.0,8.183333333333334
2026-01-20T23:08:12+00:00,SAT-55405,240.52712765827786,38.07039266480364,2336.131615623155,-6.729793240804277,235705.8262901494,10.5,10500235705.82629,47.655,-122.3035,60.0,8.2
2026-01-20T23:08:13+00:00,SAT-55405,240.45156720902378,38.12286401111685,2329.4197684976593,-6.728669268657843,235666.4600311838,10.5,10500235666.460032,47.655,-122.3035,60.0,8.216666666666667
2026-01-20T23:08:14+00:00,SAT-55405,240.37557335102653,38.17542642094023,2322.7090423470513,-6.727527734597673,235626.47867971237,10.5,10500235626.47868,47.655,-122.3035,60.0,8.233333333333333
2026-01-20T23:08:15+00:00,SAT-55405,240.29914190344795,38.22808027312603,2315.9994546864127,-6.726368395337947,235585.87371483655,10.5,10500235585.873714,47.655,-122.3035,60.0,8.25
2026-01-20T23:08:16+00:00,SAT-55405,240.22226863401434,38.28082594447878,2309.2910232734625,-6.725191121746631,235544.64061380632,10.5,10500235544.640614,47.655,-122.3035,60.0,8.266666666666667
2026-01-20T23:08:17+00:00,SAT-55405,240.1449492571153,38.33366381059889,2302.583765994707,-6.723995682879512,235502.77128797842,10.5,10500235502.771288,47.655,-122.3035,60.0,8.283333333333333
2026-01-20T23:08:18+00:00,SAT-55405,240.06717943397217,38.386594244935694,2295.8777009669816,-6.722781938268713,235460.2608175736,10.5,10500235460.260818,47.655,-122.3035,60.0,8.3
2026-01-20T23:08:19+00:00,SAT-55405,239.98895477093424,38.439617619427935,2289.172846447215,-6.721549646433612,235417.10074491907,10.5,10500235417.100744,47.655,-122.3035,60.0,8.316666666666666
2026-01-20T23:08:20+00:00,SAT-55405,239.91027081964097,38.492734303563296,2282.469220933172,-6.720298678458926,235373.28655485628,10.5,10500235373.286554,47.655,-122.3035,60.0,8.333333333333334
2026-01-20T23:08:21+00:00,SAT-55405,239.83112307502745,38.54594466518563,2275.766843051189,-6.719028787548563,235328.80960354215,10.5,10500235328.809603,47.655,-122.3035,60.0,8.35
2026-01-20T23:08:22+00:00,SAT-55405,239.75150697566227,38.59924906941009,2269.0657316737406,-6.7177397937487635,235283.6635882348,10.5,10500235283.663588,47.655,-122.3035,60.0,8.366666666666667
2026-01-20T23:08:23+00:00,SAT-55405,239.6714179021923,38.652647879054214,2262.365905852775,-6.716431490237968,235237.84126516836,10.5,10500235237.841265,47.655,-122.3035,60.0,8.383333333333333
2026-01-20T23:08:24+00:00,SAT-55405,239.5908511766947,38.70614145427836,2255.667384846511,-6.715103691211537,235191.33612667848,10.5,10500235191.336126,47.655,-122.3035,60.0,8.4
2026-01-20T23:08:25+00:00,SAT-55405,239.509802061568,38.759730152638326,2248.9701880984762,-6.713756172916826,235144.14033600094,10.5,10500235144.140335,47.655,-122.3035,60.0,8.416666666666666
2026-01-20T23:08:26+00:00,SAT-55405,239.428265758979,38.81341432862917,2242.2743352753537,-6.712388720610143,235096.2463719034,10.5,10500235096.246372,47.655,-122.3035,60.0,8.433333333333334
2026-01-20T23:08:27+00:00,SAT-55405,239.34623740985666,38.867194333623516,2235.5798462579987,-6.711001161844901,235047.64819457685,10.5,10500235047.648195,47.655,-122.3035,60.0,8.45
2026-01-20T23:08:28+00:00,SAT-55405,239.26371209242774,38.9210705160716,2228.886741099252,-6.7095932242686604,234998.3362650869,10.5,10500234998.336266,47.655,-122.3035,60.0,8.466666666666667
2026-01-20T23:08:29+00:00,SAT-55405,239.18068482237396,38.97504322052832,2222.1950401235813,-6.7081647409642695,234948.3047372887,10.5,10500234948.304737,47.655,-122.3035,60.0,8.483333333333333
2026-01-20T23:08:30+00:00,SAT-55405,239.09715055064493,39.02911278836952,2215.5047638219266,-6.706715438586991,234897.54403749344,10.5,10500234897.544037,47.655,-122.3035,60.0,8.5
2026-01-20T23:08:31+00:00,SAT-55405,239.0131041636427,39.0832795567432,2208.815932957842,-6.705245155301866,234846.04849755624,10.5,10500234846.048498,47.655,-122.3035,60.0,8.516666666666667
2026-01-20T23:08:32+00:00,SAT-55405,238.92854048093554,39.1375438593365,2202.128568456288,-6.703753600330953,234793.80793320358,10.5,10500234793.807934,47.655,-122.3035,60.0,8.533333333333333
2026-01-20T23:08:33+00:00,SAT-55405,238.84345425567557,39.191906025129676,2195.442691532224,-6.70224059326843,234740.81602586052,10.5,10500234740.816027,47.655,-122.3035,60.0,8.55
2026-01-20T23:08:34+00:00,SAT-55405,238.75784017226238,39.2463663791329,2188.7583235805378,-6.700705859646909,234687.0631625181,10.5,10500234687.063162,47.655,-122.3035,60.0,8.566666666666666
2026-01-20T23:08:35+00:00,SAT-55405,238.67169284636066,39.30092524142396,2182.0754862698504,-6.699149189600595,234632.54199278838,10.5,10500234632.541992,47.655,-122.3035,60.0,8.583333333333334
2026-01-20T23:08:36+00:00,SAT-55405,238.58500682302696,39.35558292749516,2175.3942014780887,-6.69757031277131,234577.24304758443,10.5,10500234577.243048,47.655,-122.3035,60.0,8.6
2026-01-20T23:08:37+00:00,SAT-55405,238.4977765763141,39.41033974754876,2168.714491352818,-6.695969023822257,234521.15913514307,10.5,10500234521.159136,47.655,-122.3035,60.0,8.616666666666667
2026-01-20T23:08:38+00:00,SAT-55405,238.4099965073495,39.46519600684497,2162.036378246393,-6.694345033804831,234464.28013526188,10.5,10500234464.280136,47.655,-122.3035,60.0,8.633333333333333
2026-01-20T23:08:39+00:00,SAT-55405,238.32166094417715,39.52015200478505,2155.3598847993444,-6.692698118542788,234406.5981963405,10.5,10500234406.598196,47.655,-122.3035,60.0,8.65
2026-01-20T23:08:40+00:00,SAT-55405,238.2327641397962,39.57520803524274,2148.6850338757845,-6.691028004712994,234348.10374544657,10.5,10500234348.103745,47.655,-122.3035,60.0,8.666666666666666
2026-01-20T23:08:41+00:00,SAT-55405,238.14330027155938,39.630364385928026,2142.0118486124175,-6.689334431445986,234288.78764582815,10.5,10500234288.787645,47.655,-122.3035,60.0,8.683333333333334
2026-01-20T23:08:42+00:00,SAT-55405,238.05326343977748,39.68562133825004,2135.340352406122,-6.687617152686149,234228.6412795767,10.5,10500234228.64128,47.655,-122.3035,60.0,8.7
2026-01-20T23:08:43+00:00,SAT-55405,237.96264766634886,39.74097916722773,2128.670568899176,-6.685875876768698,234167.65443135775,10.5,10500234167.654432,47.655,-122.3035,60.0,8.716666666666667
2026-01-20T23:08:44+00:00,SAT-55405,237.8714468939855,39.79643814083066,2122.0025220247458,-6.684110349119997,234105.8181849257,10.5,10500234105.818186,47.655,-122.3035,60.0,8.733333333333333
2026-01-20T23:08:45+00:00,SAT-55405,237.77965498453028,39.851998520058345,2115.33623596989,-6.682320299062455,234043.1230600063,10.5,10500234043.12306,47.655,-122.3035,60.0,8.75
2026-01-20T23:08:46+00:00,SAT-55405,237.68726571780343,39.90766055853331,2108.671735191625,-6.680505412108659,233979.5580419202,10.5,10500233979.558043,47.655,-122.3035,60.0,8.766666666666667
2026-01-20T23:08:47+00:00,SAT-55405,237.59427279085145,39.96342450185401,2102.0090444606153,-6.6786654549194155,233915.11495814167,10.5,10500233915.114958,47.655,-122.3035,60.0,8.783333333333333
2026-01-20T23:08:48+00:00,SAT-55405,237.5006698155517,40.01929058801673,2095.3481887802423,-6.676800076015522,233849.7814983824,10.5,10500233849.781498,47.655,-122.3035,60.0,8.8
2026-01-20T23:08:49+00:00,SAT-55405,237.4064503187498,40.075259046105,2088.6891935044296,-6.67490903898661,233783.54938255117,10.5,10500233783.549383,47.655,-122.3035,60.0,8.816666666666666
2026-01-20T23:08:50+00:00,SAT-55405,237.31160773938012,40.13133009698724,2082.0320842228803,-6.672992029168664,233716.40758978322,10.5,10500233716.407589,47.655,-122.3035,60.0,8.833333333333334
2026-01-20T23:08:51+00:00,SAT-55405,237.21613542804903,40.187503952335604,2075.3768868391226,-6.67104870978655,233648.34432478878,10.5,10500233648.344324,47.655,-122.3035,60.0,8.85
2026-01-20T23:08:52+00:00,SAT-55405,237.1200266458629,40.24378081410476,2068.723627592562,-6.6690788255414075,233579.35064592178,10.5,10500233579.350645,47.655,-122.3035,60.0,8.866666666666667
2026-01-20T23:08:53+00:00,SAT-55405,237.02327456192228,40.300160874927975,2062.0723329772222,-6.667082047302742,233509.41502564013,10.5,10500233509.415026,47.655,-122.3035,60.0,8.883333333333333
2026-01-20T23:08:54+00:00,SAT-55405,236.92587225274008,40.35664431712269,2055.423029815379,-6.665058030750897,233438.52540441303,10.5,10500233438.525404,47.655,-122.3035,60.0,8.9
2026-01-20T23:08:55+00:00,SAT-55405,236.82781270097593,40.41323131221932,2048.77574527271,-6.66300648831836,233366.6717104097,10.5,10500233366.671711,47.655,-122.3035,60.0,8.916666666666666
2026-01-20T23:08:56+00:00,SAT-55405,236.72908879308164,40.469922021087314,2042.1305068016939,-6.6609270883518334,233293.8423277288,10.5,10500233293.842327,47.655,-122.3035,60.0,8.933333333333334
2026-01-20T23:08:57+00:00,SAT-55405,236.62969331834472,40.52671659318631,2035.4873421855775,-6.658819482213831,233220.02504561082,10.5,10500233220.025045,47.655,-122.3035,60.0,8.95
2026-01-20T23:08:58+00:00,SAT-55405,236.529618967487,40.583615166022895,2028.8462795553166,-6.656683356547219,233145.20888896345,10.5,10500233145.208889,47.655,-122.3035,60.0,8.966666666666667
2026-01-20T23:08:59+00:00,SAT-55405,236.42885833057767,40.64061786507715,2022.2073473543867,-6.654518352219774,233069.3812794571,10.5,10500233069.381279,47.655,-122.3035,60.0,8.983333333333333
2026-01-20T23:09:00+00:00,SAT-55405,236.3274038959682,40.69772480297655,2015.5705743844394,-6.652324128553485,232992.53028510674,10.5,10500232992.530285,47.655,-122.3035,60.0,9.0
2026-01-20T23:09:01+00:00,SAT-55405,236.2252480483954,40.754936079254605,2008.9359897868956,-6.650100332476138,232914.64353983,10.5,10500232914.64354,47.655,-122.3035,60.0,9.016666666666667
2026-01-20T23:09:02+00:00,SAT-55405,236.12238306737476,40.8122517797853,2002.303623055306,-6.647846606392106,232835.70851911532,10.5,10500232835.708519,47.655,-122.3035,60.0,9.033333333333333
2026-01-20T23:09:03+00:00,SAT-55405,236.0188011255685,40.869671976309796,1995.6735040398644,-6.645562580916082,232755.71228552674,10.5,10500232755.712286,47.655,-122.3035,60.0,9.05
2026-01-20T23:09:04+00:00,SAT-55405,235.91449428713975,40.92719672586018,1989.045662959164,-6.643247904046921,232674.64251049527,10.5,10500232674.642511,47.655,-122.3035,60.0,9.066666666666666
2026-01-20T23:09:05+00:00,SAT-55405,235.80945450572864,40.98482607044451,1982.420130382861,-6.64090218887539,232592.48564282293,10.5,10500232592.485643,47.655,-122.3035,60.0,9.083333333333334
2026-01-20T23:09:06+00:00,SAT-55405,235.70367362306655,41.04256003622922,1975.7969372664895,-6.638525055078527,232509.2283619908,10.5,10500232509.228361,47.655,-122.3035,60.0,9.1
2026-01-20T23:09:07+00:00,SAT-55405,235.59714336707444,41.10039863310856,1969.176114944891,-6.636116092089723,232424.8562882195,10.5,10500232424.856289,47.655,-122.3035,60.0,9.116666666666667
2026-01-20T23:09:08+00:00,SAT-55405,235.4898553503361,41.15834185387923,1962.5576951623802,-6.633674963970121,232339.35765550938,10.5,10500232339.357655,47.655,-122.3035,60.0,9.133333333333333
2026-01-20T23:09:09+00:00,SAT-55405,235.38180106712895,41.2163896744041,1955.941709998314,-6.63120119701214,232252.71587261703,10.5,10500232252.715872,47.655,-122.3035,60.0,9.15
2026-01-20T23:09:10+00:00,SAT-55405,235.27297189343437,41.27454205177865,1949.328192004494,-6.62869446520525,232164.91952127469,10.5,10500232164.919521,47.655,-122.3035,60.0,9.166666666666666
2026-01-20T23:09:11+00:00,SAT-55405,235.1633590828024,41.33279892512198,1942.7171740578624,-6.626154293371591,232075.95195874374,10.5,10500232075.95196,47.655,-122.3035,60.0,9.183333333333334
2026-01-20T23:09:12+00:00,SAT-55405,235.0529537664861,41.39116021360195,1936.1086895092733,-6.623580302455449,231985.79990888966,10.5,10500231985.79991,47.655,-122.3035,60.0,9.2
2026-01-20T23:09:13+00:00,SAT-55405,234.94174694998227,41.449625816717145,1929.5027720876246,-6.620972032618815,231894.4472662403,10.5,10500231894.447266,47.655,-122.3035,60.0,9.216666666666667
2026-01-20T23:09:14+00:00,SAT-55405,234.82972951211744,41.5081956129139,1922.899455980426,-6.618329073935944,231801.87967346198,10.5,10500231801.879673,47.655,-122.3035,60.0,9.233333333333333
2026-01-20T23:09:15+00:00,SAT-55405,234.7168922021744,41.56686945939782,1916.2987757840206,-6.6156509753163055,231708.08133145634,10.5,10500231708.081331,47.655,-122.3035,60.0,9.25
2026-01-20T23:09:16+00:00,SAT-55405,234.6032256383321,41.62564719107773,1909.7007665446383,-6.612937312839307,231613.03739273097,10.5,10500231613.037394,47.655,-122.3035,60.0,9.266666666666667
2026-01-20T23:09:17+00:00,SAT-55405,234.48872030504322,41.68452862013174,1903.1054637312998,-6.610187598590846,231516.73076847012,10.5,10500231516.730768,47.655,-122.3035,60.0,9.283333333333333
2026-01-20T23:09:18+00:00,SAT-55405,234.37336655180093,41.74351353469292,1896.5129032996388,-6.607401387871765,231419.14588342822,10.5,10500231419.145884,47.655,-122.3035,60.0,9.3
2026-01-20T23:09:19+00:00,SAT-55405,234.25715459014805,41.80260169850887,1889.9231216488013,-6.60457822367179,231320.26673117236,10.5,10500231320.266731,47.655,-122.3035,60.0,9.316666666666666
2026-01-20T23:09:20+00:00,SAT-55405,234.14007449159988,41.86179285008284,1883.3361556337259,-6.601717623163846,231220.07640105602,10.5,10500231220.0764,47.655,-122.3035,60.0,9.333333333333334
2026-01-20T23:09:21+00:00,SAT-55405,234.0221161856317,41.92108670162819,1876.7520425908906,-6.598819079636558,231118.55714590344,10.5,10500231118.557146,47.655,-122.3035,60.0,9.35
2026-01-20T23:09:22+00:00,SAT-55405,233.90326945772983,41.98048293804722,1870.1708203621329,-6.595882111847482,231015.69211056855,10.5,10500231015.69211,47.655,-122.3035,60.0,9.366666666666667
2026-01-20T23:09:23+00:00,SAT-55405,233.78352394651375,42.03998121632825,1863.5925272692505,-6.592906253490495,230911.4649630385,10.5,10500230911.464964,47.655,-122.3035,60.0,9.383333333333333
2026-01-20T23:09:24+00:00,SAT-55405,233.66286914102548,42.09958116483815,1857.0172020991026,-6.589890939142392,230805.85589980092,10.5,10500230805.8559,47.655,-122.3035,60.0,9.4
2026-01-20T23:09:25+00:00,SAT-55405,233.54129437984153,42.15928238148495,1850.4448842024644,-6.586835685422136,230698.8479908071,10.5,10500230698.84799,47.655,-122.3035,60.0,9.416666666666666
2026-01-20T23:09:26+00:00,SAT-55405,233.4187888471679,42.21908443358331,1843.8756134122034,-6.583739978076628,230590.42322473833,10.5,10500230590.423225,47.655,-122.3035,60.0,9.433333333333334
2026-01-20T23:09:27+00:00,SAT-55405,233.29534157074778,42.27898685662584,1837.3094300740686,-6.580603260217703,230480.56209701544,10.5,10500230480.562098,47.655,-122.3035,60.0,9.45
2026-01-20T23:09:28+00:00,SAT-55405,233.17094141996773,42.338989152900055,1830.7463750892114,-6.577424970234569,230369.24493765272,10.5,10500230369.244938,47.655,-122.3035,60.0,9.466666666666667
2026-01-20T23:09:29+00:00,SAT-55405,233.0455771032259,42.39909079042389,1824.1864899188975,-6.574204603438309,230256.4540703097,10.5,10500230256.454071,47.655,-122.3035,60.0,9.483333333333333
2026-01-20T23:09:30+00:00,SAT-55405,232.91923716429267,42.45929120248498,1817.6298165277349,-6.570941573043465,230142.16894327736,10.5,10500230142.168943,47.655,-122.3035,60.0,9.5
2026-01-20T23:09:31+00:00,SAT-55405,232.79190998089544,42.51958978575632,1811.0763974655529,-6.567635308988559,230026.3695905915,10.5,10500230026.36959,47.655,-122.3035,60.0,9.516666666666667
2026-01-20T23:09:32+00:00,SAT-55405,232.6635837616875,42.579985899380866,1804.5262758507217,-6.5642852076988385,229909.03487251105,10.5,10500229909.034872,47.655,-122.3035,60.0,9.533333333333333
2026-01-20T23:09:33+00:00,SAT-55405,232.53424654396483,42.64047886349424,1797.9794954035767,-6.560890746308146,229790.14647605154,10.5,10500229790.146477,47.655,-122.3035,60.0,9.55
2026-01-20T23:09:34+00:00,SAT-55405,232.403886189345,42.701067958851404,1791.4361003659253,-6.55745122840573,229669.68000996264,10.5,10500229669.68001,47.655,-122.3035,60.0,9.566666666666666
2026-01-20T23:09:35+00:00,SAT-55405,232.27249038393416,42.76175242392067,1784.8961356741288,-6.553966127820228,229547.61704549752,10.5,10500229547.617046,47.655,-122.3035,60.0,9.583333333333334
2026-01-20T23:09:36+00:00,SAT-55405,232.14004663230355,42.822531455310035,1778.359646789316,-6.550434772589817,229423.9340477107,10.5,10500229423.934048,47.655,-122.3035,60.0,9.6
2026-01-20T23:09:37+00:00,SAT-55405,232.0065422570803,42.883404205050475,1771.8266798427865,-6.546856553751848,229298.60968815436,10.5,10500229298.609688,47.655,-122.3035,60.0,9.616666666666667
2026-01-20T23:09:38+00:00,SAT-55405,231.87196439477367,42.94436977990024,1765.2972815731778,-6.54323082328622,229171.62127042338,10.5,10500229171.621271,47.655,-122.3035,60.0,9.633333333333333
2026-01-20T23:09:39+00:00,SAT-55405,231.7362999933537,43.0054272395948,1758.7714993654206,-6.539556938876331,229042.9462978734,10.5,10500229042.946299,47.655,-122.3035,60.0,9.65
2026-01-20T23:09:40+00:00,SAT-55405,231.59953580900284,43.06657559549482,1752.2493812450477,-6.535834202068382,228912.56030769798,10.5,10500228912.560308,47.655,-122.3035,60.0,9.666666666666666
2026-01-20T23:09:41+00:00,SAT-55405,231.46165840397103,43.127813808580335,1745.730975934185,-6.5320619707528715,228780.44081050614,10.5,10500228780.440811,47.655,-122.3035,60.0,9.683333333333334
2026-01-20T23:09:42+00:00,SAT-55405,231.3226541422789,43.189140788522096,1739.216332795354,-6.528239562562681,228646.56390691508,10.5,10500228646.563908,47.655,-122.3035,60.0,9.7
2026-01-20T23:09:43+00:00,SAT-55405,231.1825091871636,43.25055539173427,1732.705501871625,-6.524366222131279,228510.90314079358,10.5,10500228510.903141,47.655,-122.3035,60.0,9.716666666666667
2026-01-20T23:09:44+00:00,SAT-55405,231.04120949921352,43.31205641906486,1726.1985339594191,-6.520441310387551,228373.43612916803,10.5,10500228373.436129,47.655,-122.3035,60.0,9.733333333333333
2026-01-20T23:09:45+00:00,SAT-55405,230.89874083066397,43.37364261531186,1719.695480492526,-6.516464053293988,228234.1357619706,10.5,10500228234.135761,47.655,-122.3035,60.0,9.75
2026-01-20T23:09:46+00:00,SAT-55405,230.7550887246849,43.43531266619783,1713.1963936767074,-6.512433758722857,228092.97779796046,10.5,10500228092.977798,47.655,-122.3035,60.0,9.766666666666667
2026-01-20T23:09:47+00:00,SAT-55405,230.6102385102258,43.4970651974371,1706.7013264080078,-6.508349604766156,227949.9334504427,10.5,10500227949.93345,47.655,-122.3035,60.0,9.783333333333333
2026-01-20T23:09:48+00:00,SAT-55405,230.4641753011762,43.55889877164484,1700.2103324021878,-6.504210901351651,227804.97855016866,10.5,10500227804.97855,47.655,-122.3035,60.0,9.8
2026-01-20T23:09:49+00:00,SAT-55405,230.31688399009212,43.62081188780823,1693.7234660632398,-6.500016834168715,227658.08457653565,10.5,10500227658.084576,47.655,-122.3035,60.0,9.816666666666666
2026-01-20T23:09:50+00:00,SAT-55405,230.1683492471762,43.68280297814407,1687.2407826072956,-6.495766640970283,227509.22483242713,10.5,10500227509.224833,47.655,-122.3035,60.0,9.833333333333334
2026-01-20T23:09:51+00:00,SAT-55405,230.01855551550062,43.7448704066323,1680.7623380107011,-6.491459485850453,227358.3700408826,10.5,10500227358.37004,47.655,-122.3035,60.0,9.85
2026-01-20T23:09:52+00:00,SAT-55405,229.86748700894006,43.80701246627597,1674.2881890834797,-6.487094573147982,227205.49233447964,10.5,10500227205.492334,47.655,-122.3035,60.0,9.866666666666667
2026-01-20T23:09:53+00:00,SAT-55405,229.71512770752295,43.869227377390295,1667.8183934291935,-6.482671076922144,227050.56278528032,10.5,10500227050.562786,47.655,-122.3035,60.0,9.883333333333333
2026-01-20T23:09:54+00:00,SAT-55405,229.5614613543538,43.93151328516509,1661.353009475143,-6.478188122666222,226893.55076436023,10.5,10500226893.550764,47.655,-122.3035,60.0,9.9
2026-01-20T23:09:55+00:00,SAT-55405,229.4064714528173,43.99386825693555,1654.8920965208038,-6.473644854715243,226734.42630271259,10.5,10500226734.426302,47.655,-122.3035,60.0,9.916666666666666
2026-01-20T23:09:56+00:00,SAT-55405,229.25014126236997,44.056290280097585,1648.4357147190344,-6.46904044611077,226573.16043675484,10.5,10500226573.160437,47.655,-122.3035,60.0,9.933333333333334
2026-01-20T23:09:57+00:00,SAT-55405,229.0924537939494,44.11877726004075,1641.9839250474467,-6.464373938037766,226409.71958472865,10.5,10500226409.719585,47.655,-122.3035,60.0,9.95
2026-01-20T23:09:58+00:00,SAT-55405,228.93339180902203,44.181327016368606,1635.5367894399105,-6.45964445533086,226244.0730946408,10.5,10500226244.073095,47.655,-122.3035,60.0,9.966666666666667
2026-01-20T23:09:59+00:00,SAT-55405,228.7729378137249,44.243937281248705,1629.0943707031272,-6.454851068263229,226076.18840352516,10.5,10500226076.188404,47.655,-122.3035,60.0,9.983333333333333
2026-01-20T23:10:00+00:00,SAT-55405,228.61107405612205,44.3066056962799,1622.656732571046,-6.449992835559262,225906.03254392828,10.5,10500225906.032543,47.655,-122.3035,60.0,10.0
2026-01-20T23:10:01+00:00,SAT-55405,228.4477825224004,44.369329809703515,1616.2239397163814,-6.445068799613226,225733.5719764467,10.5,10500225733.571976,47.655,-122.3035,60.0,10.016666666666667
2026-01-20T23:10:02+00:00,SAT-55405,228.28304493321951,44.43210707350546,1609.7960577669007,-6.440077985047966,225558.77253924662,10.5,10500225558.77254,47.655,-122.3035,60.0,10.033333333333333
2026-01-20T23:10:03+00:00,SAT-55405,228.1168427399871,44.49493484039579,1603.373153323146,-6.435019394158705,225381.59928848644,10.5,10500225381.599289,47.655,-122.3035,60.0,10.05
2026-01-20T23:10:04+00:00,SAT-55405,227.94915712131345,44.55781036068314,1596.9552939807052,-6.429892032596693,225202.01739786688,10.5,10500225202.017397,47.655,-122.3035,60.0,10.066666666666666
2026-01-20T23:10:05+00:00,SAT-55405,227.7799689787151,44.620730779295236,1590.542548326862,-6.424694860812371,225019.9904579651,10.5,10500225019.990458,47.655,-122.3035,60.0,10.083333333333334
2026-01-20T23:10:06+00:00,SAT-55405,227.6092589335698,44.683693132232605,1584.1349859856784,-6.419426825691284,224835.48158425812,10.5,10500224835.481585,47.655,-122.3035,60.0,10.1
2026-01-20T23:10:07+00:00,SAT-55405,227.43700732322026,44.746694343233195,1577.7326776315224,-6.4140868611705555,224648.4534387147,10.5,10500224648.453438,47.655,-122.3035,60.0,10.116666666666667
2026-01-20T23:10:08+00:00,SAT-55405,227.2631941971053,44.80973122037015,1571.3356950019818,-6.408673897571071,224458.86855664745,10.5,10500224458.868557,47.655,-122.3035,60.0,10.133333333333333
2026-01-20T23:10:09+00:00,SAT-55405,227.08779931256439,44.87280045261974,1564.9441109014708,-6.40318681329754,224266.68765504492,10.5,10500224266.687654,47.655,-122.3035,60.0,10.15
2026-01-20T23:10:10+00:00,SAT-55405,226.91080213193746,44.935898605858306,1558.5579992530088,-6.397624477114255,224071.87111324756,10.5,10500224071.871113,47.655,-122.3035,60.0,10.166666666666666
2026-01-20T23:10:11+00:00,SAT-55405,226.73218181852005,44.999022119161694,1552.1774351078334,-6.391985775785379,223874.37994102732,10.5,10500223874.379942,47.655,-122.3035,60.0,10.183333333333334
2026-01-20T23:10:12+00:00,SAT-55405,226.55191723184268,45.06216730131135,1545.8024946274502,-6.386269508786805,223674.17209095185,10.5,10500223674.17209,47.655,-122.3035,60.0,10.2
2026-01-20T23:10:13+00:00,SAT-55405,226.36998692561275,45.12533032605651,1539.4332551706866,-6.380474510098739,223471.2067240756,10.5,10500223471.206724,47.655,-122.3035,60.0,10.216666666666667
2026-01-20T23:10:14+00:00,SAT-55405,226.18636914262103,45.188507228592115,1533.0697952592816,-6.374599524806376,223265.43988797395,10.5,10500223265.439888,47.655,-122.3035,60.0,10.233333333333333
2026-01-20T23:10:15+00:00,SAT-55405,226.00104181274472,45.25169390054537,1526.7121946665413,-6.368643392042765,223056.83092417568,10.5,10500223056.830925,47.655,-122.3035,60.0,10.25
2026-01-20T23:10:16+00:00,SAT-55405,225.81398254625165,45.314886086864725,1520.360534323544,-6.362604790425579,222845.3335522823,10.5,10500222845.333551,47.655,-122.3035,60.0,10.266666666666667
2026-01-20T23:10:17+00:00,SAT-55405,225.62516863381137,45.37807937980543,1514.014896479226,-6.3564824907770285,222630.90472128824,10.5,10500222630.904722,47.655,-122.3035,60.0,10.283333333333333
2026-01-20T23:10:18+00:00,SAT-55405,225.43457703980877,45.441269215527704,1507.6753646084246,-6.350275141620809,222413.49709677653,10.5,10500222413.497097,47.655,-122.3035,60.0,10.3
2026-01-20T23:10:19+00:00,SAT-55405,225.24218440147973,45.50445086824812,1501.342023533848,-6.343981471453572,222193.06614532144,10.5,10500222193.066145,47.655,-122.3035,60.0,10.316666666666666
2026-01-20T23:10:20+00:00,SAT-55405,225.0479670225484,45.56761944644344,1495.0149593463184,-6.33760010175054,221969.5635851542,10.5,10500221969.563585,47.655,-122.3035,60.0,10.333333333333334
2026-01-20T23:10:21+00:00,SAT-55405,224.8519008720348,45.63076988688768,1488.694259511506,-6.331129640766615,221742.94067147432,10.5,10500221742.940672,47.655,-122.3035,60.0,10.35
2026-01-20T23:10:22+00:00,SAT-55405,224.65396158063967,45.69389694958868,1482.3800128831147,-6.324568703034486,221513.14887935607,10.5,10500221513.14888,47.655,-122.3035,60.0,10.366666666666667
2026-01-20T23:10:23+00:00,SAT-55405,224.45412443646308,45.75699521275079,1476.0723096966215,-6.317915871958125,221280.1385936144,10.5,10500221280.138594,47.655,-122.3035,60.0,10.383333333333333
2026-01-20T23:10:24+00:00,SAT-55405,224.2523643819473,45.82005906722071,1469.7712416003221,-6.311169671360106,221043.8581122715,10.5,10500221043.858112,47.655,-122.3035,60.0,10.4
2026-01-20T23:10:25+00:00,SAT-55405,224.0486560116912,45.88308271044881,1463.476901714752,-6.304328636425781,220804.25613132236,10.5,10500220804.256132,47.655,-122.3035,60.0,10.416666666666666
2026-01-20T23:10:26+00:00,SAT-55405,223.8429735683047,45.946060141086875,1457.1893846213568,-6.29739125240994,220561.27959798233,10.5,10500220561.279598,47.655,-122.3035,60.0,10.433333333333334
2026-01-20T23:10:27+00:00,SAT-55405,223.6352909401133,46.008985152736535,1450.9087864122869,-6.290355998469502,220314.87524589352,10.5,10500220314.875246,47.655,-122.3035,60.0,10.45
2026-01-20T23:10:28+00:00,SAT-55405,223.42558165770234,46.07185132803728,1444.6352046964798,-6.283221259520922,220064.9865079984,10.5,10500220064.986507,47.655,-122.3035,60.0,10.466666666666667
2026-01-20T23:10:29+00:00,SAT-55405,223.21381889323243,46.13465203159887,1438.368738693651,-6.275985494437049,219811.55940750524,10.5,10500219811.559408,47.655,-122.3035,60.0,10.483333333333333
2026-01-20T23:10:30+00:00,SAT-55405,222.99997545474102,46.19738040462708,1432.1094891605323,-6.268647045023835,219554.5358674442,10.5,10500219554.535868,47.655,-122.3035,60.0,10.5
2026-01-20T23:10:31+00:00,SAT-55405,222.78402378642193,46.26002935726005,1425.8575585076285,-6.26120428247402,219293.85884009534,10.5,10500219293.85884,47.655,-122.3035,60.0,10.516666666666667
2026-01-20T23:10:32+00:00,SAT-55405,222.56593596455724,46.32259156235486,1419.6130507699079,-6.253655486949041,219029.46808943717,10.5,10500219029.46809,47.655,-122.3035,60.0,10.533333333333333
