satellites_20260121_005943/SAT-52451.csv

timestamp,satellite,azimuth_deg,elevation_deg,distance_km,relative_velocity_kms,doppler_shift_hz,tx_freq_ghz,rx_freq_hz,ue_lat,ue_lon,ue_alt_m,time_minutes
2026-01-20T23:03:44+00:00,SAT-52451,163.1930050835749,30.34226811969381,757.5920955610483,-4.4315117511492526,155210.2868013683,10.5,10500155210.286802,47.655,-122.3035,60.0,3.7333333333333334
2026-01-20T23:03:45+00:00,SAT-52451,163.00621222941996,30.753401014635152,753.1724011745687,-4.392440661659968,153841.85197690886,10.5,10500153841.851976,47.655,-122.3035,60.0,3.75
2026-01-20T23:03:46+00:00,SAT-52451,162.8159813180516,31.168831229747504,748.7916736880064,-4.352675240637268,152449.09872512973,10.5,10500152449.098724,47.655,-122.3035,60.0,3.7666666666666666
2026-01-20T23:03:47+00:00,SAT-52451,162.62220693792946,31.588583442250805,744.4506055813442,-4.3122055670085775,151031.67956810328,10.5,10500151031.679567,47.655,-122.3035,60.0,3.783333333333333
2026-01-20T23:03:48+00:00,SAT-52451,162.42477946802157,32.01268052299299,740.149899229181,-4.271021856102172,149589.25180523656,10.5,10500149589.251804,47.655,-122.3035,60.0,3.8
2026-01-20T23:03:49+00:00,SAT-52451,162.22358487102753,32.44114340934345,735.8902667646952,-4.229114372794833,148121.47447133492,10.5,10500148121.474472,47.655,-122.3035,60.0,3.816666666666667
2026-01-20T23:03:50+00:00,SAT-52451,162.0185044799585,32.873990962362555,731.6724300302277,-4.186473588843088,146628.01384700756,10.5,10500146628.013847,47.655,-122.3035,60.0,3.8333333333333335
2026-01-20T23:03:51+00:00,SAT-52451,161.80941476580117,33.31123983166222,727.4971203709549,-4.143090056858061,145108.53904473354,10.5,10500145108.539045,47.655,-122.3035,60.0,3.85
2026-01-20T23:03:52+00:00,SAT-52451,161.59618709934065,33.752904300068586,723.3650785542484,-4.098954529428359,143562.72618104945,10.5,10500143562.726181,47.655,-122.3035,60.0,3.8666666666666667
2026-01-20T23:03:53+00:00,SAT-52451,161.37868749428597,34.19899613184123,719.2770545702319,-4.054057953761033,141990.25818885292,10.5,10500141990.258188,47.655,-122.3035,60.0,3.8833333333333333
2026-01-20T23:03:54+00:00,SAT-52451,161.15677633699025,34.64952441220882,715.2338074376809,-4.008391481449433,140390.82515951432,10.5,10500140390.82516,47.655,-122.3035,60.0,3.9
2026-01-20T23:03:55+00:00,SAT-52451,160.9303081012605,35.10449537919295,711.2361050001821,-3.9619465094556614,138764.12577825572,10.5,10500138764.125778,47.655,-122.3035,60.0,3.9166666666666665
2026-01-20T23:03:56+00:00,SAT-52451,160.69913104562116,35.56391225094576,707.2847236814182,-3.914714692064043,137109.86774281177,10.5,10500137109.867743,47.655,-122.3035,60.0,3.933333333333333
2026-01-20T23:03:57+00:00,SAT-52451,160.46308689362095,36.0277750451929,703.380448228533,-3.8666879600440454,135427.76843459642,10.5,10500135427.768435,47.655,-122.3035,60.0,3.95
2026-01-20T23:03:58+00:00,SAT-52451,160.22201049583876,36.49608039129247,699.5240714363824,-3.8178586182294985,133717.55833633992,10.5,10500133717.558336,47.655,-122.3035,60.0,3.966666666666667
2026-01-20T23:03:59+00:00,SAT-52451,159.9757294673467,36.9688213441087,695.7163937744682,-3.768219241839602,131978.9774008118,10.5,10500131978.977402,47.655,-122.3035,60.0,3.9833333333333334
2026-01-20T23:04:00+00:00,SAT-52451,159.7240638122106,37.44598717573807,691.9582231172735,-3.717762823883618,130211.78021355689,10.5,10500130211.780214,47.655,-122.3035,60.0,4.0
2026-01-20T23:04:01+00:00,SAT-52451,159.4668255178571,37.92756317442161,688.250374327587,-3.6664827434897624,128415.73488363909,10.5,10500128415.734884,47.655,-122.3035,60.0,4.016666666666667
2026-01-20T23:04:02+00:00,SAT-52451,159.20381812932638,38.41353042945422,684.5936688714132,-3.614372842588836,126590.62572942636,10.5,10500126590.625729,47.655,-122.3035,60.0,4.033333333333333
2026-01-20T23:04:03+00:00,SAT-52451,158.93483629457685,38.903865615068035,680.9889343564046,-3.5614273793556928,124736.25164791428,10.5,10500124736.251648,47.655,-122.3035,60.0,4.05
2026-01-20T23:04:04+00:00,SAT-52451,158.6596652883451,39.39854075740041,677.4370041167272,-3.5076411355824964,122852.42987539136,10.5,10500122852.429876,47.655,-122.3035,60.0,4.066666666666666
2026-01-20T23:04:05+00:00,SAT-52451,158.37808050160868,39.897523004068404,673.9387166908396,-3.4530094423993307,120938.99688828386,10.5,10500120938.99689,47.655,-122.3035,60.0,4.083333333333333
2026-01-20T23:04:06+00:00,SAT-52451,158.08984690047697,40.40077438637831,670.4949152736199,-3.397528165679658,118995.80789199308,10.5,10500118995.807892,47.655,-122.3035,60.0,4.1
2026-01-20T23:04:07+00:00,SAT-52451,157.79471845628763,40.90825156777677,667.1064471830488,-3.3411937525316247,117022.73844921762,10.5,10500117022.73845,47.655,-122.3035,60.0,4.116666666666666
2026-01-20T23:04:08+00:00,SAT-52451,157.4924375404246,41.41990558663975,663.7741632805238,-3.284003318890887,115019.68754782455,10.5,10500115019.687548,47.655,-122.3035,60.0,4.133333333333334
2026-01-20T23:04:09+00:00,SAT-52451,157.18273427745808,41.935681599754254,660.4989173038167,-3.2259546285165173,112986.5768651973,10.5,10500112986.576866,47.655,-122.3035,60.0,4.15
2026-01-20T23:04:10+00:00,SAT-52451,156.86532586409214,42.45551861071578,657.2815652209763,-3.167046132316419,110923.35214557798,10.5,10500110923.352146,47.655,-122.3035,60.0,4.166666666666667
2026-01-20T23:04:11+00:00,SAT-52451,156.5399158466436,42.97934919134267,654.1229645450127,-3.1072770218088657,108829.9850725167,10.5,10500108829.985073,47.655,-122.3035,60.0,4.183333333333334
2026-01-20T23:04:12+00:00,SAT-52451,156.20619335305847,43.50709919858345,651.023973595262,-3.0466472632146506,106706.47446292272,10.5,10500106706.474463,47.655,-122.3035,60.0,4.2
2026-01-20T23:04:13+00:00,SAT-52451,155.86383227858826,44.038687483891444,647.9854507247493,-2.985157606090719,104552.84656945089,10.5,10500104552.84657,47.655,-122.3035,60.0,4.216666666666667
2026-01-20T23:04:14+00:00,SAT-52451,155.51249042560752,44.57402559063615,645.0082535389414,-2.9228096473174556,102369.15732160707,10.5,10500102369.157322,47.655,-122.3035,60.0,4.233333333333333
2026-01-20T23:04:15+00:00,SAT-52451,155.15180858879847,45.113017448469094,642.0932380506835,-2.8596058365793215,100155.49251770329,10.5,10500100155.492517,47.655,-122.3035,60.0,4.25
2026-01-20T23:04:16+00:00,SAT-52451,154.78140958964136,45.65555905476623,639.2412578296684,-2.7955495403638313,97911.97006637248,10.5,10500097911.970066,47.655,-122.3035,60.0,4.266666666666667
2026-01-20T23:04:17+00:00,SAT-52451,154.4008972503369,46.201538153071596,636.4531630880789,-2.730645030656074,95638.73959060297,10.5,10500095638.73959,47.655,-122.3035,60.0,4.283333333333333
2026-01-20T23:04:18+00:00,SAT-52451,154.00985531420116,46.75083389497023,633.7297997775045,-2.6648975642382777,93335.98520514455,10.5,10500093335.985205,47.655,-122.3035,60.0,4.3
2026-01-20T23:04:19+00:00,SAT-52451,153.60784629756762,47.30331650159033,631.0720086067709,-2.598313373831919,91003.9252062677,10.5,10500091003.925207,47.655,-122.3035,60.0,4.316666666666666
2026-01-20T23:04:20+00:00,SAT-52451,153.19441028272712,47.858846908460364,628.4806240686024,-2.530899682736232,88642.81258446613,10.5,10500088642.812584,47.655,-122.3035,60.0,4.333333333333333
2026-01-20T23:04:21+00:00,SAT-52451,152.76906364716916,48.417276396611506,625.9564734516869,-2.462664811894994,86252.93877438852,10.5,10500086252.938774,47.655,-122.3035,60.0,4.35
2026-01-20T23:04:22+00:00,SAT-52451,152.3312977110478,48.97844622994395,623.500375745957,-2.3936180697243907,83834.62979614417,10.5,10500083834.629797,47.655,-122.3035,60.0,4.366666666666666
2026-01-20T23:04:23+00:00,SAT-52451,151.88057733751654,49.542187252135,621.1131406577518,-2.323769917982478,81388.25206475347,10.5,10500081388.252066,47.655,-122.3035,60.0,4.383333333333334
2026-01-20T23:04:24+00:00,SAT-52451,151.41633943734342,50.1083195020957,618.7955674595506,-2.253131879552582,78914.20916033222,10.5,10500078914.20916,47.655,-122.3035,60.0,4.4
2026-01-20T23:04:25+00:00,SAT-52451,150.93799142225598,50.67665179126784,616.5484439316768,-2.181716603943802,76412.94412219644,10.5,10500076412.944122,47.655,-122.3035,60.0,4.416666666666667
2026-01-20T23:04:26+00:00,SAT-52451,150.4449095795177,51.24698127681168,614.3725452386769,-2.1095378748814038,73884.93971471002,10.5,10500073884.939714,47.655,-122.3035,60.0,4.433333333333334
2026-01-20T23:04:27+00:00,SAT-52451,149.93643737886174,51.81909301733932,612.2686327981286,-2.0366106223265947,71330.71884826818,10.5,10500071330.71885,47.655,-122.3035,60.0,4.45
2026-01-20T23:04:28+00:00,SAT-52451,149.4118837135606,52.39275951194954,610.2374531374614,-1.962950912098933,68750.84421583013,10.5,10500068750.844215,47.655,-122.3035,60.0,4.466666666666667
2026-01-20T23:04:29+00:00,SAT-52451,148.87052108568005,52.967740215502324,608.2797367611281,-1.8885759764221133,66145.91936276191,10.5,10500066145.919363,47.655,-122.3035,60.0,4.483333333333333
2026-01-20T23:04:30+00:00,SAT-52451,148.3115837314627,53.543781040662246,606.3961969873098,-1.8135041856358185,63516.587696065704,10.5,10500063516.587696,47.655,-122.3035,60.0,4.5
2026-01-20T23:04:31+00:00,SAT-52451,147.7342657111322,54.12061382998509,604.5875288128357,-1.7377550731011586,60863.533356673586,10.5,10500060863.533358,47.655,-122.3035,60.0,4.516666666666667
2026-01-20T23:04:32+00:00,SAT-52451,147.13771896033876,54.697955812511246,602.8544077532628,-1.6613492933506755,58187.47975368377,10.5,10500058187.479753,47.655,-122.3035,60.0,4.533333333333333
2026-01-20T23:04:33+00:00,SAT-52451,146.5210513395065,55.275509024224135,601.1974887246944,-1.5843086572548677,55489.19079604101,10.5,10500055489.190796,47.655,-122.3035,60.0,4.55
2026-01-20T23:04:34+00:00,SAT-52451,145.8833246760105,55.85295971649689,599.6174048905254,-1.5066560643651765,52769.46852290178,10.5,10500052769.468523,47.655,-122.3035,60.0,4.566666666666666
2026-01-20T23:04:35+00:00,SAT-52451,145.22355286097022,56.429977718850516,598.1147665756654,-1.428415522087213,50029.1537751618,10.5,10500050029.153774,47.655,-122.3035,60.0,4.583333333333333
2026-01-20T23:04:36+00:00,SAT-52451,144.54070000267927,57.00621578455787,596.690160161637,-1.349612104099742,47269.12473911299,10.5,10500047269.124739,47.655,-122.3035,60.0,4.6
2026-01-20T23:04:37+00:00,SAT-52451,143.83367869940378,57.581308899451905,595.3441470231483,-1.2702719322902636,44490.29631375105,10.5,10500044490.296314,47.655,-122.3035,60.0,4.616666666666666
2026-01-20T23:04:38+00:00,SAT-52451,143.101348471959,58.15487356322545,594.0772624826774,-1.1904221266498805,41693.618355881874,10.5,10500041693.618357,47.655,-122.3035,60.0,4.633333333333334
2026-01-20T23:04:39+00:00,SAT-52451,142.34251443363303,58.72650703173677,592.8900148150319,-1.1100907971970515,38880.075397257126,10.5,10500038880.075397,47.655,-122.3035,60.0,4.65
2026-01-20T23:04:40+00:00,SAT-52451,141.55592624731625,59.295786541516655,591.7828842599607,-1.0293069717854797,36050.6841161012,10.5,10500036050.684116,47.655,-122.3035,60.0,4.666666666666667
2026-01-20T23:04:41+00:00,SAT-52451,140.74027749588942,59.86226849168957,590.7563221067667,-0.9481005781213928,33206.49270728027,10.5,10500033206.492708,47.655,-122.3035,60.0,4.683333333333334
2026-01-20T23:04:42+00:00,SAT-52451,139.8942055379295,60.42548761376517,589.8107497968537,-0.8665023791392077,30348.578618884672,10.5,10500030348.578619,47.655,-122.3035,60.0,4.7
2026-01-20T23:04:43+00:00,SAT-52451,139.01629200367395,60.98495611457414,588.9465580907255,-0.7845439260230894,27478.046906845262,10.5,10500027478.046907,47.655,-122.3035,60.0,4.716666666666667
2026-01-20T23:04:44+00:00,SAT-52451,138.10506406685016,61.540162810146036,588.1641062818384,-0.7022575058657816,24596.028401724194,10.5,10500024596.028402,47.655,-122.3035,60.0,4.733333333333333
2026-01-20T23:04:45+00:00,SAT-52451,137.15899666454672,62.0905722611104,587.4637214626549,-0.6196760712435748,21703.67724213241,10.5,10500021703.677242,47.655,-122.3035,60.0,4.75
2026-01-20T23:04:46+00:00,SAT-52451,136.17651588235748,62.63562391399957,586.8456978609347,-0.5368331920868791,18802.169189033535,10.5,10500018802.16919,47.655,-122.3035,60.0,4.766666666666667
2026-01-20T23:04:47+00:00,SAT-52451,135.1560037036419,63.17473128295756,586.3102962240267,-0.4537629814368116,15892.699025425522,10.5,10500015892.699026,47.655,-122.3035,60.0,4.783333333333333
2026-01-20T23:04:48+00:00,SAT-52451,134.09580440454752,63.707281180794006,585.857743277207,-0.370500027997191,12976.478194026167,10.5,10500012976.478193,47.655,-122.3035,60.0,4.8
2026-01-20T23:04:49+00:00,SAT-52451,132.9942328740518,64.23263303208678,585.4882312492845,-0.28707932782700596,10054.732404854436,10.5,10500010054.732405,47.655,-122.3035,60.0,4.816666666666666
2026-01-20T23:04:50+00:00,SAT-52451,131.84958516620767,64.75011830699775,585.2019174663318,-0.20353621228654054,7128.699111598984,10.5,10500007128.699112,47.655,-122.3035,60.0,4.833333333333333
2026-01-20T23:04:51+00:00,SAT-52451,130.66015162332923,65.25904011638046,584.9989240172779,-0.11990627440878149,4199.624932833385,10.5,10500004199.624933,47.655,-122.3035,60.0,4.85
2026-01-20T23:04:52+00:00,SAT-52451,129.4242329137194,65.75867302265223,584.8793374929342,-0.03622529008990557,1268.7628917736433,10.5,10500001268.762892,47.655,-122.3035,60.0,4.866666666666666
2026-01-20T23:04:53+00:00,SAT-52451,128.14015936616047,66.24826311587748,584.8432088036178,0.04747085331013435,-1662.6300844313125,10.5,10499998337.369915,47.655,-122.3035,60.0,4.883333333333334
2026-01-20T23:04:54+00:00,SAT-52451,126.80631390326623,66.72702844188206,584.8905530679859,0.13114623625700833,-4593.295941749767,10.5,10499995406.704058,47.655,-122.3035,60.0,4.9
2026-01-20T23:04:55+00:00,SAT-52451,125.42115891684372,67.19415984813006,585.0213495809461,0.21476498394112367,-7521.978192599489,10.5,10499992478.021807,47.655,-122.3035,60.0,4.916666666666667
2026-01-20T23:04:56+00:00,SAT-52451,123.98326730242576,67.6488223462928,585.2355418582634,0.29829134125782836,-10447.424541971626,10.5,10499989552.575459,47.655,-122.3035,60.0,4.933333333333334
2026-01-20T23:04:57+00:00,SAT-52451,122.49135783860612,68.09015707519,585.5330377559446,0.38168975147068335,-13368.389642551232,10.5,10499986631.610357,47.655,-122.3035,60.0,4.95
2026-01-20T23:04:58+00:00,SAT-52451,120.94433485349003,68.51728398518937,585.913709668078,0.4649249259094839,-16283.637535836813,10.5,10499983716.362465,47.655,-122.3035,60.0,4.966666666666667
2026-01-20T23:04:59+00:00,SAT-52451,119.34133205187483,68.92930532829332,586.3773947941851,0.5479619293899324,-19191.94464389858,10.5,10499980808.055357,47.655,-122.3035,60.0,4.983333333333333
2026-01-20T23:05:00+00:00,SAT-52451,117.68175996669358,69.32531008076819,586.9238954917633,0.6307662328058717,-22092.101611380942,10.5,10499977907.898388,47.655,-122.3035,60.0,5.0
2026-01-20T23:05:01+00:00,SAT-52451,115.96535640946463,69.70437935826774,587.5529796812817,0.7133038028563745,-24982.9164481247,10.5,10499975017.083551,47.655,-122.3035,60.0,5.016666666666667
2026-01-20T23:05:02+00:00,SAT-52451,114.19223865069878,70.0655929369704,588.2643813406638,0.7955411617012152,-27863.21661855403,10.5,10499972136.78338,47.655,-122.3035,60.0,5.033333333333333
2026-01-20T23:05:03+00:00,SAT-52451,112.36295592325139,70.40803690082896,589.0578010592671,0.8774454460480252,-30731.851111158594,10.5,10499969268.14889,47.655,-122.3035,60.0,5.05
2026-01-20T23:05:04+00:00,SAT-52451,110.4785402857344,70.73081243256242,589.9329066507923,0.9589844752550114,-33587.69282373881,10.5,10499966412.307177,47.655,-122.3035,60.0,5.066666666666666
2026-01-20T23:05:05+00:00,SAT-52451,108.54055347480424,71.03304571285567,590.8893338341135,1.0401268148969254,-36429.640789755016,10.5,10499963570.359211,47.655,-122.3035,60.0,5.083333333333333
2026-01-20T23:05:06+00:00,SAT-52451,106.55112706564421,71.31389882240525,591.9266869775039,1.1208418235693096,-39256.62181761007,10.5,10499960743.378181,47.655,-122.3035,60.0,5.1
2026-01-20T23:05:07+00:00,SAT-52451,104.51299304575186,71.5725814699588,593.0445398895437,1.2010997024253125,-42067.59222563825,10.5,10499957932.407774,47.655,-122.3035,60.0,5.116666666666666
2026-01-20T23:05:08+00:00,SAT-52451,102.42950179369349,71.80836330073403,594.2424366594292,1.2808715543454292,-44861.53991447979,10.5,10499955138.460085,47.655,-122.3035,60.0,5.133333333333334
2026-01-20T23:05:09+00:00,SAT-52451,100.30462461288217,72.0205864609016,595.5198925562964,1.360129428404191,-47637.48592449249,10.5,10499952362.514076,47.655,-122.3035,60.0,5.15
2026-01-20T23:05:10+00:00,SAT-52451,98.14293843968446,72.20867801778775,596.8763949728916,1.438846332165144,-50394.48486637382,10.5,10499949605.515133,47.655,-122.3035,60.0,5.166666666666667
2026-01-20T23:05:11+00:00,SAT-52451,95.94959107841548,72.3721617811002,598.3114043815042,1.5169963106583289,-53131.627687286425,10.5,10499946868.372313,47.655,-122.3035,60.0,5.183333333333334
2026-01-20T23:05:12+00:00,SAT-52451,93.73024613262405,72.51066904992875,599.8243553686674,1.5945544434848256,-55848.04156944691,10.5,10499944151.958431,47.655,-122.3035,60.0,5.2
2026-01-20T23:05:13+00:00,SAT-52451,91.49100824648876,72.62394778653591,601.4146576669697,1.6714968924246212,-58542.89159755487,10.5,10499941457.108402,47.655,-122.3035,60.0,5.216666666666667
2026-01-20T23:05:14+00:00,SAT-52451,89.23833035997306,72.71186976896114,603.0816972343478,1.7478009101711292,-61215.38106471263,10.5,10499938784.618935,47.655,-122.3035,60.0,5.233333333333333
2026-01-20T23:05:15+00:00,SAT-52451,86.97890613045494,72.77443533292795,604.8248373420919,1.8234448639392684,-63864.752299280044,10.5,10499936135.247702,47.655,-122.3035,60.0,5.25
2026-01-20T23:05:16+00:00,SAT-52451,84.71955173591245,72.81177542169493,606.6434196863939,1.8984082661323314,-66490.287738958,10.5,10499933509.712261,47.655,-122.3035,60.0,5.266666666666667
2026-01-20T23:05:17+00:00,SAT-52451,82.4670821533313,72.82415079008173,608.5367655304832,1.9726717565578542,-69091.30930791284,10.5,10499930908.690693,47.655,-122.3035,60.0,5.283333333333333
2026-01-20T23:05:18+00:00,SAT-52451,80.22818752759851,72.81194835442582,610.5041768290237,2.046217135227735,-71667.1795655754,10.5,10499928332.820435,47.655,-122.3035,60.0,5.3
2026-01-20T23:05:19+00:00,SAT-52451,78.00931511683059,72.77567483026534,612.544937385224,2.119027339303608,-74217.30089917032,10.5,10499925782.6991,47.655,-122.3035,60.0,5.316666666666666
2026-01-20T23:05:20+00:00,SAT-52451,75.81656196741106,72.715947935266,614.6583139849562,2.1910864781730277,-76741.11675223261,10.5,10499923258.883247,47.655,-122.3035,60.0,5.333333333333333
2026-01-20T23:05:21+00:00,SAT-52451,73.65558247658588,72.63348554790599,616.8435575658541,2.2623797975427298,-79238.1103670015,10.5,10499920761.889633,47.655,-122.3035,60.0,5.35
2026-01-20T23:05:22+00:00,SAT-52451,71.53151399022418,72.52909329524869,619.0999043506033,2.3328936787139023,-81707.80475903758,10.5,10499918292.19524,47.655,-122.3035,60.0,5.366666666666666
2026-01-20T23:05:23+00:00,SAT-52451,69.44892216124629,72.40365108531046,621.4265769795073,2.402615644404105,-84149.76292113094,10.5,10499915850.23708,47.655,-122.3035,60.0,5.383333333333334
2026-01-20T23:05:24+00:00,SAT-52451,67.41176652024939,72.25809910357434,623.8227856488597,2.4715343277315007,-86563.58673699775,10.5,10499913436.413263,47.655,-122.3035,60.0,5.4
2026-01-20T23:05:25+00:00,SAT-52451,65.42338555857368,72.09342376832531,626.2877292183839,2.53963945716304,-88948.91645410212,10.5,10499911051.083546,47.655,-122.3035,60.0,5.416666666666667
2026-01-20T23:05:26+00:00,SAT-52451,63.486499595709766,71.91064408079978,628.8205963036612,2.6069218458685275,-91305.43031079033,10.5,10499908694.569689,47.655,-122.3035,60.0,5.433333333333334
2026-01-20T23:05:27+00:00,SAT-52451,61.603229013336836,71.71079873205531,631.4205663579407,2.6733733709748355,-93632.84380968573,10.5,10499906367.15619,47.655,-122.3035,60.0,5.45
2026-01-20T23:05:28+00:00,SAT-52451,59.77512502934295,71.49493424543344,634.0868107332597,2.7389869390319914,-95930.90850816504,10.5,10499904069.091492,47.655,-122.3035,60.0,5.466666666666667
2026-01-20T23:05:29+00:00,SAT-52451,58.00321002993517,71.26409434839601,636.8184937071209,2.8037564742190475,-98199.41160527794,10.5,10499901800.588394,47.655,-122.3035,60.0,5.483333333333333
2026-01-20T23:05:30+00:00,SAT-52451,56.28802452129531,71.01931068350639,639.6147734974087,2.867676864729564,-100438.17406394,10.5,10499899561.825935,47.655,-122.3035,60.0,5.5
2026-01-20T23:05:31+00:00,SAT-52451,54.62967804319603,70.76159490280693,642.4748032238323,2.9307439873018506,-102647.05147008545,10.5,10499897352.94853,47.655,-122.3035,60.0,5.516666666666667
2026-01-20T23:05:32+00:00,SAT-52451,53.02790166001304,70.49193211978131,645.3977318938347,2.992954599140955,-104825.93024731806,10.5,10499895174.069752,47.655,-122.3035,60.0,5.533333333333333
2026-01-20T23:05:33+00:00,SAT-52451,51.482100177045794,70.21127566728818,648.3827052807113,3.054306411418672,-106974.73023119233,10.5,10499893025.26977,47.655,-122.3035,60.0,5.55
2026-01-20T23:05:34+00:00,SAT-52451,49.9914024685665,69.92054304752698,651.4288668750328,3.114797927853798,-109093.39901561127,10.5,10499890906.600985,47.655,-122.3035,60.0,5.566666666666666
2026-01-20T23:05:35+00:00,SAT-52451,48.55470893419225,69.62061297934929,654.535358675079,3.174428529829035,-111181.91493398031,10.5,10499888818.085066,47.655,-122.3035,60.0,5.583333333333333
2026-01-20T23:05:36+00:00,SAT-52451,47.17073520527856,69.31232339053861,657.7013220621619,3.233198378154901,-113240.28361856408,10.5,10499886759.716381,47.655,-122.3035,60.0,5.6
2026-01-20T23:05:37+00:00,SAT-52451,45.8380517547727,68.9964702423239,660.925898577975,3.291108383965,-115268.53698111545,10.5,10499884731.463018,47.655,-122.3035,60.0,5.616666666666666
2026-01-20T23:05:38+00:00,SAT-52451,44.55511918170802,68.67380705148584,664.2082306729161,3.3481602104757373,-117266.73327450834,10.5,10499882733.266726,47.655,-122.3035,60.0,5.633333333333334
2026-01-20T23:05:39+00:00,SAT-52451,43.32031916417191,68.34504498696327,667.5474624561639,3.4043561975820023,-119234.9544517595,10.5,10499880765.045547,47.655,-122.3035,60.0,5.65
2026-01-20T23:05:40+00:00,SAT-52451,42.13198125927933,68.01085343888528,670.9427403705523,3.459699340208659,-121173.30540780623,10.5,10499878826.694592,47.655,-122.3035,60.0,5.666666666666667
2026-01-20T23:05:41+00:00,SAT-52451,40.98840577379317,67.6718609565782,674.3932138458538,3.5141932671921117,-123081.91323984932,10.5,10499876918.08676,47.655,-122.3035,60.0,5.683333333333334
2026-01-20T23:05:42+00:00,SAT-52451,39.88788301687369,67.32865646944788,677.898035931,3.5678421945719805,-124960.92561143015,10.5,10499875039.074389,47.655,-122.3035,60.0,5.7
2026-01-20T23:05:43+00:00,SAT-52451,38.828709287358116,66.98179071989146,681.4563638797199,3.6206508996306055,-126810.50984318412,10.5,10499873189.490156,47.655,-122.3035,60.0,5.716666666666667
2026-01-20T23:05:44+00:00,SAT-52451,37.80919994367711,66.63177784347096,685.0673597102848,3.67262467391016,-128630.85126730133,10.5,10499871369.148733,47.655,-122.3035,60.0,5.733333333333333
2026-01-20T23:05:45+00:00,SAT-52451,36.827699913381686,66.27909704697264,688.7301907183978,3.7237693045553937,-130422.15257407054,10.5,10499869577.847425,47.655,-122.3035,60.0,5.75
2026-01-20T23:05:46+00:00,SAT-52451,35.882591969245425,65.92419433877173,692.4440299714744,3.7740910573307094,-132184.63321706527,10.5,10499867815.366783,47.655,-122.3035,60.0,5.766666666666667
2026-01-20T23:05:47+00:00,SAT-52451,34.97230308503014,65.56748427759479,696.2080567859856,3.8235965922240394,-133918.52645723466,10.5,10499866081.473543,47.655,-122.3035,60.0,5.783333333333333
2026-01-20T23:05:48+00:00,SAT-52451,34.09530917244823,65.20935171901469,700.0214571206303,3.872293016702442,-135624.08122813964,10.5,10499864375.918772,47.655,-122.3035,60.0,5.8
2026-01-20T23:05:49+00:00,SAT-52451,33.25013842231656,64.85015352546333,703.8834240226216,3.920187741839648,-137301.55709693106,10.5,10499862698.442904,47.655,-122.3035,60.0,5.816666666666666
2026-01-20T23:05:50+00:00,SAT-52451,32.435373523524966,64.49022024302039,707.793157930483,3.9672885746984834,-138951.2274999729,10.5,10499861048.7725,47.655,-122.3035,60.0,5.833333333333333
2026-01-20T23:05:51+00:00,SAT-52451,31.64965290578206,64.12985771068416,711.7498670689822,4.013603605906923,-140573.37580528023,10.5,10499859426.624195,47.655,-122.3035,60.0,5.85
2026-01-20T23:05:52+00:00,SAT-52451,30.891671225221582,63.76934861358707,715.7527677319401,4.059141245580479,-142168.296570673,10.5,10499857831.70343,47.655,-122.3035,60.0,5.866666666666666
2026-01-20T23:05:53+00:00,SAT-52451,30.160179210327133,63.40895396095515,719.8010846008657,4.103910102346575,-143736.29130669803,10.5,10499856263.708693,47.655,-122.3035,60.0,5.883333333333334
2026-01-20T23:05:54+00:00,SAT-52451,29.453983025401513,63.04891450006887,723.8940509429393,4.147919099614044,-145277.67254887868,10.5,10499854722.327452,47.655,-122.3035,60.0,5.9
2026-01-20T23:05:55+00:00,SAT-52451,28.77194321640078,62.68945204339997,728.0309089249545,4.191177287995956,-146792.75728796865,10.5,10499853207.242712,47.655,-122.3035,60.0,5.916666666666667
2026-01-20T23:05:56+00:00,SAT-52451,28.112973383378435,62.33077073648312,732.2109097401824,4.233693991399541,-148281.87208663928,10.5,10499851718.127913,47.655,-122.3035,60.0,5.933333333333334
2026-01-20T23:05:57+00:00,SAT-52451,27.4760385986415,61.973058237725844,736.4333138809383,4.275478614527412,-149745.3463373579,10.5,10499850254.653662,47.655,-122.3035,60.0,5.95
2026-01-20T23:05:58+00:00,SAT-52451,26.860153688515165,61.616486842052836,740.6973912191602,4.316540785966077,-151183.51727395295,10.5,10499848816.482725,47.655,-122.3035,60.0,5.966666666666667
2026-01-20T23:05:59+00:00,SAT-52451,26.264381378081154,61.26121452153003,745.0024212296971,4.3568902139703205,-152596.72492057277,10.5,10499847403.27508,47.655,-122.3035,60.0,5.983333333333333
2026-01-20T23:06:00+00:00,SAT-52451,25.687830384912495,60.90738591063095,749.3476930697635,4.39653670807474,-153985.31284861334,10.5,10499846014.687151,47.655,-122.3035,60.0,6.0
2026-01-20T23:06:01+00:00,SAT-52451,25.129653470477358,60.55513322499098,753.73250567995,4.4354901926596595,-155349.62865185362,10.5,10499844650.371347,47.655,-122.3035,60.0,6.016666666666667
2026-01-20T23:06:02+00:00,SAT-52451,24.58904547955706,60.204577117687634,758.1561678987625,4.473760659576911,-156690.02228721033,10.5,10499843309.977713,47.655,-122.3035,60.0,6.033333333333333
2026-01-20T23:06:03+00:00,SAT-52451,24.0652413972036,59.855827481547585,762.617998529914,4.511358133507928,-158006.84486143157,10.5,10499841993.155138,47.655,-122.3035,60.0,6.05
2026-01-20T23:06:04+00:00,SAT-52451,23.55751443799426,59.50898419942429,767.1173263750659,4.548292712311564,-159300.45004424834,10.5,10499840699.549955,47.655,-122.3035,60.0,6.066666666666666
2026-01-20T23:06:05+00:00,SAT-52451,23.065174172213144,59.16413783995773,771.6534903068111,4.584574469976862,-160571.19066936985,10.5,10499839428.80933,47.655,-122.3035,60.0,6.083333333333333
2026-01-20T23:06:06+00:00,SAT-52451,22.587564714456363,58.82137031260523,776.2258392448681,4.620213569353691,-161819.4226827873,10.5,10499838180.577316,47.655,-122.3035,60.0,6.1
2026-01-20T23:06:07+00:00,SAT-52451,22.12406295909143,58.480755468910786,780.8337322447036,4.65522007515875,-163045.49859345323,10.5,10499836954.501406,47.655,-122.3035,60.0,6.116666666666666
2026-01-20T23:06:08+00:00,SAT-52451,21.67407689897736,58.14235967576001,785.4765383996619,4.689604125045268,-164249.77346486584,10.5,10499835750.226536,47.655,-122.3035,60.0,6.133333333333334
2026-01-20T23:06:09+00:00,SAT-52451,21.237043994067037,57.80624233627812,790.153636913707,4.72337576956725,-165432.59930994036,10.5,10499834567.40069,47.655,-122.3035,60.0,6.15
2026-01-20T23:06:10+00:00,SAT-52451,20.81242962490813,57.4724563859035,794.8644170145554,4.756545093370475,-166594.32933562988,10.5,10499833405.670664,47.655,-122.3035,60.0,6.166666666666667
2026-01-20T23:06:11+00:00,SAT-52451,20.3997256047464,57.14104874528768,799.608277987677,4.789122055873715,-167735.3123629081,10.5,10499832264.687637,47.655,-122.3035,60.0,6.183333333333334
2026-01-20T23:06:12+00:00,SAT-52451,19.998448775455667,56.812060752785726,804.3846290514016,4.821116624106078,-168855.8974792949,10.5,10499831144.10252,47.655,-122.3035,60.0,6.2
2026-01-20T23:06:13+00:00,SAT-52451,19.60813966065734,56.48552855763497,809.19288936451,4.852538675542508,-169956.43063574447,10.5,10499830043.569365,47.655,-122.3035,60.0,6.216666666666667
2026-01-20T23:06:14+00:00,SAT-52451,19.228361194650002,56.161483492398915,814.0324879369178,4.883398047306057,-171037.2563699171,10.5,10499828962.74363,47.655,-122.3035,60.0,6.233333333333333
2026-01-20T23:06:15+00:00,SAT-52451,18.858697512920102,55.83995241626872,818.902863589431,4.91370443782216,-172098.71436169578,10.5,10499827901.285639,47.655,-122.3035,60.0,6.25
2026-01-20T23:06:16+00:00,SAT-52451,18.49875281352224,55.52095804103889,823.803464815419,4.943467550998796,-173141.14448298546,10.5,10499826858.855516,47.655,-122.3035,60.0,6.266666666666667
2026-01-20T23:06:17+00:00,SAT-52451,18.1481502689515,55.20451922513853,828.7337497862818,4.972696921982837,-174164.88069496327,10.5,10499825835.119305,47.655,-122.3035,60.0,6.283333333333333
2026-01-20T23:06:18+00:00,SAT-52451,17.806531009354067,54.890651258604905,833.6931861831395,5.001402046840835,-175170.25559004815,10.5,10499824829.74441,47.655,-122.3035,60.0,6.3
2026-01-20T23:06:19+00:00,SAT-52451,17.473553152550117,54.57936612017981,838.6812511578553,5.029592280517766,-176157.59681798448,10.5,10499823842.403181,47.655,-122.3035,60.0,6.316666666666666
2026-01-20T23:06:20+00:00,SAT-52451,17.14889089462244,54.27067272313358,843.6974311922917,5.057276925322154,-177127.23018496556,10.5,10499822872.769815,47.655,-122.3035,60.0,6.333333333333333
2026-01-20T23:06:21+00:00,SAT-52451,16.832233645578164,53.96457713882885,848.741222045813,5.084465116859077,-178079.47565852478,10.5,10499821920.524342,47.655,-122.3035,60.0,6.35
2026-01-20T23:06:22+00:00,SAT-52451,16.52328522066114,53.66108281189119,853.8121285890271,5.111165935207801,-179014.6512614467,10.5,10499820985.348738,47.655,-122.3035,60.0,6.366666666666666
2026-01-20T23:06:23+00:00,SAT-52451,16.22176307054314,53.36019075410234,858.9096647484076,5.137388281803389,-179933.06875964033,10.5,10499820066.93124,47.655,-122.3035,60.0,6.383333333333334
2026-01-20T23:06:24+00:00,SAT-52451,15.927397562327817,53.06189973233786,864.0333533281263,5.1631410365522115,-180835.03916498867,10.5,10499819164.960835,47.655,-122.3035,60.0,6.4
2026-01-20T23:06:25+00:00,SAT-52451,15.639931292537263,52.76620643466987,869.1827259885811,5.188432860340784,-181720.86581837304,10.5,10499818279.134182,47.655,-122.3035,60.0,6.416666666666667
2026-01-20T23:06:26+00:00,SAT-52451,15.359118450076371,52.47310563651974,874.3573230279609,5.213272348451821,-182590.84976295207,10.5,10499817409.150236,47.655,-122.3035,60.0,6.433333333333334
2026-01-20T23:06:27+00:00,SAT-52451,15.084724207068682,52.18259034694883,879.5566933168168,5.237667952256333,-183445.2870014879,10.5,10499816554.713,47.655,-122.3035,60.0,6.45
2026-01-20T23:06:28+00:00,SAT-52451,14.816524148650805,51.8946519494197,884.7803941545338,5.261628037561836,-184284.47053994695,10.5,10499815715.52946,47.655,-122.3035,60.0,6.466666666666667
2026-01-20T23:06:29+00:00,SAT-52451,14.554303732232102,51.60928032995226,890.0279911839955,5.285160769294861,-185108.686348594,10.5,10499814891.313652,47.655,-122.3035,60.0,6.483333333333333
2026-01-20T23:06:30+00:00,SAT-52451,14.297857783118147,51.32646400287216,895.2990581912389,5.30827426092825,-185918.21859556792,10.5,10499814081.781404,47.655,-122.3035,60.0,6.5
2026-01-20T23:06:31+00:00,SAT-52451,14.046990011622404,51.046190220184585,900.5931770541381,5.330976467811407,-186713.345910856,10.5,10499813286.654089,47.655,-122.3035,60.0,6.516666666666667
2026-01-20T23:06:32+00:00,SAT-52451,13.801512562613198,50.76844507924153,905.9099375847019,5.353275189258078,-187494.3414594166,10.5,10499812505.65854,47.655,-122.3035,60.0,6.533333333333333
2026-01-20T23:06:33+00:00,SAT-52451,13.561245590245024,50.493213623124205,911.2489373734553,5.375178161196575,-188261.47618618223,10.5,10499811738.523813,47.655,-122.3035,60.0,6.55
2026-01-20T23:06:34+00:00,SAT-52451,13.326016852765292,50.220479929527265,916.609781726222,5.396692916897887,-189015.01393816856,10.5,10499810984.986061,47.655,-122.3035,60.0,6.566666666666666
2026-01-20T23:06:35+00:00,SAT-52451,13.095661335904836,49.95022720083938,921.9920834620082,5.417826927079273,-189755.2163714951,10.5,10499810244.783628,47.655,-122.3035,60.0,6.583333333333333
2026-01-20T23:06:36+00:00,SAT-52451,12.870020891634606,49.68243784113537,927.3954628506152,5.438587510504857,-190482.3398202399,10.5,10499809517.66018,47.655,-122.3035,60.0,6.6
2026-01-20T23:06:37+00:00,SAT-52451,12.648943900671162,49.41709353253274,932.8195474610922,5.4589818219473,-191196.63487480613,10.5,10499808803.365126,47.655,-122.3035,60.0,6.616666666666666
2026-01-20T23:06:38+00:00,SAT-52451,12.432284954176506,49.154175306988094,938.2639719981809,5.479016930503573,-191898.34912487198,10.5,10499808101.650875,47.655,-122.3035,60.0,6.633333333333334
2026-01-20T23:06:39+00:00,SAT-52451,12.21990455003314,48.89366360955755,943.7283782168698,5.49869980351603,-192587.7265962385,10.5,10499807412.273403,47.655,-122.3035,60.0,6.65
2026-01-20T23:06:40+00:00,SAT-52451,12.01166880660853,48.63553835820077,949.2124148209098,5.518037221398579,-193265.00476768194,10.5,10499806734.995232,47.655,-122.3035,60.0,6.666666666666667
2026-01-20T23:06:41+00:00,SAT-52451,11.807449195224015,48.37977900360818,954.7157372763846,5.537035858586577,-193930.41740616123,10.5,10499806069.582594,47.655,-122.3035,60.0,6.683333333333334
2026-01-20T23:06:42+00:00,SAT-52451,11.607122284321601,48.1263645812592,960.2380077060149,5.555702305041752,-194584.19532001167,10.5,10499805415.80468,47.655,-122.3035,60.0,6.7
2026-01-20T23:06:43+00:00,SAT-52451,11.410569496850254,47.87527375899985,965.7788948049099,5.5740429850705855,-195226.56351562103,10.5,10499804773.436485,47.655,-122.3035,60.0,6.716666666666667
2026-01-20T23:06:44+00:00,SAT-52451,11.217676883531482,47.626484885134076,971.3380736753537,5.592064206293443,-195857.74291253567,10.5,10499804142.257088,47.655,-122.3035,60.0,6.733333333333333
2026-01-20T23:06:45+00:00,SAT-52451,11.028334906611382,47.37997603107828,976.9152257104303,5.609772181680729,-196477.95111526008,10.5,10499803522.048885,47.655,-122.3035,60.0,6.75
2026-01-20T23:06:46+00:00,SAT-52451,10.842438234576745,47.13572503014618,982.5100384996266,5.62717298517806,-197087.4008590624,10.5,10499802912.59914,47.655,-122.3035,60.0,6.766666666666667
2026-01-20T23:06:47+00:00,SAT-52451,10.659885549124038,46.89370951569437,988.1222056901775,5.644272579883749,-197686.30099686954,10.5,10499802313.699003,47.655,-122.3035,60.0,6.783333333333333
2026-01-20T23:06:48+00:00,SAT-52451,10.480579361538236,46.65390695541048,993.7514268765149,5.661076812435387,-198274.8563026611,10.5,10499801725.143698,47.655,-122.3035,60.0,6.8
2026-01-20T23:06:49+00:00,SAT-52451,10.304425838857398,46.416294683548095,999.397407484117,5.677591425642156,-198853.26791390675,10.5,10499801146.732086,47.655,-122.3035,60.0,6.816666666666666
2026-01-20T23:06:50+00:00,SAT-52451,10.13133463881436,46.180849930399035,1005.0598586659576,5.693822010375983,-199421.7316465907,10.5,10499800578.268353,47.655,-122.3035,60.0,6.833333333333333
2026-01-20T23:06:51+00:00,SAT-52451,9.961218754702006,45.94754985174241,1010.7384971509725,5.709774110615357,-199980.44167429072,10.5,10499800019.558325,47.655,-122.3035,60.0,6.85
2026-01-20T23:06:52+00:00,SAT-52451,9.793994365356593,45.716371551944206,1016.4330451972929,5.725453096910679,-200529.58609639917,10.5,10499799470.413904,47.655,-122.3035,60.0,6.866666666666666
2026-01-20T23:06:53+00:00,SAT-52451,9.629580696335049,45.48729211057736,1022.1432304192784,5.74086429627659,-201069.35148750205,10.5,10499798930.648512,47.655,-122.3035,60.0,6.883333333333334
2026-01-20T23:06:54+00:00,SAT-52451,9.467899884697918,45.26028860197676,1027.8687857440984,5.756012860831522,-201599.9182965803,10.5,10499798400.081703,47.655,-122.3035,60.0,6.9
2026-01-20T23:06:55+00:00,SAT-52451,9.308876854154551,45.035338118596,1033.609449237301,5.770903892504029,-202121.46521475303,10.5,10499797878.534784,47.655,-122.3035,60.0,6.916666666666667
2026-01-20T23:06:56+00:00,SAT-52451,9.152439193251446,44.812417787840275,1039.3649640527583,5.7855423706620375,-202634.16664054772,10.5,10499797365.833359,47.655,-122.3035,60.0,6.933333333333334
2026-01-20T23:06:57+00:00,SAT-52451,8.998517041569563,44.59150479047676,1045.135078310432,5.79993316924303,-203138.1932798717,10.5,10499796861.80672,47.655,-122.3035,60.0,6.95
2026-01-20T23:06:58+00:00,SAT-52451,8.847042981179408,44.37257637704434,1050.9195449912236,5.814081047223266,-203633.71181220407,10.5,10499796366.288187,47.655,-122.3035,60.0,6.966666666666667
2026-01-20T23:06:59+00:00,SAT-52451,8.697951933671817,44.155609883431524,1056.718121822321,5.827990736491407,-204120.88796830163,10.5,10499795879.112032,47.655,-122.3035,60.0,6.983333333333333
2026-01-20T23:07:00+00:00,SAT-52451,8.551181060232455,43.94058274201504,1062.5305712501815,5.84166676824762,-204599.88044996117,10.5,10499795400.11955,47.655,-122.3035,60.0,7.0
2026-01-20T23:07:01+00:00,SAT-52451,8.406669670696758,43.727472498329135,1068.3566602403807,5.855113674068409,-205070.84797216047,10.5,10499794929.152027,47.655,-122.3035,60.0,7.016666666666667
2026-01-20T23:07:02+00:00,SAT-52451,8.264359132352826,43.516256819190055,1074.196160277985,5.868335823176299,-205533.943563554,10.5,10499794466.056437,47.655,-122.3035,60.0,7.033333333333333
2026-01-20T23:07:03+00:00,SAT-52451,8.12419278690696,43.30691350599496,1080.048847205633,5.881337569512532,-205989.31971758135,10.5,10499794010.680283,47.655,-122.3035,60.0,7.05
2026-01-20T23:07:04+00:00,SAT-52451,7.986115868165998,43.099420501771036,1085.9145012082934,5.894123067052297,-206437.1219240249,10.5,10499793562.878077,47.655,-122.3035,60.0,7.066666666666666
2026-01-20T23:07:05+00:00,SAT-52451,7.850075427715829,42.893755904115324,1091.7929066138336,5.906696503490275,-206877.49685366632,10.5,10499793122.503147,47.655,-122.3035,60.0,7.083333333333333
2026-01-20T23:07:06+00:00,SAT-52451,7.716020259057753,42.689897969004065,1097.6838519266478,5.919061900022888,-207310.58534581386,10.5,10499792689.414654,47.655,-122.3035,60.0,7.1
2026-01-20T23:07:07+00:00,SAT-52451,7.583900829673598,42.48782512109039,1103.5871296616037,5.93122322394845,-207736.52635203628,10.5,10499792263.473648,47.655,-122.3035,60.0,7.116666666666666
2026-01-20T23:07:08+00:00,SAT-52451,7.4536692138486575,42.28751595934135,1109.5025362902884,5.943184360308768,-208155.45594293124,10.5,10499791844.544058,47.655,-122.3035,60.0,7.133333333333334
2026-01-20T23:07:09+00:00,SAT-52451,7.325279029287913,42.08894926310225,1115.4298721589698,5.954949087421908,-208567.50645117977,10.5,10499791432.49355,47.655,-122.3035,60.0,7.15
2026-01-20T23:07:10+00:00,SAT-52451,7.198685377124175,41.89210399842741,1121.3689413821585,5.966521161146054,-208972.80942282264,10.5,10499791027.190577,47.655,-122.3035,60.0,7.166666666666667
2026-01-20T23:07:11+00:00,SAT-52451,7.073844783061577,41.69695932104516,1127.319551820208,5.97790418740706,-209371.49115263644,10.5,10499790628.508848,47.655,-122.3035,60.0,7.183333333333334
2026-01-20T23:07:12+00:00,SAT-52451,6.950715143702793,41.503494583143095,1133.2815149297821,5.989101752811315,-209763.67725874815,10.5,10499790236.32274,47.655,-122.3035,60.0,7.2
2026-01-20T23:07:13+00:00,SAT-52451,6.829255672812359,41.3116893353185,1139.2546457445858,6.000117338742374,-210149.48967393613,10.5,10499789850.510326,47.655,-122.3035,60.0,7.216666666666667
2026-01-20T23:07:14+00:00,SAT-52451,6.709426851647982,41.12152333098467,1145.238762770425,6.010954388824963,-210529.0490085048,10.5,10499789470.95099,47.655,-122.3035,60.0,7.233333333333333
2026-01-20T23:07:15+00:00,SAT-52451,6.591190380287036,40.932976528203596,1151.2336879475463,6.021616203537363,-210902.47085916452,10.5,10499789097.52914,47.655,-122.3035,60.0,7.25
2026-01-20T23:07:16+00:00,SAT-52451,6.474509133051222,40.74602909451218,1157.2392465078744,6.032106095971611,-211269.8712644129,10.5,10499788730.128736,47.655,-122.3035,60.0,7.266666666666667
2026-01-20T23:07:17+00:00,SAT-52451,6.359347113124081,40.56066140646154,1163.2552669875902,6.042427258306639,-211631.362027859,10.5,10499788368.637972,47.655,-122.3035,60.0,7.283333333333333
2026-01-20T23:07:18+00:00,SAT-52451,6.245669411531956,40.37685405310698,1169.2815811065411,6.052582852507465,-211987.0538948928,10.5,10499788012.946106,47.655,-122.3035,60.0,7.3
2026-01-20T23:07:19+00:00,SAT-52451,6.133442166388674,40.194587836349,1175.3180237381089,6.062575927448003,-212337.05364997548,10.5,10499787662.94635,47.655,-122.3035,60.0,7.316666666666666
2026-01-20T23:07:20+00:00,SAT-52451,6.022632525304488,40.01384377358176,1181.3644327964168,6.072409499367601,-212681.46693456778,10.5,10499787318.533066,47.655,-122.3035,60.0,7.333333333333333
2026-01-20T23:07:21+00:00,SAT-52451,5.913208608094554,39.834603097607484,1187.420649203786,6.082086530861995,-213020.39751130412,10.5,10499786979.60249,47.655,-122.3035,60.0,7.35
2026-01-20T23:07:22+00:00,SAT-52451,5.805139471432593,39.656847257018065,1193.4865168372326,6.091609887807106,-213353.94575528186,10.5,10499786646.054245,47.655,-122.3035,60.0,7.366666666666666
2026-01-20T23:07:23+00:00,SAT-52451,5.69839507577976,39.48055791761971,1199.5618824320054,6.100982415848154,-213682.21133303366,10.5,10499786317.788668,47.655,-122.3035,60.0,7.383333333333334
2026-01-20T23:07:24+00:00,SAT-52451,5.592946252416,39.30571696142456,1205.6465955614112,6.110206856061343,-214005.29024864297,10.5,10499785994.709751,47.655,-122.3035,60.0,7.4
2026-01-20T23:07:25+00:00,SAT-52451,5.488764673305849,39.132306487917745,1211.740508532523,6.1192859582978025,-214323.27881352816,10.5,10499785676.721186,47.655,-122.3035,60.0,7.416666666666667
2026-01-20T23:07:26+00:00,SAT-52451,5.385822820366669,38.96030881191033,1217.8434763949322,6.128222328114648,-214636.26828532093,10.5,10499785363.731714,47.655,-122.3035,60.0,7.433333333333334
2026-01-20T23:07:27+00:00,SAT-52451,5.28409395849672,38.78970646561474,1223.9553567968385,6.137018582352494,-214944.3503168488,10.5,10499785055.649683,47.655,-122.3035,60.0,7.45
2026-01-20T23:07:28+00:00,SAT-52451,5.183552107251701,38.62048219615271,1230.0760099963047,6.145677275050471,-215247.6143613658,10.5,10499784752.38564,47.655,-122.3035,60.0,7.466666666666667
2026-01-20T23:07:29+00:00,SAT-52451,5.084172014901018,38.45261896505498,1236.205298798622,6.154200873758113,-215546.1468428942,10.5,10499784453.853157,47.655,-122.3035,60.0,7.483333333333333
2026-01-20T23:07:30+00:00,SAT-52451,4.985929133854678,38.286099948314224,1242.34308847005,6.1625918433189355,-215840.03409068022,10.5,10499784159.96591,47.655,-122.3035,60.0,7.5
2026-01-20T23:07:31+00:00,SAT-52451,4.888799595904332,38.120908533989365,1248.4892467351199,6.1708525277708315,-216129.3582028462,10.5,10499783870.641798,47.655,-122.3035,60.0,7.516666666666667
2026-01-20T23:07:32+00:00,SAT-52451,4.792760190149524,37.95702832298174,1254.64364365615,6.178985323722208,-216414.20311875618,10.5,10499783585.79688,47.655,-122.3035,60.0,7.533333333333333
2026-01-20T23:07:33+00:00,SAT-52451,4.697788339385162,37.79444312499909,1260.8061516856756,6.1869924661919775,-216694.6471182266,10.5,10499783305.352882,47.655,-122.3035,60.0,7.55
2026-01-20T23:07:34+00:00,SAT-52451,4.603862080422591,37.633136960254475,1266.9766455052911,6.19487622369785,-216970.7696543434,10.5,10499783029.230345,47.655,-122.3035,60.0,7.566666666666666
2026-01-20T23:07:35+00:00,SAT-52451,4.510960042517123,37.473094055824205,1273.1550020590591,6.20263877514924,-217242.6470417312,10.5,10499782757.352959,47.655,-122.3035,60.0,7.583333333333333
2026-01-20T23:07:36+00:00,SAT-52451,4.41906142831746,37.314298845260524,1279.3411004641412,6.210282307517204,-217510.35587736714,10.5,10499782489.644123,47.655,-122.3035,60.0,7.6
2026-01-20T23:07:37+00:00,SAT-52451,4.328145994279142,37.156735965585504,1285.5348220188384,6.217808877996587,-217773.9682129167,10.5,10499782226.031788,47.655,-122.3035,60.0,7.616666666666666
2026-01-20T23:07:38+00:00,SAT-52451,4.238194033679559,37.00039025780656,1291.7360500731604,6.225220570435572,-218033.55703355788,10.5,10499781966.442966,47.655,-122.3035,60.0,7.633333333333334
2026-01-20T23:07:39+00:00,SAT-52451,4.149186358228782,36.84524676334232,1297.944670055408,6.232519419668098,-218289.19360778262,10.5,10499781710.806393,47.655,-122.3035,60.0,7.65
2026-01-20T23:07:40+00:00,SAT-52451,4.061104281384017,36.69129072240821,1304.1605694232903,6.239707377347776,-218540.94629075576,10.5,10499781459.053709,47.655,-122.3035,60.0,7.666666666666667
2026-01-20T23:07:41+00:00,SAT-52451,3.97392960278188,36.53850757318826,1310.3836375809651,6.246786385501775,-218788.8831004836,10.5,10499781211.1169,47.655,-122.3035,60.0,7.683333333333334
2026-01-20T23:07:42+00:00,SAT-52451,3.887644592276776,36.38688294914409,1316.613765869439,6.253758348004438,-219033.070718699,10.5,10499780966.929281,47.655,-122.3035,60.0,7.7
2026-01-20T23:07:43+00:00,SAT-52451,3.8022319750216496,36.23640267702079,1322.8508475285155,6.260625138945638,-219273.57478395672,10.5,10499780726.425217,47.655,-122.3035,60.0,7.716666666666667
2026-01-20T23:07:44+00:00,SAT-52451,3.7176749169445102,36.08705277466001,1329.0947776670905,6.267388552967033,-219510.4581521989,10.5,10499780489.541847,47.655,-122.3035,60.0,7.733333333333333
2026-01-20T23:07:45+00:00,SAT-52451,3.633957011458711,35.93881944997027,1335.3454531839163,6.274050373393744,-219743.78328301478,10.5,10499780256.216717,47.655,-122.3035,60.0,7.75
2026-01-20T23:07:46+00:00,SAT-52451,3.5510622657778317,35.791689098250636,1341.6027727563144,6.28061238036487,-219973.6125244056,10.5,10499780026.387476,47.655,-122.3035,60.0,7.766666666666667
2026-01-20T23:07:47+00:00,SAT-52451,3.468975087690201,35.64564829933631,1347.8666368369984,6.287076247191455,-220200.00448280215,10.5,10499779799.995518,47.655,-122.3035,60.0,7.783333333333333
2026-01-20T23:07:48+00:00,SAT-52451,3.3876802740457004,35.500683817204184,1354.1369475475306,6.293443673780195,-220423.0186961276,10.5,10499779576.981304,47.655,-122.3035,60.0,7.8
2026-01-20T23:07:49+00:00,SAT-52451,3.307162998114667,35.356782596398745,1360.4136087048473,6.299716302389655,-220642.7126832236,10.5,10499779357.287317,47.655,-122.3035,60.0,7.816666666666666
2026-01-20T23:07:50+00:00,SAT-52451,3.2274087983559783,35.213931760488265,1366.6965257637642,6.305895727550463,-220859.1422912976,10.5,10499779140.857708,47.655,-122.3035,60.0,7.833333333333333
2026-01-20T23:07:51+00:00,SAT-52451,3.148403567546028,35.07211861024717,1372.9856057693744,6.311983548201546,-221072.36352195436,10.5,10499778927.636478,47.655,-122.3035,60.0,7.85
2026-01-20T23:07:52+00:00,SAT-52451,3.0701335416404367,34.931330620679816,1379.2807573614473,6.317981293998012,-221282.42995018617,10.5,10499778717.57005,47.655,-122.3035,60.0,7.866666666666666
2026-01-20T23:07:53+00:00,SAT-52451,2.9925852899381122,34.791555439727915,1385.581890705328,6.3238904794909265,-221489.3946219779,10.5,10499778510.605377,47.655,-122.3035,60.0,7.883333333333334
2026-01-20T23:07:54+00:00,SAT-52451,2.915745704936193,34.6527808857557,1391.8889174768735,6.329712600304237,-221693.30992040664,10.5,10499778306.690079,47.655,-122.3035,60.0,7.9
2026-01-20T23:07:55+00:00,SAT-52451,2.839601992646943,34.51499494514775,1398.201750843577,6.335449116322355,-221894.2269767998,10.5,10499778105.773024,47.655,-122.3035,60.0,7.916666666666667
2026-01-20T23:07:56+00:00,SAT-52451,2.764141663402901,34.37818577030603,1404.5203054289227,6.341101415250027,-222092.19439444767,10.5,10499777907.805605,47.655,-122.3035,60.0,7.933333333333334
2026-01-20T23:07:57+00:00,SAT-52451,2.6893525234110607,34.24234167843917,1410.8444972403986,6.346670948975842,-222287.26302463,10.5,10499777712.736975,47.655,-122.3035,60.0,7.95
2026-01-20T23:07:58+00:00,SAT-52451,2.6152226651239157,34.10745114740873,1417.1742437335104,6.352159048629779,-222479.47948914938,10.5,10499777520.520512,47.655,-122.3035,60.0,7.966666666666667
2026-01-20T23:07:59+00:00,SAT-52451,2.541740459938396,33.973502815621856,1423.509463691344,6.357567067488255,-222668.89118547033,10.5,10499777331.108814,47.655,-122.3035,60.0,7.983333333333333
2026-01-20T23:08:00+00:00,SAT-52451,2.4688945496134527,33.840485478834545,1429.8500772466523,6.362896316054138,-222855.5440129466,10.5,10499777144.455988,47.655,-122.3035,60.0,8.0
2026-01-20T23:08:01+00:00,SAT-52451,2.396673838705027,33.708388088385846,1436.196005839197,6.3681481057735425,-223039.48390396865,10.5,10499776960.516096,47.655,-122.3035,60.0,8.016666666666667
2026-01-20T23:08:02+00:00,SAT-52451,2.32506748676802,33.57719974853616,1442.5471722166883,6.3733236681727465,-223220.75399179602,10.5,10499776779.246008,47.655,-122.3035,60.0,8.033333333333333
2026-01-20T23:08:03+00:00,SAT-52451,2.254064901698186,33.44690971551451,1448.9035003550794,6.378424265125858,-223399.3984725977,10.5,10499776600.601528,47.655,-122.3035,60.0,8.05
2026-01-20T23:08:04+00:00,SAT-52451,2.183655732150281,33.31750739428784,1455.2649154888315,6.383451095014329,-223575.45931876128,10.5,10499776424.540682,47.655,-122.3035,60.0,8.066666666666666
2026-01-20T23:08:05+00:00,SAT-52451,2.113829861173954,33.18898233731462,1461.6313440475924,6.388405381873781,-223748.97940119196,10.5,10499776251.0206,47.655,-122.3035,60.0,8.083333333333334
2026-01-20T23:08:06+00:00,SAT-52451,2.0445773991737695,33.06132424149183,1468.0027136817812,6.393288267258311,-223919.99870194288,10.5,10499776080.001299,47.655,-122.3035,60.0,8.1
2026-01-20T23:08:07+00:00,SAT-52451,1.9758886781942788,32.934522947326755,1474.3789531803268,6.398100884703577,-224088.55692222773,10.5,10499775911.443077,47.655,-122.3035,60.0,8.116666666666667
2026-01-20T23:08:08+00:00,SAT-52451,1.907754245621569,32.80856843661928,1480.759992462671,6.402844396336413,-224254.6947646439,10.5,10499775745.305235,47.655,-122.3035,60.0,8.133333333333333
2026-01-20T23:08:09+00:00,SAT-52451,1.8401648578003889,32.6834508294527,1487.145762607284,6.407519859080884,-224418.44924714311,10.5,10499775581.550753,47.655,-122.3035,60.0,8.15
2026-01-20T23:08:10+00:00,SAT-52451,1.7731114750965082,32.55916038387863,1493.5361957467408,6.412128397934051,-224579.85977188105,10.5,10499775420.140228,47.655,-122.3035,60.0,8.166666666666666
2026-01-20T23:08:11+00:00,SAT-52451,1.7065852555226775,32.43568749218877,1499.9312251356137,6.416671032332423,-224738.96204383648,10.5,10499775261.037956,47.655,-122.3035,60.0,8.183333333333334
2026-01-20T23:08:12+00:00,SAT-52451,1.6405775501561957,32.31302268064818,1506.3307850451931,6.421148829757317,-224895.79345072058,10.5,10499775104.206549,47.655,-122.3035,60.0,8.2
2026-01-20T23:08:13+00:00,SAT-52451,1.5750798973339406,32.19115660623209,1512.7348108114043,6.425562780439631,-225050.38867460814,10.5,10499774949.611326,47.655,-122.3035,60.0,8.216666666666667
2026-01-20T23:08:14+00:00,SAT-52451,1.5100840181385193,32.0700800558422,1519.143238757763,6.42991392345247,-225202.78410823442,10.5,10499774797.21589,47.655,-122.3035,60.0,8.233333333333333
2026-01-20T23:08:15+00:00,SAT-52451,1.4455818109210772,31.949783943115452,1525.5560062440861,6.4342031992224635,-225353.0126893181,10.5,10499774646.98731,47.655,-122.3035,60.0,8.25
2026-01-20T23:08:16+00:00,SAT-52451,1.3815653473095557,31.83025930808932,1531.9730515681108,6.438431592558565,-225501.10891003447,10.5,10499774498.89109,47.655,-122.3035,60.0,8.266666666666667
2026-01-20T23:08:17+00:00,SAT-52451,1.3180268670851976,31.711497314159534,1538.3943140097558,6.442600034783921,-225647.10538925955,10.5,10499774352.894611,47.655,-122.3035,60.0,8.283333333333333
2026-01-20T23:08:18+00:00,SAT-52451,1.2549587740602215,31.59348924693969,1544.8197337777804,6.44670948506602,-225791.0357210961,10.5,10499774208.96428,47.655,-122.3035,60.0,8.3
2026-01-20T23:08:19+00:00,SAT-52451,1.1923536314143706,31.476226511616954,1551.2492520375529,6.450760784394736,-225932.9293605669,10.5,10499774067.070639,47.655,-122.3035,60.0,8.316666666666666
2026-01-20T23:08:20+00:00,SAT-52451,1.130204158413352,31.35970063303623,1557.682810793189,6.454754884509925,-226072.8196416276,10.5,10499773927.180359,47.655,-122.3035,60.0,8.333333333333334
2026-01-20T23:08:21+00:00,SAT-52451,1.0685032252757825,31.243903251600237,1564.120352998007,6.458692625928821,-226210.73600274703,10.5,10499773789.263998,47.655,-122.3035,60.0,8.35
2026-01-20T23:08:22+00:00,SAT-52451,1.0072438500937773,31.128826123273196,1570.5618224436,6.462574889121841,-226346.7092817236,10.5,10499773653.290718,47.655,-122.3035,60.0,8.366666666666667
2026-01-20T23:08:23+00:00,SAT-52451,0.9464191945724659,31.01446111684957,1577.0071637996843,6.46640248688156,-226480.76794599142,10.5,10499773519.232054,47.655,-122.3035,60.0,8.383333333333333
2026-01-20T23:08:24+00:00,SAT-52451,0.8860225607986785,30.900800213202995,1583.4563225466009,6.470176290013072,-226612.94249482837,10.5,10499773387.057505,47.655,-122.3035,60.0,8.4
2026-01-20T23:08:25+00:00,SAT-52451,0.8260473870731528,30.78783550230862,1589.9092450331739,6.473897052770417,-226743.2593454015,10.5,10499773256.740654,47.655,-122.3035,60.0,8.416666666666666
2026-01-20T23:08:26+00:00,SAT-52451,0.7664872453020647,30.67555918339834,1596.3658783604703,6.477565615460426,-226871.74792881036,10.5,10499773128.252071,47.655,-122.3035,60.0,8.433333333333334
2026-01-20T23:08:27+00:00,SAT-52451,0.7073358368228527,30.563963561556434,1602.826170467623,6.481182735631417,-226998.43477760162,10.5,10499773001.565222,47.655,-122.3035,60.0,8.45
2026-01-20T23:08:28+00:00,SAT-52451,0.6485869897066469,30.45304104732545,1609.2900700492924,6.484749174493434,-227123.34655257093,10.5,10499772876.653448,47.655,-122.3035,60.0,8.466666666666667
2026-01-20T23:08:29+00:00,SAT-52451,0.5902346554832058,30.34278415480528,1615.7575265593205,6.488265717215531,-227246.51075365968,10.5,10499772753.489246,47.655,-122.3035,60.0,8.483333333333333
2026-01-20T23:08:30+00:00,SAT-52451,0.5322729057510205,30.23318549945607,1622.2284902346235,6.491733073971301,-227367.95225415129,10.5,10499772632.047747,47.655,-122.3035,60.0,8.5
2026-01-20T23:08:31+00:00,SAT-52451,0.47469592973427227,30.12423779761853,1628.7029120203977,6.495151963386801,-227487.69622337,10.5,10499772512.303776,47.655,-122.3035,60.0,8.516666666666667
2026-01-20T23:08:32+00:00,SAT-52451,0.4174980312043306,30.015933864622127,1635.1807435785488,6.49852310311739,-227605.76779664215,10.5,10499772394.232203,47.655,-122.3035,60.0,8.533333333333333
