satellites_20260121_005943/SAT-53224.csv

timestamp,satellite,azimuth_deg,elevation_deg,distance_km,relative_velocity_kms,doppler_shift_hz,tx_freq_ghz,rx_freq_hz,ue_lat,ue_lon,ue_alt_m,time_minutes
2026-01-20T23:01:56+00:00,SAT-53224,302.82622361156245,30.030125712550408,4269.025243311782,-2.5527803835309335,89409.16728156919,10.5,10500089409.167282,47.655,-122.3035,60.0,1.9333333333333333
2026-01-20T23:01:57+00:00,SAT-53224,302.71752969566955,30.06450261358228,4266.479270342608,-2.5433207679368355,89077.85152932958,10.5,10500089077.85153,47.655,-122.3035,60.0,1.95
2026-01-20T23:01:58+00:00,SAT-53224,302.608608969514,30.09873283806781,4263.942731763385,-2.5338410325858436,88745.83109809706,10.5,10500088745.831099,47.655,-122.3035,60.0,1.9666666666666666
2026-01-20T23:01:59+00:00,SAT-53224,302.4994617511309,30.132815561263172,4261.4156476402195,-2.5243412092000193,88413.10709891241,10.5,10500088413.1071,47.655,-122.3035,60.0,1.9833333333333334
2026-01-20T23:02:00+00:00,SAT-53224,302.39008836725475,30.16674995788518,4258.898038007578,-2.5148213259835255,88079.68051960474,10.5,10500088079.68052,47.655,-122.3035,60.0,2.0
2026-01-20T23:02:01+00:00,SAT-53224,302.2804891535283,30.200535202097186,4256.389922871796,-2.5052814217684203,87745.55272023693,10.5,10500087745.552721,47.655,-122.3035,60.0,2.0166666666666666
2026-01-20T23:02:02+00:00,SAT-53224,302.17066445413275,30.23417046768751,4253.891322200487,-2.495721511717948,87410.72423188997,10.5,10500087410.724232,47.655,-122.3035,60.0,2.033333333333333
2026-01-20T23:02:03+00:00,SAT-53224,302.060614622864,30.267654927781763,4251.402255946134,-2.4861416478529756,87075.19687655465,10.5,10500087075.196877,47.655,-122.3035,60.0,2.05
2026-01-20T23:02:04+00:00,SAT-53224,301.9503400216239,30.300987755378895,4248.922744009341,-2.4765418464365356,86738.9712238312,10.5,10500086738.971224,47.655,-122.3035,60.0,2.066666666666667
2026-01-20T23:02:05+00:00,SAT-53224,301.83984102202476,30.33416812290007,4246.452806274495,-2.4669221524389626,86402.04884877094,10.5,10500086402.04885,47.655,-122.3035,60.0,2.0833333333333335
2026-01-20T23:02:06+00:00,SAT-53224,301.72911800422384,30.367195202614255,4243.992462581129,-2.457282583435513,86064.43036693367,10.5,10500086064.430367,47.655,-122.3035,60.0,2.1
2026-01-20T23:02:07+00:00,SAT-53224,301.61817135818865,30.400068166302088,4241.54173275125,-2.4476231913443938,85726.11759671464,10.5,10500085726.117598,47.655,-122.3035,60.0,2.1166666666666667
2026-01-20T23:02:08+00:00,SAT-53224,301.50700148225314,30.432786185758236,4239.100636555082,-2.4379440048139522,85387.11154150015,10.5,10500085387.111542,47.655,-122.3035,60.0,2.1333333333333333
2026-01-20T23:02:09+00:00,SAT-53224,301.3956087842051,30.465348432511693,4236.669193734281,-2.4282450510227656,85047.41315319893,10.5,10500085047.413153,47.655,-122.3035,60.0,2.15
2026-01-20T23:02:10+00:00,SAT-53224,301.2839936814427,30.497754077844416,4234.247424003394,-2.4185263717221046,84707.0238941171,10.5,10500084707.023893,47.655,-122.3035,60.0,2.1666666666666665
2026-01-20T23:02:11+00:00,SAT-53224,301.17215660037425,30.530002293024367,4231.8353470353295,-2.4087880069886554,84365.94516790974,10.5,10500084365.945168,47.655,-122.3035,60.0,2.183333333333333
2026-01-20T23:02:12+00:00,SAT-53224,301.06009797656947,30.562092249321708,4229.432982463027,-2.3990299859027533,84024.17799309318,10.5,10500084024.177994,47.655,-122.3035,60.0,2.2
2026-01-20T23:02:13+00:00,SAT-53224,300.9478182553163,30.594023117897517,4227.040349890419,-2.38925235355823,83681.72394904416,10.5,10500083681.72395,47.655,-122.3035,60.0,2.216666666666667
2026-01-20T23:02:14+00:00,SAT-53224,300.835317890968,30.625794070059097,4224.65746887647,-2.3794551440795013,83338.58423094406,10.5,10500083338.58423,47.655,-122.3035,60.0,2.2333333333333334
2026-01-20T23:02:15+00:00,SAT-53224,300.7225973475049,30.657404277149844,4222.284358946109,-2.369638388234701,82994.7599164231,10.5,10500082994.759916,47.655,-122.3035,60.0,2.25
2026-01-20T23:02:16+00:00,SAT-53224,300.6096570987655,30.688852910544945,4219.921039593576,-2.359802146275823,82650.25311576099,10.5,10500082650.253117,47.655,-122.3035,60.0,2.2666666666666666
2026-01-20T23:02:17+00:00,SAT-53224,300.49649762712943,30.72013914208565,4217.5675302530235,-2.349946430895657,82305.06427351283,10.5,10500082305.064274,47.655,-122.3035,60.0,2.283333333333333
2026-01-20T23:02:18+00:00,SAT-53224,300.3831194258195,30.75126214348226,4215.223850345944,-2.3400713016489196,81959.19547553679,10.5,10500081959.195475,47.655,-122.3035,60.0,2.3
2026-01-20T23:02:19+00:00,SAT-53224,300.2695229967574,30.782221086981,4212.890019234433,-2.330176795283965,81612.64800891567,10.5,10500081612.648008,47.655,-122.3035,60.0,2.316666666666667
2026-01-20T23:02:20+00:00,SAT-53224,300.1557088517068,30.81301514510081,4210.566056243935,-2.3202629494370095,81265.42319182892,10.5,10500081265.423191,47.655,-122.3035,60.0,2.3333333333333335
2026-01-20T23:02:21+00:00,SAT-53224,300.04167751228925,30.84364349068527,4208.251980662364,-2.3103298060534625,80917.52249338226,10.5,10500080917.522493,47.655,-122.3035,60.0,2.35
2026-01-20T23:02:22+00:00,SAT-53224,299.92742950985905,30.874105297002078,4205.947811735794,-2.300377415138084,80568.94766495387,10.5,10500080568.947664,47.655,-122.3035,60.0,2.3666666666666667
2026-01-20T23:02:23+00:00,SAT-53224,299.8129653851599,30.904399737891676,4203.653568660428,-2.2904058065721635,80219.69975311292,10.5,10500080219.699753,47.655,-122.3035,60.0,2.3833333333333333
2026-01-20T23:02:24+00:00,SAT-53224,299.6982856893716,30.934525987542173,4201.369270602674,-2.280415039030689,79869.7808129057,10.5,10500079869.780813,47.655,-122.3035,60.0,2.4
2026-01-20T23:02:25+00:00,SAT-53224,299.5833909827678,30.964483220913795,4199.094936670414,-2.2704051418094817,79519.19187039575,10.5,10500079519.19187,47.655,-122.3035,60.0,2.4166666666666665
2026-01-20T23:02:26+00:00,SAT-53224,299.46828183622387,30.99427061339201,4196.830585942317,-2.2603761727220966,79167.93495045835,10.5,10500079167.93495,47.655,-122.3035,60.0,2.433333333333333
2026-01-20T23:02:27+00:00,SAT-53224,299.3529588298576,31.023887341208468,4194.576237439388,-2.2503281696924033,78816.01138134781,10.5,10500078816.011381,47.655,-122.3035,60.0,2.45
2026-01-20T23:02:28+00:00,SAT-53224,299.23742255409155,31.053332581221447,4192.331910144815,-2.2402611788052598,78463.42277715082,10.5,10500078463.422777,47.655,-122.3035,60.0,2.466666666666667
2026-01-20T23:02:29+00:00,SAT-53224,299.1216736092961,31.082605511066827,4190.09762299582,-2.2301752500740664,78110.17088954819,10.5,10500078110.170889,47.655,-122.3035,60.0,2.4833333333333334
2026-01-20T23:02:30+00:00,SAT-53224,299.0057126056568,31.11170530925539,4187.873394879746,-2.220070434379245,77756.25750058753,10.5,10500077756.2575,47.655,-122.3035,60.0,2.5
2026-01-20T23:02:31+00:00,SAT-53224,298.8895401631785,31.140631155226586,4185.6592446331915,-2.209946761336794,77401.6836475464,10.5,10500077401.683647,47.655,-122.3035,60.0,2.5166666666666666
2026-01-20T23:02:32+00:00,SAT-53224,298.7731569128501,31.169382229114888,4183.455191063219,-2.199804302653474,77046.45184189884,10.5,10500077046.451841,47.655,-122.3035,60.0,2.533333333333333
2026-01-20T23:02:33+00:00,SAT-53224,298.656563494523,31.197957712348202,4181.261252905372,-2.189643092773372,76690.56329002247,10.5,10500076690.56329,47.655,-122.3035,60.0,2.55
2026-01-20T23:02:34+00:00,SAT-53224,298.5397605588947,31.22635678720321,4179.077448860847,-2.1794631830988505,76334.01979224551,10.5,10500076334.019793,47.655,-122.3035,60.0,2.566666666666667
2026-01-20T23:02:35+00:00,SAT-53224,298.4227487666944,31.254578637073482,4176.903797579569,-2.1692646323104894,75976.82340381005,10.5,10500075976.823404,47.655,-122.3035,60.0,2.5833333333333335
2026-01-20T23:02:36+00:00,SAT-53224,298.30552878834425,31.282622446611782,4174.740317652945,-2.159047475391088,75618.97534996169,10.5,10500075618.97535,47.655,-122.3035,60.0,2.6
2026-01-20T23:02:37+00:00,SAT-53224,298.1881013052733,31.31048740146477,4172.587027637488,-2.148811772240445,75260.47772864476,10.5,10500075260.477728,47.655,-122.3035,60.0,2.6166666666666667
2026-01-20T23:02:38+00:00,SAT-53224,298.07046700865664,31.33817268864697,4170.443946029974,-2.138557583534918,74901.332665002,10.5,10500074901.332664,47.655,-122.3035,60.0,2.6333333333333333
2026-01-20T23:02:39+00:00,SAT-53224,297.95262659940835,31.365677496595424,4168.311091266662,-2.1282849457804422,74541.54143762564,10.5,10500074541.541437,47.655,-122.3035,60.0,2.65
2026-01-20T23:02:40+00:00,SAT-53224,297.834580789545,31.39300101490427,4166.188481747403,-2.11799391747921,74181.10609550994,10.5,10500074181.106096,47.655,-122.3035,60.0,2.6666666666666665
2026-01-20T23:02:41+00:00,SAT-53224,297.71633030105795,31.420142434656803,4164.076135813703,-2.107684562283716,73820.02886803448,10.5,10500073820.028868,47.655,-122.3035,60.0,2.683333333333333
2026-01-20T23:02:42+00:00,SAT-53224,297.59787586566085,31.447100948540516,4161.974071743586,-2.0973569173153477,73458.31105534734,10.5,10500073458.311056,47.655,-122.3035,60.0,2.7
2026-01-20T23:02:43+00:00,SAT-53224,297.4792182263149,31.473875750551276,4159.88230777805,-2.0870110511288864,73095.95505852687,10.5,10500073095.95506,47.655,-122.3035,60.0,2.716666666666667
2026-01-20T23:02:44+00:00,SAT-53224,297.3603581355392,31.500466036447623,4157.800862089724,-2.0766470137900774,72732.96263108731,10.5,10500072732.962631,47.655,-122.3035,60.0,2.7333333333333334
2026-01-20T23:02:45+00:00,SAT-53224,297.241296356485,31.526871003561393,4155.729752801305,-2.0662648580058853,72369.33561904948,10.5,10500072369.335619,47.655,-122.3035,60.0,2.75
2026-01-20T23:02:46+00:00,SAT-53224,297.12203366283524,31.553089850880184,4153.66899798292,-2.0558646453435774,72005.0761787595,10.5,10500072005.07618,47.655,-122.3035,60.0,2.7666666666666666
2026-01-20T23:02:47+00:00,SAT-53224,297.00257083836584,31.579121779210375,4151.618615643298,-2.0454464296561534,71640.18619637725,10.5,10500071640.186197,47.655,-122.3035,60.0,2.783333333333333
2026-01-20T23:02:48+00:00,SAT-53224,296.88290867741836,31.60496599112739,4149.578623737453,-2.035010273565943,71274.66786520161,10.5,10500071274.667866,47.655,-122.3035,60.0,2.8
2026-01-20T23:02:49+00:00,SAT-53224,296.7630479844443,31.63062169113752,4147.549040157951,-2.024556230545801,70908.5230580781,10.5,10500070908.523058,47.655,-122.3035,60.0,2.816666666666667
2026-01-20T23:02:50+00:00,SAT-53224,296.642989574584,31.65608808561029,4145.529882744019,-2.014084361122158,70541.75389489837,10.5,10500070541.753895,47.655,-122.3035,60.0,2.8333333333333335
2026-01-20T23:02:51+00:00,SAT-53224,296.52273427330397,31.68136438291919,4143.521169274527,-2.0035947248649784,70174.36246205456,10.5,10500070174.362463,47.655,-122.3035,60.0,2.85
2026-01-20T23:02:52+00:00,SAT-53224,296.4022829164867,31.70644979347933,4141.522917468928,-1.9930873818605763,69806.35086402357,10.5,10500069806.350864,47.655,-122.3035,60.0,2.8666666666666667
2026-01-20T23:02:53+00:00,SAT-53224,296.2816363504582,31.731343529804615,4139.535144986752,-1.9825623912738661,69437.72117301094,10.5,10500069437.721172,47.655,-122.3035,60.0,2.8833333333333333
2026-01-20T23:02:54+00:00,SAT-53224,296.16079543207053,31.75604480654651,4137.557869428522,-1.9720198208078512,69068.47576026224,10.5,10500069068.47576,47.655,-122.3035,60.0,2.9
2026-01-20T23:02:55+00:00,SAT-53224,296.0397610282456,31.780552840652735,4135.591108327237,-1.961459724367878,68698.61651377073,10.5,10500068698.616514,47.655,-122.3035,60.0,2.9166666666666665
2026-01-20T23:02:56+00:00,SAT-53224,295.91853401683306,31.804866851244594,4133.634879162134,-1.9508821612992773,68328.14551206092,10.5,10500068328.145512,47.655,-122.3035,60.0,2.933333333333333
2026-01-20T23:02:57+00:00,SAT-53224,295.797115286335,31.82898605973803,4131.6891993532645,-1.9402872154186697,67957.0656907454,10.5,10500067957.065691,47.655,-122.3035,60.0,2.95
2026-01-20T23:02:58+00:00,SAT-53224,295.6755057344468,31.85290969019836,4129.754086237087,-1.9296749233941108,67585.3783340946,10.5,10500067585.378334,47.655,-122.3035,60.0,2.966666666666667
2026-01-20T23:02:59+00:00,SAT-53224,295.55370627097943,31.876636968806313,4127.829557113489,-1.9190453686000708,67213.08636223512,10.5,10500067213.086363,47.655,-122.3035,60.0,2.9833333333333334
2026-01-20T23:03:00+00:00,SAT-53224,295.4317178150259,31.900167124489855,4125.915629199205,-1.9083986094884304,66840.19182239908,10.5,10500066840.191822,47.655,-122.3035,60.0,3.0
2026-01-20T23:03:01+00:00,SAT-53224,295.30954129653884,31.92349938866714,4124.012319652675,-1.8977347085692036,66466.69690395158,10.5,10500066466.696903,47.655,-122.3035,60.0,3.0166666666666666
2026-01-20T23:03:02+00:00,SAT-53224,295.1871776561093,31.94663299534904,4122.119645569995,-1.8870537334737363,66092.60397562847,10.5,10500066092.603975,47.655,-122.3035,60.0,3.033333333333333
2026-01-20T23:03:03+00:00,SAT-53224,295.0646278446958,31.96956718125537,4120.23762397981,-1.8763557616384583,65717.91574958104,10.5,10500065717.91575,47.655,-122.3035,60.0,3.05
2026-01-20T23:03:04+00:00,SAT-53224,294.9418928230078,31.992301185986086,4118.366271833536,-1.8656408403974343,65342.633883648465,10.5,10500065342.633884,47.655,-122.3035,60.0,3.066666666666667
2026-01-20T23:03:05+00:00,SAT-53224,294.8189735634792,32.014834251706844,4116.50560603538,-1.8549090545293445,64966.76134713875,10.5,10500064966.761347,47.655,-122.3035,60.0,3.0833333333333335
2026-01-20T23:03:06+00:00,SAT-53224,294.69587104789457,32.03716562365843,4114.655643404996,-1.8441604647588288,64590.30026688564,10.5,10500064590.300266,47.655,-122.3035,60.0,3.1
2026-01-20T23:03:07+00:00,SAT-53224,294.5725862689591,32.05929454991736,4112.816400701477,-1.8333951417640093,64213.253118335946,10.5,10500064213.253119,47.655,-122.3035,60.0,3.1166666666666667
2026-01-20T23:03:08+00:00,SAT-53224,294.4491202296937,32.081220281568825,4110.987894613424,-1.822613155167438,63835.62233996593,10.5,10500063835.62234,47.655,-122.3035,60.0,3.1333333333333333
2026-01-20T23:03:09+00:00,SAT-53224,294.3254739435315,32.102942072748206,4109.170141760003,-1.81181457674245,63457.41044558141,10.5,10500063457.410446,47.655,-122.3035,60.0,3.15
2026-01-20T23:03:10+00:00,SAT-53224,294.201648434191,32.12445918071921,4107.3631586888,-1.8009994728666145,63078.61976000561,10.5,10500063078.61976,47.655,-122.3035,60.0,3.1666666666666665
2026-01-20T23:03:11+00:00,SAT-53224,294.077644736079,32.145770865863604,4105.5669618811935,-1.7901679180007337,62699.25289117081,10.5,10500062699.252892,47.655,-122.3035,60.0,3.183333333333333
2026-01-20T23:03:12+00:00,SAT-53224,293.95346389376044,32.166876391831046,4103.781567744308,-1.7793199870482697,62319.31246251309,10.5,10500062319.312462,47.655,-122.3035,60.0,3.2
2026-01-20T23:03:13+00:00,SAT-53224,293.8291069619608,32.18777502559757,4102.006992610558,-1.7684557481686085,61938.80086126246,10.5,10500061938.800861,47.655,-122.3035,60.0,3.216666666666667
2026-01-20T23:03:14+00:00,SAT-53224,293.7045750060378,32.20846603743919,4100.243252744384,-1.757575274914873,61557.720663560416,10.5,10500061557.720663,47.655,-122.3035,60.0,3.2333333333333334
2026-01-20T23:03:15+00:00,SAT-53224,293.5798691016418,32.22894870105038,4098.49036433687,-1.74667864508687,61176.07459428528,10.5,10500061176.074594,47.655,-122.3035,60.0,3.25
2026-01-20T23:03:16+00:00,SAT-53224,293.45499033444173,32.24922229364674,4096.748343501503,-1.7357659302765014,60793.86516088829,10.5,10500060793.86516,47.655,-122.3035,60.0,3.2666666666666666
2026-01-20T23:03:17+00:00,SAT-53224,293.3299398005758,32.269286095946484,4095.017206280374,-1.7248372012676,60411.09484251869,10.5,10500060411.094843,47.655,-122.3035,60.0,3.283333333333333
2026-01-20T23:03:18+00:00,SAT-53224,293.2047186067232,32.289139392215546,4093.296968644976,-1.7138925420968465,60027.7665824965,10.5,10500060027.766582,47.655,-122.3035,60.0,3.3
2026-01-20T23:03:19+00:00,SAT-53224,293.07932786920117,32.30878147047529,4091.587646482992,-1.702932024698174,59643.88290025237,10.5,10500059643.8829,47.655,-122.3035,60.0,3.316666666666667
2026-01-20T23:03:20+00:00,SAT-53224,292.9537687148159,32.328211622415694,4089.889255610359,-1.6919557216057246,59259.44633623875,10.5,10500059259.446337,47.655,-122.3035,60.0,3.3333333333333335
2026-01-20T23:03:21+00:00,SAT-53224,292.82804228086235,32.34742914345787,4088.201811770678,-1.6809637185612565,58874.45989349469,10.5,10500058874.459894,47.655,-122.3035,60.0,3.35
2026-01-20T23:03:22+00:00,SAT-53224,292.70214971416743,32.36643333295828,4086.525330622033,-1.6699560892246166,58488.92615189964,10.5,10500058488.926151,47.655,-122.3035,60.0,3.3666666666666667
2026-01-20T23:03:23+00:00,SAT-53224,292.57609217198717,32.38522349412505,4084.859827749046,-1.6589329080672812,58102.847719759695,10.5,10500058102.84772,47.655,-122.3035,60.0,3.3833333333333333
2026-01-20T23:03:24+00:00,SAT-53224,292.44987082196076,32.403798934082275,4083.205318662067,-1.647894262316026,57716.227652125504,10.5,10500057716.227652,47.655,-122.3035,60.0,3.4
2026-01-20T23:03:25+00:00,SAT-53224,292.32348684117915,32.42215896406742,4081.5618187844507,-1.6368402288746657,57329.06864249396,10.5,10500057329.068642,47.655,-122.3035,60.0,3.4166666666666665
2026-01-20T23:03:26+00:00,SAT-53224,292.1969414169537,32.440302899368746,4079.9293434628526,-1.6257708799383597,56941.373219444955,10.5,10500056941.373219,47.655,-122.3035,60.0,3.433333333333333
2026-01-20T23:03:27+00:00,SAT-53224,292.070235747196,32.45823005932837,4078.3079079719278,-1.6146863070908515,56553.14459062856,10.5,10500056553.14459,47.655,-122.3035,60.0,3.45
2026-01-20T23:03:28+00:00,SAT-53224,291.94337103894804,32.47593976761137,4076.697527494989,-1.6035865915903833,56164.38560205215,10.5,10500056164.385603,47.655,-122.3035,60.0,3.466666666666667
2026-01-20T23:03:29+00:00,SAT-53224,291.81634850917476,32.49343135214376,4075.0982171343094,-1.5924718048860473,55775.098756165164,10.5,10500055775.098757,47.655,-122.3035,60.0,3.4833333333333334
2026-01-20T23:03:30+00:00,SAT-53224,291.6891693855157,32.51070414506079,4073.5099919209033,-1.581342037437914,55385.287221261904,10.5,10500055385.287222,47.655,-122.3035,60.0,3.5
2026-01-20T23:03:31+00:00,SAT-53224,291.5618349048451,32.5277574829685,4071.9328667955656,-1.570197374929294,54994.953998334364,10.5,10500054994.953999,47.655,-122.3035,60.0,3.5166666666666666
2026-01-20T23:03:32+00:00,SAT-53224,291.4343463136172,32.54459070694413,4070.366856613636,-1.5590378931942008,54604.101743410465,10.5,10500054604.101744,47.655,-122.3035,60.0,3.533333333333333
2026-01-20T23:03:33+00:00,SAT-53224,291.30670486865074,32.56120316248446,4068.8119761548232,-1.5478636817580875,54212.733592050274,10.5,10500054212.733593,47.655,-122.3035,60.0,3.55
2026-01-20T23:03:34+00:00,SAT-53224,291.1789118360549,32.57759419970664,4067.26824010955,-1.5366748227924674,53820.85242224776,10.5,10500053820.852423,47.655,-122.3035,60.0,3.566666666666667
2026-01-20T23:03:35+00:00,SAT-53224,291.05096849180967,32.593763173322955,4065.735663086285,-1.5254714067848538,53428.4614032584,10.5,10500053428.461403,47.655,-122.3035,60.0,3.5833333333333335
2026-01-20T23:03:36+00:00,SAT-53224,290.9228761210841,32.60970944278213,4064.214259603252,-1.514253512047847,53035.56327792074,10.5,10500053035.563278,47.655,-122.3035,60.0,3.6
2026-01-20T23:03:37+00:00,SAT-53224,290.7946360192367,32.62543237219474,4062.7040441005693,-1.5030212302144883,52642.16125561146,10.5,10500052642.161255,47.655,-122.3035,60.0,3.6166666666666667
2026-01-20T23:03:38+00:00,SAT-53224,290.6662494907128,32.64093133052612,4061.2050309269684,-1.4917746482218672,52248.25838123521,10.5,10500052248.25838,47.655,-122.3035,60.0,3.6333333333333333
2026-01-20T23:03:39+00:00,SAT-53224,290.5377178494323,32.6562056916002,4059.7172343444754,-1.4805138488716891,51853.857554857954,10.5,10500051853.857555,47.655,-122.3035,60.0,3.65
2026-01-20T23:03:40+00:00,SAT-53224,290.4090424191193,32.67125483410997,4058.240668532534,-1.4692389288314205,51458.96216218326,10.5,10500051458.962162,47.655,-122.3035,60.0,3.6666666666666665
2026-01-20T23:03:41+00:00,SAT-53224,290.28022453214146,32.68607814181261,4056.7753475741797,-1.4579499683606514,51063.57501424148,10.5,10500051063.575014,47.655,-122.3035,60.0,3.683333333333333
2026-01-20T23:03:42+00:00,SAT-53224,290.1512655308763,32.70067500341429,4055.321285472401,-1.446647061572027,50667.699407255546,10.5,10500050667.699408,47.655,-122.3035,60.0,3.7
2026-01-20T23:03:43+00:00,SAT-53224,290.02216676653165,32.71504481276393,4053.8784961363267,-1.4353302982857679,50271.33848710951,10.5,10500050271.338488,47.655,-122.3035,60.0,3.716666666666667
2026-01-20T23:03:44+00:00,SAT-53224,289.892929599493,32.729186968861086,4052.446993385503,-1.423999765330205,49874.49529489882,10.5,10500049874.495295,47.655,-122.3035,60.0,3.7333333333333334
2026-01-20T23:03:45+00:00,SAT-53224,289.76355539958183,32.743100875879406,4051.02679095288,-1.4126555560226193,49477.17309898938,10.5,10500049477.1731,47.655,-122.3035,60.0,3.75
2026-01-20T23:03:46+00:00,SAT-53224,289.6340455454643,32.75678594328237,4049.6179024783405,-1.4012977652857583,49079.37522397732,10.5,10500049079.375223,47.655,-122.3035,60.0,3.7666666666666666
2026-01-20T23:03:47+00:00,SAT-53224,289.5044014245016,32.77024158589004,4048.2203415070953,-1.3899264793375807,48681.10468958027,10.5,10500048681.104689,47.655,-122.3035,60.0,3.783333333333333
2026-01-20T23:03:48+00:00,SAT-53224,289.37462443349386,32.78346722384587,4046.8341214983693,-1.3785417896581535,48282.36469981714,10.5,10500048282.3647,47.655,-122.3035,60.0,3.8
2026-01-20T23:03:49+00:00,SAT-53224,289.2447159782215,32.79646228272084,4045.4592558201507,-1.3671437995782112,47883.15887376732,10.5,10500047883.158875,47.655,-122.3035,60.0,3.816666666666667
2026-01-20T23:03:50+00:00,SAT-53224,289.1146774723232,32.8092261936747,4044.095757737371,-1.3557325924259755,47483.490129937636,10.5,10500047483.49013,47.655,-122.3035,60.0,3.8333333333333335
2026-01-20T23:03:51+00:00,SAT-53224,288.9845103391081,32.82175839331881,4042.7436404318582,-1.3443082647128886,47083.361848567016,10.5,10500047083.361849,47.655,-122.3035,60.0,3.85
2026-01-20T23:03:52+00:00,SAT-53224,288.8542160103349,32.83405832389093,4041.4029169891846,-1.3328709133508698,46682.77742392083,10.5,10500046682.777424,47.655,-122.3035,60.0,3.8666666666666667
2026-01-20T23:03:53+00:00,SAT-53224,288.7237959261505,32.846125433308316,4040.073600398269,-1.3214206335177932,46281.74018953082,10.5,10500046281.740189,47.655,-122.3035,60.0,3.8833333333333333
2026-01-20T23:03:54+00:00,SAT-53224,288.5932515352092,32.85795917520181,4038.7557035531077,-1.3099575165875068,45880.25334569565,10.5,10500045880.253345,47.655,-122.3035,60.0,3.9
2026-01-20T23:03:55+00:00,SAT-53224,288.46258429503814,32.86955900893171,4037.449239256564,-1.298481666431492,45478.32053043398,10.5,10500045478.32053,47.655,-122.3035,60.0,3.9166666666666665
2026-01-20T23:03:56+00:00,SAT-53224,288.33179567079003,32.88092439974846,4036.15422020791,-1.2869931722433339,45075.94486768245,10.5,10500045075.944868,47.655,-122.3035,60.0,3.933333333333333
2026-01-20T23:03:57+00:00,SAT-53224,288.2008871366527,32.89205481871203,4034.870659017459,-1.2754921345799048,44673.129879368076,10.5,10500044673.129879,47.655,-122.3035,60.0,3.95
2026-01-20T23:03:58+00:00,SAT-53224,288.06986017470376,32.902949742841145,4033.5985681952384,-1.2639786554337964,44269.87913770286,10.5,10500044269.879137,47.655,-122.3035,60.0,3.966666666666667
2026-01-20T23:03:59+00:00,SAT-53224,287.93871627474493,32.91360865517218,4032.337960149552,-1.252452823661137,43866.19575480428,10.5,10500043866.195755,47.655,-122.3035,60.0,3.9833333333333334
2026-01-20T23:04:00+00:00,SAT-53224,287.8074569355699,32.92403104469695,4031.0888472000875,-1.2409147464693624,43462.083485530195,10.5,10500043462.083485,47.655,-122.3035,60.0,4.0
2026-01-20T23:04:01+00:00,SAT-53224,287.6760836631082,32.93421640656521,4029.8512415596088,-1.229364516984154,43057.54559153592,10.5,10500043057.545591,47.655,-122.3035,60.0,4.016666666666667
2026-01-20T23:04:02+00:00,SAT-53224,287.5445979718059,32.94416424201479,4028.625155348003,-1.21780224219543,42652.58582006094,10.5,10500042652.58582,47.655,-122.3035,60.0,4.033333333333333
2026-01-20T23:04:03+00:00,SAT-53224,287.4130013831839,32.953874058531795,4027.4106005784533,-1.206228015308154,42247.20743553735,10.5,10500042247.207436,47.655,-122.3035,60.0,4.05
2026-01-20T23:04:04+00:00,SAT-53224,287.281295427207,32.96334536978658,4026.207589171186,-1.1946419411995743,41841.41411121,10.5,10500041841.414112,47.655,-122.3035,60.0,4.066666666666666
2026-01-20T23:04:05+00:00,SAT-53224,287.1494816410643,32.9725776957733,4025.01613294183,-1.1830441211629732,41435.20939479811,10.5,10500041435.209394,47.655,-122.3035,60.0,4.083333333333333
2026-01-20T23:04:06+00:00,SAT-53224,287.0175615694744,32.98157056282748,4023.83624360499,-1.17143465406285,41028.59674895465,10.5,10500041028.596748,47.655,-122.3035,60.0,4.1
2026-01-20T23:04:07+00:00,SAT-53224,286.8855367649368,32.99032350365303,4022.6679327766715,-1.1598136451367802,40621.57985954467,10.5,10500040621.579859,47.655,-122.3035,60.0,4.116666666666666
2026-01-20T23:04:08+00:00,SAT-53224,286.7534087869905,32.998836057416774,4021.5112119679216,-1.148181197131047,40214.16232517761,10.5,10500040214.162325,47.655,-122.3035,60.0,4.133333333333334
2026-01-20T23:04:09+00:00,SAT-53224,286.6211792024478,33.00710776977305,4020.3660925873164,-1.1365374113851792,39806.34769519245,10.5,10500039806.347694,47.655,-122.3035,60.0,4.15
2026-01-20T23:04:10+00:00,SAT-53224,286.48884958550656,33.0151381928988,4019.2325859423613,-1.124882389803848,39398.139538721836,10.5,10500039398.139538,47.655,-122.3035,60.0,4.166666666666667
2026-01-20T23:04:11+00:00,SAT-53224,286.3564215176659,33.022926885543164,4018.1107032389305,-1.1132162459324981,38989.54183260751,10.5,10500038989.541832,47.655,-122.3035,60.0,4.183333333333334
2026-01-20T23:04:12+00:00,SAT-53224,286.2238965863419,33.03047341315017,4017.0004555696537,-1.101539072307784,38580.557817874556,10.5,10500038580.557817,47.655,-122.3035,60.0,4.2
2026-01-20T23:04:13+00:00,SAT-53224,286.0912763872292,33.03777734775794,4015.901853934872,-1.0898509815349433,38171.19143843473,10.5,10500038171.191439,47.655,-122.3035,60.0,4.216666666666667
2026-01-20T23:04:14+00:00,SAT-53224,285.95856252195506,33.044838268178765,4014.814909222621,-1.0781520782482954,37761.44635902448,10.5,10500037761.44636,47.655,-122.3035,60.0,4.233333333333333
2026-01-20T23:04:15+00:00,SAT-53224,285.8257565989557,33.051655759986296,4013.7396322165814,-1.0664424649222244,37351.32616873022,10.5,10500037351.326168,47.655,-122.3035,60.0,4.25
2026-01-20T23:04:16+00:00,SAT-53224,285.69286023367187,33.058229415545064,4012.6760335982326,-1.054722254338829,36940.834817658106,10.5,10500036940.834818,47.655,-122.3035,60.0,4.266666666666667
2026-01-20T23:04:17+00:00,SAT-53224,285.5598750473034,33.064558834115694,4011.624123936572,-1.042991548095307,36529.97586417174,10.5,10500036529.975864,47.655,-122.3035,60.0,4.283333333333333
2026-01-20T23:04:18+00:00,SAT-53224,285.4268026680651,33.0706436218267,4010.5839136992718,-1.0312504537014833,36118.75307372001,10.5,10500036118.753075,47.655,-122.3035,60.0,4.3
2026-01-20T23:04:19+00:00,SAT-53224,285.29364473046064,33.07648339175234,4009.5554132467796,-1.0194990841823863,35707.170404917444,10.5,10500035707.170404,47.655,-122.3035,60.0,4.316666666666666
2026-01-20T23:04:20+00:00,SAT-53224,285.16040287452927,33.08207776398219,4008.538632826822,-1.0077375426486914,35295.23146913609,10.5,10500035295.231468,47.655,-122.3035,60.0,4.333333333333333
2026-01-20T23:04:21+00:00,SAT-53224,285.0270787470278,33.08742636560479,4007.533582584287,-0.9959659387483054,34882.940106709444,10.5,10500034882.940107,47.655,-122.3035,60.0,4.35
2026-01-20T23:04:22+00:00,SAT-53224,284.89367400056227,33.092528830783706,4006.5402725547087,-0.9841843841548994,34470.30022892185,10.5,10500034470.300228,47.655,-122.3035,60.0,4.366666666666666
2026-01-20T23:04:23+00:00,SAT-53224,284.76019029328654,33.09738480080539,4005.5587126622445,-0.9723929843352558,34057.31552966614,10.5,10500034057.315529,47.655,-122.3035,60.0,4.383333333333334
2026-01-20T23:04:24+00:00,SAT-53224,284.62662928962493,33.10199392408563,4004.588912725868,-0.9605918550496408,33643.99006335653,10.5,10500033643.990063,47.655,-122.3035,60.0,4.4
2026-01-20T23:04:25+00:00,SAT-53224,284.4929926589026,33.10635585625703,4003.6308824490984,-0.94878110102741,33230.327498058025,10.5,10500033230.327497,47.655,-122.3035,60.0,4.416666666666667
2026-01-20T23:04:26+00:00,SAT-53224,284.35928207671,33.110470260152994,4002.684631431007,-0.9369608371816274,32816.331858512225,10.5,10500032816.331858,47.655,-122.3035,60.0,4.433333333333334
2026-01-20T23:04:27+00:00,SAT-53224,284.22549922352124,33.11433680589132,4001.750169156058,-0.9251311716009812,32402.006930442203,10.5,10500032402.006931,47.655,-122.3035,60.0,4.45
2026-01-20T23:04:28+00:00,SAT-53224,284.09164578553634,33.117955170879256,4000.8275050009142,-0.9132922191070556,31987.356735385532,10.5,10500031987.356735,47.655,-122.3035,60.0,4.466666666666667
2026-01-20T23:04:29+00:00,SAT-53224,283.9577234537197,33.12132503987677,3999.916648227725,-0.901444088705876,31572.385091194312,10.5,10500031572.385092,47.655,-122.3035,60.0,4.483333333333333
2026-01-20T23:04:30+00:00,SAT-53224,283.8237339245269,33.12444610500769,3999.017607989922,-0.8895868959366324,31157.09604453972,10.5,10500031157.096045,47.655,-122.3035,60.0,4.5
2026-01-20T23:04:31+00:00,SAT-53224,283.68967889895094,33.12731806581812,3998.130393325708,-0.8777207513808316,30741.493468453875,10.5,10500030741.49347,47.655,-122.3035,60.0,4.516666666666667
2026-01-20T23:04:32+00:00,SAT-53224,283.55556008313204,33.129940629291276,3997.2550131629973,-0.8658457683780887,30325.58133256952,10.5,10500030325.581333,47.655,-122.3035,60.0,4.533333333333333
2026-01-20T23:04:33+00:00,SAT-53224,283.4213791879454,33.13231350989132,3996.3914763166686,-0.8539620620498372,29909.363668926224,10.5,10500029909.363668,47.655,-122.3035,60.0,4.55
2026-01-20T23:04:34+00:00,SAT-53224,283.28713792864096,33.13443642959898,3995.5397914867845,-0.8420697456996091,29492.84444589295,10.5,10500029492.844446,47.655,-122.3035,60.0,4.566666666666666
2026-01-20T23:04:35+00:00,SAT-53224,283.15283802506934,33.13630911793811,3994.6999672604065,-0.8301689344620516,29076.027695972065,10.5,10500029076.027697,47.655,-122.3035,60.0,4.583333333333333
2026-01-20T23:04:36+00:00,SAT-53224,283.018481201331,33.13793131201068,3993.8720121097695,-0.8182597417143883,28658.917390113522,10.5,10500028658.91739,47.655,-122.3035,60.0,4.6
2026-01-20T23:04:37+00:00,SAT-53224,282.8840691859844,33.139302756523385,3993.055934394033,-0.8063422819570082,28241.517538605272,10.5,10500028241.517538,47.655,-122.3035,60.0,4.616666666666666
2026-01-20T23:04:38+00:00,SAT-53224,282.7496037118118,33.14042320382081,3992.2517423581617,-0.7944166748670268,27823.832333046154,10.5,10500027823.832333,47.655,-122.3035,60.0,4.633333333333334
2026-01-20T23:04:39+00:00,SAT-53224,282.6150865149561,33.14129241392162,3991.459444127761,-0.7824830321719867,27405.8656866073,10.5,10500027405.865686,47.655,-122.3035,60.0,4.65
2026-01-20T23:04:40+00:00,SAT-53224,282.48051933606655,33.14191015453386,3990.679047717008,-0.7705414708905056,26987.621697775696,10.5,10500026987.621698,47.655,-122.3035,60.0,4.666666666666667
2026-01-20T23:04:41+00:00,SAT-53224,282.3459039194485,33.14227620109226,3989.9105610233732,-0.7585921089255041,26569.104496010346,10.5,10500026569.104496,47.655,-122.3035,60.0,4.683333333333334
2026-01-20T23:04:42+00:00,SAT-53224,282.21124201280526,33.14239033678425,3989.153991826738,-0.7466350631919236,26150.318176167053,10.5,10500026150.318176,47.655,-122.3035,60.0,4.7
2026-01-20T23:04:43+00:00,SAT-53224,282.0765353673489,33.14225235257435,3988.4093477903816,-0.7346704496665317,25731.266800242796,10.5,10500025731.2668,47.655,-122.3035,60.0,4.716666666666667
2026-01-20T23:04:44+00:00,SAT-53224,281.94178573787417,33.14186204723041,3987.676636461914,-0.7226983866852519,25311.954512862176,10.5,10500025311.954514,47.655,-122.3035,60.0,4.733333333333333
2026-01-20T23:04:45+00:00,SAT-53224,281.8069948823201,33.1412192273497,3986.9558652709266,-0.7107189909221293,24892.385400443793,10.5,10500024892.3854,47.655,-122.3035,60.0,4.75
2026-01-20T23:04:46+00:00,SAT-53224,281.67216456195604,33.14032370738301,3986.247041530647,-0.6987323849861999,24472.563757274707,10.5,10500024472.563757,47.655,-122.3035,60.0,4.766666666666667
2026-01-20T23:04:47+00:00,SAT-53224,281.5372965402969,33.13917530965317,3985.5501724320206,-0.6867386813505637,24052.493522638648,10.5,10500024052.493523,47.655,-122.3035,60.0,4.783333333333333
2026-01-20T23:04:48+00:00,SAT-53224,281.40239258478755,33.137773864387775,3984.86526505382,-0.674738003256482,23632.1790129659,10.5,10500023632.179012,47.655,-122.3035,60.0,4.8
2026-01-20T23:04:49+00:00,SAT-53224,281.2674544648672,33.1361192097305,3984.1923263519056,-0.6627304686561724,23211.624359442056,10.5,10500023211.62436,47.655,-122.3035,60.0,4.816666666666666
2026-01-20T23:04:50+00:00,SAT-53224,281.13248395278225,33.13421119176684,3983.5313631644995,-0.6507161977014277,22790.83377029115,10.5,10500022790.83377,47.655,-122.3035,60.0,4.833333333333333
2026-01-20T23:04:51+00:00,SAT-53224,280.99748282315886,33.13204966454223,3982.882382209992,-0.6386953090910409,22369.811402846997,10.5,10500022369.811403,47.655,-122.3035,60.0,4.85
2026-01-20T23:04:52+00:00,SAT-53224,280.8624528531734,33.129634490085515,3982.2453900883916,-0.6266679235094192,21948.561483988036,10.5,10500021948.561483,47.655,-122.3035,60.0,4.866666666666666
2026-01-20T23:04:53+00:00,SAT-53224,280.7273958221167,33.126965538423036,3981.6203932793446,-0.6146341604105698,21527.088197498895,10.5,10500021527.088198,47.655,-122.3035,60.0,4.883333333333334
2026-01-20T23:04:54+00:00,SAT-53224,280.5923135115778,33.12404268760278,3981.0073981433625,-0.6025941436689954,21105.39588198864,10.5,10500021105.395882,47.655,-122.3035,60.0,4.9
2026-01-20T23:04:55+00:00,SAT-53224,280.45720770444285,33.12086582369222,3980.4064109174096,-0.5905479911022359,20683.488663925884,10.5,10500020683.488665,47.655,-122.3035,60.0,4.916666666666667
2026-01-20T23:04:56+00:00,SAT-53224,280.32208018607633,33.117434840821446,3979.8174377209502,-0.5784958240406454,20261.37079281286,10.5,10500020261.370792,47.655,-122.3035,60.0,4.933333333333334
2026-01-20T23:04:57+00:00,SAT-53224,280.18693274351966,33.11374964118661,3979.24048455244,-0.5664377676023409,19839.046650815275,10.5,10500019839.04665,47.655,-122.3035,60.0,4.95
2026-01-20T23:04:58+00:00,SAT-53224,280.05176716462074,33.10981013504199,3978.675557285552,-0.5543739390468364,19416.520344857316,10.5,10500019416.520346,47.655,-122.3035,60.0,4.966666666666667
2026-01-20T23:04:59+00:00,SAT-53224,279.91658523961786,33.10561624076026,3978.122661677009,-0.5423044625286639,18993.796223355865,10.5,10500018993.796223,47.655,-122.3035,60.0,4.983333333333333
2026-01-20T23:05:00+00:00,SAT-53224,279.78138875960735,33.1011678848079,3977.581803359714,-0.5302294613109378,18570.87860350659,10.5,10500018570.878603,47.655,-122.3035,60.0,5.0
2026-01-20T23:05:01+00:00,SAT-53224,279.64617951662274,33.09646500176007,3977.052987843633,-0.5181490565613824,18147.77172911573,10.5,10500018147.771729,47.655,-122.3035,60.0,5.016666666666667
2026-01-20T23:05:02+00:00,SAT-53224,279.51095930404995,33.09150753432978,3976.536220517889,-0.5060633711380608,17724.479903192358,10.5,10500017724.479902,47.655,-122.3035,60.0,5.033333333333333
2026-01-20T23:05:03+00:00,SAT-53224,279.3757299161521,33.086295433367845,3976.0315066490743,-0.4939725290664172,17301.007469632143,10.5,10500017301.00747,47.655,-122.3035,60.0,5.05
2026-01-20T23:05:04+00:00,SAT-53224,279.240493147743,33.08082865786398,3975.538851380085,-0.4818766531460695,16877.358729397154,10.5,10500016877.35873,47.655,-122.3035,60.0,5.066666666666666
2026-01-20T23:05:05+00:00,SAT-53224,279.1052507943511,33.075107174965865,3975.058259731348,-0.4697758682181545,16453.538054952078,10.5,10500016453.538055,47.655,-122.3035,60.0,5.083333333333333
2026-01-20T23:05:06+00:00,SAT-53224,278.9700046516786,33.069130959969414,3974.589736598778,-0.4576702938525535,16029.549634139934,10.5,10500016029.549635,47.655,-122.3035,60.0,5.1
2026-01-20T23:05:07+00:00,SAT-53224,278.83475651684995,33.062899996386754,3974.133286759042,-0.4455600591086274,15605.397987165466,10.5,10500015605.397987,47.655,-122.3035,60.0,5.116666666666666
2026-01-20T23:05:08+00:00,SAT-53224,278.6995081859183,33.05641427584782,3973.6889148600912,-0.4334452863865335,15181.087400999933,10.5,10500015181.0874,47.655,-122.3035,60.0,5.133333333333334
2026-01-20T23:05:09+00:00,SAT-53224,278.56426145544526,33.049673798178944,3973.2566254278017,-0.42132609823635364,14756.622167865587,10.5,10500014756.622168,47.655,-122.3035,60.0,5.15
2026-01-20T23:05:10+00:00,SAT-53224,278.4290181224851,33.042678571417554,3972.8364228658274,-0.40920262157631904,14332.00673297575,10.5,10500014332.006733,47.655,-122.3035,60.0,5.166666666666667
2026-01-20T23:05:11+00:00,SAT-53224,278.29377998325305,33.03542861175512,3972.428311451242,-0.3970749808379411,13907.245454448299,10.5,10500013907.245455,47.655,-122.3035,60.0,5.183333333333334
2026-01-20T23:05:12+00:00,SAT-53224,278.1585488337589,33.02792394357641,3972.0322953370196,-0.3849432998647215,13482.342669806509,10.5,10500013482.34267,47.655,-122.3035,60.0,5.2
2026-01-20T23:05:13+00:00,SAT-53224,278.02332646987145,33.0201645994736,3971.648378552621,-0.37280770540768665,13057.302818407492,10.5,10500013057.302818,47.655,-122.3035,60.0,5.216666666666667
2026-01-20T23:05:14+00:00,SAT-53224,277.8881146864508,33.01215062020583,3971.2765650010947,-0.3606683219618757,12632.130260594131,10.5,10500012632.13026,47.655,-122.3035,60.0,5.233333333333333
2026-01-20T23:05:15+00:00,SAT-53224,277.75291527783617,33.00388205473283,3970.9168584613244,-0.34852527387240306,12206.82935145831,10.5,10500012206.829351,47.655,-122.3035,60.0,5.25
2026-01-20T23:05:16+00:00,SAT-53224,277.6177300379536,32.995358960231194,3970.5692625881825,-0.33637869006039367,11781.40460636316,10.5,10500011781.404606,47.655,-122.3035,60.0,5.266666666666667
2026-01-20T23:05:17+00:00,SAT-53224,277.48256075864924,32.98658140199594,3970.2337809079627,-0.32422869322483816,11355.860322746346,10.5,10500011355.860323,47.655,-122.3035,60.0,5.283333333333333
2026-01-20T23:05:18+00:00,SAT-53224,277.34740923172984,32.9775494535742,3969.9104168245863,-0.31207541035003583,10930.200948135182,10.5,10500010930.200949,47.655,-122.3035,60.0,5.3
2026-01-20T23:05:19+00:00,SAT-53224,277.21227724741516,32.96826319667272,3969.5991736153305,-0.29991896946823554,10504.430966760588,10.5,10500010504.430967,47.655,-122.3035,60.0,5.316666666666666
2026-01-20T23:05:20+00:00,SAT-53224,277.07716659389365,32.958722721128666,3969.3000544297806,-0.287759494391429,10078.554715042248,10.5,10500010078.554714,47.655,-122.3035,60.0,5.333333333333333
2026-01-20T23:05:21+00:00,SAT-53224,276.9420790586813,32.94892812500642,3969.013062294041,-0.27559711160992617,9652.57662320586,10.5,10500009652.576624,47.655,-122.3035,60.0,5.35
2026-01-20T23:05:22+00:00,SAT-53224,276.8070164277594,32.938879514544944,3968.738200108062,-0.2634319507512775,9226.501231356573,10.5,10500009226.501232,47.655,-122.3035,60.0,5.366666666666666
2026-01-20T23:05:23+00:00,SAT-53224,276.6719804840079,32.928577004040356,3968.475470642513,-0.2512641349789865,8800.332853201257,10.5,10500008800.332853,47.655,-122.3035,60.0,5.383333333333334
2026-01-20T23:05:24+00:00,SAT-53224,276.536973009913,32.9180207160501,3968.2248765452273,-0.23909379341136727,8374.076011009445,10.5,10500008374.076012,47.655,-122.3035,60.0,5.4
2026-01-20T23:05:25+00:00,SAT-53224,276.4019957849227,32.907210781195126,3967.986420335265,-0.22692105180231947,7947.735109214637,10.5,10500007947.73511,47.655,-122.3035,60.0,5.416666666666667
2026-01-20T23:05:26+00:00,SAT-53224,276.26705058685013,32.89614733826674,3967.760104406267,-0.21474603798283678,7521.314624998959,10.5,10500007521.314625,47.655,-122.3035,60.0,5.433333333333334
2026-01-20T23:05:27+00:00,SAT-53224,276.13213919086456,32.88483053414787,3967.5459310243855,-0.20256887911560376,7094.819012137521,10.5,10500007094.819012,47.655,-122.3035,60.0,5.45
2026-01-20T23:05:28+00:00,SAT-53224,275.9972633696911,32.87326052382604,3967.3439023289475,-0.19038970202788014,6668.25271265744,10.5,10500006668.252712,47.655,-122.3035,60.0,5.466666666666667
2026-01-20T23:05:29+00:00,SAT-53224,275.86242489369306,32.861437470399714,3967.154020332792,-0.17820863438599632,6241.620197973631,10.5,10500006241.620197,47.655,-122.3035,60.0,5.483333333333333
2026-01-20T23:05:30+00:00,SAT-53224,275.72762553042685,32.84936154503846,3966.976286921431,-0.16602580344005086,5814.925924922814,10.5,10500005814.925924,47.655,-122.3035,60.0,5.5
2026-01-20T23:05:31+00:00,SAT-53224,275.5928670447126,32.8370329269867,3966.8107038534667,-0.15384133747894338,5388.174386724917,10.5,10500005388.174387,47.655,-122.3035,60.0,5.516666666666667
2026-01-20T23:05:32+00:00,SAT-53224,275.4581511979872,32.82445180349918,3966.6572727595544,-0.1416553629767208,4961.370013036047,10.5,10500004961.370012,47.655,-122.3035,60.0,5.533333333333333
2026-01-20T23:05:33+00:00,SAT-53224,275.3234797493425,32.81161836993579,3966.515995144212,-0.12946800878589854,4534.517316816338,10.5,10500004534.517317,47.655,-122.3035,60.0,5.55
2026-01-20T23:05:34+00:00,SAT-53224,275.1888544539062,32.79853282960261,3966.38687238345,-0.11727940194922139,4107.620747640104,10.5,10500004107.620749,47.655,-122.3035,60.0,5.566666666666666
2026-01-20T23:05:35+00:00,SAT-53224,275.0542770638858,32.78519539384562,3966.2699057265727,-0.10508967074644109,3680.6847984068745,10.5,10500003680.6848,47.655,-122.3035,60.0,5.583333333333333
2026-01-20T23:05:36+00:00,SAT-53224,274.91974932780727,32.77160628197258,3966.165096294948,-0.09289894253387404,3253.7139296735654,10.5,10500003253.71393,47.655,-122.3035,60.0,5.6
2026-01-20T23:05:37+00:00,SAT-53224,274.78527299091905,32.75776572128494,3966.0724450829275,-0.08070734548759514,2826.712630708505,10.5,10500002826.712631,47.655,-122.3035,60.0,5.616666666666666
2026-01-20T23:05:38+00:00,SAT-53224,274.6508497946468,32.74367394701676,3965.991952957028,-0.06851500810843172,2399.6854021542235,10.5,10500002399.685402,47.655,-122.3035,60.0,5.633333333333334
2026-01-20T23:05:39+00:00,SAT-53224,274.51648147602407,32.7293312022659,3965.923620655608,-0.056322057877722286,1972.6367089464404,10.5,10500001972.63671,47.655,-122.3035,60.0,5.65
2026-01-20T23:05:40+00:00,SAT-53224,274.38216976866585,32.714737738086164,3965.8674487898843,-0.044128622575638494,1545.5710264872782,10.5,10500001545.571026,47.655,-122.3035,60.0,5.666666666666667
2026-01-20T23:05:41+00:00,SAT-53224,274.24791640229637,32.6998938134316,3965.8234378436355,-0.03193483096779019,1118.4928646930705,10.5,10500001118.492865,47.655,-122.3035,60.0,5.683333333333334
2026-01-20T23:05:42+00:00,SAT-53224,274.1137231017961,32.68479969504043,3965.791588172217,-0.01974081055127066,691.4066890513367,10.5,10500000691.406689,47.655,-122.3035,60.0,5.7
2026-01-20T23:05:43+00:00,SAT-53224,273.9795915882342,32.66945565753813,3965.7719000038273,-0.007546689879253862,264.3170020380084,10.5,10500000264.317001,47.655,-122.3035,60.0,5.716666666666667
2026-01-20T23:05:44+00:00,SAT-53224,273.84552357780746,32.65386198330725,3965.764373438454,0.004647403345337908,-162.77172365039294,10.5,10499999837.228277,47.655,-122.3035,60.0,5.733333333333333
2026-01-20T23:05:45+00:00,SAT-53224,273.7115207824502,32.63801896254401,3965.769008448724,0.016841340750765137,-589.8549918925377,10.5,10499999410.145008,47.655,-122.3035,60.0,5.75
2026-01-20T23:05:46+00:00,SAT-53224,273.57758490941364,32.62192689319942,3965.7858048792327,0.02903499427733526,-1016.9283174963002,10.5,10499998983.071682,47.655,-122.3035,60.0,5.766666666666667
2026-01-20T23:05:47+00:00,SAT-53224,273.44371766069736,32.605586080895634,3965.814762446859,0.04122823601578876,-1443.9872205383565,10.5,10499998556.01278,47.655,-122.3035,60.0,5.783333333333333
2026-01-20T23:05:48+00:00,SAT-53224,273.3099207341329,32.58899683904333,3965.8558807409117,0.053420937717375314,-1871.0272092049788,10.5,10499998128.972792,47.655,-122.3035,60.0,5.8
2026-01-20T23:05:49+00:00,SAT-53224,273.17619582174734,32.5721594886284,3965.909159222795,0.06561297136661746,-2298.043799852641,10.5,10499997701.9562,47.655,-122.3035,60.0,5.816666666666666
2026-01-20T23:05:50+00:00,SAT-53224,273.0425446109544,32.55507435834239,3965.9745972262385,0.07780420907509268,-2725.0325132878197,10.5,10499997274.967487,47.655,-122.3035,60.0,5.833333333333333
2026-01-20T23:05:51+00:00,SAT-53224,272.9089687833468,32.53774178441464,3966.0521939574223,0.08999452262301923,-3151.9888587113883,10.5,10499996848.01114,47.655,-122.3035,60.0,5.85
2026-01-20T23:05:52+00:00,SAT-53224,272.77547001578307,32.52016211073594,3966.141948494652,0.10218378424852126,-3578.9083613620237,10.5,10499996421.091639,47.655,-122.3035,60.0,5.866666666666666
2026-01-20T23:05:53+00:00,SAT-53224,272.6420499792927,32.50233568869902,3966.243859788809,0.11437186604945436,-4005.786541565601,10.5,10499995994.213459,47.655,-122.3035,60.0,5.883333333333334
2026-01-20T23:05:54+00:00,SAT-53224,272.5087103390836,32.484262877180264,3966.357926663216,0.12655864016890564,-4432.618921232199,10.5,10499995567.381079,47.655,-122.3035,60.0,5.9
2026-01-20T23:05:55+00:00,SAT-53224,272.37545275495916,32.46594404257715,3966.4841478136773,0.1387439787204855,-4859.401021239492,10.5,10499995140.598978,47.655,-122.3035,60.0,5.916666666666667
2026-01-20T23:05:56+00:00,SAT-53224,272.2422788808978,32.447379558732926,3966.6225218084546,0.15092775425233215,-5286.128377684164,10.5,10499994713.871622,47.655,-122.3035,60.0,5.933333333333334
2026-01-20T23:05:57+00:00,SAT-53224,272.10919036460785,32.42856980685521,3966.773047088696,0.16310983874998464,-5712.796506958287,10.5,10499994287.203493,47.655,-122.3035,60.0,5.95
2026-01-20T23:05:58+00:00,SAT-53224,271.9761888480839,32.40951517557213,3966.9357219678755,0.175290105089383,-6139.400956639548,10.5,10499993860.599043,47.655,-122.3035,60.0,5.966666666666667
2026-01-20T23:05:59+00:00,SAT-53224,271.8432759669389,32.390216060816755,3967.110544632685,0.18746842517322632,-6565.937240218619,10.5,10499993434.06276,47.655,-122.3035,60.0,5.983333333333333
2026-01-20T23:06:00+00:00,SAT-53224,271.71045335096693,32.37067286588839,3967.2975131420576,0.19964467229419489,-6992.400919869193,10.5,10499993007.599081,47.655,-122.3035,60.0,6.0
2026-01-20T23:06:01+00:00,SAT-53224,271.5777226229485,32.350886001254395,3967.4966254285587,0.21181871867669094,-7418.787520349344,10.5,10499992581.21248,47.655,-122.3035,60.0,6.016666666666667
2026-01-20T23:06:02+00:00,SAT-53224,271.4450853996344,32.33085588467115,3967.7078792973193,0.2239904372078354,-7845.0925896283625,10.5,10499992154.90741,47.655,-122.3035,60.0,6.033333333333333
2026-01-20T23:06:03+00:00,SAT-53224,271.31254329119895,32.31058294108093,3967.9312724266947,0.23615970109391116,-8271.311686853935,10.5,10499991728.688313,47.655,-122.3035,60.0,6.05
2026-01-20T23:06:04+00:00,SAT-53224,271.18009790073376,32.29006760250899,3968.1668023685856,0.2483263826792603,-8697.440340984938,10.5,10499991302.55966,47.655,-122.3035,60.0,6.066666666666666
2026-01-20T23:06:05+00:00,SAT-53224,271.0477508252915,32.26931030820028,3968.414466547578,0.26049035597213643,-9123.474139257474,10.5,10499990876.52586,47.655,-122.3035,60.0,6.083333333333333
2026-01-20T23:06:06+00:00,SAT-53224,270.9155036542244,32.2483115043342,3968.6742622626007,0.2726514934175094,-9549.408614154823,10.5,10499990450.591387,47.655,-122.3035,60.0,6.1
2026-01-20T23:06:07+00:00,SAT-53224,270.78335797064904,32.22707164422987,3968.946186685369,0.2848096683919155,-9975.239330787677,10.5,10499990024.76067,47.655,-122.3035,60.0,6.116666666666666
2026-01-20T23:06:08+00:00,SAT-53224,270.6513153504236,32.205591188157904,3969.230236861312,0.2969647557497945,-10400.961906029142,10.5,10499989599.038094,47.655,-122.3035,60.0,6.133333333333334
2026-01-20T23:06:09+00:00,SAT-53224,270.5193773616045,32.18387060322087,3969.526409711046,0.30911662761797026,-10826.571861219698,10.5,10499989173.428139,47.655,-122.3035,60.0,6.15
2026-01-20T23:06:10+00:00,SAT-53224,270.3875455658561,32.161910363556736,3969.834702027657,0.32126515788526494,-11252.064779412436,10.5,10499988747.93522,47.655,-122.3035,60.0,6.166666666666667
2026-01-20T23:06:11+00:00,SAT-53224,270.25582151739053,32.13971095013971,3970.155110478455,0.3334102215301238,-11677.436281823673,10.5,10499988322.563719,47.655,-122.3035,60.0,6.183333333333334
2026-01-20T23:06:12+00:00,SAT-53224,270.12420676246256,32.1172728506613,3970.487631606061,0.34555169191739415,-12102.681933154698,10.5,10499987897.318068,47.655,-122.3035,60.0,6.2
2026-01-20T23:06:13+00:00,SAT-53224,269.99270284022475,32.09459655964579,3970.8322618268,0.3576894434344618,-12527.797333920416,10.5,10499987472.202665,47.655,-122.3035,60.0,6.216666666666667
2026-01-20T23:06:14+00:00,SAT-53224,269.86131128212025,32.07168257831633,3971.1889974317182,0.36982335061050536,-12952.778089601929,10.5,10499987047.22191,47.655,-122.3035,60.0,6.233333333333333
2026-01-20T23:06:15+00:00,SAT-53224,269.73003361188455,32.04853141456522,3971.5578345867275,0.38195328776125176,-13377.619798204341,10.5,10499986622.380201,47.655,-122.3035,60.0,6.25
2026-01-20T23:06:16+00:00,SAT-53224,269.59887134558494,32.025143582926916,3971.938769332388,0.39407913094358843,-13802.318118715577,10.5,10499986197.68188,47.655,-122.3035,60.0,6.266666666666667
2026-01-20T23:06:17+00:00,SAT-53224,269.4678259908859,32.00151960441638,3972.331797585649,0.40620075253692467,-14226.868581322713,10.5,10499985773.131418,47.655,-122.3035,60.0,6.283333333333333
2026-01-20T23:06:18+00:00,SAT-53224,269.33689904855885,31.977660006766598,3972.736915136179,0.4183180304277392,-14651.266909093696,10.5,10499985348.733091,47.655,-122.3035,60.0,6.3
2026-01-20T23:06:19+00:00,SAT-53224,269.2060920102809,31.953565323997665,3973.154117651859,0.4304308388041955,-15075.508695565826,10.5,10499984924.491304,47.655,-122.3035,60.0,6.316666666666666
2026-01-20T23:06:20+00:00,SAT-53224,269.0754063600448,31.9292360966369,3973.583400675093,0.44253905253445514,-15499.589558092817,10.5,10499984500.410442,47.655,-122.3035,60.0,6.333333333333333
2026-01-20T23:06:21+00:00,SAT-53224,268.94484357395305,31.90467287164972,3974.0247596234876,0.45464254896780854,-15923.505200928,10.5,10499984076.494799,47.655,-122.3035,60.0,6.35
2026-01-20T23:06:22+00:00,SAT-53224,268.81440511921664,31.879876202215126,3974.478189792325,0.4667412034074531,-16347.251256661893,10.5,10499983652.748743,47.655,-122.3035,60.0,6.366666666666666
2026-01-20T23:06:23+00:00,SAT-53224,268.6840924550002,31.854846647848873,3974.943686352523,0.47883489045575167,-16770.8233333388,10.5,10499983229.176666,47.655,-122.3035,60.0,6.383333333333334
2026-01-20T23:06:24+00:00,SAT-53224,268.55390703247275,31.829584774380113,3975.4212443499373,0.49092349054688866,-17194.217243258103,10.5,10499982805.782757,47.655,-122.3035,60.0,6.4
2026-01-20T23:06:25+00:00,SAT-53224,268.4238502931437,31.80409115358678,3975.910858711176,0.5030068756557302,-17617.42850243807,10.5,10499982382.571497,47.655,-122.3035,60.0,6.416666666666667
2026-01-20T23:06:26+00:00,SAT-53224,268.2939236713189,31.778366363641922,3976.412524235164,0.5150849253082723,-18040.452891369467,10.5,10499981959.547108,47.655,-122.3035,60.0,6.433333333333334
2026-01-20T23:06:27+00:00,SAT-53224,268.16412859191706,31.752410988645096,3976.926235600671,0.5271575163948828,-18463.28609823223,10.5,10499981536.713902,47.655,-122.3035,60.0,6.45
2026-01-20T23:06:28+00:00,SAT-53224,268.0344664711562,31.72622561871789,3977.451987363689,0.5392245270342968,-18885.923854228902,10.5,10499981114.076145,47.655,-122.3035,60.0,6.466666666666667
2026-01-20T23:06:29+00:00,SAT-53224,267.90493871636005,31.69981084992317,3977.989773958651,0.5512858322207143,-19308.361781127594,10.5,10499980691.638218,47.655,-122.3035,60.0,6.483333333333333
2026-01-20T23:06:30+00:00,SAT-53224,267.7755467266303,31.67316728436857,3978.539589695319,0.5633413131811427,-19730.5957189957,10.5,10499980269.404282,47.655,-122.3035,60.0,6.5
2026-01-20T23:06:31+00:00,SAT-53224,267.64629189131966,31.64629552984625,3979.1014287649987,0.5753908452192877,-20152.621300441522,10.5,10499979847.3787,47.655,-122.3035,60.0,6.516666666666667
2026-01-20T23:06:32+00:00,SAT-53224,267.51717559153224,31.619196200104717,3979.675285234631,0.5874343084379745,-20574.43432615884,10.5,10499979425.565674,47.655,-122.3035,60.0,6.533333333333333
2026-01-20T23:06:33+00:00,SAT-53224,267.3881991989046,31.59186991455445,3980.261153051579,0.5994715809772835,-20996.030528097795,10.5,10499979003.969471,47.655,-122.3035,60.0,6.55
2026-01-20T23:06:34+00:00,SAT-53224,267.25936407608424,31.564317298322607,3980.859026041674,0.6115025415378614,-21417.40565784195,10.5,10499978582.594341,47.655,-122.3035,60.0,6.566666666666666
2026-01-20T23:06:35+00:00,SAT-53224,267.1306715766442,31.536538982195875,3981.4688979097677,0.6235270713492568,-21838.555555547686,10.5,10499978161.444445,47.655,-122.3035,60.0,6.583333333333333
2026-01-20T23:06:36+00:00,SAT-53224,267.0021230444301,31.508535602432126,3982.0907622422606,0.6355450457177163,-22259.475853912314,10.5,10499977740.524147,47.655,-122.3035,60.0,6.6
2026-01-20T23:06:37+00:00,SAT-53224,266.8737198150274,31.48030780103959,3982.7246125011893,0.6475563483523927,-22680.16247993845,10.5,10499977319.83752,47.655,-122.3035,60.0,6.616666666666666
2026-01-20T23:06:38+00:00,SAT-53224,266.7454632137608,31.451856225293092,3983.370442032613,0.6595608591075918,-23100.61122561567,10.5,10499976899.388775,47.655,-122.3035,60.0,6.633333333333334
2026-01-20T23:06:39+00:00,SAT-53224,266.6173545566634,31.42318152789949,3984.0282440627625,0.6715584559312867,-23520.817816165712,10.5,10499976479.182184,47.655,-122.3035,60.0,6.65
2026-01-20T23:06:40+00:00,SAT-53224,266.489395150842,31.3942843670375,3984.698011696145,0.6835490215019604,-23940.778142492778,10.5,10499976059.221857,47.655,-122.3035,60.0,6.666666666666667
2026-01-20T23:06:41+00:00,SAT-53224,266.36158629348563,31.365165406089677,3985.3797379202565,0.6955324370090118,-24360.488043347053,10.5,10499975639.511957,47.655,-122.3035,60.0,6.683333333333334
2026-01-20T23:06:42+00:00,SAT-53224,266.23392927224506,31.335825313675702,3986.0734156040994,0.7075085815794842,-24779.943285246303,10.5,10499975220.056715,47.655,-122.3035,60.0,6.7
2026-01-20T23:06:43+00:00,SAT-53224,266.1064253655738,31.306264763693466,3986.7790374961287,0.7194773405462922,-25199.139852064152,10.5,10499974800.860147,47.655,-122.3035,60.0,6.716666666666667
2026-01-20T23:06:44+00:00,SAT-53224,265.9790758415753,31.27648443499443,3987.496596230433,0.7314385924947169,-25618.07349134356,10.5,10499974381.926508,47.655,-122.3035,60.0,6.733333333333333
2026-01-20T23:06:45+00:00,SAT-53224,265.85188195936456,31.2464850116602,3988.2260843200147,0.7433922209855107,-26036.74012488954,10.5,10499973963.259874,47.655,-122.3035,60.0,6.75
2026-01-20T23:06:46+00:00,SAT-53224,265.72484496802565,31.216267182707238,3988.967494161744,0.7553381112743389,-26455.13573387012,10.5,10499973544.864265,47.655,-122.3035,60.0,6.766666666666667
2026-01-20T23:06:47+00:00,SAT-53224,265.5979661064489,31.185831641994707,3989.7208180380553,0.7672761405859779,-26873.256018177643,10.5,10499973126.743982,47.655,-122.3035,60.0,6.783333333333333
2026-01-20T23:06:48+00:00,SAT-53224,265.47124660472275,31.155179088516235,3990.486048108933,0.7792061973910916,-27291.09707158298,10.5,10499972708.90293,47.655,-122.3035,60.0,6.8
2026-01-20T23:06:49+00:00,SAT-53224,265.3446876821564,31.124310225867504,3991.263176423131,0.7911281654750656,-27708.654823758738,10.5,10499972291.345177,47.655,-122.3035,60.0,6.816666666666666
2026-01-20T23:06:50+00:00,SAT-53224,265.21829054816453,31.093225762407677,3992.052194913498,0.8030419249463151,-28125.925075594492,10.5,10499971874.074924,47.655,-122.3035,60.0,6.833333333333333
2026-01-20T23:06:51+00:00,SAT-53224,265.09205640292123,31.06192641137682,3992.8530953933114,0.8149473617918341,-28542.903833872493,10.5,10499971457.096167,47.655,-122.3035,60.0,6.85
2026-01-20T23:06:52+00:00,SAT-53224,264.9659864363315,31.030412890586216,3993.665869562138,0.8268443633179545,-28959.58715158379,10.5,10499971040.412848,47.655,-122.3035,60.0,6.866666666666666
2026-01-20T23:06:53+00:00,SAT-53224,264.8400818278744,30.998685922327585,3994.490509007154,0.8387328123185251,-29375.970923673183,10.5,10499970624.029076,47.655,-122.3035,60.0,6.883333333333334
2026-01-20T23:06:54+00:00,SAT-53224,264.71434374739755,30.966746233517856,3995.3270051986397,0.8506125955103433,-29792.051182483734,10.5,10499970207.948818,47.655,-122.3035,60.0,6.9
2026-01-20T23:06:55+00:00,SAT-53224,264.58877335446493,30.934594555484786,3996.1753494938953,0.8624835962839078,-30207.823843857444,10.5,10499969792.176157,47.655,-122.3035,60.0,6.916666666666667
2026-01-20T23:06:56+00:00,SAT-53224,264.463371798936,30.90223162406202,3997.0355331339224,0.8743457048342717,-30623.285061960603,10.5,10499969376.714937,47.655,-122.3035,60.0,6.933333333333334
2026-01-20T23:06:57+00:00,SAT-53224,264.3381402199276,30.86965817926488,3997.9075472502104,0.886198805204488,-31038.43077549044,10.5,10499968961.569225,47.655,-122.3035,60.0,6.95
2026-01-20T23:06:58+00:00,SAT-53224,264.2130797467985,30.836874965492857,3998.791382858601,0.8980427859074029,-31453.257079695217,10.5,10499968546.74292,47.655,-122.3035,60.0,6.966666666666667
2026-01-20T23:06:59+00:00,SAT-53224,264.088191498504,30.803882731307798,3999.6870308637463,0.9098775317041836,-31867.759938423562,10.5,10499968132.24006,47.655,-122.3035,60.0,6.983333333333333
2026-01-20T23:07:00+00:00,SAT-53224,263.96347658419234,30.770682229534607,4000.5944820553655,0.9217029350443465,-32281.9355848026,10.5,10499967718.064415,47.655,-122.3035,60.0,7.0
2026-01-20T23:07:01+00:00,SAT-53224,263.8389361020598,30.737274216904044,4001.5137271159165,0.9335188796162072,-32695.779945105143,10.5,10499967304.220055,47.655,-122.3035,60.0,7.016666666666667
2026-01-20T23:07:02+00:00,SAT-53224,263.7145711407459,30.7036594543662,4002.444756611854,0.9453252575206428,-33109.2892402475,10.5,10499966890.71076,47.655,-122.3035,60.0,7.033333333333333
2026-01-20T23:07:03+00:00,SAT-53224,263.59038277809424,30.669838706704706,4003.3875610020214,0.9571219544066812,-33522.459465174914,10.5,10499966477.540535,47.655,-122.3035,60.0,7.05
2026-01-20T23:07:04+00:00,SAT-53224,263.46637208214776,30.63581274274754,4004.3421306312157,0.9689088646804844,-33935.286921544524,10.5,10499966064.713078,47.655,-122.3035,60.0,7.066666666666666
2026-01-20T23:07:05+00:00,SAT-53224,263.3425401099246,30.601582334975205,4005.308455738924,0.9806858740820511,-34347.76760748777,10.5,10499965652.232393,47.655,-122.3035,60.0,7.083333333333333
2026-01-20T23:07:06+00:00,SAT-53224,263.21888790869144,30.567148259816708,4006.2865264506754,0.9924528728415022,-34759.897678399146,10.5,10499965240.102322,47.655,-122.3035,60.0,7.1
2026-01-20T23:07:07+00:00,SAT-53224,263.09541651536324,30.532511297423376,4007.2763327825223,1.0042097554890053,-35171.67344027899,10.5,10499964828.32656,47.655,-122.3035,60.0,7.116666666666666
2026-01-20T23:07:08+00:00,SAT-53224,262.9721269559756,30.497672231464254,4008.2778646453303,1.0159564118023652,-35583.0910326798,10.5,10499964416.908968,47.655,-122.3035,60.0,7.133333333333334
2026-01-20T23:07:09+00:00,SAT-53224,262.8490202463839,30.462631849260028,4009.2911118400343,1.027692728156347,-35994.1464759652,10.5,10499964005.853523,47.655,-122.3035,60.0,7.15
2026-01-20T23:07:10+00:00,SAT-53224,262.7260973927266,30.427390941864815,4010.3160640542487,1.039418607289377,-36404.83636362346,10.5,10499963595.163637,47.655,-122.3035,60.0,7.166666666666667
