satellites_20260121_005943/SAT-65525.csv

timestamp,satellite,azimuth_deg,elevation_deg,distance_km,relative_velocity_kms,doppler_shift_hz,tx_freq_ghz,rx_freq_hz,ue_lat,ue_lon,ue_alt_m,time_minutes
2026-01-20T23:00:27+00:00,SAT-65525,300.29366150883055,30.004450202564076,4303.30374943126,-3.351797165274799,117394.11481587503,10.5,10500117394.114817,47.655,-122.3035,60.0,0.45
2026-01-20T23:00:28+00:00,SAT-65525,300.1916620560334,30.039627436496218,4299.960890391759,-3.34354830824371,117105.20495001563,10.5,10500117105.20495,47.655,-122.3035,60.0,0.4666666666666667
2026-01-20T23:00:29+00:00,SAT-65525,300.08941374705205,30.07468202197565,4296.626258212337,-3.335276034493312,116815.47493159343,10.5,10500116815.474932,47.655,-122.3035,60.0,0.48333333333333334
2026-01-20T23:00:30+00:00,SAT-65525,299.9869165524328,30.10961313328708,4293.299876247269,-3.3269803413849295,116524.92466819081,10.5,10500116524.924667,47.655,-122.3035,60.0,0.5
2026-01-20T23:00:31+00:00,SAT-65525,299.8841704497371,30.14441994248622,4289.981767853461,-3.3186612133197717,116233.55361347218,10.5,10500116233.553614,47.655,-122.3035,60.0,0.5166666666666667
2026-01-20T23:00:32+00:00,SAT-65525,299.7811754240122,30.17910161928313,4286.671956403377,-3.310318634940963,115941.36122957473,10.5,10500115941.361229,47.655,-122.3035,60.0,0.5333333333333333
2026-01-20T23:00:33+00:00,SAT-65525,299.67793146785704,30.21365733106597,4283.370465284796,-3.3019526022442394,115648.34737625225,10.5,10500115648.347376,47.655,-122.3035,60.0,0.55
2026-01-20T23:00:34+00:00,SAT-65525,299.5744385811763,30.24808624304113,4280.0773178894915,-3.2935631170449615,115354.51211708633,10.5,10500115354.512117,47.655,-122.3035,60.0,0.5666666666666667
2026-01-20T23:00:35+00:00,SAT-65525,299.47069677106117,30.282387518315282,4276.7925376074245,-3.2851501463332395,115059.854295931,10.5,10500115059.854296,47.655,-122.3035,60.0,0.5833333333333334
2026-01-20T23:00:36+00:00,SAT-65525,299.3667060529482,30.316560317553712,4273.516147861482,-3.276713703655671,114764.37438724542,10.5,10500114764.374388,47.655,-122.3035,60.0,0.6
2026-01-20T23:00:37+00:00,SAT-65525,299.26246644927113,30.350603799488532,4270.248172061037,-3.2682537704403813,114468.07174056394,10.5,10500114468.071741,47.655,-122.3035,60.0,0.6166666666666667
2026-01-20T23:00:38+00:00,SAT-65525,299.15797799052564,30.384517120606645,4266.988633633983,-3.2597703448130555,114170.94629024017,10.5,10500114170.946291,47.655,-122.3035,60.0,0.6333333333333333
2026-01-20T23:00:39+00:00,SAT-65525,299.05324071483744,30.41829943534703,4263.73755601009,-3.2512634092385873,113872.9974221205,10.5,10500113872.997421,47.655,-122.3035,60.0,0.65
2026-01-20T23:00:40+00:00,SAT-65525,298.9482546685355,30.45194989596171,4260.49496263661,-3.2427329707461645,113574.2253823968,10.5,10500113574.225382,47.655,-122.3035,60.0,0.6666666666666666
2026-01-20T23:00:41+00:00,SAT-65525,298.84301990545583,30.485467652794913,4257.260876953786,-3.2341790257513123,113274.63004552561,10.5,10500113274.630045,47.655,-122.3035,60.0,0.6833333333333333
2026-01-20T23:00:42+00:00,SAT-65525,298.7375364873618,30.518851854198232,4254.035322405436,-3.2256015504729034,112974.21057859129,10.5,10500112974.210579,47.655,-122.3035,60.0,0.7
2026-01-20T23:00:43+00:00,SAT-65525,298.6318044846565,30.552101646345015,4250.8183224590975,-3.2170005503986956,112672.96717379829,10.5,10500112672.967175,47.655,-122.3035,60.0,0.7166666666666667
2026-01-20T23:00:44+00:00,SAT-65525,298.5258239755545,30.585216173560696,4247.609900576834,-3.208376023644209,112370.89976514418,10.5,10500112370.899765,47.655,-122.3035,60.0,0.7333333333333333
2026-01-20T23:00:45+00:00,SAT-65525,298.4195950463811,30.618194578271353,4244.410080222585,-3.19972796596835,112068.00820408789,10.5,10500112068.008204,47.655,-122.3035,60.0,0.75
2026-01-20T23:00:46+00:00,SAT-65525,298.3131177917329,30.651036001006602,4241.2188848645255,-3.1910563711850672,111764.29227396777,10.5,10500111764.292274,47.655,-122.3035,60.0,0.7666666666666667
2026-01-20T23:00:47+00:00,SAT-65525,298.20639231462326,30.683739580405813,4238.036337976998,-3.182361228303601,111459.75158984089,10.5,10500111459.75159,47.655,-122.3035,60.0,0.7833333333333333
2026-01-20T23:00:48+00:00,SAT-65525,298.0994187267283,30.71630445319678,4234.862463045303,-3.1736425528134724,111154.38669421583,10.5,10500111154.386694,47.655,-122.3035,60.0,0.8
2026-01-20T23:00:49+00:00,SAT-65525,297.99219714759136,30.74872975449581,4231.697283539297,-3.1649003269168254,110848.19696373638,10.5,10500110848.196964,47.655,-122.3035,60.0,0.8166666666666667
2026-01-20T23:00:50+00:00,SAT-65525,297.88472770581,30.781014617493625,4228.540822946586,-3.156134554122918,110541.18252131158,10.5,10500110541.182522,47.655,-122.3035,60.0,0.8333333333333334
2026-01-20T23:00:51+00:00,SAT-65525,297.77701053840354,30.813158173703478,4225.393104751273,-3.1473452279727843,110233.34314072116,10.5,10500110233.343142,47.655,-122.3035,60.0,0.85
2026-01-20T23:00:52+00:00,SAT-65525,297.66904579124224,30.84515955288848,4222.254152443908,-3.1385323632144546,109924.67933850348,10.5,10500109924.679338,47.655,-122.3035,60.0,0.8666666666666667
2026-01-20T23:00:53+00:00,SAT-65525,297.5608336184047,30.87701788330743,4219.123989500329,-3.1296959440646552,109615.19056186156,10.5,10500109615.190561,47.655,-122.3035,60.0,0.8833333333333333
2026-01-20T23:00:54+00:00,SAT-65525,297.45237418329316,30.908732291433772,4216.002639412115,-3.120835978511076,109304.8770905581,10.5,10500109304.87709,47.655,-122.3035,60.0,0.9
2026-01-20T23:00:55+00:00,SAT-65525,297.3436676579118,30.94030190222887,4212.89012566288,-3.1119524595611225,108993.7386796828,10.5,10500108993.73868,47.655,-122.3035,60.0,0.9166666666666666
2026-01-20T23:00:56+00:00,SAT-65525,297.23471422345636,30.971725839020895,4209.786471743211,-3.1030453936808735,108681.77555570519,10.5,10500108681.775557,47.655,-122.3035,60.0,0.9333333333333333
2026-01-20T23:00:57+00:00,SAT-65525,297.1255140699434,31.003003223673073,4206.691701137248,-3.094114792565991,108368.98812825672,10.5,10500108368.988129,47.655,-122.3035,60.0,0.95
2026-01-20T23:00:58+00:00,SAT-65525,297.01606739610986,31.0341331766685,4203.605837317461,-3.0851606358272057,108055.37568321903,10.5,10500108055.375683,47.655,-122.3035,60.0,0.9666666666666667
2026-01-20T23:00:59+00:00,SAT-65525,296.90637441058675,31.065114816818692,4200.528903776663,-3.0761829463145873,107740.93902089815,10.5,10500107740.93902,47.655,-122.3035,60.0,0.9833333333333333
2026-01-20T23:01:00+00:00,SAT-65525,296.7964353305128,31.09594726173365,4197.460923984872,-3.0671817173608003,107425.6779077758,10.5,10500107425.677908,47.655,-122.3035,60.0,1.0
2026-01-20T23:01:01+00:00,SAT-65525,296.68625038261405,31.126629627557257,4194.401921418757,-3.0581569551097125,107109.59255903625,10.5,10500107109.59256,47.655,-122.3035,60.0,1.0166666666666666
2026-01-20T23:01:02+00:00,SAT-65525,296.5758198028586,31.157161029131142,4191.351919548862,-3.049108664024004,106792.68313098137,10.5,10500106792.68313,47.655,-122.3035,60.0,1.0333333333333334
2026-01-20T23:01:03+00:00,SAT-65525,296.46514383658695,31.18754058001186,4188.310941841274,-3.0400368488768734,106474.94979078884,10.5,10500106474.949791,47.655,-122.3035,60.0,1.05
2026-01-20T23:01:04+00:00,SAT-65525,296.35422273858484,31.217767392509337,4185.279011757329,-3.030941520038037,106156.39290164993,10.5,10500106156.392902,47.655,-122.3035,60.0,1.0666666666666667
2026-01-20T23:01:05+00:00,SAT-65525,296.243056772965,31.247840577778366,4182.25615274801,-3.0218226660308756,105837.01206160494,10.5,10500105837.012062,47.655,-122.3035,60.0,1.0833333333333333
2026-01-20T23:01:06+00:00,SAT-65525,296.13164621403155,31.277759245637313,4179.242388275756,-3.012680318173416,105516.80836754362,10.5,10500105516.808367,47.655,-122.3035,60.0,1.1
2026-01-20T23:01:07+00:00,SAT-65525,296.0199913448245,31.30752250502997,4176.2377417717635,-3.003514463505547,105195.78136554804,10.5,10500105195.781366,47.655,-122.3035,60.0,1.1166666666666667
2026-01-20T23:01:08+00:00,SAT-65525,295.9080924587947,31.337129463623405,4173.242236680161,-2.994325126926479,104873.93192769388,10.5,10500104873.931929,47.655,-122.3035,60.0,1.1333333333333333
2026-01-20T23:01:09+00:00,SAT-65525,295.7959498585112,31.366579228220186,4170.25589642024,-2.9851122894684337,104551.25938964932,10.5,10500104551.25939,47.655,-122.3035,60.0,1.15
2026-01-20T23:01:10+00:00,SAT-65525,295.6835638573458,31.395870904363683,4167.278744430209,-2.9758759941024087,104227.76525644047,10.5,10500104227.765257,47.655,-122.3035,60.0,1.1666666666666667
2026-01-20T23:01:11+00:00,SAT-65525,295.5709347772844,31.42500359698709,4164.310804105425,-2.9666162230595163,103903.44890572572,10.5,10500103903.448906,47.655,-122.3035,60.0,1.1833333333333333
2026-01-20T23:01:12+00:00,SAT-65525,295.4580629512358,31.453976409854317,4161.35209885896,-2.957333000785636,103578.31119370315,10.5,10500103578.311193,47.655,-122.3035,60.0,1.2
2026-01-20T23:01:13+00:00,SAT-65525,295.3449487215577,31.482788446014865,4158.40265207951,-2.9480263277823813,103252.35213794139,10.5,10500103252.352139,47.655,-122.3035,60.0,1.2166666666666666
2026-01-20T23:01:14+00:00,SAT-65525,295.2315924410198,31.51143880760916,4155.462487155269,-2.9386962198929942,102925.5722933378,10.5,10500102925.572294,47.655,-122.3035,60.0,1.2333333333333334
2026-01-20T23:01:15+00:00,SAT-65525,295.1179944723174,31.539926596058972,4152.5316274586285,-2.929342700464583,102597.97247760689,10.5,10500102597.972477,47.655,-122.3035,60.0,1.25
2026-01-20T23:01:16+00:00,SAT-65525,295.0041551878658,31.568250912180854,4149.610096338698,-2.9199657551368894,102269.55218779166,10.5,10500102269.552187,47.655,-122.3035,60.0,1.2666666666666666
2026-01-20T23:01:17+00:00,SAT-65525,294.8900749712862,31.596410855862104,4146.697917158908,-2.9105654180485607,101940.31261957192,10.5,10500101940.31262,47.655,-122.3035,60.0,1.2833333333333334
2026-01-20T23:01:18+00:00,SAT-65525,294.7757542156777,31.624405526573167,4143.795113248641,-2.901141683317461,101610.25356693042,10.5,10500101610.253567,47.655,-122.3035,60.0,1.3
2026-01-20T23:01:19+00:00,SAT-65525,294.6611933251897,31.652234023023368,4140.901707943146,-2.8916945979747557,101279.3766770975,10.5,10500101279.376677,47.655,-122.3035,60.0,1.3166666666666667
2026-01-20T23:01:20+00:00,SAT-65525,294.54639271309736,31.67989544371243,4138.017724530766,-2.88222414065082,100947.68120161851,10.5,10500100947.681202,47.655,-122.3035,60.0,1.3333333333333333
2026-01-20T23:01:21+00:00,SAT-65525,294.4313528044817,31.707388886317712,4135.143186321157,-2.8727303405693076,100615.16816402943,10.5,10500100615.168163,47.655,-122.3035,60.0,1.35
2026-01-20T23:01:22+00:00,SAT-65525,294.31607403437914,31.734713448223488,4132.278116594829,-2.863213217956348,100281.83827273485,10.5,10500100281.838272,47.655,-122.3035,60.0,1.3666666666666667
2026-01-20T23:01:23+00:00,SAT-65525,294.2005568481929,31.76186822647916,4129.422538612121,-2.8536727841208487,99947.69192382054,10.5,10500099947.691923,47.655,-122.3035,60.0,1.3833333333333333
2026-01-20T23:01:24+00:00,SAT-65525,294.08480170212135,31.788852317758746,4126.576475622091,-2.844109048828251,99612.7294593136,10.5,10500099612.72946,47.655,-122.3035,60.0,1.4
2026-01-20T23:01:25+00:00,SAT-65525,293.96880906328715,31.81566481839241,4123.739950864059,-2.8345220433691387,99276.95197514261,10.5,10500099276.951975,47.655,-122.3035,60.0,1.4166666666666667
2026-01-20T23:01:26+00:00,SAT-65525,293.8525794089812,31.842304824616292,4120.912987546139,-2.82491177396463,98940.35968919743,10.5,10500098940.35969,47.655,-122.3035,60.0,1.4333333333333333
2026-01-20T23:01:27+00:00,SAT-65525,293.7361132277056,31.868771432381756,4118.095608870239,-2.815278273064557,98602.95373800847,10.5,10500098602.953737,47.655,-122.3035,60.0,1.45
2026-01-20T23:01:28+00:00,SAT-65525,293.6194110182265,31.895063737649057,4115.287838005902,-2.8056215389577432,98264.73406164309,10.5,10500098264.734062,47.655,-122.3035,60.0,1.4666666666666666
2026-01-20T23:01:29+00:00,SAT-65525,293.5024732909934,31.921180836114928,4112.489698124382,-2.79594160984402,97925.70199802094,10.5,10500097925.701998,47.655,-122.3035,60.0,1.4833333333333334
2026-01-20T23:01:30+00:00,SAT-65525,293.3853005666324,31.94712182363368,4109.70121235883,-2.7862384968691556,97585.857937514,10.5,10500097585.857937,47.655,-122.3035,60.0,1.5
2026-01-20T23:01:31+00:00,SAT-65525,293.2678933770885,31.972885796013085,4106.922403831286,-2.7765122232903012,97245.20269468609,10.5,10500097245.202694,47.655,-122.3035,60.0,1.5166666666666666
2026-01-20T23:01:32+00:00,SAT-65525,293.1502522652244,31.998471849175726,4104.153295640592,-2.766762808428958,96903.73694625786,10.5,10500096903.736946,47.655,-122.3035,60.0,1.5333333333333334
2026-01-20T23:01:33+00:00,SAT-65525,293.0323777850363,32.02387907917227,4101.393910866318,-2.756990281312097,96561.46170887667,10.5,10500096561.461708,47.655,-122.3035,60.0,1.55
2026-01-20T23:01:34+00:00,SAT-65525,292.9142705013441,32.04910658232048,4098.64427255909,-2.7471946624926336,96218.37770239254,10.5,10500096218.377703,47.655,-122.3035,60.0,1.5666666666666667
2026-01-20T23:01:35+00:00,SAT-65525,292.79593099018797,32.07415345517688,4095.9044037490307,-2.7373759618981337,95874.48527451082,10.5,10500095874.485275,47.655,-122.3035,60.0,1.5833333333333333
2026-01-20T23:01:36+00:00,SAT-65525,292.6773598393672,32.09901879449188,4093.174327456364,-2.727534228448815,95529.78613862446,10.5,10500095529.786139,47.655,-122.3035,60.0,1.6
2026-01-20T23:01:37+00:00,SAT-65525,292.55855764685947,32.123701697615495,4090.4540666525245,-2.7176694621502673,95184.28029492927,10.5,10500095184.280294,47.655,-122.3035,60.0,1.6166666666666667
2026-01-20T23:01:38+00:00,SAT-65525,292.43952502295605,32.14820126210448,4087.74364430894,-2.707781706351606,94837.96926169458,10.5,10500094837.969261,47.655,-122.3035,60.0,1.6333333333333333
2026-01-20T23:01:39+00:00,SAT-65525,292.32026258849476,32.172516586167575,4085.0430833538053,-2.697870975864386,94490.85355768375,10.5,10500094490.853558,47.655,-122.3035,60.0,1.65
2026-01-20T23:01:40+00:00,SAT-65525,292.20077097613824,32.19664676845997,4082.3524067005433,-2.6879373063117655,94142.93443057043,10.5,10500094142.934431,47.655,-122.3035,60.0,1.6666666666666667
2026-01-20T23:01:41+00:00,SAT-65525,292.0810508295534,32.22059090832363,4079.671637227048,-2.677980718313744,93794.21260255422,10.5,10500093794.212603,47.655,-122.3035,60.0,1.6833333333333333
2026-01-20T23:01:42+00:00,SAT-65525,291.9611028041239,32.24434810570599,4077.00079779065,-2.6680012443038903,93444.68920959595,10.5,10500093444.689209,47.655,-122.3035,60.0,1.7
2026-01-20T23:01:43+00:00,SAT-65525,291.840927566495,32.26791746131982,4074.3399112163306,-2.657998906299811,93094.36502284528,10.5,10500093094.365023,47.655,-122.3035,60.0,1.7166666666666666
2026-01-20T23:01:44+00:00,SAT-65525,291.7205257951084,32.291298076605,4071.6890003071144,-2.64797374020469,92743.2412997836,10.5,10500092743.2413,47.655,-122.3035,60.0,1.7333333333333334
2026-01-20T23:01:45+00:00,SAT-65525,291.5998981796424,32.31448905390594,4069.048087830217,-2.637925775888128,92391.3190865707,10.5,10500092391.319086,47.655,-122.3035,60.0,1.75
2026-01-20T23:01:46+00:00,SAT-65525,291.47904542135484,32.33748949647347,4066.417196523065,-2.627855041836861,92038.59938093252,10.5,10500092038.59938,47.655,-122.3035,60.0,1.7666666666666666
2026-01-20T23:01:47+00:00,SAT-65525,291.35796823318634,32.36029850850818,4063.7963490946727,-2.6177615649763704,91685.08312591336,10.5,10500091685.083126,47.655,-122.3035,60.0,1.7833333333333334
2026-01-20T23:01:48+00:00,SAT-65525,291.2366673399154,32.38291519520372,4061.185568227203,-2.607645381626583,91330.77159359066,10.5,10500091330.771593,47.655,-122.3035,60.0,1.8
2026-01-20T23:01:49+00:00,SAT-65525,291.1151434777844,32.40533866288488,4058.584876566594,-2.5975065329492346,90975.66622562252,10.5,10500090975.666225,47.655,-122.3035,60.0,1.8166666666666667
2026-01-20T23:01:50+00:00,SAT-65525,290.9933973943492,32.42756801910476,4055.9942967177326,-2.587345032966615,90619.7675131289,10.5,10500090619.767513,47.655,-122.3035,60.0,1.8333333333333333
2026-01-20T23:01:51+00:00,SAT-65525,290.87142984974804,32.44960237247018,4053.4138512715203,-2.5771609327238116,90263.0772439246,10.5,10500090263.077244,47.655,-122.3035,60.0,1.85
2026-01-20T23:01:52+00:00,SAT-65525,290.74924161510825,32.47144083301604,4050.843562767951,-2.566954254131194,89905.59618540348,10.5,10500089905.596186,47.655,-122.3035,60.0,1.8666666666666667
2026-01-20T23:01:53+00:00,SAT-65525,290.6268334739033,32.49308251201527,4048.283453725164,-2.5567250494388367,89547.3261675842,10.5,10500089547.326168,47.655,-122.3035,60.0,1.8833333333333333
2026-01-20T23:01:54+00:00,SAT-65525,290.50420622064104,32.51452652229369,4045.7335466091904,-2.5464733335375795,89188.2677120069,10.5,10500089188.267712,47.655,-122.3035,60.0,1.9
2026-01-20T23:01:55+00:00,SAT-65525,290.3813606626179,32.535771977974655,4043.193863871209,-2.536199159985654,88828.42269450742,10.5,10500088828.422695,47.655,-122.3035,60.0,1.9166666666666667
2026-01-20T23:01:56+00:00,SAT-65525,290.25829761820944,32.55681799486276,4040.6644279089833,-2.5259025577607344,88467.79213000652,10.5,10500088467.79213,47.655,-122.3035,60.0,1.9333333333333333
2026-01-20T23:01:57+00:00,SAT-65525,290.1350179180452,32.577663690298166,4038.145261091376,-2.5155835670223476,88106.37742506068,10.5,10500088106.377424,47.655,-122.3035,60.0,1.95
2026-01-20T23:01:58+00:00,SAT-65525,290.01152240455093,32.598308183309264,4035.6363857471993,-2.5052422286288216,87744.18001070136,10.5,10500087744.18001,47.655,-122.3035,60.0,1.9666666666666666
2026-01-20T23:01:59+00:00,SAT-65525,289.88781193196166,32.618750594679035,4033.1378241645134,-2.49487857582891,87381.20105144057,10.5,10500087381.201052,47.655,-122.3035,60.0,1.9833333333333334
2026-01-20T23:02:00+00:00,SAT-65525,289.76388736674073,32.638990046943746,4030.6495985982206,-2.484492657058498,87017.44224370792,10.5,10500087017.442244,47.655,-122.3035,60.0,2.0
2026-01-20T23:02:01+00:00,SAT-65525,289.6397495868929,32.65902566457754,4028.171731254914,-2.474084504941229,86652.90473012134,10.5,10500086652.90473,47.655,-122.3035,60.0,2.0166666666666666
2026-01-20T23:02:02+00:00,SAT-65525,289.5153994827892,32.67885657392582,4025.7042443086525,-2.463654169249098,86287.59025390667,10.5,10500086287.590254,47.655,-122.3035,60.0,2.033333333333333
2026-01-20T23:02:03+00:00,SAT-65525,289.3908379563672,32.698481903405444,4023.2471598838547,-2.453201688126539,85921.50015104336,10.5,10500085921.50015,47.655,-122.3035,60.0,2.05
2026-01-20T23:02:04+00:00,SAT-65525,289.2660659217606,32.717900783473034,4020.8005000668963,-2.4427271045699612,85554.6359274475,10.5,10500085554.635927,47.655,-122.3035,60.0,2.066666666666667
2026-01-20T23:02:05+00:00,SAT-65525,289.1410843050901,32.737112346726676,4018.364286901272,-2.4322304542121773,85186.99883113091,10.5,10500085186.99883,47.655,-122.3035,60.0,2.0833333333333335
2026-01-20T23:02:06+00:00,SAT-65525,289.0158940448931,32.756115727911606,4015.938542394938,-2.4217117996043687,84818.59105290056,10.5,10500084818.591053,47.655,-122.3035,60.0,2.1
2026-01-20T23:02:07+00:00,SAT-65525,288.89049609082014,32.7749100641936,4013.5232884934658,-2.411171167750283,84449.41353854196,10.5,10500084449.413538,47.655,-122.3035,60.0,2.1166666666666667
2026-01-20T23:02:08+00:00,SAT-65525,288.7648914054512,32.79349449494478,4011.118547115496,-2.4006086224675864,84079.46852321968,10.5,10500084079.468523,47.655,-122.3035,60.0,2.1333333333333333
2026-01-20T23:02:09+00:00,SAT-65525,288.63908096248656,32.81186816209301,4008.7243401160217,-2.390024190377846,83708.75693933362,10.5,10500083708.756939,47.655,-122.3035,60.0,2.15
2026-01-20T23:02:10+00:00,SAT-65525,288.5130657486734,32.8300302098999,4006.340689323485,-2.379417934656337,83337.28099954916,10.5,10500083337.281,47.655,-122.3035,60.0,2.1666666666666665
2026-01-20T23:02:11+00:00,SAT-65525,288.3868467619834,32.84797978530475,4003.967616503321,-2.3687898953284146,82965.04210572352,10.5,10500082965.042107,47.655,-122.3035,60.0,2.183333333333333
2026-01-20T23:02:12+00:00,SAT-65525,288.26042501284115,32.865716037812895,4001.6051433810467,-2.358140125057337,82592.04210234681,10.5,10500082592.042103,47.655,-122.3035,60.0,2.2
2026-01-20T23:02:13+00:00,SAT-65525,288.1338015234972,32.88323811965601,3999.2532916296564,-2.3474686654607115,82218.28244704366,10.5,10500082218.282448,47.655,-122.3035,60.0,2.216666666666667
2026-01-20T23:02:14+00:00,SAT-65525,288.006977328654,32.900545185775535,3996.9120828806367,-2.3367755783960003,81843.76530632401,10.5,10500081843.765306,47.655,-122.3035,60.0,2.2333333333333334
2026-01-20T23:02:15+00:00,SAT-65525,287.87995347443854,32.917636394037494,3994.581538703783,-2.3260609088736866,81468.49225664545,10.5,10500081468.492256,47.655,-122.3035,60.0,2.25
2026-01-20T23:02:16+00:00,SAT-65525,287.75273101931305,32.93451090517344,3992.261680624,-2.3153247085060285,81092.46510568754,10.5,10500081092.465105,47.655,-122.3035,60.0,2.2666666666666666
2026-01-20T23:02:17+00:00,SAT-65525,287.6253110337632,32.95116788289553,3989.9525301147164,-2.304567027725199,80715.6856197983,10.5,10500080715.68562,47.655,-122.3035,60.0,2.283333333333333
2026-01-20T23:02:18+00:00,SAT-65525,287.49769460040153,32.96760649395426,3987.6541085990652,-2.293787917760767,80338.15559325396,10.5,10500080338.155594,47.655,-122.3035,60.0,2.3
2026-01-20T23:02:19+00:00,SAT-65525,287.3698828139399,32.983825908211124,3985.366437449085,-2.282987441928276,79959.87724363265,10.5,10500079959.877243,47.655,-122.3035,60.0,2.316666666666667
2026-01-20T23:02:20+00:00,SAT-65525,287.2418767805939,32.99982529879069,3983.0895379736685,-2.272165649028004,79580.85228012654,10.5,10500079580.85228,47.655,-122.3035,60.0,2.3333333333333335
2026-01-20T23:02:21+00:00,SAT-65525,287.1136776188596,33.01560384204354,3980.823431433038,-2.2613225906102072,79201.08250824368,10.5,10500079201.082508,47.655,-122.3035,60.0,2.35
2026-01-20T23:02:22+00:00,SAT-65525,286.98528645941934,33.03116071763447,3978.5681390360032,-2.2504583264877787,78820.57002288455,10.5,10500078820.570023,47.655,-122.3035,60.0,2.3666666666666667
2026-01-20T23:02:23+00:00,SAT-65525,286.8567044447055,33.04649510866721,3976.323681931719,-2.2395729208417596,78439.31707194074,10.5,10500078439.317072,47.655,-122.3035,60.0,2.3833333333333333
2026-01-20T23:02:24+00:00,SAT-65525,286.7279327286857,33.06160620177942,3974.090081205333,-2.2286664181251172,78057.32521234317,10.5,10500078057.325212,47.655,-122.3035,60.0,2.4
2026-01-20T23:02:25+00:00,SAT-65525,286.59897247796334,33.07649318707742,3971.867357897656,-2.217738878512596,77674.59655166596,10.5,10500077674.596552,47.655,-122.3035,60.0,2.4166666666666665
2026-01-20T23:02:26+00:00,SAT-65525,286.4698248709523,33.09115525831158,3969.6555329894863,-2.206790370213388,77291.1334788835,10.5,10500077291.133478,47.655,-122.3035,60.0,2.433333333333333
2026-01-20T23:02:27+00:00,SAT-65525,286.34049109742443,33.10559161299589,3967.4546273935935,-2.195820945591917,76906.93782801945,10.5,10500076906.937828,47.655,-122.3035,60.0,2.45
2026-01-20T23:02:28+00:00,SAT-65525,286.21097235943324,33.11980145237095,3965.2646619705233,-2.1848306669518607,76522.0117812121,10.5,10500076522.011782,47.655,-122.3035,60.0,2.466666666666667
2026-01-20T23:02:29+00:00,SAT-65525,286.0812698707524,33.13378398153836,3963.085657518683,-2.1738195955458988,76136.35748378946,10.5,10500076136.357483,47.655,-122.3035,60.0,2.4833333333333334
2026-01-20T23:02:30+00:00,SAT-65525,285.9513848569773,33.14753840952162,3960.917634775392,-2.1627877933295783,75749.9771056968,10.5,10500075749.977106,47.655,-122.3035,60.0,2.5
2026-01-20T23:02:31+00:00,SAT-65525,285.82131855547004,33.16106394933905,3958.7606144161778,-2.1517353266143977,75362.87296944333,10.5,10500075362.872969,47.655,-122.3035,60.0,2.5166666666666666
2026-01-20T23:02:32+00:00,SAT-65525,285.6910722151465,33.17435981809937,3956.6146170504344,-2.140662249919125,74975.0469845069,10.5,10500074975.046984,47.655,-122.3035,60.0,2.533333333333333
2026-01-20T23:02:33+00:00,SAT-65525,285.560647097154,33.187425236997186,3954.479663233182,-2.1295686328683443,74586.50158943496,10.5,10500074586.501589,47.655,-122.3035,60.0,2.55
2026-01-20T23:02:34+00:00,SAT-65525,285.43004447401927,33.20025943147631,3952.355773450001,-2.1184545474895007,74197.23930693332,10.5,10500074197.239307,47.655,-122.3035,60.0,2.566666666666667
2026-01-20T23:02:35+00:00,SAT-65525,285.29926562949953,33.21286163131012,3950.242968114638,-2.1073200418693334,73807.261821203,10.5,10500073807.261822,47.655,-122.3035,60.0,2.5833333333333335
2026-01-20T23:02:36+00:00,SAT-65525,285.16831186001804,33.225231070528636,3948.1412675928805,-2.0961652001055096,73416.5720777,10.5,10500073416.572077,47.655,-122.3035,60.0,2.6
2026-01-20T23:02:37+00:00,SAT-65525,285.0371844725194,33.23736698770143,3946.050692166642,-2.0849900823748047,73025.17218406958,10.5,10500073025.172184,47.655,-122.3035,60.0,2.6166666666666667
2026-01-20T23:02:38+00:00,SAT-65525,284.90588478591735,33.24926862586419,3943.9712620578202,-2.0737947549241764,72633.06446056042,10.5,10500072633.06446,47.655,-122.3035,60.0,2.6333333333333333
2026-01-20T23:02:39+00:00,SAT-65525,284.7744141307114,33.260935232624405,3941.9029974222426,-2.062579286569121,72240.25131738227,10.5,10500072240.251318,47.655,-122.3035,60.0,2.65
2026-01-20T23:02:40+00:00,SAT-65525,284.64277384886816,33.272366060245304,3939.845918347104,-2.0513437502168133,71846.73530805281,10.5,10500071846.735308,47.655,-122.3035,60.0,2.6666666666666665
2026-01-20T23:02:41+00:00,SAT-65525,284.510965293542,33.28356036573738,3937.800044846888,-2.040088217825583,71452.51895285712,10.5,10500071452.518953,47.655,-122.3035,60.0,2.683333333333333
2026-01-20T23:02:42+00:00,SAT-65525,284.3789898291501,33.294517410921245,3935.76539686431,-2.0288127535581753,71057.60449904593,10.5,10500071057.6045,47.655,-122.3035,60.0,2.7
2026-01-20T23:02:43+00:00,SAT-65525,284.2468488318408,33.305236462454516,3933.741994278095,-2.0175174292402738,70661.99446225853,10.5,10500070661.994463,47.655,-122.3035,60.0,2.716666666666667
2026-01-20T23:02:44+00:00,SAT-65525,284.1145436890197,33.31571679194357,3931.7298568953324,-2.0062023275292495,70265.6917375057,10.5,10500070265.691738,47.655,-122.3035,60.0,2.7333333333333334
2026-01-20T23:02:45+00:00,SAT-65525,283.9820757986835,33.325957676068185,3929.7290044406764,-1.9948675098993667,69868.69847787615,10.5,10500069868.698479,47.655,-122.3035,60.0,2.75
2026-01-20T23:02:46+00:00,SAT-65525,283.8494465707117,33.335958396539795,3927.7394565774703,-1.9835130620903485,69471.01768633773,10.5,10500069471.017687,47.655,-122.3035,60.0,2.7666666666666666
2026-01-20T23:02:47+00:00,SAT-65525,283.71665742535674,33.34571824029501,3925.7612328835453,-1.97213904064012,69072.6513430877,10.5,10500069072.651342,47.655,-122.3035,60.0,2.783333333333333
2026-01-20T23:02:48+00:00,SAT-65525,283.58370979507436,33.35523649941837,3923.794352880347,-1.9607455410182724,68673.60279187498,10.5,10500068673.602793,47.655,-122.3035,60.0,2.8
2026-01-20T23:02:49+00:00,SAT-65525,283.4506051220404,33.36451247140381,3921.838835994105,-1.9493326328056835,68273.87446971623,10.5,10500068273.87447,47.655,-122.3035,60.0,2.816666666666667
2026-01-20T23:02:50+00:00,SAT-65525,283.3173448597749,33.37354545909405,3919.8947015816534,-1.9379003882097083,67873.46890561849,10.5,10500067873.468906,47.655,-122.3035,60.0,2.8333333333333335
2026-01-20T23:02:51+00:00,SAT-65525,283.1839304729875,33.382334770764146,3917.961968927812,-1.9264488867067717,67472.38888318231,10.5,10500067472.388884,47.655,-122.3035,60.0,2.85
2026-01-20T23:02:52+00:00,SAT-65525,283.050363437072,33.39087972022508,3916.0406572381366,-1.9149782085305442,67070.63721253026,10.5,10500067070.637213,47.655,-122.3035,60.0,2.8666666666666667
2026-01-20T23:02:53+00:00,SAT-65525,282.9166452380623,33.39917962689416,3914.130785638162,-1.9034884393689122,66668.21689481454,10.5,10500066668.216894,47.655,-122.3035,60.0,2.8833333333333333
2026-01-20T23:02:54+00:00,SAT-65525,282.78277737221987,33.40723381588575,3912.232373167965,-1.891979646526436,66265.13028732556,10.5,10500066265.130287,47.655,-122.3035,60.0,2.9
2026-01-20T23:02:55+00:00,SAT-65525,282.6487613472676,33.41504161800034,3910.3454388004957,-1.8804519172664824,65861.38044639557,10.5,10500065861.380445,47.655,-122.3035,60.0,2.9166666666666665
2026-01-20T23:02:56+00:00,SAT-65525,282.5145986810223,33.42260236987926,3908.470001421675,-1.8689053347693814,65456.970285351556,10.5,10500065456.970285,47.655,-122.3035,60.0,2.933333333333333
2026-01-20T23:02:57+00:00,SAT-65525,282.3802909016509,33.4299154140532,3906.6060798344656,-1.8573399828903776,65051.902741158905,10.5,10500065051.90274,47.655,-122.3035,60.0,2.95
2026-01-20T23:02:58+00:00,SAT-65525,282.24583954758964,33.43698009901149,3904.753692758196,-1.8457559369623797,64646.18045229473,10.5,10500064646.180452,47.655,-122.3035,60.0,2.966666666666667
2026-01-20T23:02:59+00:00,SAT-65525,282.1112461681207,33.443795779237455,3902.9128588370654,-1.8341532886031817,64239.806627601705,10.5,10500064239.806627,47.655,-122.3035,60.0,2.9833333333333334
2026-01-20T23:03:00+00:00,SAT-65525,281.9765123222058,33.450361815337665,3901.0835966238983,-1.8225321147704698,63832.78396246357,10.5,10500063832.783962,47.655,-122.3035,60.0,3.0
2026-01-20T23:03:01+00:00,SAT-65525,281.84163957950267,33.4566775740544,3899.2659245947675,-1.810892511511682,63425.115820867846,10.5,10500063425.11582,47.655,-122.3035,60.0,3.0166666666666666
2026-01-20T23:03:02+00:00,SAT-65525,281.70662951896935,33.46274242840029,3897.459861129953,-1.7992345557778977,63016.80489796687,10.5,10500063016.804897,47.655,-122.3035,60.0,3.033333333333333
2026-01-20T23:03:03+00:00,SAT-65525,281.57148373020306,33.468555757657406,3895.6654245329905,-1.7875583389932796,62607.854395821516,10.5,10500062607.854395,47.655,-122.3035,60.0,3.05
2026-01-20T23:03:04+00:00,SAT-65525,281.436203812365,33.47411694749331,3893.8826330162346,-1.7758639427789393,62198.26717314838,10.5,10500062198.267174,47.655,-122.3035,60.0,3.066666666666667
2026-01-20T23:03:05+00:00,SAT-65525,281.30079137486865,33.47942538999558,3892.1115047106364,-1.7641514659531277,61788.0466909806,10.5,10500061788.046692,47.655,-122.3035,60.0,3.0833333333333335
2026-01-20T23:03:06+00:00,SAT-65525,281.1652480360887,33.484480483790016,3890.3520576485926,-1.7524209886910709,61377.195757393754,10.5,10500061377.195757,47.655,-122.3035,60.0,3.1
2026-01-20T23:03:07+00:00,SAT-65525,281.02957542468624,33.48928163404915,3888.604309782538,-1.7406726023605197,60965.717572472946,10.5,10500060965.717573,47.655,-122.3035,60.0,3.1166666666666667
2026-01-20T23:03:08+00:00,SAT-65525,280.893775178753,33.49382825259147,3886.8682789737836,-1.72890640050847,60553.615412629675,10.5,10500060553.615412,47.655,-122.3035,60.0,3.1333333333333333
2026-01-20T23:03:09+00:00,SAT-65525,280.757848945621,33.49811975795134,3885.143982990343,-1.717122472979536,60140.89242460239,10.5,10500060140.892426,47.655,-122.3035,60.0,3.15
2026-01-20T23:03:10+00:00,SAT-65525,280.6217983820744,33.50215557543253,3883.431439510625,-1.7053209133237655,59727.551884909444,10.5,10500059727.551886,47.655,-122.3035,60.0,3.1666666666666665
2026-01-20T23:03:11+00:00,SAT-65525,280.48562515405973,33.505935137181744,3881.7306661197367,-1.6935018114457414,59313.596942389675,10.5,10500059313.596943,47.655,-122.3035,60.0,3.183333333333333
2026-01-20T23:03:12+00:00,SAT-65525,280.3493309368894,33.509457882243524,3880.0416803131216,-1.681665263792364,58899.03097502146,10.5,10500058899.030975,47.655,-122.3035,60.0,3.2
2026-01-20T23:03:13+00:00,SAT-65525,280.21291741472965,33.512723256638985,3878.364499490033,-1.6698113590017338,58483.85708728605,10.5,10500058483.857088,47.655,-122.3035,60.0,3.216666666666667
2026-01-20T23:03:14+00:00,SAT-65525,280.0763862811367,33.51573071341176,3876.6991409613215,-1.6579402006343014,58068.07890630846,10.5,10500058068.078907,47.655,-122.3035,60.0,3.2333333333333334
2026-01-20T23:03:15+00:00,SAT-65525,279.9397392378747,33.518479712721316,3875.0456219345556,-1.6460518801177868,57651.69963427419,10.5,10500057651.699635,47.655,-122.3035,60.0,3.25
2026-01-20T23:03:16+00:00,SAT-65525,279.8029779957821,33.52096972187855,3873.4039595261183,-1.6341464926234566,57234.722604483584,10.5,10500057234.722605,47.655,-122.3035,60.0,3.2666666666666666
2026-01-20T23:03:17+00:00,SAT-65525,279.66610427446113,33.523200215417404,3871.7741707574755,-1.6222241353920488,56817.15122271859,10.5,10500056817.151222,47.655,-122.3035,60.0,3.283333333333333
2026-01-20T23:03:18+00:00,SAT-65525,279.52911980204516,33.525170675158996,3870.1562725531107,-1.6102849105467676,56398.989065765825,10.5,10500056398.989065,47.655,-122.3035,60.0,3.3
2026-01-20T23:03:19+00:00,SAT-65525,279.392026314781,33.526880590278914,3868.5502817356587,-1.5983289139287138,55980.239490386026,10.5,10500055980.23949,47.655,-122.3035,60.0,3.316666666666667
2026-01-20T23:03:20+00:00,SAT-65525,279.254825557443,33.528329457357664,3866.956215032167,-1.5863562436903713,55560.90593429438,10.5,10500055560.905933,47.655,-122.3035,60.0,3.3333333333333335
2026-01-20T23:03:21+00:00,SAT-65525,279.1175192831355,33.52951678044561,3865.3740890717936,-1.5743669959401636,55140.99176361441,10.5,10500055140.991764,47.655,-122.3035,60.0,3.35
2026-01-20T23:03:22+00:00,SAT-65525,278.9801092533743,33.5304420711209,3863.803920387842,-1.5623612875884587,54720.50107304173,10.5,10500054720.501074,47.655,-122.3035,60.0,3.3666666666666667
2026-01-20T23:03:23+00:00,SAT-65525,278.84259723635114,33.53110484856441,3862.2457253970206,-1.5503392067458255,54299.43694858117,10.5,10500054299.436949,47.655,-122.3035,60.0,3.3833333333333333
2026-01-20T23:03:24+00:00,SAT-65525,278.70498500920917,33.53150463959347,3860.6995204281598,-1.5383008505981144,53877.802794092306,10.5,10500053877.802794,47.655,-122.3035,60.0,3.4
2026-01-20T23:03:25+00:00,SAT-65525,278.5672743572802,33.53164097873328,3859.165321713163,-1.5262463391461762,53455.60281251255,10.5,10500053455.602812,47.655,-122.3035,60.0,3.4166666666666665
2026-01-20T23:03:26+00:00,SAT-65525,278.429467072092,33.531513408279736,3857.643145364255,-1.51417575919344,53032.840044065146,10.5,10500053032.840044,47.655,-122.3035,60.0,3.433333333333333
2026-01-20T23:03:27+00:00,SAT-65525,278.2915649541123,33.53112147834619,3856.1330074070856,-1.5020892306299651,52609.51868780713,10.5,10500052609.518688,47.655,-122.3035,60.0,3.45
2026-01-20T23:03:28+00:00,SAT-65525,278.15356980986263,33.53046474692481,3854.6349237477375,-1.48998684574897,52185.641976237384,10.5,10500052185.641975,47.655,-122.3035,60.0,3.466666666666667
2026-01-20T23:03:29+00:00,SAT-65525,278.0154834542352,33.52954277994206,3853.148910200244,-1.477868716764363,51761.21383956167,10.5,10500051761.21384,47.655,-122.3035,60.0,3.4833333333333334
2026-01-20T23:03:30+00:00,SAT-65525,277.87730770869547,33.52835515131167,3851.674982466724,-1.465734948959459,51336.23796524702,10.5,10500051336.237965,47.655,-122.3035,60.0,3.5
2026-01-20T23:03:31+00:00,SAT-65525,277.7390444018381,33.52690144299135,3850.213156144295,-1.4535856519679355,50910.71819312854,10.5,10500050910.718193,47.655,-122.3035,60.0,3.5166666666666666
2026-01-20T23:03:32+00:00,SAT-65525,277.60069536890995,33.52518124503122,3848.763446720732,-1.441420926403076,50484.65804710904,10.5,10500050484.658047,47.655,-122.3035,60.0,3.533333333333333
2026-01-20T23:03:33+00:00,SAT-65525,277.4622624525781,33.52319415563886,3847.3258695834666,-1.4292408881628742,50058.0615864265,10.5,10500050058.061586,47.655,-122.3035,60.0,3.55
2026-01-20T23:03:34+00:00,SAT-65525,277.32374750146255,33.52093978121486,3845.900440004339,-1.417045645420891,49630.9325997766,10.5,10500049630.9326,47.655,-122.3035,60.0,3.566666666666667
2026-01-20T23:03:35+00:00,SAT-65525,277.185152370794,33.51841773641377,3844.487173147306,-1.4048353055837846,49203.27484899482,10.5,10500049203.274849,47.655,-122.3035,60.0,3.5833333333333335
2026-01-20T23:03:36+00:00,SAT-65525,277.0464789223687,33.51562764419496,3843.0860840692035,-1.3926099818971491,48775.092300420925,10.5,10500048775.0923,47.655,-122.3035,60.0,3.6
2026-01-20T23:03:37+00:00,SAT-65525,276.9077290240005,33.51256913586837,3841.697187713925,-1.3803697831164574,48346.3887631316,10.5,10500048346.388763,47.655,-122.3035,60.0,3.6166666666666667
2026-01-20T23:03:38+00:00,SAT-65525,276.76890454979775,33.50924185114794,3840.3204989168967,-1.3681148226641646,47917.168209660995,10.5,10500047917.16821,47.655,-122.3035,60.0,3.6333333333333333
2026-01-20T23:03:39+00:00,SAT-65525,276.6300073797266,33.50564543819758,3838.956032400426,-1.3558452107960086,47487.434501631426,10.5,10500047487.434502,47.655,-122.3035,60.0,3.65
2026-01-20T23:03:40+00:00,SAT-65525,276.4910393997763,33.50177955368302,3837.603802776859,-1.343561066763725,47057.191815743114,10.5,10500047057.191816,47.655,-122.3035,60.0,3.6666666666666665
2026-01-20T23:03:41+00:00,SAT-65525,276.35200250107033,33.49764386280076,3836.2638245396065,-1.3312625010192238,46626.44402048917,10.5,10500046626.444021,47.655,-122.3035,60.0,3.683333333333333
2026-01-20T23:03:42+00:00,SAT-65525,276.21289858059407,33.49323803934376,3834.9361120719236,-1.318949628305316,46195.19513464817,10.5,10500046195.195135,47.655,-122.3035,60.0,3.7
2026-01-20T23:03:43+00:00,SAT-65525,276.07372954073344,33.488561765740315,3833.6206796426272,-1.3066225628047523,45763.44915738307,10.5,10500045763.449158,47.655,-122.3035,60.0,3.716666666666667
2026-01-20T23:03:44+00:00,SAT-65525,275.9344972892365,33.483614733100644,3832.3175414066563,-1.2942814183658766,45331.21007614442,10.5,10500045331.210075,47.655,-122.3035,60.0,3.7333333333333334
2026-01-20T23:03:45+00:00,SAT-65525,275.79520373919274,33.47839664126611,3831.0267114054063,-1.2819263217026151,44898.482328989936,10.5,10500044898.482328,47.655,-122.3035,60.0,3.75
2026-01-20T23:03:46+00:00,SAT-65525,275.65585080765123,33.472907198806936,3829.7482035538947,-1.269557380043749,44465.2696715251,10.5,10500044465.269672,47.655,-122.3035,60.0,3.7666666666666666
2026-01-20T23:03:47+00:00,SAT-65525,275.5164404174951,33.467146123133965,3828.4820316601977,-1.257174713610697,44031.576314412545,10.5,10500044031.576315,47.655,-122.3035,60.0,3.783333333333333
2026-01-20T23:03:48+00:00,SAT-65525,275.37697449605247,33.461113140497616,3827.22820941249,-1.2447784431580005,43597.40648698709,10.5,10500043597.406487,47.655,-122.3035,60.0,3.8
2026-01-20T23:03:49+00:00,SAT-65525,275.23745497496924,33.454807986025045,3825.9867503785135,-1.232368689983489,43162.76443761181,10.5,10500043162.764437,47.655,-122.3035,60.0,3.816666666666667
2026-01-20T23:03:50+00:00,SAT-65525,275.0978837900475,33.44823040375708,3824.7576680050365,-1.2199455655275593,42727.65406940081,10.5,10500042727.65407,47.655,-122.3035,60.0,3.8333333333333335
2026-01-20T23:03:51+00:00,SAT-65525,274.9582628822199,33.44138014673893,3823.540975627684,-1.2075091966103564,42292.07982413201,10.5,10500042292.079824,47.655,-122.3035,60.0,3.85
2026-01-20T23:03:52+00:00,SAT-65525,274.8185941958343,33.434256976984955,3822.3366864555983,-1.1950597053809773,41856.045979983464,10.5,10500041856.04598,47.655,-122.3035,60.0,3.8666666666666667
2026-01-20T23:03:53+00:00,SAT-65525,274.67887967906927,33.42686066553923,3821.144813576098,-1.1825972124186273,41419.55676014901,10.5,10500041419.55676,47.655,-122.3035,60.0,3.8833333333333333
2026-01-20T23:03:54+00:00,SAT-65525,274.5391212839916,33.41919099252018,3819.9653699562455,-1.1701218350361842,40982.61627342184,10.5,10500040982.616274,47.655,-122.3035,60.0,3.9
2026-01-20T23:03:55+00:00,SAT-65525,274.39932096687113,33.411247747182486,3818.7983684461033,-1.1576337012735196,40545.22900429989,10.5,10500040545.229004,47.655,-122.3035,60.0,3.9166666666666665
2026-01-20T23:03:56+00:00,SAT-65525,274.2594806868916,33.40303072788926,3817.643821768033,-1.1451329366980165,40107.39935068404,10.5,10500040107.399351,47.655,-122.3035,60.0,3.933333333333333
2026-01-20T23:03:57+00:00,SAT-65525,274.1196024063542,33.394539742160084,3816.5017425191663,-1.1326196614075965,39669.13151891154,10.5,10500039669.13152,47.655,-122.3035,60.0,3.95
2026-01-20T23:03:58+00:00,SAT-65525,273.97968809117225,33.38577460674119,3815.3721431768554,-1.12009399822983,39230.42981092344,10.5,10500039230.429811,47.655,-122.3035,60.0,3.966666666666667
2026-01-20T23:03:59+00:00,SAT-65525,273.8397397105127,33.376735147625475,3814.2550360959544,-1.1075560793623342,38791.29885683952,10.5,10500038791.298857,47.655,-122.3035,60.0,3.9833333333333334
2026-01-20T23:04:00+00:00,SAT-65525,273.69975923562225,33.367421200017695,3813.15043349947,-1.0950060239648578,38351.7428301382,10.5,10500038351.74283,47.655,-122.3035,60.0,4.0
2026-01-20T23:04:01+00:00,SAT-65525,273.5597486412445,33.35783260846227,3812.0583474915693,-1.0824439623708684,37911.76629564883,10.5,10500037911.766296,47.655,-122.3035,60.0,4.016666666666667
2026-01-20T23:04:02+00:00,SAT-65525,273.4197099042288,33.34796922679092,3810.9787900464316,-1.069870022650223,37471.373738919545,10.5,10500037471.37374,47.655,-122.3035,60.0,4.033333333333333
2026-01-20T23:04:03+00:00,SAT-65525,273.2796450037189,33.33783091816954,3809.911773010508,-1.057284326746697,37030.56943093718,10.5,10500037030.569431,47.655,-122.3035,60.0,4.05
2026-01-20T23:04:04+00:00,SAT-65525,273.139555921761,33.32741755517938,3808.857308108633,-1.0446870076492072,36589.35802953613,10.5,10500036589.35803,47.655,-122.3035,60.0,4.066666666666666
2026-01-20T23:04:05+00:00,SAT-65525,272.999444641954,33.31672901975711,3807.815406933004,-1.0320781969937882,36147.74414516717,10.5,10500036147.744144,47.655,-122.3035,60.0,4.083333333333333
2026-01-20T23:04:06+00:00,SAT-65525,272.85931314943934,33.305765203223764,3806.7860809445356,-1.0194580166418845,35705.732045933546,10.5,10500035705.732046,47.655,-122.3035,60.0,4.1
2026-01-20T23:04:07+00:00,SAT-65525,272.71916343206675,33.29452600640928,3805.769341482605,-1.0068266002080306,35263.326411581445,10.5,10500035263.326412,47.655,-122.3035,60.0,4.116666666666666
2026-01-20T23:04:08+00:00,SAT-65525,272.57899747883323,33.28301133956766,3804.7651997533308,-0.9941840808305593,34820.53190517846,10.5,10500034820.531906,47.655,-122.3035,60.0,4.133333333333334
2026-01-20T23:04:09+00:00,SAT-65525,272.438817279855,33.271221122404185,3803.773666830049,-0.9815305850028303,34377.352957057105,10.5,10500034377.352957,47.655,-122.3035,60.0,4.15
2026-01-20T23:04:10+00:00,SAT-65525,272.2986248270981,33.25915528416642,3802.7947536599395,-0.9688662461162688,33933.79423914935,10.5,10500033933.794239,47.655,-122.3035,60.0,4.166666666666667
2026-01-20T23:04:11+00:00,SAT-65525,272.1584221134452,33.24681376360055,3801.8284710571465,-0.9561911944631772,33489.86031484275,10.5,10500033489.860315,47.655,-122.3035,60.0,4.183333333333334
2026-01-20T23:04:12+00:00,SAT-65525,272.01821113296626,33.2341965090045,3800.8748297058683,-0.9435055694589111,33045.556067052785,10.5,10500033045.556067,47.655,-122.3035,60.0,4.2
2026-01-20T23:04:13+00:00,SAT-65525,271.8779938796625,33.22130347814481,3799.9338401512614,-0.9308094923743628,32600.885743199084,10.5,10500032600.885744,47.655,-122.3035,60.0,4.216666666666667
2026-01-20T23:04:14+00:00,SAT-65525,271.7377723497449,33.20813463849226,3799.005512817533,-0.9181031085995194,32155.854435453988,10.5,10500032155.854435,47.655,-122.3035,60.0,4.233333333333333
2026-01-20T23:04:15+00:00,SAT-65525,271.59754853836307,33.194689966951756,3798.08985798389,-0.9053865470931138,31710.466660497827,10.5,10500031710.46666,47.655,-122.3035,60.0,4.25
2026-01-20T23:04:16+00:00,SAT-65525,271.4573244416606,33.18096945007701,3797.1868858009225,-0.8926599403399083,31264.72705850738,10.5,10500031264.727058,47.655,-122.3035,60.0,4.266666666666667
2026-01-20T23:04:17+00:00,SAT-65525,271.317102056304,33.16697308405817,3796.29660628709,-0.8799234248528149,30818.640410742275,10.5,10500030818.640411,47.655,-122.3035,60.0,4.283333333333333
2026-01-20T23:04:18+00:00,SAT-65525,271.1768833787393,33.15270087467395,3795.419029324704,-0.8671771396700895,30372.211586910365,10.5,10500030372.211586,47.655,-122.3035,60.0,4.3
2026-01-20T23:04:19+00:00,SAT-65525,271.0366704048242,33.138152837280344,3794.554164657406,-0.8544212190293444,29925.445288580668,10.5,10500029925.445288,47.655,-122.3035,60.0,4.316666666666666
2026-01-20T23:04:20+00:00,SAT-65525,270.89646513032903,33.123328996881554,3793.7020218949606,-0.8416557965796729,29478.346196709746,10.5,10500029478.346197,47.655,-122.3035,60.0,4.333333333333333
2026-01-20T23:04:21+00:00,SAT-65525,270.7562695510119,33.108229388166095,3792.8626105138383,-0.8288810116845918,29030.91919239748,10.5,10500029030.919193,47.655,-122.3035,60.0,4.35
2026-01-20T23:04:22+00:00,SAT-65525,270.6160856616583,33.09285405543002,3792.035939851519,-0.8160970041060623,28583.169170698933,10.5,10500028583.16917,47.655,-122.3035,60.0,4.366666666666666
2026-01-20T23:04:23+00:00,SAT-65525,270.47591545594224,33.07720305257925,3791.22201910609,-0.8033039080593344,28135.100832399894,10.5,10500028135.100832,47.655,-122.3035,60.0,4.383333333333334
2026-01-20T23:04:24+00:00,SAT-65525,270.3357609271397,33.06127644323134,3790.4208573417854,-0.7905018636067271,27686.71908307525,10.5,10500027686.719084,47.655,-122.3035,60.0,4.4
2026-01-20T23:04:25+00:00,SAT-65525,270.19562406720746,33.045074300634546,3789.632463483148,-0.7776910080305971,27238.028730933816,10.5,10500027238.02873,47.655,-122.3035,60.0,4.416666666666667
2026-01-20T23:04:26+00:00,SAT-65525,270.0555068670518,33.0285967077169,3788.856846317806,-0.7648714843785462,26789.034786107713,10.5,10500026789.034786,47.655,-122.3035,60.0,4.433333333333334
2026-01-20T23:04:27+00:00,SAT-65525,269.9154113155995,33.01184375699896,3788.094014490719,-0.7520434301585806,26339.742064708964,10.5,10500026339.742065,47.655,-122.3035,60.0,4.45
2026-01-20T23:04:28+00:00,SAT-65525,269.7753394005255,32.994815550693566,3787.3439765097073,-0.7392069862756476,25890.155501824865,10.5,10500025890.155502,47.655,-122.3035,60.0,4.466666666666667
2026-01-20T23:04:29+00:00,SAT-65525,269.6352931076576,32.977512200654296,3786.606740742062,-0.7263622893930922,25440.279883983832,10.5,10500025440.279884,47.655,-122.3035,60.0,4.483333333333333
2026-01-20T23:04:30+00:00,SAT-65525,269.49527442158575,32.959933828469765,3785.882315418774,-0.7135094859615556,24990.12034050681,10.5,10500024990.12034,47.655,-122.3035,60.0,4.5
2026-01-20T23:04:31+00:00,SAT-65525,269.35528532395705,32.9420805652659,3785.170708624775,-0.7006487171289143,24539.68181498949,10.5,10500024539.681814,47.655,-122.3035,60.0,4.516666666666667
2026-01-20T23:04:32+00:00,SAT-65525,269.21532779419056,32.923952551806224,3784.471928304225,-0.6877801191890375,24088.969081019688,10.5,10500024088.969082,47.655,-122.3035,60.0,4.533333333333333
2026-01-20T23:04:33+00:00,SAT-65525,269.0754038103531,32.905549938623125,3783.7859822653536,-0.6749038413064599,23637.98736297038,10.5,10500023637.987364,47.655,-122.3035,60.0,4.55
2026-01-20T23:04:34+00:00,SAT-65525,268.9355153467403,32.88687288571732,3783.1128781676243,-0.6620200223324127,23186.741523999026,10.5,10500023186.741524,47.655,-122.3035,60.0,4.566666666666666
2026-01-20T23:04:35+00:00,SAT-65525,268.7956643756441,32.86792156279751,3782.452623532018,-0.6491288047488493,22735.23655442632,10.5,10500022735.236555,47.655,-122.3035,60.0,4.583333333333333
2026-01-20T23:04:36+00:00,SAT-65525,268.65585286662275,32.8486961492011,3781.805225737415,-0.6362303332301826,22283.477521362187,10.5,10500022283.477522,47.655,-122.3035,60.0,4.6
2026-01-20T23:04:37+00:00,SAT-65525,268.51608278601725,32.82919683383634,3781.170692018407,-0.6233247525433221,21831.46949515615,10.5,10500021831.469496,47.655,-122.3035,60.0,4.616666666666666
2026-01-20T23:04:38+00:00,SAT-65525,268.3763560967927,32.80942381516839,3780.5490294652036,-0.6104122058837614,21379.217491120125,10.5,10500021379.217491,47.655,-122.3035,60.0,4.633333333333334
2026-01-20T23:04:39+00:00,SAT-65525,268.2366747588439,32.789377301272154,3779.9402450252023,-0.5974928357669961,20926.72650074959,10.5,10500020926.726501,47.655,-122.3035,60.0,4.65
2026-01-20T23:04:40+00:00,SAT-65525,268.097040728931,32.76905750983222,3779.344345503664,-0.5845667907029742,20474.001725491136,10.5,10500020474.001726,47.655,-122.3035,60.0,4.666666666666667
2026-01-20T23:04:41+00:00,SAT-65525,267.9574559595509,32.74846466798731,3778.761337557736,-0.5716342145804009,20021.04820493586,10.5,10500020021.048204,47.655,-122.3035,60.0,4.683333333333334
2026-01-20T23:04:42+00:00,SAT-65525,267.81792239965216,32.727599012438596,3778.1912277010615,-0.5586952507685813,19567.87096048328,10.5,10500019567.87096,47.655,-122.3035,60.0,4.7
2026-01-20T23:04:43+00:00,SAT-65525,267.67844199472773,32.70646078947032,3777.634022304295,-0.5457500472052078,19114.47517353716,10.5,10500019114.475174,47.655,-122.3035,60.0,4.716666666666667
2026-01-20T23:04:44+00:00,SAT-65525,267.5390166857577,32.685050254797126,3777.0897275905486,-0.5327987497783223,18660.86595371383,10.5,10500018660.865953,47.655,-122.3035,60.0,4.733333333333333
2026-01-20T23:04:45+00:00,SAT-65525,267.39964840962864,32.66336767363102,3776.5583496374365,-0.5198415046595535,18207.048420562038,10.5,10500018207.04842,47.655,-122.3035,60.0,4.75
2026-01-20T23:04:46+00:00,SAT-65525,267.2603390988635,32.641413320639806,3776.0398943767896,-0.5068784589551463,17753.027726364737,10.5,10500017753.027727,47.655,-122.3035,60.0,4.766666666666667
2026-01-20T23:04:47+00:00,SAT-65525,267.1210906814888,32.619187479931256,3775.5343675937247,-0.4939097594216903,17298.80901115847,10.5,10500017298.809011,47.655,-122.3035,60.0,4.783333333333333
2026-01-20T23:04:48+00:00,SAT-65525,266.98190508086543,32.59669044502479,3775.041774926995,-0.4809355542779232,16844.397466190407,10.5,10500016844.397467,47.655,-122.3035,60.0,4.8
2026-01-20T23:04:49+00:00,SAT-65525,266.8427842154602,32.57392251881688,3774.5621218675287,-0.4679559904095229,16389.7982360183,10.5,10500016389.798237,47.655,-122.3035,60.0,4.816666666666666
2026-01-20T23:04:50+00:00,SAT-65525,266.7037299988937,32.550884013585566,3774.09541375976,-0.4549712150299682,15935.016476680898,10.5,10500015935.016478,47.655,-122.3035,60.0,4.833333333333333
2026-01-20T23:04:51+00:00,SAT-65525,266.5647443399348,32.52757525099023,3773.641655801304,-0.4419813763986548,15480.05738084937,10.5,10500015480.05738,47.655,-122.3035,60.0,4.85
2026-01-20T23:04:52+00:00,SAT-65525,266.42582914211073,32.5039965620063,3773.200853041909,-0.4289866267934717,15024.926281939532,10.5,10500015024.926283,47.655,-122.3035,60.0,4.866666666666666
2026-01-20T23:04:53+00:00,SAT-65525,266.28698630258697,32.480148286725154,3772.7730103794534,-0.41598711032470836,14569.628227303296,10.5,10500014569.628227,47.655,-122.3035,60.0,4.883333333333334
2026-01-20T23:04:54+00:00,SAT-65525,266.1482177142362,32.456030774706974,3772.3581325680893,-0.40298297762158897,14114.168492613262,10.5,10500014114.168493,47.655,-122.3035,60.0,4.9
2026-01-20T23:04:55+00:00,SAT-65525,266.00952526382935,32.43164438466505,3771.9562242117413,-0.3899743771828805,13658.552278924393,10.5,10500013658.552279,47.655,-122.3035,60.0,4.916666666666667
2026-01-20T23:04:56+00:00,SAT-65525,265.87091083257826,32.406989484552305,3771.567289766231,-0.3769614607813018,13202.784901959305,10.5,10500013202.784903,47.655,-122.3035,60.0,4.933333333333334
2026-01-20T23:04:57+00:00,SAT-65525,265.7323762950905,32.382066451369575,3771.191333536012,-0.3639443761792094,12746.871536980754,10.5,10500012746.871536,47.655,-122.3035,60.0,4.95
2026-01-20T23:04:58+00:00,SAT-65525,265.59392352047394,32.35687567135157,3770.8283596781694,-0.3509232724862503,12290.817406439319,10.5,10500012290.817406,47.655,-122.3035,60.0,4.966666666666667
2026-01-20T23:04:59+00:00,SAT-65525,265.4555543718509,32.331417539875524,3770.478372201076,-0.33789830179278085,11834.62783718261,10.5,10500011834.627838,47.655,-122.3035,60.0,4.983333333333333
2026-01-20T23:05:00+00:00,SAT-65525,265.317270705459,32.305692461285055,3770.141374961421,-0.3248696139799255,11378.30807868161,10.5,10500011378.308079,47.655,-122.3035,60.0,5.0
2026-01-20T23:05:01+00:00,SAT-65525,265.1790743711792,32.27970084897408,3769.8173716664123,-0.31183735953765657,10921.86340173172,10.5,10500010921.863401,47.655,-122.3035,60.0,5.016666666666667
2026-01-20T23:05:02+00:00,SAT-65525,265.04096721229985,32.25344312533087,3769.506365873167,-0.29880168743992636,10465.299024030906,10.5,10500010465.299025,47.655,-122.3035,60.0,5.033333333333333
2026-01-20T23:05:03+00:00,SAT-65525,264.90295106592225,32.226919721805885,3769.2083609902265,-0.2857627510669528,10008.620317603203,10.5,10500010008.620317,47.655,-122.3035,60.0,5.05
2026-01-20T23:05:04+00:00,SAT-65525,264.7650277615302,32.20013107862259,3768.9233602731624,-0.2727206996406997,9551.832508832984,10.5,10500009551.832508,47.655,-122.3035,60.0,5.066666666666666
2026-01-20T23:05:05+00:00,SAT-65525,264.6271991221611,32.173077644988254,3768.6513668287207,-0.25967568524237516,9094.940924247463,10.5,10500009094.940924,47.655,-122.3035,60.0,5.083333333333333
2026-01-20T23:05:06+00:00,SAT-65525,264.4894669635324,32.14575987890918,3768.3923836119725,-0.2466278605020646,8637.95090959786,10.5,10500008637.950909,47.655,-122.3035,60.0,5.1
2026-01-20T23:05:07+00:00,SAT-65525,264.3518330935633,32.11817824707641,3768.146413425765,-0.23357737368881965,8180.8676578935365,10.5,10500008180.867659,47.655,-122.3035,60.0,5.116666666666666
2026-01-20T23:05:08+00:00,SAT-65525,264.214299314144,32.09033322520449,3767.9134589250725,-0.22052437941681588,7723.6965843769385,10.5,10500007723.696585,47.655,-122.3035,60.0,5.133333333333334
2026-01-20T23:05:09+00:00,SAT-65525,264.07686741846396,32.06222529747496,3767.6935226106675,-0.20746902848502294,7266.442970665862,10.5,10500007266.44297,47.655,-122.3035,60.0,5.15
2026-01-20T23:05:10+00:00,SAT-65525,263.939539192553,32.03385495682804,3767.486606832925,-0.19441147220926996,6809.11211648071,10.5,10500006809.112116,47.655,-122.3035,60.0,5.166666666666667
2026-01-20T23:05:11+00:00,SAT-65525,263.8023164149335,32.005222704872516,3767.2927137913084,-0.18135186354490312,6351.709378964707,10.5,10500006351.70938,47.655,-122.3035,60.0,5.183333333333334
2026-01-20T23:05:12+00:00,SAT-65525,263.6652008559639,31.976329051728676,3767.1118455327332,-0.16829035441354956,5894.240079055859,10.5,10500005894.24008,47.655,-122.3035,60.0,5.2
2026-01-20T23:05:13+00:00,SAT-65525,263.52819427803473,31.947174516045507,3766.9440039525975,-0.15522709696604345,5436.70954571998,10.5,10500005436.709545,47.655,-122.3035,60.0,5.216666666666667
2026-01-20T23:05:14+00:00,SAT-65525,263.3912984356952,31.917759625005985,3766.7891907945573,-0.1421622434192877,4979.123110236886,10.5,10500004979.12311,47.655,-122.3035,60.0,5.233333333333333
2026-01-20T23:05:15+00:00,SAT-65525,263.2545150751847,31.888084914202327,3766.6474076504537,-0.1290959462173593,4521.486111842989,10.5,10500004521.486113,47.655,-122.3035,60.0,5.25
2026-01-20T23:05:16+00:00,SAT-65525,263.1178459345632,31.858150927639024,3766.518655960093,-0.11602835856259927,4063.8039163323187,10.5,10500004063.803917,47.655,-122.3035,60.0,5.266666666666667
2026-01-20T23:05:17+00:00,SAT-65525,262.9812927430387,31.827958217560024,3766.4029370104868,-0.10295963202596305,3606.081832360879,10.5,10500003606.081833,47.655,-122.3035,60.0,5.283333333333333
2026-01-20T23:05:18+00:00,SAT-65525,262.8448572219572,31.797507344640678,3766.300251937479,-0.08988991980572583,3148.325225580296,10.5,10500003148.325226,47.655,-122.3035,60.0,5.3
2026-01-20T23:05:19+00:00,SAT-65525,262.7085410835987,31.76679887769222,3766.2106017241263,-0.07681937523179175,2690.539466252395,10.5,10500002690.539467,47.655,-122.3035,60.0,5.316666666666666
2026-01-20T23:05:20+00:00,SAT-65525,262.57234603130127,31.735833393659732,3766.133987200562,-0.06374814938315958,2232.729845802777,10.5,10500002232.729845,47.655,-122.3035,60.0,5.333333333333333
2026-01-20T23:05:21+00:00,SAT-65525,262.4362737604241,31.704611477811664,3766.070409046244,-0.050676396438460385,1774.901764219279,10.5,10500001774.901764,47.655,-122.3035,60.0,5.35
2026-01-20T23:05:22+00:00,SAT-65525,262.3003259567462,31.67313372334652,3766.0198677868625,-0.03760426882550824,1317.0605601687168,10.5,10500001317.06056,47.655,-122.3035,60.0,5.366666666666666
2026-01-20T23:05:23+00:00,SAT-65525,262.16450429699233,31.64140073147819,3765.982363796087,-0.02453191972326597,859.211598626316,10.5,10500000859.2116,47.655,-122.3035,60.0,5.383333333333334
2026-01-20T23:05:24+00:00,SAT-65525,262.02881044865086,31.609413111360226,3765.9578972948166,-0.011459501391326853,401.3602123670902,10.5,10500000401.360212,47.655,-122.3035,60.0,5.4
2026-01-20T23:05:25+00:00,SAT-65525,261.8932460703934,31.577171480155528,3765.946468352095,0.0016128332957699083,-56.48824429593902,10.5,10499999943.511755,47.655,-122.3035,60.0,5.416666666666667
2026-01-20T23:05:26+00:00,SAT-65525,261.75781281167184,31.544676462905308,3765.9480768845024,0.014684930611200565,-514.32838719914,10.5,10499999485.671614,47.655,-122.3035,60.0,5.433333333333334
2026-01-20T23:05:27+00:00,SAT-65525,261.6225123115297,31.51192869220916,3765.962722655299,0.027756638448345982,-972.1548889253005,10.5,10499999027.845112,47.655,-122.3035,60.0,5.45
2026-01-20T23:05:28+00:00,SAT-65525,261.4873462003539,31.478928808609336,3765.9904052760444,0.04082780403939312,-1429.9623988994006,10.5,10499998570.037601,47.655,-122.3035,60.0,5.466666666666667
2026-01-20T23:05:29+00:00,SAT-65525,261.3523160990213,31.445677460351355,3766.03112420594,0.05389827409560367,-1887.7455483014135,10.5,10499998112.254452,47.655,-122.3035,60.0,5.483333333333333
2026-01-20T23:05:30+00:00,SAT-65525,261.21742361816905,31.412175303164524,3766.0848787513046,0.06696789607227305,-2345.4989943705223,10.5,10499997654.501005,47.655,-122.3035,60.0,5.5
2026-01-20T23:05:31+00:00,SAT-65525,261.0826703587403,31.378423000357838,3766.1516680663203,0.08003651719396494,-2803.2173862647064,10.5,10499997196.782614,47.655,-122.3035,60.0,5.516666666666667
2026-01-20T23:05:32+00:00,SAT-65525,260.94805791180954,31.344421222734056,3766.231491152802,0.09310398481178966,-3260.895377574146,10.5,10499996739.104622,47.655,-122.3035,60.0,5.533333333333333
2026-01-20T23:05:33+00:00,SAT-65525,260.81358785901386,31.31017064866639,3766.324346860321,0.10617014612693282,-3718.527616638023,10.5,10499996281.472383,47.655,-122.3035,60.0,5.55
2026-01-20T23:05:34+00:00,SAT-65525,260.6792617714134,31.275671963761333,3766.430233886058,0.11923484884219285,-4176.108769364121,10.5,10499995823.891232,47.655,-122.3035,60.0,5.566666666666666
2026-01-20T23:05:35+00:00,SAT-65525,260.5450812097184,31.24092586087322,3766.5491507753036,0.1322979400693086,-4633.633480958818,10.5,10499995366.36652,47.655,-122.3035,60.0,5.583333333333333
2026-01-20T23:05:36+00:00,SAT-65525,260.41104772507805,31.20593304027028,3766.681095920866,0.14535926779618988,-5091.096427315705,10.5,10499994908.903572,47.655,-122.3035,60.0,5.6
2026-01-20T23:05:37+00:00,SAT-65525,260.27716285770776,31.170694209227744,3766.8260675639476,0.1584186793881771,-5548.492262523361,10.5,10499994451.507738,47.655,-122.3035,60.0,5.616666666666666
2026-01-20T23:05:38+00:00,SAT-65525,260.1434281382151,31.13521008233467,3766.9840637935245,0.171476022895183,-6005.815664646979,10.5,10499993994.184336,47.655,-122.3035,60.0,5.633333333333334
2026-01-20T23:05:39+00:00,SAT-65525,260.0098450857986,31.099481380971856,3767.1550825470254,0.18453114563070952,-6463.061285959535,10.5,10499993536.938715,47.655,-122.3035,60.0,5.65
2026-01-20T23:05:40+00:00,SAT-65525,259.8764152102259,31.063508833790703,3767.3391216096006,0.19758389615949593,-6920.223822557628,10.5,10499993079.776178,47.655,-122.3035,60.0,5.666666666666667
2026-01-20T23:05:41+00:00,SAT-65525,259.7431400100287,31.027293176184035,3767.5361786153708,0.2106341222595572,-7377.297942983444,10.5,10499992622.702057,47.655,-122.3035,60.0,5.683333333333334
