satellites_20260121_005943/SAT-65668.csv

timestamp,satellite,azimuth_deg,elevation_deg,distance_km,relative_velocity_kms,doppler_shift_hz,tx_freq_ghz,rx_freq_hz,ue_lat,ue_lon,ue_alt_m,time_minutes
2026-01-20T23:14:58+00:00,SAT-65668,307.55756126819847,30.00873138838751,3987.813877636884,-1.0256222181666907,35921.62845787886,10.5,10500035921.628458,47.655,-122.3035,60.0,14.966666666666667
2026-01-20T23:14:59+00:00,SAT-65668,307.4349151430308,30.04565648240214,3986.7909904112994,-1.0137528989103974,35505.91469035279,10.5,10500035505.91469,47.655,-122.3035,60.0,14.983333333333333
