satellites_20260121_005943/SAT-64429.csv

timestamp,satellite,azimuth_deg,elevation_deg,distance_km,relative_velocity_kms,doppler_shift_hz,tx_freq_ghz,rx_freq_hz,ue_lat,ue_lon,ue_alt_m,time_minutes
2026-01-20T23:10:03+00:00,SAT-64429,250.73977243367904,30.04784242159432,3620.770695135555,-6.719575824627741,235347.96915601954,10.5,10500235347.969156,47.655,-122.3035,60.0,10.05
2026-01-20T23:10:04+00:00,SAT-64429,250.72812182288266,30.097239576033473,3614.0690381797926,-6.72020185357444,235369.89533783277,10.5,10500235369.895338,47.655,-122.3035,60.0,10.066666666666666
2026-01-20T23:10:05+00:00,SAT-64429,250.71646857424776,30.146709020377816,3607.366756864494,-6.720823632585672,235391.67266892872,10.5,10500235391.672668,47.655,-122.3035,60.0,10.083333333333334
2026-01-20T23:10:06+00:00,SAT-64429,250.7048126841376,30.196251167045837,3600.663855428262,-6.721441114607914,235413.29950129398,10.5,10500235413.299501,47.655,-122.3035,60.0,10.1
2026-01-20T23:10:07+00:00,SAT-64429,250.69315414897125,30.245866431344076,3593.9603381566267,-6.722054287281255,235434.7754020322,10.5,10500235434.775402,47.655,-122.3035,60.0,10.116666666666667
2026-01-20T23:10:08+00:00,SAT-64429,250.68149296519698,30.295555231753852,3587.2562093474444,-6.722663137444332,235456.0999101768,10.5,10500235456.09991,47.655,-122.3035,60.0,10.133333333333333
2026-01-20T23:10:09+00:00,SAT-64429,250.66982912928785,30.34531798995512,3580.5514733117,-6.723267669723975,235477.27318777892,10.5,10500235477.273188,47.655,-122.3035,60.0,10.15
2026-01-20T23:10:10+00:00,SAT-64429,250.6581626377345,30.395155130991775,3573.846134355762,-6.723867807772871,235498.29256083266,10.5,10500235498.29256,47.655,-122.3035,60.0,10.166666666666666
2026-01-20T23:10:11+00:00,SAT-64429,250.64649348710955,30.445067082698014,3567.1401968621435,-6.724463595710592,235519.15957459217,10.5,10500235519.159575,47.655,-122.3035,60.0,10.183333333333334
2026-01-20T23:10:12+00:00,SAT-64429,250.63482167396782,30.495054276628192,3560.433665169355,-6.725054973843681,235539.87213833997,10.5,10500235539.872139,47.655,-122.3035,60.0,10.2
2026-01-20T23:10:13+00:00,SAT-64429,250.62314719492792,30.54511714731346,3553.7265436754415,-6.725641934758733,235560.4299924273,10.5,10500235560.429993,47.655,-122.3035,60.0,10.216666666666667
2026-01-20T23:10:14+00:00,SAT-64429,250.61147004664488,30.595256132685883,3547.018836785842,-6.7262244583236415,235580.8324317426,10.5,10500235580.832432,47.655,-122.3035,60.0,10.233333333333333
2026-01-20T23:10:15+00:00,SAT-64429,250.59979022579734,30.64547167401374,3540.3105489260743,-6.726802513777894,235601.07837892268,10.5,10500235601.078379,47.655,-122.3035,60.0,10.25
2026-01-20T23:10:16+00:00,SAT-64429,250.5881077291229,30.69576421585626,3533.6016845523327,-6.727376126846558,235621.16873496817,10.5,10500235621.168736,47.655,-122.3035,60.0,10.266666666666667
2026-01-20T23:10:17+00:00,SAT-64429,250.5764225533436,30.746134206521088,3526.8922480951574,-6.72794519709728,235641.09998231323,10.5,10500235641.099983,47.655,-122.3035,60.0,10.283333333333333
2026-01-20T23:10:18+00:00,SAT-64429,250.56473469530482,30.796582097148008,3520.182244085253,-6.728509784517267,235660.87422196358,10.5,10500235660.874222,47.655,-122.3035,60.0,10.3
2026-01-20T23:10:19+00:00,SAT-64429,250.55304415180177,30.84710834295163,3513.471676993494,-6.729069828478954,235680.48933048546,10.5,10500235680.48933,47.655,-122.3035,60.0,10.316666666666666
2026-01-20T23:10:20+00:00,SAT-64429,250.54135091971875,30.89771340234698,3506.7605513512244,-6.7296252907759,235699.94396972773,10.5,10500235699.94397,47.655,-122.3035,60.0,10.333333333333334
2026-01-20T23:10:21+00:00,SAT-64429,250.529654995984,30.948397737151325,3500.048871727891,-6.730176208337388,235719.23943311002,10.5,10500235719.239433,47.655,-122.3035,60.0,10.35
2026-01-20T23:10:22+00:00,SAT-64429,250.51795637752224,30.999161813190867,3493.336642656109,-6.7307224966159795,235738.3727594234,10.5,10500235738.372759,47.655,-122.3035,60.0,10.366666666666667
2026-01-20T23:10:23+00:00,SAT-64429,250.50625506134793,31.05000609941304,3486.623868752817,-6.731264180349777,235757.3448151009,10.5,10500235757.344814,47.655,-122.3035,60.0,10.383333333333333
2026-01-20T23:10:24+00:00,SAT-64429,250.4945510444814,31.100931068753628,3479.910554610282,-6.731801226394721,235776.15443929733,10.5,10500235776.15444,47.655,-122.3035,60.0,10.4
2026-01-20T23:10:25+00:00,SAT-64429,250.48284432398958,31.151937197732753,3473.196704853824,-6.73233358447263,235794.79987105817,10.5,10500235794.799871,47.655,-122.3035,60.0,10.416666666666666
2026-01-20T23:10:26+00:00,SAT-64429,250.47113489701144,31.203024966360584,3466.4823241589097,-6.73286126120154,235813.28134217497,10.5,10500235813.281342,47.655,-122.3035,60.0,10.433333333333334
2026-01-20T23:10:27+00:00,SAT-64429,250.4594227606982,31.254194858608138,3459.767417194405,-6.733384240370768,235831.598284881,10.5,10500235831.598286,47.655,-122.3035,60.0,10.45
2026-01-20T23:10:28+00:00,SAT-64429,250.44770791224482,31.305447362272492,3453.0519886453417,-6.73390248794026,235849.74950694968,10.5,10500235849.749506,47.655,-122.3035,60.0,10.466666666666667
2026-01-20T23:10:29+00:00,SAT-64429,250.43599034889064,31.356782968876814,3446.3360432307027,-6.734415975765822,235867.73402265224,10.5,10500235867.734022,47.655,-122.3035,60.0,10.483333333333333
2026-01-20T23:10:30+00:00,SAT-64429,250.4242700679369,31.40820217375479,3439.619585697539,-6.734924680864742,235885.55102703682,10.5,10500235885.551027,47.655,-122.3035,60.0,10.5
2026-01-20T23:10:31+00:00,SAT-64429,250.4125470667176,31.459705476128157,3432.9026208158234,-6.735428591931668,235903.20012414225,10.5,10500235903.200125,47.655,-122.3035,60.0,10.516666666666667
2026-01-20T23:10:32+00:00,SAT-64429,250.4008213426115,31.511293379237035,3426.185153366803,-6.735927679767344,235920.68029128708,10.5,10500235920.680292,47.655,-122.3035,60.0,10.533333333333333
2026-01-20T23:10:33+00:00,SAT-64429,250.3890928930427,31.562966390241268,3419.4671881608488,-6.736421932620202,235937.9911168817,10.5,10500235937.991117,47.655,-122.3035,60.0,10.55
2026-01-20T23:10:34+00:00,SAT-64429,250.37736171547357,31.614725020396662,3412.748730020049,-6.73691129192503,235955.13054972453,10.5,10500235955.13055,47.655,-122.3035,60.0,10.566666666666666
2026-01-20T23:10:35+00:00,SAT-64429,250.36562780744325,31.666569784731575,3406.029783824902,-6.737395774569462,235972.09918129214,10.5,10500235972.099182,47.655,-122.3035,60.0,10.583333333333334
2026-01-20T23:10:36+00:00,SAT-64429,250.35389116650913,31.71850120267495,3399.3103544390647,-6.737875321389603,235988.8949394145,10.5,10500235988.89494,47.655,-122.3035,60.0,10.6
2026-01-20T23:10:37+00:00,SAT-64429,250.34215179029795,31.77051979750581,3392.5904467851988,-6.738349954278036,236005.51859086254,10.5,10500236005.51859,47.655,-122.3035,60.0,10.616666666666667
2026-01-20T23:10:38+00:00,SAT-64429,250.33040967645405,31.82262609702742,3385.8700657641325,-6.7388195966409565,236021.96745299725,10.5,10500236021.967453,47.655,-122.3035,60.0,10.633333333333333
2026-01-20T23:10:39+00:00,SAT-64429,250.31866482270982,31.87482063284266,3379.1492163530825,-6.739284252533965,236038.24166786287,10.5,10500236038.241669,47.655,-122.3035,60.0,10.65
2026-01-20T23:10:40+00:00,SAT-64429,250.30691722683207,31.92710394102535,3372.427903525222,-6.739743890901268,236054.3401477542,10.5,10500236054.340147,47.655,-122.3035,60.0,10.666666666666666
2026-01-20T23:10:41+00:00,SAT-64429,250.29516688663352,31.979476561890394,3365.7061322846967,-6.7401984865295805,236070.2620095953,10.5,10500236070.262009,47.655,-122.3035,60.0,10.683333333333334
2026-01-20T23:10:42+00:00,SAT-64429,250.28341379998864,32.03193904008402,3358.9839076607977,-6.740648013622682,236086.00634989343,10.5,10500236086.00635,47.655,-122.3035,60.0,10.7
2026-01-20T23:10:43+00:00,SAT-64429,250.27165796481876,32.08449192462329,3352.2612347085446,-6.741092440723291,236101.57206688152,10.5,10500236101.572067,47.655,-122.3035,60.0,10.716666666666667
2026-01-20T23:10:44+00:00,SAT-64429,250.25989937910694,32.13713576889755,3345.53811851433,-6.741531752987327,236116.95864065713,10.5,10500236116.958641,47.655,-122.3035,60.0,10.733333333333333
2026-01-20T23:10:45+00:00,SAT-64429,250.24813804087657,32.189871130844374,3338.814564179351,-6.741965935729272,236132.16555687122,10.5,10500236132.165556,47.655,-122.3035,60.0,10.75
2026-01-20T23:10:46+00:00,SAT-64429,250.23637394820213,32.24269857299875,3332.0905768194502,-6.742394916044491,236147.1902620951,10.5,10500236147.190262,47.655,-122.3035,60.0,10.766666666666667
2026-01-20T23:10:47+00:00,SAT-64429,250.22460709924712,32.295618662078255,3325.366161623181,-6.742818707411987,236162.03322842057,10.5,10500236162.033228,47.655,-122.3035,60.0,10.783333333333333
2026-01-20T23:10:48+00:00,SAT-64429,250.21283749220476,32.3486319697148,3318.641323765656,-6.7432372653376325,236176.6928974749,10.5,10500236176.692898,47.655,-122.3035,60.0,10.8
2026-01-20T23:10:49+00:00,SAT-64429,250.20106512533135,32.401739072043085,3311.9160684663593,-6.743650591111284,236191.16931443446,10.5,10500236191.169315,47.655,-122.3035,60.0,10.816666666666666
2026-01-20T23:10:50+00:00,SAT-64429,250.1892899969239,32.454940550113534,3305.190400943491,-6.744058610888104,236205.45989294065,10.5,10500236205.459892,47.655,-122.3035,60.0,10.833333333333334
2026-01-20T23:10:51+00:00,SAT-64429,250.17751210537568,32.50823698934332,3298.4643264888987,-6.744461319660094,236219.56445759215,10.5,10500236219.564457,47.655,-122.3035,60.0,10.85
2026-01-20T23:10:52+00:00,SAT-64429,250.16573144912007,32.56162898011378,3291.737850399424,-6.744858694826719,236233.48221682262,10.5,10500236233.482216,47.655,-122.3035,60.0,10.866666666666667
2026-01-20T23:10:53+00:00,SAT-64429,250.15394802664377,32.6151171176813,3285.0109779944505,-6.745250702098394,236247.21196966583,10.5,10500236247.21197,47.655,-122.3035,60.0,10.883333333333333
2026-01-20T23:10:54+00:00,SAT-64429,250.1421618365068,32.66870200213511,3278.2837146275574,-6.745637318292167,236260.7529041566,10.5,10500236260.752905,47.655,-122.3035,60.0,10.9
2026-01-20T23:10:55+00:00,SAT-64429,250.13037287731655,32.72238423853774,3271.556065675448,-6.746018502719958,236274.10359522642,10.5,10500236274.103596,47.655,-122.3035,60.0,10.916666666666666
2026-01-20T23:10:56+00:00,SAT-64429,250.11858114776498,32.77616443683686,3264.8280365554015,-6.74639422577543,236287.26300593597,10.5,10500236287.263006,47.655,-122.3035,60.0,10.933333333333334
2026-01-20T23:10:57+00:00,SAT-64429,250.1067866465974,32.830043212006075,3258.0996327142284,-6.746764480839018,236300.2309044402,10.5,10500236300.230904,47.655,-122.3035,60.0,10.95
2026-01-20T23:10:58+00:00,SAT-64429,250.09498937261424,32.88402118428516,3251.370859605338,-6.747129191575097,236313.00461714255,10.5,10500236313.004618,47.655,-122.3035,60.0,10.966666666666667
2026-01-20T23:10:59+00:00,SAT-64429,250.08318932471278,32.938098978670745,3244.6417227582738,-6.747488385270494,236325.58509974318,10.5,10500236325.5851,47.655,-122.3035,60.0,10.983333333333333
2026-01-20T23:11:00+00:00,SAT-64429,250.07138650181452,32.99227722580866,3237.9122276753637,-6.747841990806966,236337.96986138038,10.5,10500236337.969862,47.655,-122.3035,60.0,11.0
2026-01-20T23:11:01+00:00,SAT-64429,250.05958090293984,33.04655656125396,3231.182379929866,-6.74818998891943,236350.15822730944,10.5,10500236350.158228,47.655,-122.3035,60.0,11.016666666666667
2026-01-20T23:11:02+00:00,SAT-64429,250.04777252717136,33.100937625946706,3224.45218511425,-6.7485323476901575,236362.14907963647,10.5,10500236362.14908,47.655,-122.3035,60.0,11.033333333333333
2026-01-20T23:11:03+00:00,SAT-64429,250.03596137365543,33.155421066164635,3217.7216488528206,-6.748869035932751,236373.94132608196,10.5,10500236373.941326,47.655,-122.3035,60.0,11.05
2026-01-20T23:11:04+00:00,SAT-64429,250.0241474416186,33.21000753358939,3210.9907768009834,-6.749200021325958,236385.5338346189,10.5,10500236385.533834,47.655,-122.3035,60.0,11.066666666666666
2026-01-20T23:11:05+00:00,SAT-64429,250.01233073034814,33.264697685353504,3204.259574646381,-6.749525283228433,236396.92588230004,10.5,10500236396.925882,47.655,-122.3035,60.0,11.083333333333334
2026-01-20T23:11:06+00:00,SAT-64429,250.00051123920565,33.31949218419646,3197.528048097241,-6.749844742599803,236408.11470079725,10.5,10500236408.1147,47.655,-122.3035,60.0,11.1
2026-01-20T23:11:07+00:00,SAT-64429,249.98868896765572,33.37439169804355,3190.7962029406217,-6.750158435989202,236419.10157021572,10.5,10500236419.10157,47.655,-122.3035,60.0,11.116666666666667
2026-01-20T23:11:08+00:00,SAT-64429,249.97686391518903,33.42939690101785,3184.0640449271286,-6.750466294898772,236429.88409147074,10.5,10500236429.884092,47.655,-122.3035,60.0,11.133333333333333
2026-01-20T23:11:09+00:00,SAT-64429,249.96503608139255,33.484508472635554,3177.331579875683,-6.7507682629150985,236440.4602887259,10.5,10500236440.460289,47.655,-122.3035,60.0,11.15
2026-01-20T23:11:10+00:00,SAT-64429,249.9532054659571,33.53972709796946,3170.5988136614687,-6.75106434031364,236450.830171629,10.5,10500236450.830172,47.655,-122.3035,60.0,11.166666666666666
2026-01-20T23:11:11+00:00,SAT-64429,249.94137206861683,33.59505346817634,3163.8657521593964,-6.7513544811960475,236460.99213262563,10.5,10500236460.992132,47.655,-122.3035,60.0,11.183333333333334
2026-01-20T23:11:12+00:00,SAT-64429,249.92953588920142,33.65048828018164,3157.13240129015,-6.751638650841769,236470.94495565523,10.5,10500236470.944956,47.655,-122.3035,60.0,11.2
2026-01-20T23:11:13+00:00,SAT-64429,249.9176969276135,33.70603223683556,3150.3987670090437,-6.751916825501691,236480.6878089233,10.5,10500236480.687809,47.655,-122.3035,60.0,11.216666666666667
2026-01-20T23:11:14+00:00,SAT-64429,249.9058551838364,33.761686047069226,3143.6648552950764,-6.752188929176122,236490.2180305993,10.5,10500236490.21803,47.655,-122.3035,60.0,11.233333333333333
2026-01-20T23:11:15+00:00,SAT-64429,249.89401065796125,33.81745042552488,3136.9306722030447,-6.752454983743415,236499.53638695562,10.5,10500236499.536386,47.655,-122.3035,60.0,11.25
2026-01-20T23:11:16+00:00,SAT-64429,249.88216335012405,33.87332609343935,3130.196223765925,-6.752714906602612,236508.63998495726,10.5,10500236508.639984,47.655,-122.3035,60.0,11.266666666666667
2026-01-20T23:11:17+00:00,SAT-64429,249.87031326057487,33.929313777839035,3123.4615160990734,-6.752968684256918,236517.5283518895,10.5,10500236517.528353,47.655,-122.3035,60.0,11.283333333333333
2026-01-20T23:11:18+00:00,SAT-64429,249.85846038964115,33.9854142121866,3116.7265553313073,-6.75321629092079,236526.20058463345,10.5,10500236526.200584,47.655,-122.3035,60.0,11.3
2026-01-20T23:11:19+00:00,SAT-64429,249.8466047377204,34.04162813634701,3109.991347617163,-6.75345763177922,236534.6533623665,10.5,10500236534.653362,47.655,-122.3035,60.0,11.316666666666666
2026-01-20T23:11:20+00:00,SAT-64429,249.83474630535466,34.09795629607835,3103.2558992057347,-6.753692743519578,236542.88797003552,10.5,10500236542.88797,47.655,-122.3035,60.0,11.333333333333334
2026-01-20T23:11:21+00:00,SAT-64429,249.82288509310592,34.15439944420737,3096.520216309531,-6.753921547725589,236550.90166117082,10.5,10500236550.90166,47.655,-122.3035,60.0,11.35
2026-01-20T23:11:22+00:00,SAT-64429,249.81102110167103,34.21095833973461,3089.7843052192666,-6.754143988183061,236558.6924669137,10.5,10500236558.692467,47.655,-122.3035,60.0,11.366666666666667
2026-01-20T23:11:23+00:00,SAT-64429,249.79915433184425,34.26763374809101,3083.0481722817185,-6.7543600836529265,236566.26104435133,10.5,10500236566.261044,47.655,-122.3035,60.0,11.383333333333333
2026-01-20T23:11:24+00:00,SAT-64429,249.78728478447712,34.32442644184954,3076.3118238249554,-6.75456974217079,236573.60417250157,10.5,10500236573.604172,47.655,-122.3035,60.0,11.4
2026-01-20T23:11:25+00:00,SAT-64429,249.775412460546,34.38133719985758,3069.5752662687637,-6.754772924424832,236580.72047449817,10.5,10500236580.720474,47.655,-122.3035,60.0,11.416666666666666
2026-01-20T23:11:26+00:00,SAT-64429,249.7635373611419,34.438366807763195,3062.838506072137,-6.754969641382943,236587.61033448315,10.5,10500236587.610334,47.655,-122.3035,60.0,11.433333333333334
2026-01-20T23:11:27+00:00,SAT-64429,249.75165948739993,34.49551605851746,3056.1015496831315,-6.755159788825006,236594.27010222705,10.5,10500236594.270102,47.655,-122.3035,60.0,11.45
2026-01-20T23:11:28+00:00,SAT-64429,249.73977884060758,34.552785751470445,3049.364403653743,-6.755343383232586,236600.7003549841,10.5,10500236600.700356,47.655,-122.3035,60.0,11.466666666666667
2026-01-20T23:11:29+00:00,SAT-64429,249.72789542211484,34.610176693482146,3042.627074519533,-6.755520319210052,236606.8974013534,10.5,10500236606.897402,47.655,-122.3035,60.0,11.483333333333333
2026-01-20T23:11:30+00:00,SAT-64429,249.7160092334176,34.667689697956035,3035.889568921174,-6.755690612343996,236612.8617872434,10.5,10500236612.861788,47.655,-122.3035,60.0,11.5
2026-01-20T23:11:31+00:00,SAT-64429,249.7041202760787,34.72532558596009,3029.1518934837964,-6.755854202442394,236618.5914044747,10.5,10500236618.591404,47.655,-122.3035,60.0,11.516666666666667
2026-01-20T23:11:32+00:00,SAT-64429,249.69222855176986,34.78308518565619,3022.41405489256,-6.756011012013418,236624.08353895578,10.5,10500236624.083538,47.655,-122.3035,60.0,11.533333333333333
2026-01-20T23:11:33+00:00,SAT-64429,249.68033406231274,34.8409693322335,3015.6760599099116,-6.756161043235301,236629.33826697755,10.5,10500236629.338266,47.655,-122.3035,60.0,11.55
2026-01-20T23:11:34+00:00,SAT-64429,249.66843680959036,34.8989788686789,3008.937915296125,-6.756304252264938,236634.35405296902,10.5,10500236634.354053,47.655,-122.3035,60.0,11.566666666666666
2026-01-20T23:11:35+00:00,SAT-64429,249.65653679560225,34.957114645468316,3002.1996278551997,-6.7564405536385665,236639.12790362776,10.5,10500236639.127903,47.655,-122.3035,60.0,11.583333333333334
2026-01-20T23:11:36+00:00,SAT-64429,249.64463402248765,35.015377520284865,2995.4612044763708,-6.756569931687776,236643.65927017963,10.5,10500236643.65927,47.655,-122.3035,60.0,11.6
2026-01-20T23:11:37+00:00,SAT-64429,249.63272849248898,35.07376835871903,2988.722652064501,-6.756692328617302,236647.94612839018,10.5,10500236647.946129,47.655,-122.3035,60.0,11.616666666666667
2026-01-20T23:11:38+00:00,SAT-64429,249.62082020795793,35.132288033983734,2981.9839775820933,-6.756807704671655,236651.98708585382,10.5,10500236651.987085,47.655,-122.3035,60.0,11.633333333333333
2026-01-20T23:11:39+00:00,SAT-64429,249.60890917137738,35.19093742716718,2975.245188031301,-6.756916041548823,236655.78150155678,10.5,10500236655.781502,47.655,-122.3035,60.0,11.65
2026-01-20T23:11:40+00:00,SAT-64429,249.59699538530947,35.24971742750801,2968.5062904325296,-6.757017223131264,236659.3253085715,10.5,10500236659.325308,47.655,-122.3035,60.0,11.666666666666666
2026-01-20T23:11:41+00:00,SAT-64429,249.5850788525089,35.30862893162944,2961.767291921993,-6.757111259205254,236662.6188496549,10.5,10500236662.618849,47.655,-122.3035,60.0,11.683333333333334
2026-01-20T23:11:42+00:00,SAT-64429,249.57315957579777,35.36767284473774,2955.028199626146,-6.7571980901500135,236665.6600366349,10.5,10500236665.660036,47.655,-122.3035,60.0,11.7
2026-01-20T23:11:43+00:00,SAT-64429,249.5612375581373,35.426850080108125,2948.289020730903,-6.757277661133706,236668.4469490687,10.5,10500236668.446949,47.655,-122.3035,60.0,11.716666666666667
2026-01-20T23:11:44+00:00,SAT-64429,249.54931280261553,35.48616155921938,2941.5497624768655,-6.757349906027286,236670.9772708375,10.5,10500236670.97727,47.655,-122.3035,60.0,11.733333333333333
2026-01-20T23:11:45+00:00,SAT-64429,249.53738531247663,35.54560821175311,2934.810432170588,-6.757414808957526,236673.2504459936,10.5,10500236673.250446,47.655,-122.3035,60.0,11.75
2026-01-20T23:11:46+00:00,SAT-64429,249.52545509105073,35.60519097613398,2928.071037134454,-6.7574723024216565,236675.26411030456,10.5,10500236675.26411,47.655,-122.3035,60.0,11.766666666666667
2026-01-20T23:11:47+00:00,SAT-64429,249.51352214182967,35.66491079917379,2921.331584758172,-6.757522317993479,236677.01586719547,10.5,10500236677.015867,47.655,-122.3035,60.0,11.783333333333333
2026-01-20T23:11:48+00:00,SAT-64429,249.50158646844358,35.724768636160626,2914.5920824996933,-6.7575648387467355,236678.5051238371,10.5,10500236678.505123,47.655,-122.3035,60.0,11.8
2026-01-20T23:11:49+00:00,SAT-64429,249.4896480746435,35.784765451423304,2907.85253783385,-6.757599789219935,236679.7292372489,10.5,10500236679.729237,47.655,-122.3035,60.0,11.816666666666666
2026-01-20T23:11:50+00:00,SAT-64429,249.47770696432673,35.84490221790882,2901.1129583107345,-6.757627134021163,236680.68696785634,10.5,10500236680.686968,47.655,-122.3035,60.0,11.833333333333334
2026-01-20T23:11:51+00:00,SAT-64429,249.46576314152878,35.905179917648546,2894.3733515157373,-6.75764677930967,236681.37502895936,10.5,10500236681.375029,47.655,-122.3035,60.0,11.85
2026-01-20T23:11:52+00:00,SAT-64429,249.45381661045644,35.9655995413351,2887.6337251278396,-6.757658722960087,236681.7933461185,10.5,10500236681.793346,47.655,-122.3035,60.0,11.866666666666667
2026-01-20T23:11:53+00:00,SAT-64429,249.44186737542242,36.02616208926007,2880.8940868281406,-6.7576628813514485,236681.938990574,10.5,10500236681.93899,47.655,-122.3035,60.0,11.883333333333333
2026-01-20T23:11:54+00:00,SAT-64429,249.4299154409083,36.086868570684324,2874.1544443811395,-6.7576592166264735,236681.81063640356,10.5,10500236681.810637,47.655,-122.3035,60.0,11.9
2026-01-20T23:11:55+00:00,SAT-64429,249.41796081154018,36.1477200043656,2867.4148055890905,-6.757647638074532,236681.4051065374,10.5,10500236681.405106,47.655,-122.3035,60.0,11.916666666666666
2026-01-20T23:11:56+00:00,SAT-64429,249.40600349211388,36.20871741818671,2860.675178344717,-6.7576281238767395,236680.7216367857,10.5,10500236680.721638,47.655,-122.3035,60.0,11.933333333333334
2026-01-20T23:11:57+00:00,SAT-64429,249.3940434875658,36.2698618498983,2853.9355705625044,-6.757600605032602,236679.7578104594,10.5,10500236679.75781,47.655,-122.3035,60.0,11.95
2026-01-20T23:11:58+00:00,SAT-64429,249.38208080298688,36.33115434680261,2847.1959902257518,-6.75756502957411,236678.51180741898,10.5,10500236678.511806,47.655,-122.3035,60.0,11.966666666666667
2026-01-20T23:11:59+00:00,SAT-64429,249.370115443636,36.39259596602752,2840.4564453695903,-6.757521332938039,236676.98136638716,10.5,10500236676.981367,47.655,-122.3035,60.0,11.983333333333333
2026-01-20T23:12:00+00:00,SAT-64429,249.35814741493144,36.454187774526645,2833.71694409354,-6.757469438707446,236675.16381091945,10.5,10500236675.16381,47.655,-122.3035,60.0,12.0
2026-01-20T23:12:01+00:00,SAT-64429,249.34617672247555,36.51593084909074,2826.9774945733357,-6.757409327080062,236673.05844745648,10.5,10500236673.058447,47.655,-122.3035,60.0,12.016666666666667
2026-01-20T23:12:02+00:00,SAT-64429,249.33420337200278,36.57782627699103,2820.238105004461,-6.757340891337859,236670.66153828165,10.5,10500236670.66154,47.655,-122.3035,60.0,12.033333333333333
2026-01-20T23:12:03+00:00,SAT-64429,249.3222273694625,36.639875155298924,2813.4987836888336,-6.757264104583313,236667.97214132978,10.5,10500236667.972141,47.655,-122.3035,60.0,12.05
2026-01-20T23:12:04+00:00,SAT-64429,249.31024872094008,36.70207859174977,2806.7595389551957,-6.757178893344611,236664.9876833073,10.5,10500236664.987684,47.655,-122.3035,60.0,12.066666666666666
2026-01-20T23:12:05+00:00,SAT-64429,249.2982674327208,36.764437704438954,2800.0203792055663,-6.757085211586197,236661.70655185415,10.5,10500236661.706553,47.655,-122.3035,60.0,12.083333333333334
2026-01-20T23:12:06+00:00,SAT-64429,249.28628351123777,36.82695362220233,2793.2813128878784,-6.756982938579951,236658.12451856106,10.5,10500236658.12452,47.655,-122.3035,60.0,12.1
2026-01-20T23:12:07+00:00,SAT-64429,249.27429696317154,36.88962748405076,2786.5423485704673,-6.756872090156411,236654.2421378803,10.5,10500236654.242138,47.655,-122.3035,60.0,12.116666666666667
2026-01-20T23:12:08+00:00,SAT-64429,249.2623077953064,36.95246044057799,2779.803494805885,-6.756752532228908,236650.05471352962,10.5,10500236650.054714,47.655,-122.3035,60.0,12.133333333333333
2026-01-20T23:12:09+00:00,SAT-64429,249.25031601468197,37.015453652689835,2773.0647602804083,-6.7566242448228815,236645.56154591538,10.5,10500236645.561546,47.655,-122.3035,60.0,12.15
2026-01-20T23:12:10+00:00,SAT-64429,249.23832162848612,37.07860829281079,2766.3261537002386,-6.756487144168972,236640.75970108027,10.5,10500236640.7597,47.655,-122.3035,60.0,12.166666666666666
2026-01-20T23:12:11+00:00,SAT-64429,249.22632464412027,37.1419255444229,2759.5876838551208,-6.756341150906633,236635.64639948227,10.5,10500236635.646399,47.655,-122.3035,60.0,12.183333333333334
2026-01-20T23:12:12+00:00,SAT-64429,249.21432506918575,37.20540660224153,2752.8493596139497,-6.7561862141818665,236630.21985999926,10.5,10500236630.21986,47.655,-122.3035,60.0,12.2
2026-01-20T23:12:13+00:00,SAT-64429,249.20232291148056,37.26905267263108,2746.111189896339,-6.756022270405709,236624.47785547673,10.5,10500236624.477856,47.655,-122.3035,60.0,12.216666666666667
2026-01-20T23:12:14+00:00,SAT-64429,249.19031817899062,37.33286497362509,2739.3731836853212,-6.755849209305652,236618.41652370503,10.5,10500236618.416523,47.655,-122.3035,60.0,12.233333333333333
2026-01-20T23:12:15+00:00,SAT-64429,249.17831087995145,37.39684473462512,2732.635350073907,-6.755667011920013,236612.0352005658,10.5,10500236612.0352,47.655,-122.3035,60.0,12.25
2026-01-20T23:12:16+00:00,SAT-64429,249.16630102276096,37.46099319742321,2725.897698174019,-6.75547558351714,236605.33056815583,10.5,10500236605.330568,47.655,-122.3035,60.0,12.266666666666667
2026-01-20T23:12:17+00:00,SAT-64429,249.15428861605903,37.52531161562484,2719.1602371920576,-6.755274851302678,236598.30007690896,10.5,10500236598.300077,47.655,-122.3035,60.0,12.283333333333333
2026-01-20T23:12:18+00:00,SAT-64429,249.14227366869494,37.589801255008446,2712.422976407025,-6.755064724647326,236590.94055260363,10.5,10500236590.940552,47.655,-122.3035,60.0,12.3
2026-01-20T23:12:19+00:00,SAT-64429,249.13025618975624,37.65446339350787,2705.68592518831,-6.754845151962705,236583.2501883967,10.5,10500236583.250189,47.655,-122.3035,60.0,12.316666666666666
2026-01-20T23:12:20+00:00,SAT-64429,249.11823618853316,37.719299321743726,2698.9490929567523,-6.754616075675146,236575.2269678146,10.5,10500236575.226969,47.655,-122.3035,60.0,12.333333333333334
2026-01-20T23:12:21+00:00,SAT-64429,249.10621367454573,37.784310343130244,2692.212489190613,-6.754377367134906,236566.8663849993,10.5,10500236566.866385,47.655,-122.3035,60.0,12.35
2026-01-20T23:12:22+00:00,SAT-64429,249.0941886575656,37.849497773334015,2685.476123496457,-6.754128990086607,236558.167170134,10.5,10500236558.16717,47.655,-122.3035,60.0,12.366666666666667
2026-01-20T23:12:23+00:00,SAT-64429,249.08216114759313,37.91486294134579,2678.7400055170106,-6.753870865929488,236549.1265702876,10.5,10500236549.12657,47.655,-122.3035,60.0,12.383333333333333
2026-01-20T23:12:24+00:00,SAT-64429,249.07013115485023,37.98040718922561,2672.0041449733903,-6.753602881269044,236539.74061390487,10.5,10500236539.740614,47.655,-122.3035,60.0,12.4
2026-01-20T23:12:25+00:00,SAT-64429,249.05809868984437,38.04613187193127,2665.2685516998044,-6.753325001908186,236530.00810325905,10.5,10500236530.008102,47.655,-122.3035,60.0,12.416666666666666
2026-01-20T23:12:26+00:00,SAT-64429,249.04606376328485,38.11203835826462,2658.5332355645683,-6.753037100892089,236519.92459185526,10.5,10500236519.924591,47.655,-122.3035,60.0,12.433333333333334
2026-01-20T23:12:27+00:00,SAT-64429,249.03402638617962,38.17812803013027,2651.7982065626115,-6.7527391361604865,236509.48860656496,10.5,10500236509.488607,47.655,-122.3035,60.0,12.45
2026-01-20T23:12:28+00:00,SAT-64429,249.0219865697552,38.24440228354698,2645.0634747308145,-6.752431007806519,236498.69664822734,10.5,10500236498.696648,47.655,-122.3035,60.0,12.466666666666667
2026-01-20T23:12:29+00:00,SAT-64429,249.0099443255234,38.3108625282568,2638.3290502056952,-6.752112613875708,236487.5451459654,10.5,10500236487.545145,47.655,-122.3035,60.0,12.483333333333333
2026-01-20T23:12:30+00:00,SAT-64429,248.99789966526265,38.377510187874044,2631.5949432254565,-6.751783898180299,236476.03213184615,10.5,10500236476.032131,47.655,-122.3035,60.0,12.5
2026-01-20T23:12:31+00:00,SAT-64429,248.98585260101237,38.44434670053161,2624.8611640843383,-6.751444780114598,236464.15478271732,10.5,10500236464.154783,47.655,-122.3035,60.0,12.516666666666667
2026-01-20T23:12:32+00:00,SAT-64429,248.9738031450732,38.511373518820086,2618.1277231569707,-6.751095120611891,236451.9082278743,10.5,10500236451.908228,47.655,-122.3035,60.0,12.533333333333333
2026-01-20T23:12:33+00:00,SAT-64429,248.96175131007539,38.578592109385916,2611.39463095668,-6.750734900086913,236439.29178135822,10.5,10500236439.29178,47.655,-122.3035,60.0,12.55
2026-01-20T23:12:34+00:00,SAT-64429,248.9496971088723,38.646003954324684,2604.6618980163266,-6.750363965741357,236426.30009152615,10.5,10500236426.30009,47.655,-122.3035,60.0,12.566666666666666
2026-01-20T23:12:35+00:00,SAT-64429,248.93764055466312,38.71361055003001,2597.9295350211605,-6.749982261308179,236412.9311876681,10.5,10500236412.931189,47.655,-122.3035,60.0,12.583333333333334
2026-01-20T23:12:36+00:00,SAT-64429,248.9255816609124,38.7814134083639,2591.1975527125496,-6.749589712198507,236399.18245736626,10.5,10500236399.182457,47.655,-122.3035,60.0,12.6
2026-01-20T23:12:37+00:00,SAT-64429,248.91352044137568,38.849414056673986,2584.46596190625,-6.749186173397416,236385.04882158467,10.5,10500236385.048822,47.655,-122.3035,60.0,12.616666666666667
2026-01-20T23:12:38+00:00,SAT-64429,248.90145691014538,38.917614037271996,2577.734773562648,-6.74877159109816,236370.52839578336,10.5,10500236370.528397,47.655,-122.3035,60.0,12.633333333333333
2026-01-20T23:12:39+00:00,SAT-64429,248.88939108160633,38.98601490857245,2571.003998695793,-6.748345863912417,236355.6176289144,10.5,10500236355.617628,47.655,-122.3035,60.0,12.65
2026-01-20T23:12:40+00:00,SAT-64429,248.87732297045218,39.05461824481255,2564.2736484208513,-6.747908883644772,236340.31273151678,10.5,10500236340.31273,47.655,-122.3035,60.0,12.666666666666666
2026-01-20T23:12:41+00:00,SAT-64429,248.86525259171685,39.123425636191854,2557.543733960896,-6.747460546658544,236324.61007379545,10.5,10500236324.610073,47.655,-122.3035,60.0,12.683333333333334
2026-01-20T23:12:42+00:00,SAT-64429,248.8531799607569,39.192438689131315,2550.814266642362,-6.747000793975333,236308.50759007753,10.5,10500236308.50759,47.655,-122.3035,60.0,12.7
2026-01-20T23:12:43+00:00,SAT-64429,248.84110509324654,39.26165902695578,2544.085257850504,-6.746529467466121,236291.99974201573,10.5,10500236291.999743,47.655,-122.3035,60.0,12.716666666666667
2026-01-20T23:12:44+00:00,SAT-64429,248.82902800522453,39.33108828908005,2537.3567191282846,-6.746046517222196,236275.084781596,10.5,10500236275.084782,47.655,-122.3035,60.0,12.733333333333333
2026-01-20T23:12:45+00:00,SAT-64429,248.81694871305388,39.40072813236249,2530.6286620684414,-6.7455517996791,236257.75768058363,10.5,10500236257.75768,47.655,-122.3035,60.0,12.75
2026-01-20T23:12:46+00:00,SAT-64429,248.80486723346667,39.47058023034996,2523.9010984068946,-6.745045227782345,236240.0153899623,10.5,10500236240.01539,47.655,-122.3035,60.0,12.766666666666667
2026-01-20T23:12:47+00:00,SAT-64429,248.7927835835473,39.54064627410109,2517.1740399663868,-6.744526706901916,236221.85459538855,10.5,10500236221.854595,47.655,-122.3035,60.0,12.783333333333333
2026-01-20T23:12:48+00:00,SAT-64429,248.78069778072967,39.61092797233914,2510.447498664036,-6.7439961130327015,236203.27095367882,10.5,10500236203.270954,47.655,-122.3035,60.0,12.8
2026-01-20T23:12:49+00:00,SAT-64429,248.768609842847,39.68142705138353,2503.7214865406386,-6.7434533426432175,236184.26083872258,10.5,10500236184.26084,47.655,-122.3035,60.0,12.816666666666666
2026-01-20T23:12:50+00:00,SAT-64429,248.75651978808273,39.75214525559741,2496.9960157402425,-6.742898286276136,236164.8204168613,10.5,10500236164.820417,47.655,-122.3035,60.0,12.833333333333334
2026-01-20T23:12:51+00:00,SAT-64429,248.7444276350304,39.823084347578614,2490.271098516063,-6.742330831782099,236144.94576015,10.5,10500236144.94576,47.655,-122.3035,60.0,12.85
2026-01-20T23:12:52+00:00,SAT-64429,248.73233340265023,39.894246108368776,2483.546747233165,-6.741750866600588,236124.63292624315,10.5,10500236124.632927,47.655,-122.3035,60.0,12.866666666666667
2026-01-20T23:12:53+00:00,SAT-64429,248.72023711032227,39.96563233770935,2476.8229743688757,-6.741158275942547,236103.87789474256,10.5,10500236103.877895,47.655,-122.3035,60.0,12.883333333333333
2026-01-20T23:12:54+00:00,SAT-64429,248.70813877781967,40.037244854265474,2470.0997925150027,-6.740552949789065,236082.67681232057,10.5,10500236082.676813,47.655,-122.3035,60.0,12.9
2026-01-20T23:12:55+00:00,SAT-64429,248.69603842533542,40.10908549594235,2463.3772143730794,-6.739934758786018,236061.02514844848,10.5,10500236061.025148,47.655,-122.3035,60.0,12.916666666666666
2026-01-20T23:12:56+00:00,SAT-64429,248.68393607348202,40.181156119933924,2456.6552527736503,-6.739303583968813,236038.91873648317,10.5,10500236038.918737,47.655,-122.3035,60.0,12.933333333333334
2026-01-20T23:12:57+00:00,SAT-64429,248.67183174331194,40.25345860310497,2449.933920665905,-6.73865930443959,236016.35334207007,10.5,10500236016.353342,47.655,-122.3035,60.0,12.95
2026-01-20T23:12:58+00:00,SAT-64429,248.65972545630103,40.32599484223811,2443.213231119611,-6.738001838167105,235993.32609212806,10.5,10500235993.326092,47.655,-122.3035,60.0,12.966666666666667
2026-01-20T23:12:59+00:00,SAT-64429,248.64761723436112,40.398766754739206,2436.4931972863455,-6.73733099771076,235969.83042169455,10.5,10500235969.830421,47.655,-122.3035,60.0,12.983333333333333
2026-01-20T23:13:00+00:00,SAT-64429,248.63550709987953,40.47177627775727,2429.773832504629,-6.736646692254221,235945.86314999734,10.5,10500235945.86315,47.655,-122.3035,60.0,13.0
2026-01-20T23:13:01+00:00,SAT-64429,248.6233950757064,40.54502536953257,2423.055150203554,-6.73594878259508,235921.41940157927,10.5,10500235921.419401,47.655,-122.3035,60.0,13.016666666666667
2026-01-20T23:13:02+00:00,SAT-64429,248.61128118515006,40.61851600914611,2416.337163951046,-6.735237151055557,235896.49505486674,10.5,10500235896.495054,47.655,-122.3035,60.0,13.033333333333333
2026-01-20T23:13:03+00:00,SAT-64429,248.59916545200133,40.69225019705357,2409.619887432393,-6.734511666865114,235871.08552972233,10.5,10500235871.08553,47.655,-122.3035,60.0,13.05
2026-01-20T23:13:04+00:00,SAT-64429,248.58704790053724,40.76622995523888,2402.9033344633062,-6.733772185958186,235845.1857803606,10.5,10500235845.18578,47.655,-122.3035,60.0,13.066666666666666
2026-01-20T23:13:05+00:00,SAT-64429,248.57492855554304,40.84045732736532,2396.187519003177,-6.733018579422796,235818.79129173877,10.5,10500235818.791292,47.655,-122.3035,60.0,13.083333333333334
2026-01-20T23:13:06+00:00,SAT-64429,248.56280744230344,40.91493437924968,2389.4724551399663,-6.732250711071291,235791.89729398917,10.5,10500235791.897293,47.655,-122.3035,60.0,13.1
2026-01-20T23:13:07+00:00,SAT-64429,248.55068458662856,40.989663199093535,2382.758157097458,-6.731468442641978,235764.4989446024,10.5,10500235764.498945,47.655,-122.3035,60.0,13.116666666666667
2026-01-20T23:13:08+00:00,SAT-64429,248.53856001484507,41.0646458977742,2376.044639237329,-6.73067162278599,235736.59094270106,10.5,10500235736.590942,47.655,-122.3035,60.0,13.133333333333333
2026-01-20T23:13:09+00:00,SAT-64429,248.52643375384054,41.13988460901903,2369.3319160722044,-6.729860149188526,235708.16970478796,10.5,10500235708.169704,47.655,-122.3035,60.0,13.15
2026-01-20T23:13:10+00:00,SAT-64429,248.51430583100458,41.21538149028365,2362.6200022167473,-6.729033826757228,235679.2283979035,10.5,10500235679.228397,47.655,-122.3035,60.0,13.166666666666666
2026-01-20T23:13:11+00:00,SAT-64429,248.50217627433943,41.291138722035036,2355.9089124801944,-6.728192543525184,235649.7631004928,10.5,10500235649.7631,47.655,-122.3035,60.0,13.183333333333334
2026-01-20T23:13:12+00:00,SAT-64429,248.49004511238007,41.36715850902547,2349.1986617834523,-6.727336122948537,235619.76762924317,10.5,10500235619.76763,47.655,-122.3035,60.0,13.2
2026-01-20T23:13:13+00:00,SAT-64429,248.4779123742637,41.44344307990049,2342.489265223498,-6.726464455113581,235589.2381345117,10.5,10500235589.238134,47.655,-122.3035,60.0,13.216666666666667
2026-01-20T23:13:14+00:00,SAT-64429,248.4657780896971,41.51999468831086,2335.780738006931,-6.725577347875122,235558.167886561,10.5,10500235558.167887,47.655,-122.3035,60.0,13.233333333333333
2026-01-20T23:13:15+00:00,SAT-64429,248.4536422890232,41.59681561231699,2329.0730955319837,-6.724674669502602,235526.55227162963,10.5,10500235526.55227,47.655,-122.3035,60.0,13.25
2026-01-20T23:13:16+00:00,SAT-64429,248.44150500316755,41.673908155439335,2322.3663533282665,-6.72375626386684,235494.38582141325,10.5,10500235494.385822,47.655,-122.3035,60.0,13.266666666666667
2026-01-20T23:13:17+00:00,SAT-64429,248.42936626370465,41.751274646747405,2315.6605270811037,-6.722821954820899,235461.66236650103,10.5,10500235461.662367,47.655,-122.3035,60.0,13.283333333333333
2026-01-20T23:13:18+00:00,SAT-64429,248.4172261028388,41.82891744098723,2308.9556326514953,-6.721871604753601,235428.37708716746,10.5,10500235428.377087,47.655,-122.3035,60.0,13.3
2026-01-20T23:13:19+00:00,SAT-64429,248.40508455343837,41.90683891941393,2302.2516860376877,-6.720905021581761,235394.52325584687,10.5,10500235394.523256,47.655,-122.3035,60.0,13.316666666666666
2026-01-20T23:13:20+00:00,SAT-64429,248.3929416490335,41.98504148952602,2295.548703429497,-6.719922079998714,235360.09648376977,10.5,10500235360.096483,47.655,-122.3035,60.0,13.333333333333334
2026-01-20T23:13:21+00:00,SAT-64429,248.38079742382598,42.06352758624471,2288.8467011417115,-6.718922577718508,235325.08968602648,10.5,10500235325.089685,47.655,-122.3035,60.0,13.35
2026-01-20T23:13:22+00:00,SAT-64429,248.3686519127193,42.14229967139355,2282.145695690867,-6.717906350387442,235289.49710625524,10.5,10500235289.497107,47.655,-122.3035,60.0,13.366666666666667
2026-01-20T23:13:23+00:00,SAT-64429,248.35650515133312,42.22136023454871,2275.445703757414,-6.716873248136082,235253.3134953944,10.5,10500235253.313496,47.655,-122.3035,60.0,13.383333333333333
2026-01-20T23:13:24+00:00,SAT-64429,248.3443571759849,42.30071179361751,2268.7467421712727,-6.715823050050442,235216.5311161018,10.5,10500235216.531116,47.655,-122.3035,60.0,13.4
2026-01-20T23:13:25+00:00,SAT-64429,248.3322080237619,42.38035689439804,2262.048827982689,-6.714755635789416,235179.14575352284,10.5,10500235179.145754,47.655,-122.3035,60.0,13.416666666666666
2026-01-20T23:13:26+00:00,SAT-64429,248.3200577324673,42.46029811221044,2255.3519783619286,-6.7136707851040285,235141.14969360668,10.5,10500235141.149694,47.655,-122.3035,60.0,13.433333333333334
2026-01-20T23:13:27+00:00,SAT-64429,248.30790634070235,42.54053805111645,2248.656210698918,-6.712568320817429,235102.53673087066,10.5,10500235102.536732,47.655,-122.3035,60.0,13.45
2026-01-20T23:13:28+00:00,SAT-64429,248.2957538878344,42.621079344869244,2241.9615425602897,-6.711448086245718,235063.30137758178,10.5,10500235063.301378,47.655,-122.3035,60.0,13.466666666666667
2026-01-20T23:13:29+00:00,SAT-64429,248.28360041403056,42.701924657609645,2235.2679916689403,-6.710309835910362,235023.4350360435,10.5,10500235023.435036,47.655,-122.3035,60.0,13.483333333333333
2026-01-20T23:13:30+00:00,SAT-64429,248.2714459602915,42.78307668322006,2228.575575992593,-6.709153430615048,234982.93283101203,10.5,10500234982.93283,47.655,-122.3035,60.0,13.5
2026-01-20T23:13:31+00:00,SAT-64429,248.2592905684334,42.86453814708573,2221.8843136377927,-6.707978670714536,234941.78777006667,10.5,10500234941.78777,47.655,-122.3035,60.0,13.516666666666667
2026-01-20T23:13:32+00:00,SAT-64429,248.2471342811159,42.94631180581252,2215.1942229101996,-6.706785331651411,234899.9919882568,10.5,10500234899.99199,47.655,-122.3035,60.0,13.533333333333333
2026-01-20T23:13:33+00:00,SAT-64429,248.23497714190273,43.02840044739079,2208.505322339433,-6.7055732307493825,234857.53908748605,10.5,10500234857.539087,47.655,-122.3035,60.0,13.55
2026-01-20T23:13:34+00:00,SAT-64429,248.22281919520896,43.110806892179944,2201.817630637299,-6.70434217740164,234814.4223918976,10.5,10500234814.422392,47.655,-122.3035,60.0,13.566666666666666
2026-01-20T23:13:35+00:00,SAT-64429,248.2106604863706,43.19353399330609,2195.1311667057034,-6.703091954874307,234770.6343105544,10.5,10500234770.63431,47.655,-122.3035,60.0,13.583333333333334
2026-01-20T23:13:36+00:00,SAT-64429,248.19850106164063,43.27658463682298,2188.4459496627087,-6.701822349311302,234726.1673533117,10.5,10500234726.167353,47.655,-122.3035,60.0,13.6
2026-01-20T23:13:37+00:00,SAT-64429,248.18634096823394,43.359961742249034,2181.7619988396623,-6.700533149219509,234681.01411278613,10.5,10500234681.014112,47.655,-122.3035,60.0,13.616666666666667
2026-01-20T23:13:38+00:00,SAT-64429,248.17418025431624,43.44366826310124,2175.079333778841,-6.699224151672871,234635.16748164874,10.5,10500234635.167482,47.655,-122.3035,60.0,13.633333333333333
2026-01-20T23:13:39+00:00,SAT-64429,248.16201896904283,43.52770718752563,2168.3979742249057,-6.697895144688096,234588.62003534797,10.5,10500234588.620035,47.655,-122.3035,60.0,13.65
2026-01-20T23:13:40+00:00,SAT-64429,248.14985716257775,43.61208153870874,2161.7179401339367,-6.696545861643947,234541.3624356802,10.5,10500234541.362436,47.655,-122.3035,60.0,13.666666666666666
2026-01-20T23:13:41+00:00,SAT-64429,248.13769488612053,43.69679437470569,2155.039251727924,-6.695176158322642,234493.38963152884,10.5,10500234493.389631,47.655,-122.3035,60.0,13.683333333333334
2026-01-20T23:13:42+00:00,SAT-64429,248.1255321919058,43.781848790563046,2148.36192937269,-6.693785727190747,234444.690851772,10.5,10500234444.690851,47.655,-122.3035,60.0,13.7
2026-01-20T23:13:43+00:00,SAT-64429,248.11336913325943,43.867247916761464,2141.685993740772,-6.692374382270319,234395.25958267553,10.5,10500234395.259583,47.655,-122.3035,60.0,13.716666666666667
2026-01-20T23:13:44+00:00,SAT-64429,248.1012057646015,43.95299492134928,2135.011465690188,-6.690941885416689,234345.08748340572,10.5,10500234345.087482,47.655,-122.3035,60.0,13.733333333333333
2026-01-20T23:13:45+00:00,SAT-64429,248.0890421414715,44.03909300983896,2128.338366316465,-6.689487979660727,234294.1655538167,10.5,10500234294.165554,47.655,-122.3035,60.0,13.75
2026-01-20T23:13:46+00:00,SAT-64429,248.07687832056263,44.12554542553697,2121.666716971417,-6.68801244674085,234242.48614946453,10.5,10500234242.486149,47.655,-122.3035,60.0,13.766666666666667
2026-01-20T23:13:47+00:00,SAT-64429,248.06471435973089,44.21235545064363,2114.9965392245344,-6.686515030142784,234190.04028613432,10.5,10500234190.040287,47.655,-122.3035,60.0,13.783333333333333
2026-01-20T23:13:48+00:00,SAT-64429,248.05255031804666,44.29952640635152,2108.327854901139,-6.684995457972002,234136.81844092964,10.5,10500234136.818441,47.655,-122.3035,60.0,13.8
2026-01-20T23:13:49+00:00,SAT-64429,248.04038625579994,44.38706165324276,2101.6606860977213,-6.683453534552715,234082.8137604566,10.5,10500234082.81376,47.655,-122.3035,60.0,13.816666666666666
2026-01-20T23:13:50+00:00,SAT-64429,248.02822223453137,44.47496459293258,2094.9950551059273,-6.681888951820392,234028.01545499224,10.5,10500234028.015455,47.655,-122.3035,60.0,13.833333333333334
2026-01-20T23:13:51+00:00,SAT-64429,248.01605831706428,44.56323866719417,2088.330984524645,-6.680301449517469,233972.4144092158,10.5,10500233972.41441,47.655,-122.3035,60.0,13.85
2026-01-20T23:13:52+00:00,SAT-64429,248.00389456755624,44.651887359239964,2081.668497212326,-6.67869081398124,233916.0031397555,10.5,10500233916.00314,47.655,-122.3035,60.0,13.866666666666667
2026-01-20T23:13:53+00:00,SAT-64429,247.99173105146664,44.74091419500201,2075.0076162405157,-6.6770567199205635,233858.77025353958,10.5,10500233858.770254,47.655,-122.3035,60.0,13.883333333333333
2026-01-20T23:13:54+00:00,SAT-64429,247.97956783566542,44.830322742289475,2068.348365005181,-6.675398922849963,233800.7071876525,10.5,10500233800.707188,47.655,-122.3035,60.0,13.9
2026-01-20T23:13:55+00:00,SAT-64429,247.96740498840398,44.92011661255209,2061.690767146126,-6.6737171458976645,233741.80424487355,10.5,10500233741.804245,47.655,-122.3035,60.0,13.916666666666666
2026-01-20T23:13:56+00:00,SAT-64429,247.9552425793845,45.01029946113242,2055.034846579284,-6.672011079221894,233682.05057323317,10.5,10500233682.050573,47.655,-122.3035,60.0,13.933333333333334
2026-01-20T23:13:57+00:00,SAT-64429,247.94308067977244,45.10087498750244,2048.3806275296065,-6.670280494120452,233621.438162613,10.5,10500233621.438162,47.655,-122.3035,60.0,13.95
2026-01-20T23:13:58+00:00,SAT-64429,247.93091936223834,45.19184693709961,2041.728134450137,-6.668525049194678,233559.9550557877,10.5,10500233559.955055,47.655,-122.3035,60.0,13.966666666666667
2026-01-20T23:13:59+00:00,SAT-64429,247.91875870099142,45.283219100484075,2035.0773921344069,-6.666744455639794,233497.5911375924,10.5,10500233497.591137,47.655,-122.3035,60.0,13.983333333333333
2026-01-20T23:14:00+00:00,SAT-64429,247.90659877183333,45.37499531480173,2028.4284256639821,-6.6649384480657226,233434.33711294393,10.5,10500233434.337112,47.655,-122.3035,60.0,14.0
2026-01-20T23:14:01+00:00,SAT-64429,247.8944396521518,45.467179464859385,2021.7812603851112,-6.663106694283509,233370.18134718,10.5,10500233370.181347,47.655,-122.3035,60.0,14.016666666666667
2026-01-20T23:14:02+00:00,SAT-64429,247.8822814210124,45.55977548295123,2015.1359219753458,-6.661248862630963,233305.1122240877,10.5,10500233305.112225,47.655,-122.3035,60.0,14.033333333333333
2026-01-20T23:14:03+00:00,SAT-64429,247.87012415916186,45.65278734962396,2008.4924364430153,-6.659364713609518,233239.12135541427,10.5,10500233239.121355,47.655,-122.3035,60.0,14.05
2026-01-20T23:14:04+00:00,SAT-64429,247.8579679490822,45.746219095788284,2001.8508300353087,-6.657453848681873,233172.1947826975,10.5,10500233172.194782,47.655,-122.3035,60.0,14.066666666666666
2026-01-20T23:14:05+00:00,SAT-64429,247.8458128750227,45.840074801235396,1995.21112939689,-6.655516001411782,233104.32317421312,10.5,10500233104.323174,47.655,-122.3035,60.0,14.083333333333334
2026-01-20T23:14:06+00:00,SAT-64429,247.833659023066,45.934358597353864,1988.5733614381486,-6.653550797243307,233035.49341142774,10.5,10500233035.493412,47.655,-122.3035,60.0,14.1
2026-01-20T23:14:07+00:00,SAT-64429,247.82150648113864,46.02907466638816,1981.9375534430314,-6.651557936314589,232965.69499191066,10.5,10500232965.694992,47.655,-122.3035,60.0,14.116666666666667
2026-01-20T23:14:08+00:00,SAT-64429,247.8093553390878,46.12422724336799,1975.3037329945469,-6.6495370678378585,232894.91562959037,10.5,10500232894.91563,47.655,-122.3035,60.0,14.133333333333333
2026-01-20T23:14:09+00:00,SAT-64429,247.79720568870175,46.2198206162231,1968.6719280255566,-6.647487864006282,232823.14384328498,10.5,10500232823.143843,47.655,-122.3035,60.0,14.15
2026-01-20T23:14:10+00:00,SAT-64429,247.78505762378273,46.315859126993296,1962.0421667958542,-6.645409923453809,232750.36557545752,10.5,10500232750.365576,47.655,-122.3035,60.0,14.166666666666666
2026-01-20T23:14:11+00:00,SAT-64429,247.77291124018205,46.412347171625704,1955.4144779655298,-6.643302946915479,232676.57034458328,10.5,10500232676.570345,47.655,-122.3035,60.0,14.183333333333334
2026-01-20T23:14:12+00:00,SAT-64429,247.76076663586082,46.50928920238774,1948.7888904931394,-6.641166538280487,232601.74427718628,10.5,10500232601.744278,47.655,-122.3035,60.0,14.2
2026-01-20T23:14:13+00:00,SAT-64429,247.74862391091716,46.60668972734296,1942.1654337322943,-6.639000358662301,232525.8755040267,10.5,10500232525.875504,47.655,-122.3035,60.0,14.216666666666667
2026-01-20T23:14:14+00:00,SAT-64429,247.73648316768532,46.70455331214917,1935.5441373745884,-6.636804000075049,232448.94973571354,10.5,10500232448.949736,47.655,-122.3035,60.0,14.233333333333333
2026-01-20T23:14:15+00:00,SAT-64429,247.72434451073997,46.802884579957954,1928.9250315185136,-6.634577100047499,232370.954276971,10.5,10500232370.954277,47.655,-122.3035,60.0,14.25
2026-01-20T23:14:16+00:00,SAT-64429,247.7122080469996,46.90168821307258,1922.3081466240662,-6.6323193009321875,232291.87660147197,10.5,10500232291.876602,47.655,-122.3035,60.0,14.266666666666667
2026-01-20T23:14:17+00:00,SAT-64429,247.70007388575397,47.00096895400973,1915.6935135079364,-6.630030137133737,232211.700402097,10.5,10500232211.700401,47.655,-122.3035,60.0,14.283333333333333
2026-01-20T23:14:18+00:00,SAT-64429,247.68794213875884,47.10073160484851,1909.0811634511685,-6.6277092830969835,232130.414276527,10.5,10500232130.414276,47.655,-122.3035,60.0,14.3
2026-01-20T23:14:19+00:00,SAT-64429,247.6758129202396,47.20098103038376,1902.4711280594931,-6.625356294495038,232048.00266255497,10.5,10500232048.002663,47.655,-122.3035,60.0,14.316666666666666
2026-01-20T23:14:20+00:00,SAT-64429,247.66368634703,47.30172215735432,1895.8634393817833,-6.622970787391499,231964.452113104,10.5,10500231964.452112,47.655,-122.3035,60.0,14.333333333333334
2026-01-20T23:14:21+00:00,SAT-64429,247.6515625385826,47.40295997641846,1889.2581298498249,-6.620552320610188,231879.74717631814,10.5,10500231879.747177,47.655,-122.3035,60.0,14.35
2026-01-20T23:14:22+00:00,SAT-64429,247.6394416170659,47.50469954234192,1882.6552323354028,-6.618100451790772,231793.87235886737,10.5,10500231793.872358,47.655,-122.3035,60.0,14.366666666666667
2026-01-20T23:14:23+00:00,SAT-64429,247.62732370743822,47.60694597506639,1876.0547801514836,-6.615614787504068,231706.81388119748,10.5,10500231706.81388,47.655,-122.3035,60.0,14.383333333333333
2026-01-20T23:14:24+00:00,SAT-64429,247.61520893750395,47.70970446158557,1869.456807003413,-6.613094893368793,231618.55652943853,10.5,10500231618.55653,47.655,-122.3035,60.0,14.4
2026-01-20T23:14:25+00:00,SAT-64429,247.6030974379857,47.81298025644216,1862.8613470297598,-6.610540254781178,231529.08227998973,10.5,10500231529.08228,47.655,-122.3035,60.0,14.416666666666666
2026-01-20T23:14:26+00:00,SAT-64429,247.59098934263898,47.91677868159513,1856.2684348823248,-6.6079505012014925,231438.37815498238,10.5,10500231438.378155,47.655,-122.3035,60.0,14.433333333333334
2026-01-20T23:14:27+00:00,SAT-64429,247.57888478828323,48.02110512988839,1849.67810558246,-6.605325102902107,231346.42560111408,10.5,10500231346.425602,47.655,-122.3035,60.0,14.45
2026-01-20T23:14:28+00:00,SAT-64429,247.5667839149318,48.12596506369548,1843.0903946798321,-6.602663634674347,231253.20972577846,10.5,10500231253.209726,47.655,-122.3035,60.0,14.466666666666667
2026-01-20T23:14:29+00:00,SAT-64429,247.55468686584496,48.231364017813284,1836.5053381481835,-6.599965590248226,231158.71279725916,10.5,10500231158.712797,47.655,-122.3035,60.0,14.483333333333333
2026-01-20T23:14:30+00:00,SAT-64429,247.54259378763675,48.337307599383216,1829.922972466176,-6.597230505902941,231062.91857409192,10.5,10500231062.918573,47.655,-122.3035,60.0,14.5
2026-01-20T23:14:31+00:00,SAT-64429,247.53050483035372,48.44380148984203,1823.3433345749552,-6.594457876082553,230965.80934956946,10.5,10500230965.80935,47.655,-122.3035,60.0,14.516666666666667
2026-01-20T23:14:32+00:00,SAT-64429,247.518420147592,48.55085144551999,1816.7664619198758,-6.5916471865847885,230867.36711415296,10.5,10500230867.367115,47.655,-122.3035,60.0,14.533333333333333
2026-01-20T23:14:33+00:00,SAT-64429,247.50633989656234,48.658463298789016,1810.1923924591217,-6.588797937382634,230767.57435478133,10.5,10500230767.574354,47.655,-122.3035,60.0,14.55
2026-01-20T23:14:34+00:00,SAT-64429,247.49426423822968,48.766642959629735,1803.6211646495722,-6.58590961930722,230666.413238207,10.5,10500230666.413239,47.655,-122.3035,60.0,14.566666666666666
2026-01-20T23:14:35+00:00,SAT-64429,247.4821933373745,48.87539641682505,1797.0528174559165,-6.582981686898467,230563.86466011064,10.5,10500230563.86466,47.655,-122.3035,60.0,14.583333333333334
2026-01-20T23:14:36+00:00,SAT-64429,247.47012736276145,48.98472973873562,1790.4873903868497,-6.580013607085424,230459.90995009273,10.5,10500230459.90995,47.655,-122.3035,60.0,14.6
2026-01-20T23:14:37+00:00,SAT-64429,247.45806648717132,49.094649074885744,1783.9249234827166,-6.577004838555082,230354.53014908187,10.5,10500230354.53015,47.655,-122.3035,60.0,14.616666666666667
2026-01-20T23:14:38+00:00,SAT-64429,247.4460108876026,49.205160657268515,1777.3654573237309,-6.5739548072798195,230247.7051522027,10.5,10500230247.705153,47.655,-122.3035,60.0,14.633333333333333
2026-01-20T23:14:39+00:00,SAT-64429,247.4339607453172,49.316270801216234,1770.8090330626037,-6.570862958179212,230139.41551819068,10.5,10500230139.415518,47.655,-122.3035,60.0,14.65
2026-01-20T23:14:40+00:00,SAT-64429,247.42191624601224,49.427985907208566,1764.2556924056464,-6.567728731540917,230029.64164355205,10.5,10500230029.641644,47.655,-122.3035,60.0,14.666666666666666
2026-01-20T23:14:41+00:00,SAT-64429,247.40987757992585,49.54031246229583,1757.7054776173898,-6.564551513336354,229918.36202240855,10.5,10500229918.362022,47.655,-122.3035,60.0,14.683333333333334
2026-01-20T23:14:42+00:00,SAT-64429,247.39784494199392,49.65325704068574,1751.1584315747555,-6.561330712337199,229805.55594744344,10.5,10500229805.555948,47.655,-122.3035,60.0,14.7
2026-01-20T23:14:43+00:00,SAT-64429,247.38581853194543,49.76682630568231,1744.614597744318,-6.558065738471589,229691.20275184402,10.5,10500229691.202751,47.655,-122.3035,60.0,14.716666666666667
2026-01-20T23:14:44+00:00,SAT-64429,247.37379855449433,49.88102701130299,1738.074020181149,-6.554755951666203,229575.28001753511,10.5,10500229575.280018,47.655,-122.3035,60.0,14.733333333333333
2026-01-20T23:14:45+00:00,SAT-64429,247.3617852194394,49.995866002999065,1731.536743578687,-6.551400745891582,229457.7665188015,10.5,10500229457.76652,47.655,-122.3035,60.0,14.75
2026-01-20T23:14:46+00:00,SAT-64429,247.34977874186305,50.11135021990728,1725.0028132347848,-6.547999459136337,229338.6390692041,10.5,10500229338.639069,47.655,-122.3035,60.0,14.766666666666667
2026-01-20T23:14:47+00:00,SAT-64429,247.33777934224054,50.22748669550988,1718.4722751075392,-6.544551463181879,229217.87566587058,10.5,10500229217.875666,47.655,-122.3035,60.0,14.783333333333333
2026-01-20T23:14:48+00:00,SAT-64429,247.32578724666394,50.344282559956795,1711.9451757815925,-6.541056078643835,229095.45251388635,10.5,10500229095.452515,47.655,-122.3035,60.0,14.8
2026-01-20T23:14:49+00:00,SAT-64429,247.31380268694537,50.46174504085419,1705.4215625191584,-6.537512631698262,228971.34601308667,10.5,10500228971.346014,47.655,-122.3035,60.0,14.816666666666666
2026-01-20T23:14:50+00:00,SAT-64429,247.30182590084897,50.57988146513734,1698.901483254478,-6.533920458298603,228845.53290575222,10.5,10500228845.532906,47.655,-122.3035,60.0,14.833333333333334
2026-01-20T23:14:51+00:00,SAT-64429,247.28985713223045,50.69869926103931,1692.3849865840682,-6.530278815843284,228717.98718283462,10.5,10500228717.987183,47.655,-122.3035,60.0,14.85
2026-01-20T23:14:52+00:00,SAT-64429,247.2778966312566,50.818205958468404,1685.8721218450673,-6.526587049026617,228588.68589275677,10.5,10500228588.685892,47.655,-122.3035,60.0,14.866666666666667
2026-01-20T23:14:53+00:00,SAT-64429,247.26594465458817,50.93840919248775,1679.3629390281715,-6.522844401084464,228457.6025304375,10.5,10500228457.60253,47.655,-122.3035,60.0,14.883333333333333
2026-01-20T23:14:54+00:00,SAT-64429,247.25400146559508,51.0593167033204,1672.857488878823,-6.51905013549178,228324.71129965413,10.5,10500228324.7113,47.655,-122.3035,60.0,14.9
2026-01-20T23:14:55+00:00,SAT-64429,247.24206733454167,51.18093633864279,1666.355822877026,-6.515203497114285,228189.98575241008,10.5,10500228189.985752,47.655,-122.3035,60.0,14.916666666666666
2026-01-20T23:14:56+00:00,SAT-64429,247.23014253884662,51.30327605519887,1659.857993255904,-6.511303744550819,228053.3999217005,10.5,10500228053.399921,47.655,-122.3035,60.0,14.933333333333334
2026-01-20T23:14:57+00:00,SAT-64429,247.21822736325913,51.42634392105,1653.3640529880054,-6.507350095544684,227914.92640958694,10.5,10500227914.926409,47.655,-122.3035,60.0,14.95
2026-01-20T23:14:58+00:00,SAT-64429,247.20632210016072,51.55014811684812,1646.8740558260488,-6.503341753009588,227774.53729873576,10.5,10500227774.537298,47.655,-122.3035,60.0,14.966666666666667
2026-01-20T23:14:59+00:00,SAT-64429,247.19442704973477,51.67469693759333,1640.3880563177138,-6.4992779062386905,227632.20419476414,10.5,10500227632.204195,47.655,-122.3035,60.0,14.983333333333333
