satellites_20260121_005943/SAT-54773.csv

timestamp,satellite,azimuth_deg,elevation_deg,distance_km,relative_velocity_kms,doppler_shift_hz,tx_freq_ghz,rx_freq_hz,ue_lat,ue_lon,ue_alt_m,time_minutes
2026-01-20T23:08:17+00:00,SAT-54773,203.63768385574593,30.101248768376927,1438.2847556891074,-5.565506595418188,194927.5830411016,10.5,10500194927.58304,47.655,-122.3035,60.0,8.283333333333333
2026-01-20T23:08:18+00:00,SAT-54773,203.6607336558666,30.28857397193459,1432.7340904446105,-5.553798843722728,194517.52805298605,10.5,10500194517.528053,47.655,-122.3035,60.0,8.3
2026-01-20T23:08:19+00:00,SAT-54773,203.68429001362026,30.47713922990865,1427.1951017311376,-5.541948142806183,194102.4663784735,10.5,10500194102.46638,47.655,-122.3035,60.0,8.316666666666666
2026-01-20T23:08:20+00:00,SAT-54773,203.70836182728894,30.666955977352472,1421.667932116712,-5.5299526115256095,193682.33213198077,10.5,10500193682.332132,47.655,-122.3035,60.0,8.333333333333334
2026-01-20T23:08:21+00:00,SAT-54773,203.73295820478484,30.85803573373373,1416.1527260454839,-5.517810310126342,193257.05737509445,10.5,10500193257.057375,47.655,-122.3035,60.0,8.35
2026-01-20T23:08:22+00:00,SAT-54773,203.7580884696446,31.050390100909464,1410.6496298961847,-5.505519327061442,192826.57515735485,10.5,10500192826.575157,47.655,-122.3035,60.0,8.366666666666667
2026-01-20T23:08:23+00:00,SAT-54773,203.78376216765903,31.244030763982984,1405.1587919539954,-5.493077623332108,192390.814064399,10.5,10500192390.814064,47.655,-122.3035,60.0,8.383333333333333
2026-01-20T23:08:24+00:00,SAT-54773,203.80998907300426,31.438969486732304,1399.6803625376588,-5.480483255327307,191949.706022747,10.5,10500191949.706022,47.655,-122.3035,60.0,8.4
2026-01-20T23:08:25+00:00,SAT-54773,203.83677919565352,31.63521811463512,1394.2144939043458,-5.46773416203673,191503.17884709983,10.5,10500191503.178846,47.655,-122.3035,60.0,8.416666666666666
2026-01-20T23:08:26+00:00,SAT-54773,203.86414278801394,31.832788570441604,1388.761340366741,-5.454828290806727,191051.16064484394,10.5,10500191051.160645,47.655,-122.3035,60.0,8.433333333333334
2026-01-20T23:08:27+00:00,SAT-54773,203.8920903524391,32.0316928540069,1383.32105828471,-5.441763585478455,190593.57940059912,10.5,10500190593.579401,47.655,-122.3035,60.0,8.45
2026-01-20T23:08:28+00:00,SAT-54773,203.9206326489527,32.23194304167677,1377.8938060687926,-5.42853792236896,190130.36073400514,10.5,10500190130.360735,47.655,-122.3035,60.0,8.466666666666667
2026-01-20T23:08:29+00:00,SAT-54773,203.9497807029195,32.43355128323765,1372.47974424755,-5.415149174135601,189661.430136524,10.5,10500189661.430136,47.655,-122.3035,60.0,8.483333333333333
2026-01-20T23:08:30+00:00,SAT-54773,203.97954581333056,32.63652980107462,1367.0790354712121,-5.401595182497852,189186.71201604226,10.5,10500189186.712015,47.655,-122.3035,60.0,8.5
2026-01-20T23:08:31+00:00,SAT-54773,204.00993956127036,32.84089088822695,1361.6918445425342,-5.3878737670008015,188706.13000380553,10.5,10500188706.130003,47.655,-122.3035,60.0,8.516666666666667
2026-01-20T23:08:32+00:00,SAT-54773,204.04097381872393,33.04664690665667,1356.318338438912,-5.373982702812038,188219.6061767718,10.5,10500188219.606176,47.655,-122.3035,60.0,8.533333333333333
2026-01-20T23:08:33+00:00,SAT-54773,204.0726607575828,33.25381028454255,1350.9586863566408,-5.359919760081503,187727.0624361597,10.5,10500187727.062437,47.655,-122.3035,60.0,8.55
2026-01-20T23:08:34+00:00,SAT-54773,204.10501285925358,33.46239351495705,1345.6130597159197,-5.3456826836569,187228.41979699652,10.5,10500187228.419798,47.655,-122.3035,60.0,8.566666666666666
2026-01-20T23:08:35+00:00,SAT-54773,204.1380429244765,33.6724091536299,1340.2816321860857,-5.331269167016099,186723.59747512077,10.5,10500186723.597475,47.655,-122.3035,60.0,8.583333333333334
2026-01-20T23:08:36+00:00,SAT-54773,204.1717640833675,33.883869815586095,1334.9645797368485,-5.31667689584342,186212.51441340768,10.5,10500186212.514414,47.655,-122.3035,60.0,8.6
2026-01-20T23:08:37+00:00,SAT-54773,204.2061898061298,34.096788173293206,1329.6620806460605,-5.301903523764428,185695.0884318994,10.5,10500185695.088432,47.655,-122.3035,60.0,8.616666666666667
2026-01-20T23:08:38+00:00,SAT-54773,204.24133391399923,34.311176953738986,1324.374315531693,-5.286946673301633,185171.2362612776,10.5,10500185171.236261,47.655,-122.3035,60.0,8.633333333333333
2026-01-20T23:08:39+00:00,SAT-54773,204.27721059064186,34.52704893537022,1319.1014673828533,-5.27180396681822,184640.87462664358,10.5,10500184640.874626,47.655,-122.3035,60.0,8.65
2026-01-20T23:08:40+00:00,SAT-54773,204.3138343941985,34.744416946132766,1313.8437215599467,-5.256472931682716,184103.91692598388,10.5,10500184103.916925,47.655,-122.3035,60.0,8.666666666666666
2026-01-20T23:08:41+00:00,SAT-54773,204.35122026912606,34.96329385747519,1308.6012658894151,-5.240951158490505,183560.27877175718,10.5,10500183560.278772,47.655,-122.3035,60.0,8.683333333333334
2026-01-20T23:08:42+00:00,SAT-54773,204.3893835596642,35.18369258463099,1303.3742906006805,-5.22523614439721,183009.8725037663,10.5,10500183009.872503,47.655,-122.3035,60.0,8.7
2026-01-20T23:08:43+00:00,SAT-54773,204.42834002266096,35.40562608029558,1298.162988419335,-5.209325384952479,182452.61040556608,10.5,10500182452.610405,47.655,-122.3035,60.0,8.716666666666667
2026-01-20T23:08:44+00:00,SAT-54773,204.46810584161904,35.629107331900514,1292.9675545687423,-5.193216350307931,181888.403871165,10.5,10500181888.403872,47.655,-122.3035,60.0,8.733333333333333
2026-01-20T23:08:45+00:00,SAT-54773,204.50869764111982,35.8541493576864,1287.7881867953688,-5.176906460614238,181317.16254332688,10.5,10500181317.162544,47.655,-122.3035,60.0,8.75
2026-01-20T23:08:46+00:00,SAT-54773,204.55013250161622,36.08076520152448,1282.6250854186494,-5.160393159716801,180738.7968947051,10.5,10500180738.796894,47.655,-122.3035,60.0,8.766666666666667
2026-01-20T23:08:47+00:00,SAT-54773,204.59242797545474,36.30896793067236,1277.4784533073584,-5.143673796973818,180153.21408861154,10.5,10500180153.214088,47.655,-122.3035,60.0,8.783333333333333
2026-01-20T23:08:48+00:00,SAT-54773,204.63560210254553,36.53877062821291,1272.3484959738435,-5.126745763807315,179560.3227616113,10.5,10500179560.322762,47.655,-122.3035,60.0,8.8
2026-01-20T23:08:49+00:00,SAT-54773,204.67967342784758,36.77018639116823,1267.235421532073,-5.109606371000084,178960.02872594242,10.5,10500178960.028727,47.655,-122.3035,60.0,8.816666666666666
2026-01-20T23:08:50+00:00,SAT-54773,204.72466101851865,37.00322832301905,1262.139440778062,-5.092252949106195,178352.23848631658,10.5,10500178352.238487,47.655,-122.3035,60.0,8.833333333333334
2026-01-20T23:08:51+00:00,SAT-54773,204.7705844826537,37.23790953038726,1257.0607671701537,-5.074682753877386,177736.8559275516,10.5,10500177736.855928,47.655,-122.3035,60.0,8.85
2026-01-20T23:08:52+00:00,SAT-54773,204.81746398796506,37.474243115219416,1251.9996169036199,-5.056893060774925,177113.78562477618,10.5,10500177113.785625,47.655,-122.3035,60.0,8.866666666666667
2026-01-20T23:08:53+00:00,SAT-54773,204.86532028211707,37.7122421709559,1246.9562088910068,-5.038881093363723,176482.93033548928,10.5,10500176482.930336,47.655,-122.3035,60.0,8.883333333333333
2026-01-20T23:08:54+00:00,SAT-54773,204.9141747132475,37.951919775166466,1241.930764813892,-5.020644078515933,175844.19293302335,10.5,10500175844.192932,47.655,-122.3035,60.0,8.9
2026-01-20T23:08:55+00:00,SAT-54773,204.9640492519038,38.19328898441968,1236.9235091195856,-5.002179169512723,175197.4737132433,10.5,10500175197.473713,47.655,-122.3035,60.0,8.916666666666666
2026-01-20T23:08:56+00:00,SAT-54773,205.0149665131558,38.436362825237374,1231.934669094525,-4.983483558400739,174542.674329745,10.5,10500174542.67433,47.655,-122.3035,60.0,8.933333333333334
2026-01-20T23:08:57+00:00,SAT-54773,205.066949780806,38.681154290026356,1226.9644748256133,-4.964554370023203,173879.69408237626,10.5,10500173879.694082,47.655,-122.3035,60.0,8.95
2026-01-20T23:08:58+00:00,SAT-54773,205.120023031558,38.927676327650424,1222.0131592672435,-4.945388703283547,173208.4313624636,10.5,10500173208.431362,47.655,-122.3035,60.0,8.966666666666667
2026-01-20T23:08:59+00:00,SAT-54773,205.17421096065735,39.17594183555655,1217.0809582671686,-4.9259836989599695,172528.786027965,10.5,10500172528.786028,47.655,-122.3035,60.0,8.983333333333333
2026-01-20T23:09:00+00:00,SAT-54773,205.22953900944927,39.42596365495447,1212.1681105247392,-4.906336374779993,171840.65362708335,10.5,10500171840.653627,47.655,-122.3035,60.0,9.0
2026-01-20T23:09:01+00:00,SAT-54773,205.2860333922692,39.677754557389676,1207.2748577136254,-4.886443812132268,171143.93193770346,10.5,10500171143.931938,47.655,-122.3035,60.0,9.016666666666667
2026-01-20T23:09:02+00:00,SAT-54773,205.34372112669112,39.931327240243576,1202.4014444183254,-4.866303047941302,170438.51718038775,10.5,10500170438.51718,47.655,-122.3035,60.0,9.033333333333333
2026-01-20T23:09:03+00:00,SAT-54773,205.4026300638883,40.18669431642809,1197.548118178512,-4.845911078361194,169724.30414774656,10.5,10500169724.304148,47.655,-122.3035,60.0,9.05
2026-01-20T23:09:04+00:00,SAT-54773,205.46278892037265,40.4438683037882,1192.7151295296928,-4.82526491969899,169001.18833823162,10.5,10500169001.188337,47.655,-122.3035,60.0,9.066666666666666
2026-01-20T23:09:05+00:00,SAT-54773,205.52422731197282,40.70286161721883,1187.9027319831134,-4.804361523808034,168269.06299285343,10.5,10500168269.062992,47.655,-122.3035,60.0,9.083333333333334
2026-01-20T23:09:06+00:00,SAT-54773,205.58697578826767,40.963686555904,1183.1111820900353,-4.783197865423507,167527.82215404103,10.5,10500167527.822153,47.655,-122.3035,60.0,9.1
2026-01-20T23:09:07+00:00,SAT-54773,205.65106586974582,41.226355294644456,1178.3407394189196,-4.761770901605716,166777.3592451749,10.5,10500166777.359245,47.655,-122.3035,60.0,9.116666666666667
2026-01-20T23:09:08+00:00,SAT-54773,205.71653008619828,41.4908798726323,1173.5916665730515,-4.740077530880504,166017.56563951084,10.5,10500166017.56564,47.655,-122.3035,60.0,9.133333333333333
2026-01-20T23:09:09+00:00,SAT-54773,205.783402016292,41.75727217937498,1168.86422924892,-4.718114712031051,165248.33482077136,10.5,10500165248.334822,47.655,-122.3035,60.0,9.15
2026-01-20T23:09:10+00:00,SAT-54773,205.85171633070433,42.025543946654075,1164.158696176121,-4.695879317555992,164469.55725062944,10.5,10500164469.557251,47.655,-122.3035,60.0,9.166666666666666
2026-01-20T23:09:11+00:00,SAT-54773,205.9215088352126,42.295706731811926,1159.475339203412,-4.673368263247941,163681.12490709615,10.5,10500163681.124907,47.655,-122.3035,60.0,9.183333333333334
2026-01-20T23:09:12+00:00,SAT-54773,205.99281651771778,42.56777190767775,1154.8144332555328,-4.650578420689723,162882.92821976895,10.5,10500162882.928219,47.655,-122.3035,60.0,9.2
2026-01-20T23:09:13+00:00,SAT-54773,206.0656775962479,42.841750646970574,1150.1762563772982,-4.627506674755385,162074.8580837599,10.5,10500162074.858084,47.655,-122.3035,60.0,9.216666666666667
2026-01-20T23:09:14+00:00,SAT-54773,206.14013157014443,43.117653909351084,1145.5610897203421,-4.604149878760812,161256.80428888084,10.5,10500161256.804289,47.655,-122.3035,60.0,9.233333333333333
2026-01-20T23:09:15+00:00,SAT-54773,206.2162192730687,43.39549242521493,1140.9692175745913,-4.58050492053941,160428.65783389326,10.5,10500160428.657833,47.655,-122.3035,60.0,9.25
2026-01-20T23:09:16+00:00,SAT-54773,206.29398292967642,43.67527668272677,1136.40092733384,-4.556568644167123,159590.30818498702,10.5,10500159590.308186,47.655,-122.3035,60.0,9.266666666666667
2026-01-20T23:09:17+00:00,SAT-54773,206.3734662137984,43.95701690949739,1131.8565095393906,-4.532337907549056,158741.6452927081,10.5,10500158741.645292,47.655,-122.3035,60.0,9.283333333333333
2026-01-20T23:09:18+00:00,SAT-54773,206.45471431050964,44.24072305695033,1127.3362578662618,-4.507809579187845,157882.5594787724,10.5,10500157882.559479,47.655,-122.3035,60.0,9.3
2026-01-20T23:09:19+00:00,SAT-54773,206.5377739812687,44.526404783801254,1122.8404691126184,-4.482980502325444,157012.9401801601,10.5,10500157012.94018,47.655,-122.3035,60.0,9.316666666666666
2026-01-20T23:09:20+00:00,SAT-54773,206.6226936316997,44.8140714364905,1118.3694432249658,-4.457847553286876,156132.67799256044,10.5,10500156132.677992,47.655,-122.3035,60.0,9.333333333333334
2026-01-20T23:09:21+00:00,SAT-54773,206.70952338393064,45.1037320324769,1113.9234832651543,-4.4324075909574825,155241.6629008511,10.5,10500155241.6629,47.655,-122.3035,60.0,9.35
2026-01-20T23:09:22+00:00,SAT-54773,206.79831515168345,45.39539523948001,1109.5028954277727,-4.406657476999509,154339.78498716885,10.5,10500154339.784986,47.655,-122.3035,60.0,9.366666666666667
2026-01-20T23:09:23+00:00,SAT-54773,206.8891227196204,45.68906935509402,1105.1079890373785,-4.380594113493804,153426.9357492807,10.5,10500153426.93575,47.655,-122.3035,60.0,9.383333333333333
2026-01-20T23:09:24+00:00,SAT-54773,206.98200182763,45.9847622879651,1100.7390765081875,-4.354214394009283,152503.00638683,10.5,10500152503.006388,47.655,-122.3035,60.0,9.4
2026-01-20T23:09:25+00:00,SAT-54773,207.07701025853885,46.282481534858746,1096.3964733525622,-4.327515206957459,151567.8879188259,10.5,10500151567.887918,47.655,-122.3035,60.0,9.416666666666666
2026-01-20T23:09:26+00:00,SAT-54773,207.17420793050235,46.58223415684575,1092.0804981861565,-4.300493487581656,150621.47300452564,10.5,10500150621.473005,47.655,-122.3035,60.0,9.433333333333334
2026-01-20T23:09:27+00:00,SAT-54773,207.27365699545993,46.88402675798143,1087.7914726812085,-4.273146185528275,149663.65480764327,10.5,10500149663.654808,47.655,-122.3035,60.0,9.45
2026-01-20T23:09:28+00:00,SAT-54773,207.37542194222885,47.187865460774695,1083.529721552175,-4.245470251974854,148694.3265455196,10.5,10500148694.326546,47.655,-122.3035,60.0,9.466666666666667
2026-01-20T23:09:29+00:00,SAT-54773,207.47956970482875,47.49375587959913,1079.2955725542054,-4.2174626781953135,147713.3828398405,10.5,10500147713.38284,47.655,-122.3035,60.0,9.483333333333333
2026-01-20T23:09:30+00:00,SAT-54773,207.58616977764592,47.801703095590874,1075.089356443152,-4.189120469346359,146720.7187985255,10.5,10500146720.718798,47.655,-122.3035,60.0,9.5
2026-01-20T23:09:31+00:00,SAT-54773,207.69529433631425,48.11171162852594,1070.9114069617237,-4.160440697547347,145716.2318748097,10.5,10500145716.231874,47.655,-122.3035,60.0,9.516666666666667
2026-01-20T23:09:32+00:00,SAT-54773,207.80701836667012,48.4237854112728,1066.7620607727033,-4.13142039358184,144699.81807417359,10.5,10500144699.818073,47.655,-122.3035,60.0,9.533333333333333
2026-01-20T23:09:33+00:00,SAT-54773,207.92141979803824,48.737927754960374,1062.6416575001708,-4.102056692933275,143671.37706913025,10.5,10500143671.37707,47.655,-122.3035,60.0,9.55
2026-01-20T23:09:34+00:00,SAT-54773,208.038579647974,49.05414132351322,1058.5505396250853,-4.072346743624779,142630.80897138573,10.5,10500142630.808971,47.655,-122.3035,60.0,9.566666666666666
2026-01-20T23:09:35+00:00,SAT-54773,208.15858217271656,49.3724280999823,1054.489052472777,-4.042287738998704,141578.01547991709,10.5,10500141578.01548,47.655,-122.3035,60.0,9.583333333333334
2026-01-20T23:09:36+00:00,SAT-54773,208.28151502719044,49.692789353782736,1050.4575441677491,-4.011876895917688,140512.8991174812,10.5,10500140512.899118,47.655,-122.3035,60.0,9.6
2026-01-20T23:09:37+00:00,SAT-54773,208.40746943352465,50.01522560462256,1046.4563656102205,-3.9811115048707997,139435.3649855441,10.5,10500139435.364986,47.655,-122.3035,60.0,9.616666666666667
2026-01-20T23:09:38+00:00,SAT-54773,208.53654036095185,50.339736588682975,1042.485870402696,-3.9499889145325575,138345.32022347223,10.5,10500138345.320223,47.655,-122.3035,60.0,9.633333333333333
2026-01-20T23:09:39+00:00,SAT-54773,208.66882671580385,50.666321221958206,1038.5464147919354,-3.918506514728793,137242.6734119253,10.5,10500137242.673412,47.655,-122.3035,60.0,9.65
2026-01-20T23:09:40+00:00,SAT-54773,208.80443154220262,50.99497756038392,1034.6383576279127,-3.8866617139513613,136127.3337853259,10.5,10500136127.333786,47.655,-122.3035,60.0,9.666666666666666
2026-01-20T23:09:41+00:00,SAT-54773,208.94346223377784,51.325702756035405,1030.7620603451985,-3.854452075816295,134999.21601120164,10.5,10500134999.216011,47.655,-122.3035,60.0,9.683333333333334
2026-01-20T23:09:42+00:00,SAT-54773,209.0860307630174,51.65849302274708,1026.917886808251,-3.8218751619324083,133858.23468677883,10.5,10500133858.234686,47.655,-122.3035,60.0,9.7
2026-01-20T23:09:43+00:00,SAT-54773,209.23225391887652,51.99334358657769,1023.1062033134172,-3.7889286091110654,132704.30704319515,10.5,10500132704.307043,47.655,-122.3035,60.0,9.716666666666667
2026-01-20T23:09:44+00:00,SAT-54773,209.38225356159765,52.33024864035112,1019.3273785139304,-3.755610148594679,131537.35361896307,10.5,10500131537.353619,47.655,-122.3035,60.0,9.733333333333333
2026-01-20T23:09:45+00:00,SAT-54773,209.53615689400627,52.66920129761918,1015.5817833257319,-3.7219176006491166,130357.29807057297,10.5,10500130357.29807,47.655,-122.3035,60.0,9.75
2026-01-20T23:09:46+00:00,SAT-54773,209.69409674949833,53.01019354377623,1011.8697908386846,-3.687848835324314,129164.06579816394,10.5,10500129164.065798,47.655,-122.3035,60.0,9.766666666666667
2026-01-20T23:09:47+00:00,SAT-54773,209.85621189631726,53.353216181016585,1008.1917762669211,-3.653401824100707,127957.5857544002,10.5,10500127957.585754,47.655,-122.3035,60.0,9.783333333333333
2026-01-20T23:09:48+00:00,SAT-54773,210.02264736314837,53.6982587750792,1004.5481168476846,-3.618574633198517,126737.79021013407,10.5,10500126737.79021,47.655,-122.3035,60.0,9.8
2026-01-20T23:09:49+00:00,SAT-54773,210.19355478512003,54.04530959854904,1000.9391917468413,-3.5833654508443855,125504.61570939868,10.5,10500125504.61571,47.655,-122.3035,60.0,9.816666666666666
2026-01-20T23:09:50+00:00,SAT-54773,210.36909277327018,54.3943555736901,997.3653819371991,-3.547772514526563,124258.00052157718,10.5,10500124258.00052,47.655,-122.3035,60.0,9.833333333333334
2026-01-20T23:09:51+00:00,SAT-54773,210.54942730430164,54.74538220505889,993.8270701493781,-3.511794191204448,122997.88745067998,10.5,10500122997.887451,47.655,-122.3035,60.0,9.85
2026-01-20T23:09:52+00:00,SAT-54773,210.73473213943245,55.098373516136455,990.3246407426834,-3.4754289748425773,121724.22374897457,10.5,10500121724.22375,47.655,-122.3035,60.0,9.866666666666667
2026-01-20T23:09:53+00:00,SAT-54773,210.92518927073422,55.45331198223438,986.8584795784404,-3.4386754594832336,120436.96017387453,10.5,10500120436.960175,47.655,-122.3035,60.0,9.883333333333333
2026-01-20T23:09:54+00:00,SAT-54773,211.1209893954251,55.81017845675472,983.4289739201826,-3.4015323435494165,119136.05113864764,10.5,10500119136.051138,47.655,-122.3035,60.0,9.9
2026-01-20T23:09:55+00:00,SAT-54773,211.3223324217398,56.16895209354123,980.0365123295492,-3.363998474371248,117821.45627191896,10.5,10500117821.456272,47.655,-122.3035,60.0,9.916666666666666
2026-01-20T23:09:56+00:00,SAT-54773,211.52942801122504,56.529610269281775,976.6814845177763,-3.3260728218828013,116493.1394964226,10.5,10500116493.139496,47.655,-122.3035,60.0,9.933333333333334
2026-01-20T23:09:57+00:00,SAT-54773,211.7424961560265,56.892128498467294,973.3642812234185,-3.2877544903933655,115151.06944128106,10.5,10500115151.06944,47.655,-122.3035,60.0,9.95
2026-01-20T23:09:58+00:00,SAT-54773,211.96176779600475,57.256480344367056,970.0852940783328,-3.2490427029263937,113795.21889348909,10.5,10500113795.218893,47.655,-122.3035,60.0,9.966666666666667
2026-01-20T23:09:59+00:00,SAT-54773,212.18748547679522,57.62263732269324,966.844915489281,-3.209936861218026,112425.56689931564,10.5,10500112425.5669,47.655,-122.3035,60.0,9.983333333333333
2026-01-20T23:10:00+00:00,SAT-54773,212.41990405714645,57.99056880589607,963.6435384596929,-3.1704364979115245,111042.09708995084,10.5,10500111042.09709,47.655,-122.3035,60.0,10.0
2026-01-20T23:10:01+00:00,SAT-54773,212.65929146184288,58.36024191587709,960.481556459109,-3.1305412835418607,109644.79792613574,10.5,10500109644.797926,47.655,-122.3035,60.0,10.016666666666667
2026-01-20T23:10:02+00:00,SAT-54773,212.90592948719285,58.731621410367985,957.3593632856566,-3.0902510772837513,108233.66447557327,10.5,10500108233.664476,47.655,-122.3035,60.0,10.033333333333333
2026-01-20T23:10:03+00:00,SAT-54773,213.16011466668465,59.104669567789685,954.2773528779123,-3.0495658962548005,106808.69733779429,10.5,10500106808.697338,47.655,-122.3035,60.0,10.05
2026-01-20T23:10:04+00:00,SAT-54773,213.42215919511588,59.47934606061914,951.235919157381,-3.0084858960828287,105369.90196354341,10.5,10500105369.901964,47.655,-122.3035,60.0,10.066666666666666
2026-01-20T23:10:05+00:00,SAT-54773,213.69239191595068,59.855607817579305,948.2354558903543,-2.967011435779489,103917.2909269273,10.5,10500103917.290926,47.655,-122.3035,60.0,10.083333333333334
2026-01-20T23:10:06+00:00,SAT-54773,213.9711593841305,60.233408884229476,945.2763564850702,-2.9251430563613683,102450.88317663538,10.5,10500102450.883177,47.655,-122.3035,60.0,10.1
2026-01-20T23:10:07+00:00,SAT-54773,214.25882700270833,60.61270027098756,942.3590138101924,-2.8828814534937903,100970.7030778099,10.5,10500100970.703077,47.655,-122.3035,60.0,10.116666666666667
2026-01-20T23:10:08+00:00,SAT-54773,214.5557802375733,60.99342978651385,939.4838200405746,-2.8402275302487228,99476.78225985121,10.5,10500099476.782259,47.655,-122.3035,60.0,10.133333333333333
2026-01-20T23:10:09+00:00,SAT-54773,214.86242592399523,61.37554186577056,936.6511664504065,-2.7971823744487274,97969.15882290687,10.5,10500097969.158823,47.655,-122.3035,60.0,10.15
2026-01-20T23:10:10+00:00,SAT-54773,215.17919366422817,61.758977382174244,933.8614432289564,-2.7537472769784954,96447.87797921922,10.5,10500096447.87798,47.655,-122.3035,60.0,10.166666666666666
2026-01-20T23:10:11+00:00,SAT-54773,215.50653732697492,62.14367344800272,931.1150392780498,-2.7099237265196923,94912.99186871728,10.5,10500094912.991869,47.655,-122.3035,60.0,10.183333333333334
2026-01-20T23:10:12+00:00,SAT-54773,215.84493665336373,62.52956319865932,928.4123420148009,-2.6657134021653794,93364.55930034265,10.5,10500093364.5593,47.655,-122.3035,60.0,10.2
2026-01-20T23:10:13+00:00,SAT-54773,216.1948989761904,62.916575558966265,925.753737181708,-2.6211182114281226,91802.64708325414,10.5,10500091802.647083,47.655,-122.3035,60.0,10.216666666666667
2026-01-20T23:10:14+00:00,SAT-54773,216.55696106603054,63.304634996416645,923.1396086188436,-2.576140268429991,90227.32926294932,10.5,10500090227.329264,47.655,-122.3035,60.0,10.233333333333333
2026-01-20T23:10:15+00:00,SAT-54773,216.93169110509956,63.693661251440666,920.5703380577961,-2.5307818999710827,88638.68733381,10.5,10500088638.687334,47.655,-122.3035,60.0,10.25
2026-01-20T23:10:16+00:00,SAT-54773,217.31969080013647,64.08356904653036,918.0463049095582,-2.485045656490938,87036.81062301724,10.5,10500087036.810623,47.655,-122.3035,60.0,10.266666666666667
2026-01-20T23:10:17+00:00,SAT-54773,217.7215976436729,64.47426777314178,915.5678860414847,-2.4389343054807395,85421.7960598187,10.5,10500085421.79606,47.655,-122.3035,60.0,10.283333333333333
2026-01-20T23:10:18+00:00,SAT-54773,218.13808732933194,64.86566115141594,913.1354555608185,-2.392450843044167,83793.74858043878,10.5,10500083793.74858,47.655,-122.3035,60.0,10.3
2026-01-20T23:10:19+00:00,SAT-54773,218.56987633203136,65.25764686312776,910.7493845866892,-2.3455985090979987,82152.78166046788,10.5,10500082152.78166,47.655,-122.3035,60.0,10.316666666666666
2026-01-20T23:10:20+00:00,SAT-54773,219.0177246620467,65.65011615597864,908.4100410069487,-2.298380750249833,80499.01601468322,10.5,10500080499.016014,47.655,-122.3035,60.0,10.333333333333334
2026-01-20T23:10:21+00:00,SAT-54773,219.48243879008885,66.04295340774206,906.117789272033,-2.2508012628321046,78832.58110428214,10.5,10500078832.581104,47.655,-122.3035,60.0,10.35
2026-01-20T23:10:22+00:00,SAT-54773,219.96487476358743,66.43603566011136,903.8729901459017,-2.202863984734612,77153.61485082263,10.5,10500077153.614851,47.655,-122.3035,60.0,10.366666666666667
2026-01-20T23:10:23+00:00,SAT-54773,220.4659415098306,66.82923211077578,901.6760004651263,-2.1545730713832567,75462.26279489725,10.5,10500075462.262794,47.655,-122.3035,60.0,10.383333333333333
2026-01-20T23:10:24+00:00,SAT-54773,220.98660432321356,67.22240355684306,899.5271729219335,-2.1059329449846342,73758.67982088681,10.5,10500073758.679821,47.655,-122.3035,60.0,10.4
2026-01-20T23:10:25+00:00,SAT-54773,221.52788855199694,67.615401798648,897.4268557981355,-2.0569482449024346,72043.02841893228,10.5,10500072043.02842,47.655,-122.3035,60.0,10.416666666666666
2026-01-20T23:10:26+00:00,SAT-54773,222.09088345685137,68.00806898213837,895.3753927485527,-2.007623876399536,70315.48039208888,10.5,10500070315.480392,47.655,-122.3035,60.0,10.433333333333334
2026-01-20T23:10:27+00:00,SAT-54773,222.67674625424823,68.40023689311346,893.3731225358237,-1.95796496471361,68576.2152478596,10.5,10500068576.215248,47.655,-122.3035,60.0,10.45
2026-01-20T23:10:28+00:00,SAT-54773,223.28670630309156,68.79172618101295,891.4203788110159,-1.9079768909797492,66825.42145635754,10.5,10500066825.421457,47.655,-122.3035,60.0,10.466666666666667
2026-01-20T23:10:29+00:00,SAT-54773,223.92206943013238,69.18234552267984,889.5174898584121,-1.857665283075777,65063.29612967,10.5,10500065063.29613,47.655,-122.3035,60.0,10.483333333333333
2026-01-20T23:10:30+00:00,SAT-54773,224.58422234559168,69.57189071261678,887.6647783494246,-1.8070360000744052,63290.04447730721,10.5,10500063290.044477,47.655,-122.3035,60.0,10.5
2026-01-20T23:10:31+00:00,SAT-54773,225.2746370942981,69.9601436730196,885.862561112017,-1.7560951566065306,61505.88065950802,10.5,10500061505.88066,47.655,-122.3035,60.0,10.516666666666667
2026-01-20T23:10:32+00:00,SAT-54773,225.99487548780812,70.34687138674794,884.1111488758281,-1.7048490956416176,59711.02683389381,10.5,10500059711.026834,47.655,-122.3035,60.0,10.533333333333333
2026-01-20T23:10:33+00:00,SAT-54773,226.7465934092601,70.73182473776839,882.4108460444415,-1.6533044123751706,57905.7139921088,10.5,10500057905.713991,47.655,-122.3035,60.0,10.55
2026-01-20T23:10:34+00:00,SAT-54773,227.53154489400052,71.11473726566467,880.7619504438327,-1.6014679261548026,56090.18097655221,10.5,10500056090.180977,47.655,-122.3035,60.0,10.566666666666666
2026-01-20T23:10:35+00:00,SAT-54773,228.35158581629454,71.49532381952056,879.1647530988142,-1.5493467095319813,54264.675497893295,10.5,10500054264.675497,47.655,-122.3035,60.0,10.583333333333334
2026-01-20T23:10:36+00:00,SAT-54773,229.20867702021292,71.87327912187756,877.6195379805077,-1.496948047696563,52429.45271429714,10.5,10500052429.452715,47.655,-122.3035,60.0,10.6
2026-01-20T23:10:37+00:00,SAT-54773,230.10488662714104,72.24827622648917,876.1265817942717,-1.4442794724952457,50584.7764228948,10.5,10500050584.776423,47.655,-122.3035,60.0,10.616666666666667
2026-01-20T23:10:38+00:00,SAT-54773,231.04239126787616,72.61996488957922,874.6861537337031,-1.3913487298878429,48730.91791996432,10.5,10500048730.91792,47.655,-122.3035,60.0,10.633333333333333
2026-01-20T23:10:39+00:00,SAT-54773,232.02347584932326,72.9879698444516,873.2985152670949,-1.3381637984508021,46868.15664900224,10.5,10500046868.156649,47.655,-122.3035,60.0,10.65
2026-01-20T23:10:40+00:00,SAT-54773,233.0505314550649,73.35188900213178,871.9639199054401,-1.2847328659743222,44996.779381055625,10.5,10500044996.77938,47.655,-122.3035,60.0,10.666666666666666
2026-01-20T23:10:41+00:00,SAT-54773,234.12605083753408,73.71129158352039,870.6826129937749,-1.2310643375614683,43117.080498387375,10.5,10500043117.080498,47.655,-122.3035,60.0,10.683333333333334
2026-01-20T23:10:42+00:00,SAT-54773,235.252620911134,74.06571621462723,869.4548314944469,-1.1771668293047743,41229.36177300408,10.5,10500041229.361773,47.655,-122.3035,60.0,10.7
2026-01-20T23:10:43+00:00,SAT-54773,236.43291152339447,74.41466901422972,868.280803776687,-1.123049152665984,39333.93181956844,10.5,10500039333.93182,47.655,-122.3035,60.0,10.716666666666667
2026-01-20T23:10:44+00:00,SAT-54773,237.66965967106822,74.75762171544432,867.1607494217615,-1.06872032291021,37431.106390799214,10.5,10500037431.10639,47.655,-122.3035,60.0,10.733333333333333
2026-01-20T23:10:45+00:00,SAT-54773,238.96564825605466,75.09400988667491,866.0948790197124,-1.0141895416493463,35521.20776606773,10.5,10500035521.207766,47.655,-122.3035,60.0,10.75
2026-01-20T23:10:46+00:00,SAT-54773,240.3236783331639,75.42323131943668,865.0833939835074,-0.9594661958033956,33604.56471501913,10.5,10500033604.564714,47.655,-122.3035,60.0,10.766666666666667
2026-01-20T23:10:47+00:00,SAT-54773,241.74653377304315,75.74464468233035,864.1264863642263,-0.9045598456336736,31681.512078444524,10.5,10500031681.51208,47.655,-122.3035,60.0,10.783333333333333
2026-01-20T23:10:48+00:00,SAT-54773,243.2369372070296,76.05756855392754,863.2243386781809,-0.8494802268880015,29752.3908434148,10.5,10500029752.390844,47.655,-122.3035,60.0,10.8
2026-01-20T23:10:49+00:00,SAT-54773,244.79749619682252,76.36128097934525,862.3771237318979,-0.7942372259280522,27817.54727213501,10.5,10500027817.547272,47.655,-122.3035,60.0,10.816666666666666
2026-01-20T23:10:50+00:00,SAT-54773,246.43063864617832,76.65501970602568,861.5850044719057,-0.7388408980914561,25877.333545062997,10.5,10500025877.333546,47.655,-122.3035,60.0,10.833333333333334
2026-01-20T23:10:51+00:00,SAT-54773,248.1385368671328,76.93798330253259,860.8481338162092,-0.6833014263933551,23932.106314463148,10.5,10500023932.106314,47.655,-122.3035,60.0,10.85
2026-01-20T23:10:52+00:00,SAT-54773,249.92301997086224,77.20933334839778,860.1666545269528,-0.6276291417696847,21982.227413411747,10.5,10500021982.227413,47.655,-122.3035,60.0,10.866666666666667
2026-01-20T23:10:53+00:00,SAT-54773,251.785475147571,77.46819794050252,859.5406990628944,-0.5718344930016185,20028.06280242378,10.5,10500020028.062803,47.655,-122.3035,60.0,10.883333333333333
2026-01-20T23:10:54+00:00,SAT-54773,253.72673906618138,77.71367672308723,858.9703894618742,-0.515928055462792,18069.98287581776,10.5,10500018069.982876,47.655,-122.3035,60.0,10.9
2026-01-20T23:10:55+00:00,SAT-54773,255.74698197937443,77.94484766824901,858.4558372145593,-0.4599205054448022,16108.361562486081,10.5,10500016108.361563,47.655,-122.3035,60.0,10.916666666666666
2026-01-20T23:10:56+00:00,SAT-54773,257.8455882926851,78.16077576851633,857.9971431637957,-0.4038226167713211,14143.57620730696,10.5,10500014143.576208,47.655,-122.3035,60.0,10.933333333333334
2026-01-20T23:10:57+00:00,SAT-54773,260.0210390338463,78.36052376152541,857.5943974073358,-0.3476452570917752,12176.00744133343,10.5,10500012176.00744,47.655,-122.3035,60.0,10.95
2026-01-20T23:10:58+00:00,SAT-54773,262.2708031633466,78.54316490265096,857.2476792042629,-0.29139936472355005,10206.038370709364,10.5,10500010206.03837,47.655,-122.3035,60.0,10.966666666666667
2026-01-20T23:10:59+00:00,SAT-54773,264.59124589739855,78.70779766230616,856.957056904512,-0.2350959494275332,8234.05460383229,10.5,10500008234.054604,47.655,-122.3035,60.0,10.983333333333333
2026-01-20T23:11:00+00:00,SAT-54773,266.9775633482802,78.85356208670015,856.7225878776163,-0.17874607468331477,6260.443630555926,10.5,10500006260.44363,47.655,-122.3035,60.0,11.0
2026-01-20T23:11:01+00:00,SAT-54773,269.4237527354033,78.97965736169749,856.5443184591321,-0.12236085191631882,4285.594619999905,10.5,10500004285.59462,47.655,-122.3035,60.0,11.016666666666667
2026-01-20T23:11:02+00:00,SAT-54773,271.9226267795635,79.08535995235553,856.4222839028209,-0.06595142500701107,2309.8978779967047,10.5,10500002309.897879,47.655,-122.3035,60.0,11.033333333333333
2026-01-20T23:11:03+00:00,SAT-54773,274.46587867292726,79.17004151446977,856.3565083482806,-0.009528963178108798,333.7445979716487,10.5,10500000333.744598,47.655,-122.3035,60.0,11.05
2026-01-20T23:11:04+00:00,SAT-54773,277.04420096539434,79.23318566639007,856.3470047956708,0.04689535180442561,-1642.4735873324366,10.5,10499998357.526413,47.655,-122.3035,60.0,11.066666666666666
2026-01-20T23:11:05+00:00,SAT-54773,279.64745729253946,79.27440265194014,856.3937750932039,0.1033103367680045,-3618.364995906759,10.5,10499996381.635004,47.655,-122.3035,60.0,11.083333333333334
2026-01-20T23:11:06+00:00,SAT-54773,282.2649011226968,79.29344097132494,856.4968099357404,0.15970481722221272,-5593.538249828931,10.5,10499994406.46175,47.655,-122.3035,60.0,11.1
2026-01-20T23:11:07+00:00,SAT-54773,284.8854308999346,79.29019519592127,856.65608887345,0.21606763885893127,-7567.6026780459515,10.5,10499992432.397322,47.655,-122.3035,60.0,11.116666666666667
2026-01-20T23:11:08+00:00,SAT-54773,287.4978671013936,79.26470941547397,856.8715803319387,0.27238767848071455,-9540.168699132195,10.5,10499990459.8313,47.655,-122.3035,60.0,11.133333333333333
2026-01-20T23:11:09+00:00,SAT-54773,290.09123415068757,79.21717606505266,857.1432416432768,0.3286538576420439,-11510.848299063819,10.5,10499988489.151701,47.655,-122.3035,60.0,11.15
2026-01-20T23:11:10+00:00,SAT-54773,292.65502965927004,79.14793021233044,857.4710190906319,0.3848551430168974,-13479.255044092612,10.5,10499986520.744955,47.655,-122.3035,60.0,11.166666666666666
2026-01-20T23:11:11+00:00,SAT-54773,295.17946477196097,79.05743971124234,857.8548479532674,0.44098057454002226,-15445.005066372394,10.5,10499984554.994934,47.655,-122.3035,60.0,11.183333333333334
2026-01-20T23:11:12+00:00,SAT-54773,297.6556629288077,78.94629189113736,858.2946525796086,0.49701925903436683,-17407.716840764726,10.5,10499982592.28316,47.655,-122.3035,60.0,11.2
2026-01-20T23:11:13+00:00,SAT-54773,300.075808246563,78.8151776540622,858.7903464539522,0.5529603931431005,-19367.01198801524,10.5,10499980632.988012,47.655,-122.3035,60.0,11.216666666666667
2026-01-20T23:11:14+00:00,SAT-54773,302.4332400980819,78.66487393238629,859.341832286047,0.6087932582503379,-21322.515096855932,10.5,10499978677.484903,47.655,-122.3035,60.0,11.233333333333333
2026-01-20T23:11:15+00:00,SAT-54773,304.72249472547924,78.49622546900093,859.9490020956086,0.6645072552036029,-23273.85494013272,10.5,10499976726.14506,47.655,-122.3035,60.0,11.25
2026-01-20T23:11:16+00:00,SAT-54773,306.93929891227475,78.31012677896464,860.611737331465,0.7200918857320433,-25220.663823992712,10.5,10499974779.336176,47.655,-122.3035,60.0,11.266666666666667
2026-01-20T23:11:17+00:00,SAT-54773,309.08052304717205,78.1075050324521,861.3299089721685,0.7755367790408094,-27162.57851933186,10.5,10499972837.42148,47.655,-122.3035,60.0,11.283333333333333
2026-01-20T23:11:18+00:00,SAT-54773,311.1441028076636,77.88930439502793,862.1033776531317,0.8308317005008488,-29099.240566148306,10.5,10499970900.759434,47.655,-122.3035,60.0,11.3
2026-01-20T23:11:19+00:00,SAT-54773,313.12893876738804,77.65647219463465,862.9319938024313,0.8859665543129958,-31030.296366850078,10.5,10499968969.703632,47.655,-122.3035,60.0,11.316666666666666
2026-01-20T23:11:20+00:00,SAT-54773,315.0347827674741,77.40994711003432,863.8155977792661,0.9409314012922311,-32955.397809135095,10.5,10499967044.60219,47.655,-122.3035,60.0,11.333333333333334
2026-01-20T23:11:21+00:00,SAT-54773,316.8621187926807,77.15064942347477,864.754020030155,0.9957164396572302,-34874.20159315989,10.5,10499965125.798407,47.655,-122.3035,60.0,11.35
2026-01-20T23:11:22+00:00,SAT-54773,318.6120445128511,76.87947328082677,865.747081225973,1.0503120666625554,-36786.37139015963,10.5,10499963213.62861,47.655,-122.3035,60.0,11.366666666666667
2026-01-20T23:11:23+00:00,SAT-54773,320.28615832893104,76.59728078919464,866.7945924604578,1.1047088255586799,-38691.5759847639,10.5,10499961308.424015,47.655,-122.3035,60.0,11.383333333333333
2026-01-20T23:11:24+00:00,SAT-54773,321.8864549216661,76.30489778545864,867.896355395815,1.1588974580167644,-40589.49111113404,10.5,10499959410.508888,47.655,-122.3035,60.0,11.4
2026-01-20T23:11:25+00:00,SAT-54773,323.4152314416292,76.00311102376389,869.0521624606104,1.2128688798455338,-42479.798602465526,10.5,10499957520.201397,47.655,-122.3035,60.0,11.416666666666666
2026-01-20T23:11:26+00:00,SAT-54773,324.87500511425577,75.6926665745114,870.261797023443,1.2666142170436265,-44362.18765369367,10.5,10499955637.812346,47.655,-122.3035,60.0,11.433333333333334
2026-01-20T23:11:27+00:00,SAT-54773,326.2684424677286,75.37426919940665,871.5250336025745,1.3201247890552767,-46236.354235036844,10.5,10499953763.645765,47.655,-122.3035,60.0,11.45
2026-01-20T23:11:28+00:00,SAT-54773,327.59829966923513,75.0485825148688,872.8416380588591,1.3733921119717187,-48102.001204123175,10.5,10499951897.998796,47.655,-122.3035,60.0,11.466666666666667
2026-01-20T23:11:29+00:00,SAT-54773,328.86737319656544,74.71622975952728,874.2113677918655,1.4264079291509193,-49958.839378423094,10.5,10499950041.160622,47.655,-122.3035,60.0,11.483333333333333
2026-01-20T23:11:30+00:00,SAT-54773,330.0784598509872,74.37779500545696,875.6339719665386,1.4791641967328049,-51806.58702793134,10.5,10499948193.412971,47.655,-122.3035,60.0,11.5
2026-01-20T23:11:31+00:00,SAT-54773,331.23432495736347,74.03382469515999,877.1091917254136,1.5316530813178435,-53644.96979386105,10.5,10499946355.030207,47.655,-122.3035,60.0,11.516666666666667
2026-01-20T23:11:32+00:00,SAT-54773,332.3376776553017,73.68482939488851,878.6367603985144,1.5838669872941467,-55473.72164575447,10.5,10499944526.278355,47.655,-122.3035,60.0,11.533333333333333
2026-01-20T23:11:33+00:00,SAT-54773,333.39115223631774,73.33128567240985,880.2164037405092,1.6357985396726005,-57292.584280296694,10.5,10499942707.41572,47.655,-122.3035,60.0,11.55
2026-01-20T23:11:34+00:00,SAT-54773,334.3972945089078,72.97363804257117,881.8478401507426,1.687440602579587,-59101.30776900887,10.5,10499940898.69223,47.655,-122.3035,60.0,11.566666666666666
2026-01-20T23:11:35+00:00,SAT-54773,335.35855233712704,72.61230092099018,883.5307809117154,1.7387862689911988,-60899.650198697076,10.5,10499939100.349802,47.655,-122.3035,60.0,11.583333333333334
2026-01-20T23:11:36+00:00,SAT-54773,336.277269559048,72.24766055368036,885.2649304173226,1.789828861487435,-62687.37769786746,10.5,10499937312.622303,47.655,-122.3035,60.0,11.6
2026-01-20T23:11:37+00:00,SAT-54773,337.1556826265448,71.88007689190597,887.049986401846,1.8405619639766797,-64464.265547851566,10.5,10499935535.734451,47.655,-122.3035,60.0,11.616666666666667
2026-01-20T23:11:38+00:00,SAT-54773,337.9959194125963,71.50988538642716,888.8856402005855,1.8909793822372634,-66230.096800805,10.5,10499933769.903198,47.655,-122.3035,60.0,11.633333333333333
2026-01-20T23:11:39+00:00,SAT-54773,338.79999967393195,71.13739870297393,890.7715769711367,1.9410751659575565,-67984.66305164469,10.5,10499932015.336948,47.655,-122.3035,60.0,11.65
2026-01-20T23:11:40+00:00,SAT-54773,339.5698368068009,70.76290833824561,892.7074759366518,1.9908436146215371,-69727.76464418642,10.5,10499930272.235355,47.655,-122.3035,60.0,11.666666666666666
2026-01-20T23:11:41+00:00,SAT-54773,340.3072405610489,70.38668613632125,894.6930106349677,2.0402792730377253,-71459.2105145491,10.5,10499928540.789486,47.655,-122.3035,60.0,11.683333333333334
2026-01-20T23:11:42+00:00,SAT-54773,341.01392044465433,70.00898570672547,896.7278491632773,2.089376915692369,-73178.81764313723,10.5,10499926821.182358,47.655,-122.3035,60.0,11.7
2026-01-20T23:11:43+00:00,SAT-54773,341.6914896040868,69.630043747377,898.8116544071945,2.138131568344463,-74886.4118109898,10.5,10499925113.588188,47.655,-122.3035,60.0,11.716666666666667
2026-01-20T23:11:44+00:00,SAT-54773,342.34146902454705,69.25008126844062,900.9440842913567,2.18653851141494,-76581.82771848406,10.5,10499923418.172281,47.655,-122.3035,60.0,11.733333333333333
2026-01-20T23:11:45+00:00,SAT-54773,342.9652919085261,68.86930472476163,903.1247920334079,2.234593242294679,-78264.9076652026,10.5,10499921735.092335,47.655,-122.3035,60.0,11.75
2026-01-20T23:11:46+00:00,SAT-54773,343.56430811794326,68.48790706855868,905.3534263603897,2.2822915179738508,-79935.50304299328,10.5,10499920064.496958,47.655,-122.3035,60.0,11.766666666666667
2026-01-20T23:11:47+00:00,SAT-54773,344.1397886240973,68.10606871328797,907.629631767649,2.329629334918198,-81593.47363115144,10.5,10499918406.52637,47.655,-122.3035,60.0,11.783333333333333
2026-01-20T23:11:48+00:00,SAT-54773,344.69292988565803,67.72395842510488,909.9530487576741,2.3766029089174787,-83238.68689062726,10.5,10499916761.313108,47.655,-122.3035,60.0,11.8
2026-01-20T23:11:49+00:00,SAT-54773,345.2248581124149,67.34173414673842,912.3233140588344,2.4232087106520903,-84871.01920971925,10.5,10499915128.980791,47.655,-122.3035,60.0,11.816666666666666
2026-01-20T23:11:50+00:00,SAT-54773,345.73663339582305,66.9595437498271,914.7400608795915,2.4694434338882933,-86490.35479013645,10.5,10499913509.64521,47.655,-122.3035,60.0,11.833333333333334
2026-01-20T23:11:51+00:00,SAT-54773,346.22925366800723,66.57752573182002,917.2029191309894,2.5153040044273247,-88096.58596043437,10.5,10499911903.41404,47.655,-122.3035,60.0,11.85
2026-01-20T23:11:52+00:00,SAT-54773,346.70365848509954,66.19580985539925,919.7115156580716,2.5607875732975405,-89689.61293757487,10.5,10499910310.387062,47.655,-122.3035,60.0,11.866666666666667
2026-01-20T23:11:53+00:00,SAT-54773,347.1607326232519,65.8145177374877,922.265474464507,2.6058915245489835,-91269.34409992503,10.5,10499908730.655901,47.655,-122.3035,60.0,11.883333333333333
2026-01-20T23:11:54+00:00,SAT-54773,347.6013094867377,65.4337633898074,924.8644169449905,2.650613452484374,-92835.69518979001,10.5,10499907164.30481,47.655,-122.3035,60.0,11.9
2026-01-20T23:11:55+00:00,SAT-54773,348.0261743229844,65.05365371945088,927.5079620949349,2.6949511706019997,-94388.58962663097,10.5,10499905611.410374,47.655,-122.3035,60.0,11.916666666666666
2026-01-20T23:11:56+00:00,SAT-54773,348.4360672534555,64.67428898827727,930.1957267290819,2.7389027087252917,-95927.95840653057,10.5,10499904072.041594,47.655,-122.3035,60.0,11.933333333333334
2026-01-20T23:11:57+00:00,SAT-54773,348.8316861229308,64.29576323633151,932.9273256972507,2.7824663112499706,-97453.7400408008,10.5,10499902546.259958,47.655,-122.3035,60.0,11.95
2026-01-20T23:11:58+00:00,SAT-54773,349.2136891736319,63.918164672205876,935.7023720983373,2.825640424307055,-98965.88010637705,10.5,10499901034.119894,47.655,-122.3035,60.0,11.966666666666667
2026-01-20T23:11:59+00:00,SAT-54773,349.5826975500788,63.54157603464738,938.5204774815128,2.868423685593127,-100464.3308896311,10.5,10499899535.669111,47.655,-122.3035,60.0,11.983333333333333
2026-01-20T23:12:00+00:00,SAT-54773,349.9392976432743,63.166074927504205,941.3812520372778,2.9108149528030687,-101949.05238220576,10.5,10499898050.947618,47.655,-122.3035,60.0,12.0
2026-01-20T23:12:01+00:00,SAT-54773,350.28404328717147,62.791734125350125,944.2843048168734,2.9528132620243976,-103420.01082380857,10.5,10499896579.989176,47.655,-122.3035,60.0,12.016666666666667
2026-01-20T23:12:02+00:00,SAT-54773,350.61745780670043,62.418621861217225,947.229243910199,2.9944178381227378,-104877.17906595486,10.5,10499895122.820934,47.655,-122.3035,60.0,12.033333333333333
2026-01-20T23:12:03+00:00,SAT-54773,350.9400359326543,62.04680209141959,950.2156766340868,3.0356280844460475,-106320.53621136627,10.5,10499893679.463789,47.655,-122.3035,60.0,12.05
2026-01-20T23:12:04+00:00,SAT-54773,351.252245588889,61.676334741976746,953.2432097103076,3.076443610403422,-107750.06857989711,10.5,10499892249.93142,47.655,-122.3035,60.0,12.066666666666666
2026-01-20T23:12:05+00:00,SAT-54773,351.55452956364525,61.30727593370383,956.3114494710833,3.1168641626775453,-109165.76729930352,10.5,10499890834.2327,47.655,-122.3035,60.0,12.083333333333334
2026-01-20T23:12:06+00:00,SAT-54773,351.8473070626969,60.93967819910834,959.4200019959936,3.1568896879609913,-110567.6305025339,10.5,10499889432.369497,47.655,-122.3035,60.0,12.1
2026-01-20T23:12:07+00:00,SAT-54773,352.13097516520025,60.57359067650039,962.5684733114534,3.1965202838081983,-111955.6616063573,10.5,10499888044.338394,47.655,-122.3035,60.0,12.116666666666667
2026-01-20T23:12:08+00:00,SAT-54773,352.4059101777304,60.209059296034916,965.7564695411714,3.235756208586151,-113329.86965987846,10.5,10499886670.13034,47.655,-122.3035,60.0,12.133333333333333
2026-01-20T23:12:09+00:00,SAT-54773,352.6724688991223,59.84612695168905,968.9835970665348,3.274597889744268,-114690.26963418411,10.5,10499885309.730366,47.655,-122.3035,60.0,12.15
2026-01-20T23:12:10+00:00,SAT-54773,352.9309898017367,59.484833660531656,972.2494626952397,3.3130458745202542,-116036.88069585348,10.5,10499883963.119305,47.655,-122.3035,60.0,12.166666666666666
2026-01-20T23:12:11+00:00,SAT-54773,353.1817941303997,59.12521671656683,975.5536737807612,3.351100894841929,-117369.72848009491,10.5,10499882630.27152,47.655,-122.3035,60.0,12.183333333333334
2026-01-20T23:12:12+00:00,SAT-54773,353.42518693364104,58.76731082736177,978.8958384065502,3.388763798409702,-118688.84267696243,10.5,10499881311.157324,47.655,-122.3035,60.0,12.2
2026-01-20T23:12:13+00:00,SAT-54773,353.6614580215976,58.41114824899362,982.2755655014976,3.4260355560012137,-119994.25728719548,10.5,10499880005.742712,47.655,-122.3035,60.0,12.216666666666667
2026-01-20T23:12:14+00:00,SAT-54773,353.89088286173666,58.05675891142365,985.6924649626828,3.462917313782783,-121286.01245438676,10.5,10499878713.987545,47.655,-122.3035,60.0,12.233333333333333
2026-01-20T23:12:15+00:00,SAT-54773,354.1137234194169,57.70417053056947,989.1461478302955,3.4994102996973524,-122564.15118629237,10.5,10499877435.848814,47.655,-122.3035,60.0,12.25
2026-01-20T23:12:16+00:00,SAT-54773,354.330228937446,57.35340872274625,992.6362263691937,3.535515895750116,-123828.72188658001,10.5,10499876171.278114,47.655,-122.3035,60.0,12.266666666666667
2026-01-20T23:12:17+00:00,SAT-54773,354.5406366698573,57.004497104820096,996.162314222555,3.5712355667366626,-125079.77585858735,10.5,10499874920.224142,47.655,-122.3035,60.0,12.283333333333333
2026-01-20T23:12:18+00:00,SAT-54773,354.7451725639872,56.65745739518806,999.724026494447,3.6065709168468483,-126317.3692878288,10.5,10499873682.630713,47.655,-122.3035,60.0,12.3
2026-01-20T23:12:19+00:00,SAT-54773,354.9440519022339,56.31230950323613,1003.3209798888489,3.6415236573437895,-127541.5621099774,10.5,10499872458.43789,47.655,-122.3035,60.0,12.316666666666666
2026-01-20T23:12:20+00:00,SAT-54773,355.1374799009708,55.96907161656174,1006.9527928164399,3.6760955711389243,-128752.41677013336,10.5,10499871247.58323,47.655,-122.3035,60.0,12.333333333333334
2026-01-20T23:12:21+00:00,SAT-54773,355.32565226972065,55.62776028636079,1010.6190854660558,3.7102885819884075,-129950.00064637477,10.5,10499870049.999353,47.655,-122.3035,60.0,12.35
2026-01-20T23:12:22+00:00,SAT-54773,355.5087557387683,55.28839050152153,1014.3194799451588,3.744104673624303,-131134.3832173896,10.5,10499868865.616783,47.655,-122.3035,60.0,12.366666666666667
2026-01-20T23:12:23+00:00,SAT-54773,355.6869685496287,54.95097576584857,1018.0536003396536,3.7775459299900813,-132305.63747169334,10.5,10499867694.362528,47.655,-122.3035,60.0,12.383333333333333
2026-01-20T23:12:24+00:00,SAT-54773,355.86046091711995,54.61552816729741,1021.8210728138304,3.810614533879736,-133463.83985996482,10.5,10499866536.16014,47.655,-122.3035,60.0,12.4
2026-01-20T23:12:25+00:00,SAT-54773,356.0293954627939,54.28205844354359,1025.621525708953,3.8433127149770163,-134609.0684751605,10.5,10499865390.931524,47.655,-122.3035,60.0,12.416666666666666
2026-01-20T23:12:26+00:00,SAT-54773,356.1939276194824,53.950576048409445,1029.4545895900235,3.875642815889308,-135741.4053653002,10.5,10499864258.594635,47.655,-122.3035,60.0,12.433333333333334
2026-01-20T23:12:27+00:00,SAT-54773,356.3542060141709,53.62108920907391,1033.3198973584038,3.9076072174840517,-136860.9339184328,10.5,10499863139.066082,47.655,-122.3035,60.0,12.45
2026-01-20T23:12:28+00:00,SAT-54773,356.5103728245329,53.293604986500576,1037.2170842899743,3.9392084066883073,-137967.74123726363,10.5,10499862032.258762,47.655,-122.3035,60.0,12.466666666666667
2026-01-20T23:12:29+00:00,SAT-54773,356.6625641168645,52.9681293270582,1041.1457881409117,3.970448896160177,-139061.91532570796,10.5,10499860938.084675,47.655,-122.3035,60.0,12.483333333333333
2026-01-20T23:12:30+00:00,SAT-54773,356.81091016072384,52.64466711799576,1045.1056491733486,4.001331290585054,-140143.54741086604,10.5,10499859856.452589,47.655,-122.3035,60.0,12.5
2026-01-20T23:12:31+00:00,SAT-54773,356.955535727525,52.32322223470793,1049.096310247159,4.0318582268451975,-141212.72984750863,10.5,10499858787.270153,47.655,-122.3035,60.0,12.516666666666667
2026-01-20T23:12:32+00:00,SAT-54773,357.09656036936025,52.00379759033949,1053.1174168520658,4.062032412347888,-142269.55746049096,10.5,10499857730.44254,47.655,-122.3035,60.0,12.533333333333333
2026-01-20T23:12:33+00:00,SAT-54773,357.23409868300627,51.68639517985959,1057.1686171779807,4.091856582509925,-143314.1260556802,10.5,10499856685.873945,47.655,-122.3035,60.0,12.55
2026-01-20T23:12:34+00:00,SAT-54773,357.3682605571599,51.371016125208264,1061.2495621429373,4.121333554467301,-144346.53430109523,10.5,10499855653.465698,47.655,-122.3035,60.0,12.566666666666666
2026-01-20T23:12:35+00:00,SAT-54773,357.49915140729837,51.05766071411774,1065.3599054745928,4.150466152500946,-145366.881115001,10.5,10499854633.118885,47.655,-122.3035,60.0,12.583333333333334
2026-01-20T23:12:36+00:00,SAT-54773,357.62687239469057,50.746328442626684,1069.4993037173535,4.179257261717438,-146375.26754603378,10.5,10499853624.732454,47.655,-122.3035,60.0,12.6
2026-01-20T23:12:37+00:00,SAT-54773,357.7515206347794,50.43701805151797,1073.6674162930399,4.207709781507377,-147371.79514311685,10.5,10499852628.204857,47.655,-122.3035,60.0,12.616666666666667
2026-01-20T23:12:38+00:00,SAT-54773,357.87318939242687,50.12972756438953,1077.86390551513,4.235826677598152,-148356.5677785683,10.5,10499851643.432222,47.655,-122.3035,60.0,12.633333333333333
2026-01-20T23:12:39+00:00,SAT-54773,357.99196826781974,49.82445432014729,1082.0884366549212,4.26361092386594,-149329.68961011144,10.5,10499850670.31039,47.655,-122.3035,60.0,12.65
2026-01-20T23:12:40+00:00,SAT-54773,358.1079433703792,49.52119500810092,1086.3406779496568,4.291065521608938,-150291.26575590455,10.5,10499849708.734243,47.655,-122.3035,60.0,12.666666666666666
2026-01-20T23:12:41+00:00,SAT-54773,358.2211974837349,49.21994570001132,1090.6203006298747,4.318193489216643,-151241.40193271555,10.5,10499848758.598068,47.655,-122.3035,60.0,12.683333333333334
2026-01-20T23:12:42+00:00,SAT-54773,358.33181022140155,48.92070188133715,1094.9269789364535,4.3449979005091945,-152180.2057987281,10.5,10499847819.7942,47.655,-122.3035,60.0,12.7
2026-01-20T23:12:43+00:00,SAT-54773,358.43985817505194,48.623458478403435,1099.2603901758946,4.371481814962738,-153107.78450973824,10.5,10499846892.21549,47.655,-122.3035,60.0,12.716666666666667
2026-01-20T23:12:44+00:00,SAT-54773,358.54541505300574,48.328209889030234,1103.6202147060174,4.397648308920469,-154024.24581229768,10.5,10499845975.754189,47.655,-122.3035,60.0,12.733333333333333
2026-01-20T23:12:45+00:00,SAT-54773,358.64855181219303,48.03495000961334,1108.0061359527808,4.42350050311261,-154929.69900757945,10.5,10499845070.300993,47.655,-122.3035,60.0,12.75
2026-01-20T23:12:46+00:00,SAT-54773,358.7493367837477,47.74367225916605,1112.4178404545519,4.449041508199896,-155824.25304408057,10.5,10499844175.746956,47.655,-122.3035,60.0,12.766666666666667
2026-01-20T23:12:47+00:00,SAT-54773,358.84783579071853,47.454369605805894,1116.8550178520632,4.474274443994321,-156708.01719081393,10.5,10499843291.98281,47.655,-122.3035,60.0,12.783333333333333
2026-01-20T23:12:48+00:00,SAT-54773,358.94411226012295,47.16703459076584,1121.31736089754,4.49920243115661,-157581.10074651847,10.5,10499842418.899254,47.655,-122.3035,60.0,12.8
2026-01-20T23:12:49+00:00,SAT-54773,359.0382273290179,46.88165935183394,1125.8045654555472,4.523828625594686,-158443.6142444391,10.5,10499841556.385756,47.655,-122.3035,60.0,12.816666666666666
2026-01-20T23:12:50+00:00,SAT-54773,359.13023994584773,46.59823564356628,1130.3163305381402,4.548156169457439,-159295.66773592116,10.5,10499840704.332264,47.655,-122.3035,60.0,12.833333333333334
2026-01-20T23:12:51+00:00,SAT-54773,359.22020696557496,46.31675485965318,1134.8523582911457,4.572188185033798,-160137.37057673038,10.5,10499839862.629423,47.655,-122.3035,60.0,12.85
2026-01-20T23:12:52+00:00,SAT-54773,359.3081832399177,46.03720805458081,1139.4123539743525,4.595927827658414,-160968.8332800332,10.5,10499839031.16672,47.655,-122.3035,60.0,12.866666666666667
2026-01-20T23:12:53+00:00,SAT-54773,359.39422170409256,45.75958596114951,1143.9960259944705,4.6193782420150535,-161790.16598595708,10.5,10499838209.834015,47.655,-122.3035,60.0,12.883333333333333
2026-01-20T23:12:54+00:00,SAT-54773,359.4783734583544,45.483879009803054,1148.6030858945069,4.6425425744972575,-162601.4788945131,10.5,10499837398.521105,47.655,-122.3035,60.0,12.9
2026-01-20T23:12:55+00:00,SAT-54773,359.5606878457335,45.210077346374035,1153.2332483554721,4.665423921145291,-163402.8804421276,10.5,10499836597.119558,47.655,-122.3035,60.0,12.916666666666666
2026-01-20T23:12:56+00:00,SAT-54773,359.6412125250403,44.93817085201328,1157.8862311461612,4.688025444763497,-164194.48140358727,10.5,10499835805.518597,47.655,-122.3035,60.0,12.933333333333334
2026-01-20T23:12:57+00:00,SAT-54773,359.719993542365,44.668149155508424,1162.5617551897387,4.710350255492194,-164976.39070916196,10.5,10499835023.609291,47.655,-122.3035,60.0,12.95
2026-01-20T23:12:58+00:00,SAT-54773,359.7970753969951,44.400001651858275,1167.2595445112163,4.732401458624296,-165748.717119345,10.5,10499834251.28288,47.655,-122.3035,60.0,12.966666666666667
2026-01-20T23:12:59+00:00,SAT-54773,359.8725011050278,44.13371751729605,1171.9793262326175,4.754182139815625,-166511.5687068554,10.5,10499833488.431293,47.655,-122.3035,60.0,12.983333333333333
2026-01-20T23:13:00+00:00,SAT-54773,359.9463122596726,43.86928572444856,1176.7208305533936,4.775695402749311,-167265.05417580507,10.5,10499832734.945824,47.655,-122.3035,60.0,13.0
2026-01-20T23:13:01+00:00,SAT-54773,0.018549089301211817,43.606695054768174,1181.483790768402,4.796944341408859,-168009.28189058386,10.5,10499831990.71811,47.655,-122.3035,60.0,13.016666666666667
2026-01-20T23:13:02+00:00,SAT-54773,0.08925051227825383,43.34593411191269,1186.267943258234,4.817931952927093,-168744.3568234611,10.5,10499831255.643177,47.655,-122.3035,60.0,13.033333333333333
2026-01-20T23:13:03+00:00,SAT-54773,0.15845418797506583,43.08699133916424,1191.07302739262,4.838661331590418,-169470.3873494356,10.5,10499830529.61265,47.655,-122.3035,60.0,13.05
2026-01-20T23:13:04+00:00,SAT-54773,0.22619656825400733,42.82985502578103,1195.8987856273263,4.859135510104249,-170187.47968667917,10.5,10499829812.520313,47.655,-122.3035,60.0,13.066666666666666
2026-01-20T23:13:05+00:00,SAT-54773,0.29251294423153196,42.57451332142563,1200.7449634427367,4.879357469897164,-170895.73825743215,10.5,10499829104.261742,47.655,-122.3035,60.0,13.083333333333334
2026-01-20T23:13:06+00:00,SAT-54773,0.3574374910969468,42.320954249356724,1205.6113092927142,4.899330204013616,-171595.26789077185,10.5,10499828404.73211,47.655,-122.3035,60.0,13.1
2026-01-20T23:13:07+00:00,SAT-54773,0.4210033117613024,42.06916571580171,1210.4975746161838,4.919056712038845,-172286.17364486158,10.5,10499827713.826355,47.655,-122.3035,60.0,13.116666666666667
2026-01-20T23:13:08+00:00,SAT-54773,0.48324247840845885,41.8191355191818,1215.4035138436573,4.938539944922221,-172968.5588744308,10.5,10499827031.441126,47.655,-122.3035,60.0,13.133333333333333
2026-01-20T23:13:09+00:00,SAT-54773,0.5441860714784641,41.57085136168822,1220.3288843487264,4.9577828278044445,-173642.52603028013,10.5,10499826357.47397,47.655,-122.3035,60.0,13.15
2026-01-20T23:13:10+00:00,SAT-54773,0.6038642172006431,41.324300859164985,1225.2734464223233,4.976788253286937,-174308.17642354712,10.5,10499825691.823576,47.655,-122.3035,60.0,13.166666666666666
2026-01-20T23:13:11+00:00,SAT-54773,0.6623061233985632,41.07947155088537,1230.236963240268,4.995559146781535,-174965.61251452868,10.5,10499825034.387486,47.655,-122.3035,60.0,13.183333333333334
2026-01-20T23:13:12+00:00,SAT-54773,0.719540114487413,40.83635090570073,1235.2192008959917,5.01409837384525,-175614.9346671527,10.5,10499824385.065332,47.655,-122.3035,60.0,13.2
2026-01-20T23:13:13+00:00,SAT-54773,0.7755936638146721,40.594926332379345,1240.21992834084,5.032408755127529,-176256.24167249416,10.5,10499823743.758327,47.655,-122.3035,60.0,13.216666666666667
2026-01-20T23:13:14+00:00,SAT-54773,0.8304934248051894,40.35518518871999,1245.238917339287,5.050493140365776,-176889.6333404113,10.5,10499823110.36666,47.655,-122.3035,60.0,13.233333333333333
2026-01-20T23:13:15+00:00,SAT-54773,0.8842652615880395,40.11711478678868,1250.2759424979452,5.068354324306236,-177515.20755473938,10.5,10499822484.792446,47.655,-122.3035,60.0,13.25
2026-01-20T23:13:16+00:00,SAT-54773,0.9369342773515951,39.880702401809124,1255.33078121072,5.085995078617914,-178133.06139105104,10.5,10499821866.938608,47.655,-122.3035,60.0,13.266666666666667
2026-01-20T23:13:17+00:00,SAT-54773,0.9885248418600127,39.64593527917792,1260.4032136357948,5.103418135933956,-178743.29055771822,10.5,10499821256.709442,47.655,-122.3035,60.0,13.283333333333333
2026-01-20T23:13:18+00:00,SAT-54773,1.0390606176250736,39.41280064185135,1265.4930226566996,5.1206262626355965,-179345.99194511346,10.5,10499820654.008055,47.655,-122.3035,60.0,13.3
2026-01-20T23:13:19+00:00,SAT-54773,1.0885645857220398,39.18128569414241,1270.5999939159683,5.137622123477898,-179941.25888423095,10.5,10499820058.741116,47.655,-122.3035,60.0,13.316666666666666
2026-01-20T23:13:20+00:00,SAT-54773,1.1370590691449545,38.95137763133389,1275.7239157137835,5.154408420432096,-180529.18600953266,10.5,10499819470.81399,47.655,-122.3035,60.0,13.333333333333334
2026-01-20T23:13:21+00:00,SAT-54773,1.1845657565887768,38.723063642731184,1280.8645790450946,5.170987771285617,-181109.86500700752,10.5,10499818890.134993,47.655,-122.3035,60.0,13.35
2026-01-20T23:13:22+00:00,SAT-54773,1.231105724048458,38.49633091984661,1286.0217775156568,5.187362830829874,-181683.3888586806,10.5,10499818316.611141,47.655,-122.3035,60.0,13.366666666666667
2026-01-20T23:13:23+00:00,SAT-54773,1.2766994566913996,38.27116665897533,1291.1953073789377,5.203536177873365,-182249.84788533385,10.5,10499817750.152115,47.655,-122.3035,60.0,13.383333333333333
2026-01-20T23:13:24+00:00,SAT-54773,1.3213668687664357,38.0475580684555,1296.3849674603366,5.219510378294202,-182809.33195487232,10.5,10499817190.668045,47.655,-122.3035,60.0,13.4
2026-01-20T23:13:25+00:00,SAT-54773,1.3651273233164583,37.82549237290958,1301.5905591442888,5.235288007790319,-183361.93127913296,10.5,10499816638.068722,47.655,-122.3035,60.0,13.416666666666666
2026-01-20T23:13:26+00:00,SAT-54773,1.4079996512348907,37.60495681633531,1306.8118863840582,5.250871538235182,-183907.73243358047,10.5,10499816092.267567,47.655,-122.3035,60.0,13.433333333333334
2026-01-20T23:13:27+00:00,SAT-54773,1.4500021686379159,37.385938669731516,1312.0487555981917,5.266263500547737,-184446.82406170215,10.5,10499815553.175938,47.655,-122.3035,60.0,13.45
2026-01-20T23:13:28+00:00,SAT-54773,1.491152694871027,37.16842523167197,1317.3009757294044,5.281466321946971,-184979.29117497412,10.5,10499815020.708824,47.655,-122.3035,60.0,13.466666666666667
2026-01-20T23:13:29+00:00,SAT-54773,1.5314685684895313,36.952403835455286,1322.5683581411597,5.296482470509187,-185505.22021586835,10.5,10499814494.779783,47.655,-122.3035,60.0,13.483333333333333
2026-01-20T23:13:30+00:00,SAT-54773,1.5709666637542805,36.73786185007758,1327.850716658414,5.311314323789883,-186024.6944564355,10.5,10499813975.305544,47.655,-122.3035,60.0,13.5
2026-01-20T23:13:31+00:00,SAT-54773,1.6096634054513628,36.52478668637962,1333.1478674773407,5.325964318968394,-186537.7992570051,10.5,10499813462.200743,47.655,-122.3035,60.0,13.516666666666667
