satellites_20260121_005943/SAT-54780.csv

timestamp,satellite,azimuth_deg,elevation_deg,distance_km,relative_velocity_kms,doppler_shift_hz,tx_freq_ghz,rx_freq_hz,ue_lat,ue_lon,ue_alt_m,time_minutes
2026-01-20T23:06:10+00:00,SAT-54780,210.83227567557768,30.07115767662947,1647.4349916361514,-6.060560897811374,212266.47878853386,10.5,10500212266.478788,47.655,-122.3035,60.0,6.166666666666667
2026-01-20T23:06:11+00:00,SAT-54780,210.83351329690012,30.213252490131232,1641.3905922340675,-6.054041162286042,212038.13007198283,10.5,10500212038.130072,47.655,-122.3035,60.0,6.183333333333334
2026-01-20T23:06:12+00:00,SAT-54780,210.83496641754667,30.356202163853993,1635.3526951815477,-6.047442195610618,211807.0063454081,10.5,10500211807.006346,47.655,-122.3035,60.0,6.2
2026-01-20T23:06:13+00:00,SAT-54780,210.83663838315354,30.500015188502932,1629.3213794984586,-6.040762884741371,211573.0686253101,10.5,10500211573.068624,47.655,-122.3035,60.0,6.216666666666667
2026-01-20T23:06:14+00:00,SAT-54780,210.8385326090781,30.644700149276005,1623.296725314743,-6.034002183128268,211336.28025707978,10.5,10500211336.280256,47.655,-122.3035,60.0,6.233333333333333
2026-01-20T23:06:15+00:00,SAT-54780,210.8406525822716,30.790265728786196,1617.2788138041033,-6.027158975483791,211096.6021786305,10.5,10500211096.602179,47.655,-122.3035,60.0,6.25
2026-01-20T23:06:16+00:00,SAT-54780,210.84300186313206,30.93672070679495,1611.267727252554,-6.020232165991588,210853.99600983848,10.5,10500210853.99601,47.655,-122.3035,60.0,6.266666666666667
2026-01-20T23:06:17+00:00,SAT-54780,210.8455840874525,31.084073962051527,1605.263549039005,-6.013220599387574,210608.4212884686,10.5,10500210608.421288,47.655,-122.3035,60.0,6.283333333333333
2026-01-20T23:06:18+00:00,SAT-54780,210.84840296840207,31.232334472236523,1599.2663636945492,-6.006123102829105,210359.83693661034,10.5,10500210359.836937,47.655,-122.3035,60.0,6.3
2026-01-20T23:06:19+00:00,SAT-54780,210.85146229856204,31.3815113149022,1593.2762569199945,-5.998938569319247,210108.2041825485,10.5,10500210108.204182,47.655,-122.3035,60.0,6.316666666666666
2026-01-20T23:06:20+00:00,SAT-54780,210.85476595215803,31.531613670497027,1587.2933155201933,-5.991665758015808,209853.47956674075,10.5,10500209853.479567,47.655,-122.3035,60.0,6.333333333333333
2026-01-20T23:06:21+00:00,SAT-54780,210.8583178871268,31.6826508204686,1581.3176275375322,-5.984303473521092,209595.62122130327,10.5,10500209595.621222,47.655,-122.3035,60.0,6.35
2026-01-20T23:06:22+00:00,SAT-54780,210.8621221474541,31.834632149777555,1575.3492822066073,-5.976850500190946,209334.58656923563,10.5,10500209334.586569,47.655,-122.3035,60.0,6.366666666666666
2026-01-20T23:06:23+00:00,SAT-54780,210.8661828655076,31.987567147815668,1569.3883699744167,-5.969305594326218,209070.3320509327,10.5,10500209070.33205,47.655,-122.3035,60.0,6.383333333333334
2026-01-20T23:06:24+00:00,SAT-54780,210.8705042644574,32.141465409116066,1563.434982528342,-5.96166748065587,208802.81300100833,10.5,10500208802.813002,47.655,-122.3035,60.0,6.4
2026-01-20T23:06:25+00:00,SAT-54780,210.87509066074603,32.29633663397054,1557.4892128276344,-5.9539348663325935,208531.984138481,10.5,10500208531.984138,47.655,-122.3035,60.0,6.416666666666667
2026-01-20T23:06:26+00:00,SAT-54780,210.87994646667977,32.452190629389854,1551.5511551209456,-5.9461064983006535,208257.8015760385,10.5,10500208257.801577,47.655,-122.3035,60.0,6.433333333333334
2026-01-20T23:06:27+00:00,SAT-54780,210.8850761931661,32.609037311585915,1545.6209049066404,-5.938180991869044,207980.2168159446,10.5,10500207980.216816,47.655,-122.3035,60.0,6.45
2026-01-20T23:06:28+00:00,SAT-54780,210.89048445232757,32.76688670396347,1539.698559064083,-5.930157027277678,207699.18363461838,10.5,10500207699.183634,47.655,-122.3035,60.0,6.466666666666667
2026-01-20T23:06:29+00:00,SAT-54780,210.89617596046006,32.92574894024468,1533.784215788878,-5.922033245363173,207414.654428409,10.5,10500207414.654428,47.655,-122.3035,60.0,6.483333333333333
2026-01-20T23:06:30+00:00,SAT-54780,210.90215554095272,33.08563426486901,1527.877974632169,-5.913808258620255,207126.5806010126,10.5,10500207126.5806,47.655,-122.3035,60.0,6.5
2026-01-20T23:06:31+00:00,SAT-54780,210.90842812732615,33.24655303367965,1521.9799365289052,-5.905480648917059,206834.91248345253,10.5,10500206834.912483,47.655,-122.3035,60.0,6.516666666666667
2026-01-20T23:06:32+00:00,SAT-54780,210.91499876636922,33.40851571452189,1516.0902038283853,-5.897048985915545,206539.5999792404,10.5,10500206539.59998,47.655,-122.3035,60.0,6.533333333333333
2026-01-20T23:06:33+00:00,SAT-54780,210.92187262139905,33.57153288833852,1510.2088803064323,-5.888511822850238,206240.59241652937,10.5,10500206240.592417,47.655,-122.3035,60.0,6.55
2026-01-20T23:06:34+00:00,SAT-54780,210.92905497565766,33.735615250147845,1504.3360711817763,-5.879867714864532,205937.83919032943,10.5,10500205937.83919,47.655,-122.3035,60.0,6.566666666666666
2026-01-20T23:06:35+00:00,SAT-54780,210.9365512358299,33.900773610540455,1498.4718831141515,-5.871115088737455,205631.28519978738,10.5,10500205631.2852,47.655,-122.3035,60.0,6.583333333333333
2026-01-20T23:06:36+00:00,SAT-54780,210.94436693547348,34.067018893503835,1492.6164243323171,-5.862252483840817,205320.87928752557,10.5,10500205320.879288,47.655,-122.3035,60.0,6.6
2026-01-20T23:06:37+00:00,SAT-54780,210.95250773899522,34.23436214097589,1486.7698045217664,-5.85327835611936,205006.56737419753,10.5,10500205006.567373,47.655,-122.3035,60.0,6.616666666666666
2026-01-20T23:06:38+00:00,SAT-54780,210.96097944541737,34.402814511925115,1480.93213490793,-5.8441911166636205,204688.2938094727,10.5,10500204688.29381,47.655,-122.3035,60.0,6.633333333333334
2026-01-20T23:06:39+00:00,SAT-54780,210.96978799234094,34.5723872824551,1475.103528300911,-5.834989163185499,204366.0024744443,10.5,10500204366.002474,47.655,-122.3035,60.0,6.65
2026-01-20T23:06:40+00:00,SAT-54780,210.97893946011857,34.74309184678192,1469.2840991088274,-5.825670903750102,204039.63761281836,10.5,10500204039.637613,47.655,-122.3035,60.0,6.666666666666667
2026-01-20T23:06:41+00:00,SAT-54780,210.9884400762178,34.91493971891058,1463.4739633274871,-5.816234695953769,203709.1417006714,10.5,10500203709.1417,47.655,-122.3035,60.0,6.683333333333334
2026-01-20T23:06:42+00:00,SAT-54780,210.99829621964616,35.087942532531216,1457.6732385907226,-5.806678843039748,203374.45531040465,10.5,10500203374.45531,47.655,-122.3035,60.0,6.7
2026-01-20T23:06:43+00:00,SAT-54780,211.00851442547804,35.2621120407372,1451.8820442245978,-5.797001682129477,203035.5202009769,10.5,10500203035.5202,47.655,-122.3035,60.0,6.716666666666667
2026-01-20T23:06:44+00:00,SAT-54780,211.01910138980247,35.43746011835028,1446.1005012136206,-5.787201488903925,202692.2759794418,10.5,10500202692.27598,47.655,-122.3035,60.0,6.733333333333333
2026-01-20T23:06:45+00:00,SAT-54780,211.0300639745901,35.61399876139751,1440.3287322620204,-5.7772765091277005,202344.6612050556,10.5,10500202344.661205,47.655,-122.3035,60.0,6.75
2026-01-20T23:06:46+00:00,SAT-54780,211.04140921284736,35.79174008747367,1434.5668618235836,-5.767224980166831,201992.6141429206,10.5,10500201992.614143,47.655,-122.3035,60.0,6.766666666666667
2026-01-20T23:06:47+00:00,SAT-54780,211.05314431399603,35.97069633674243,1428.8150161100307,-5.757045079159999,201636.07094872274,10.5,10500201636.07095,47.655,-122.3035,60.0,6.783333333333333
2026-01-20T23:06:48+00:00,SAT-54780,211.06527666933044,36.1508798713003,1423.0733231510817,-5.746735029412819,201274.96939510934,10.5,10500201274.969395,47.655,-122.3035,60.0,6.8
2026-01-20T23:06:49+00:00,SAT-54780,211.0778138579712,36.33230317782254,1417.3419127484142,-5.736292927566789,200909.24281841435,10.5,10500200909.242819,47.655,-122.3035,60.0,6.816666666666666
2026-01-20T23:06:50+00:00,SAT-54780,211.0907636525741,36.514978864774534,1411.6209166019876,-5.7257169114538575,200538.82599763566,10.5,10500200538.825998,47.655,-122.3035,60.0,6.833333333333333
2026-01-20T23:06:51+00:00,SAT-54780,211.10413402570578,36.69891966482152,1405.9104682689642,-5.7150050859347035,200163.6525569779,10.5,10500200163.652557,47.655,-122.3035,60.0,6.85
2026-01-20T23:06:52+00:00,SAT-54780,211.1179331562975,36.88413843490013,1400.210703196592,-5.704155482098606,199783.65353685903,10.5,10500199783.653538,47.655,-122.3035,60.0,6.866666666666666
2026-01-20T23:06:53+00:00,SAT-54780,211.1321694361803,37.07064815490192,1394.521758795779,-5.69316615652918,199398.76087061668,10.5,10500199398.76087,47.655,-122.3035,60.0,6.883333333333334
2026-01-20T23:06:54+00:00,SAT-54780,211.146851477221,37.25846192950764,1388.8437744156672,-5.682035087132792,199008.9037359783,10.5,10500199008.903736,47.655,-122.3035,60.0,6.9
2026-01-20T23:06:55+00:00,SAT-54780,211.16198811837924,37.447592986589775,1383.1768914221002,-5.670760271108085,198614.01198636854,10.5,10500198614.011986,47.655,-122.3035,60.0,6.916666666666667
2026-01-20T23:06:56+00:00,SAT-54780,211.1775884333843,37.63805467876621,1377.5212531783816,-5.659339650606131,198214.0135472133,10.5,10500198214.013548,47.655,-122.3035,60.0,6.933333333333334
2026-01-20T23:06:57+00:00,SAT-54780,211.1936617384659,37.82986048246076,1371.877005100177,-5.647771113384512,197808.8344388483,10.5,10500197808.834438,47.655,-122.3035,60.0,6.95
2026-01-20T23:06:58+00:00,SAT-54780,211.21021760039744,38.02302399687032,1366.2442947097616,-5.636052564682809,197398.40129390277,10.5,10500197398.401295,47.655,-122.3035,60.0,6.966666666666667
2026-01-20T23:06:59+00:00,SAT-54780,211.2272658451023,38.21755894531099,1360.6232716185846,-5.624181830147285,196982.63795731144,10.5,10500196982.637957,47.655,-122.3035,60.0,6.983333333333333
2026-01-20T23:07:00+00:00,SAT-54780,211.24481656629396,38.413479173187305,1355.014087606651,-5.6121567528985805,196561.46888603547,10.5,10500196561.468885,47.655,-122.3035,60.0,7.0
2026-01-20T23:07:01+00:00,SAT-54780,211.26288013478904,38.61079864921488,1349.4168966050936,-5.599975123875362,196134.8167094027,10.5,10500196134.81671,47.655,-122.3035,60.0,7.016666666666667
2026-01-20T23:07:02+00:00,SAT-54780,211.28146720799023,38.80953146418078,1343.8318547482152,-5.587634649254641,195702.60108802913,10.5,10500195702.601088,47.655,-122.3035,60.0,7.033333333333333
2026-01-20T23:07:03+00:00,SAT-54780,211.300588739577,39.00969182840043,1338.2591204580253,-5.575133123250304,195264.7447659547,10.5,10500195264.744766,47.655,-122.3035,60.0,7.05
2026-01-20T23:07:04+00:00,SAT-54780,211.3202559903496,39.211294075249604,1332.698854356437,-5.56246816295835,194821.16428380157,10.5,10500194821.164284,47.655,-122.3035,60.0,7.066666666666666
2026-01-20T23:07:05+00:00,SAT-54780,211.34048053840104,39.41435265513079,1327.151219441913,-5.549637482030684,194371.77956398818,10.5,10500194371.779564,47.655,-122.3035,60.0,7.083333333333333
2026-01-20T23:07:06+00:00,SAT-54780,211.36127429088708,39.61888213915983,1321.616380993168,-5.536638664884775,193916.5060025964,10.5,10500193916.506002,47.655,-122.3035,60.0,7.1
2026-01-20T23:07:07+00:00,SAT-54780,211.38264949533894,39.82489721458534,1316.0945066980562,-5.523469319677536,193455.2598271639,10.5,10500193455.259827,47.655,-122.3035,60.0,7.116666666666666
2026-01-20T23:07:08+00:00,SAT-54780,211.40461875210406,40.03241268565657,1310.5857666298978,-5.510127001500377,192987.95540664988,10.5,10500192987.955406,47.655,-122.3035,60.0,7.133333333333334
2026-01-20T23:07:09+00:00,SAT-54780,211.42719502701982,40.24144347156984,1305.0903333004012,-5.496609212009967,192514.5052385029,10.5,10500192514.505238,47.655,-122.3035,60.0,7.15
2026-01-20T23:07:10+00:00,SAT-54780,211.4503916645967,40.45200460423319,1299.6083817129565,-5.482913475863734,192034.82262575533,10.5,10500192034.822626,47.655,-122.3035,60.0,7.166666666666667
2026-01-20T23:07:11+00:00,SAT-54780,211.47422240217838,40.66411122881846,1294.1400893396951,-5.469037187611793,191548.81631453126,10.5,10500191548.816315,47.655,-122.3035,60.0,7.183333333333334
2026-01-20T23:07:12+00:00,SAT-54780,211.49870138395,40.8777785983015,1288.6856362512506,-5.4549778303541885,191056.39815234774,10.5,10500191056.398151,47.655,-122.3035,60.0,7.2
2026-01-20T23:07:13+00:00,SAT-54780,211.52384317669978,41.093022076291135,1283.245205028444,-5.440732743382557,190557.47494994302,10.5,10500190557.47495,47.655,-122.3035,60.0,7.216666666666667
2026-01-20T23:07:14+00:00,SAT-54780,211.5496627850554,41.30985713069553,1277.8189809057103,-5.426299263060169,190051.9534154918,10.5,10500190051.953415,47.655,-122.3035,60.0,7.233333333333333
2026-01-20T23:07:15+00:00,SAT-54780,211.57617566817768,41.52829933265945,1272.4071517740183,-5.411674737883794,189539.74068213496,10.5,10500189539.740683,47.655,-122.3035,60.0,7.25
2026-01-20T23:07:16+00:00,SAT-54780,211.60339775727766,41.748364356019266,1267.009908168769,-5.396856428750895,189020.74081491536,10.5,10500189020.740814,47.655,-122.3035,60.0,7.266666666666667
2026-01-20T23:07:17+00:00,SAT-54780,211.6313454734141,41.97006797257925,1261.6274433571612,-5.381841555787009,188494.85645087043,10.5,10500188494.856451,47.655,-122.3035,60.0,7.283333333333333
2026-01-20T23:07:18+00:00,SAT-54780,211.6600357463231,42.1934260490188,1256.2599533788564,-5.3666273363211925,187961.99012909297,10.5,10500187961.99013,47.655,-122.3035,60.0,7.3
2026-01-20T23:07:19+00:00,SAT-54780,211.68948603440086,42.418454545184794,1250.9076370487653,-5.351210941683018,187422.04277757945,10.5,10500187422.042778,47.655,-122.3035,60.0,7.316666666666666
2026-01-20T23:07:20+00:00,SAT-54780,211.71971434532793,42.64516951041791,1245.570696002927,-5.335589502863647,186874.91391150438,10.5,10500186874.913912,47.655,-122.3035,60.0,7.333333333333333
2026-01-20T23:07:21+00:00,SAT-54780,211.75073925772253,42.87358707987447,1240.2493347387374,-5.319760099743587,186320.5012559311,10.5,10500186320.501255,47.655,-122.3035,60.0,7.35
2026-01-20T23:07:22+00:00,SAT-54780,211.78257994373354,43.10372347013812,1234.9437606659267,-5.303719800446959,185758.70212416438,10.5,10500185758.702124,47.655,-122.3035,60.0,7.366666666666666
2026-01-20T23:07:23+00:00,SAT-54780,211.8152561929913,43.33559497627089,1229.654184118281,-5.2874656440803065,185189.41281319098,10.5,10500185189.412813,47.655,-122.3035,60.0,7.383333333333334
2026-01-20T23:07:24+00:00,SAT-54780,211.84878843758733,43.569217967912245,1224.3808183825847,-5.27099457567997,184612.526325261,10.5,10500184612.526325,47.655,-122.3035,60.0,7.4
2026-01-20T23:07:25+00:00,SAT-54780,211.88319777782675,43.804608882205855,1219.12387979244,-5.254303584499443,184027.93721129617,10.5,10500184027.937212,47.655,-122.3035,60.0,7.416666666666667
2026-01-20T23:07:26+00:00,SAT-54780,211.91850601020687,44.041784222557034,1213.8835876841656,-5.237389543262249,183435.53594084614,10.5,10500183435.53594,47.655,-122.3035,60.0,7.433333333333334
2026-01-20T23:07:27+00:00,SAT-54780,211.9547356556282,44.28076054994955,1208.660164513019,-5.220249373099849,182835.214678911,10.5,10500182835.21468,47.655,-122.3035,60.0,7.45
2026-01-20T23:07:28+00:00,SAT-54780,211.991909990233,44.521554481365406,1203.453835804914,-5.202879883707878,182226.86168753688,10.5,10500182226.861687,47.655,-122.3035,60.0,7.466666666666667
2026-01-20T23:07:29+00:00,SAT-54780,212.03005307656375,44.7641826806387,1198.2648302675627,-5.185277879257878,181610.36503529293,10.5,10500181610.365036,47.655,-122.3035,60.0,7.483333333333333
2026-01-20T23:07:30+00:00,SAT-54780,212.06918979712174,45.00866185375604,1193.0933797959826,-5.167440160680473,180985.61267723743,10.5,10500180985.612677,47.655,-122.3035,60.0,7.5
2026-01-20T23:07:31+00:00,SAT-54780,212.1093458896896,45.25500874400558,1187.9397194757307,-5.149363421004622,180352.4887892561,10.5,10500180352.488789,47.655,-122.3035,60.0,7.516666666666667
2026-01-20T23:07:32+00:00,SAT-54780,212.15054798354427,45.50324012177614,1182.8040876905154,-5.131044386267396,179710.87870331833,10.5,10500179710.878704,47.655,-122.3035,60.0,7.533333333333333
2026-01-20T23:07:33+00:00,SAT-54780,212.1928236388039,45.753372780642394,1177.6867260892782,-5.112479688666644,179060.66446474704,10.5,10500179060.664465,47.655,-122.3035,60.0,7.55
2026-01-20T23:07:34+00:00,SAT-54780,212.23620138665677,46.00542352696612,1172.5878796797813,-5.093666019774006,178401.73019838636,10.5,10500178401.730198,47.655,-122.3035,60.0,7.566666666666666
2026-01-20T23:07:35+00:00,SAT-54780,212.28071077318228,46.25940917655936,1167.5077967693933,-5.0745999000262465,177733.95403521322,10.5,10500177733.954035,47.655,-122.3035,60.0,7.583333333333333
2026-01-20T23:07:36+00:00,SAT-54780,212.3263824032495,46.5153465395127,1162.446729135767,-5.055277939590903,177057.21724895586,10.5,10500177057.217249,47.655,-122.3035,60.0,7.6
2026-01-20T23:07:37+00:00,SAT-54780,212.37324798933852,46.77325241747441,1157.4049319373485,-5.035696658588373,176371.39795951077,10.5,10500176371.397959,47.655,-122.3035,60.0,7.616666666666666
2026-01-20T23:07:38+00:00,SAT-54780,212.4213404012043,47.033143591521366,1152.382663803183,-5.01585254531484,175676.37317215576,10.5,10500175676.373173,47.655,-122.3035,60.0,7.633333333333334
2026-01-20T23:07:39+00:00,SAT-54780,212.47069371883117,47.295036812375656,1147.3801868646558,-4.99574207258891,174972.01935007836,10.5,10500174972.01935,47.655,-122.3035,60.0,7.65
2026-01-20T23:07:40+00:00,SAT-54780,212.52134328847225,47.55894879094078,1142.397766770927,-4.975361653053042,174258.21084884313,10.5,10500174258.21085,47.655,-122.3035,60.0,7.666666666666667
2026-01-20T23:07:41+00:00,SAT-54780,212.5733257813078,47.824896185930214,1137.435672748949,-4.954707728255082,173534.82303640328,10.5,10500173534.823036,47.655,-122.3035,60.0,7.683333333333334
2026-01-20T23:07:42+00:00,SAT-54780,212.6266792563789,48.09289559563342,1132.4941775746356,-4.93377664693546,172801.7280302039,10.5,10500172801.72803,47.655,-122.3035,60.0,7.7
2026-01-20T23:07:43+00:00,SAT-54780,212.68144322570316,48.36296354258497,1127.5735576654254,-4.912564745260999,172058.79750730918,10.5,10500172058.797508,47.655,-122.3035,60.0,7.716666666666667
2026-01-20T23:07:44+00:00,SAT-54780,212.73765872396808,48.63511646179891,1122.6740930928186,-4.891068371172321,171305.90355715144,10.5,10500171305.903557,47.655,-122.3035,60.0,7.733333333333333
2026-01-20T23:07:45+00:00,SAT-54780,212.79536838261106,48.909370689764444,1117.796067570636,-4.869283781628164,170542.91508259266,10.5,10500170542.915083,47.655,-122.3035,60.0,7.75
2026-01-20T23:07:46+00:00,SAT-54780,212.85461650684218,49.1857424469997,1112.9397685457589,-4.847207280230533,169769.7026201393,10.5,10500169769.70262,47.655,-122.3035,60.0,7.766666666666667
2026-01-20T23:07:47+00:00,SAT-54780,212.9154491589837,49.46424782755981,1108.1054871516087,-4.8248350574632735,168986.13274442137,10.5,10500168986.132744,47.655,-122.3035,60.0,7.783333333333333
2026-01-20T23:07:48+00:00,SAT-54780,212.97791424456992,49.744902778690204,1103.2935183209656,-4.802163386641669,168192.0749311763,10.5,10500168192.074932,47.655,-122.3035,60.0,7.8
2026-01-20T23:07:49+00:00,SAT-54780,213.0420616063017,50.02772309090397,1098.504160703355,-4.7791884383772825,167387.39505902267,10.5,10500167387.39506,47.655,-122.3035,60.0,7.816666666666666
2026-01-20T23:07:50+00:00,SAT-54780,213.10794312101086,50.31272437650098,1093.73771676748,-4.755906365056918,166571.95836827107,10.5,10500166571.958368,47.655,-122.3035,60.0,7.833333333333333
2026-01-20T23:07:51+00:00,SAT-54780,213.17561280372112,50.599922051959446,1088.9944928193966,-4.732313377384455,165745.63214174245,10.5,10500165745.632141,47.655,-122.3035,60.0,7.85
2026-01-20T23:07:52+00:00,SAT-54780,213.24512691926148,50.88933132409549,1084.2747989443517,-4.708405566845449,164908.27948672816,10.5,10500164908.279488,47.655,-122.3035,60.0,7.866666666666666
2026-01-20T23:07:53+00:00,SAT-54780,213.31654409805182,51.18096716449351,1079.5789491256846,-4.684179095133605,164059.76596950565,10.5,10500164059.76597,47.655,-122.3035,60.0,7.883333333333334
2026-01-20T23:07:54+00:00,SAT-54780,213.38992546210122,51.47484429437969,1074.9072611748047,-4.659630049788663,163199.95455916694,10.5,10500163199.95456,47.655,-122.3035,60.0,7.9
2026-01-20T23:07:55+00:00,SAT-54780,213.46533475663676,51.77097715955155,1070.2600568051487,-4.634754530807084,162328.70866109108,10.5,10500162328.708662,47.655,-122.3035,60.0,7.916666666666667
2026-01-20T23:07:56+00:00,SAT-54780,213.54283849152065,52.06937990946943,1065.6376616197572,-4.609548648876872,161445.8920551202,10.5,10500161445.892056,47.655,-122.3035,60.0,7.933333333333334
2026-01-20T23:07:57+00:00,SAT-54780,213.62250609181902,52.37006637512227,1061.0404051006105,-4.584008471063373,160551.36699324643,10.5,10500160551.366993,47.655,-122.3035,60.0,7.95
2026-01-20T23:07:58+00:00,SAT-54780,213.70441005713784,52.673050042094374,1056.468620652137,-4.558130079197492,159644.99624461425,10.5,10500159644.996244,47.655,-122.3035,60.0,7.966666666666667
2026-01-20T23:07:59+00:00,SAT-54780,213.78862613251835,52.97834402602847,1051.922645586484,-4.531909552330684,158726.64248101995,10.5,10500158726.64248,47.655,-122.3035,60.0,7.983333333333333
2026-01-20T23:08:00+00:00,SAT-54780,213.87523349033304,53.28596104556481,1047.4028211262928,-4.505342953784108,157796.16782331842,10.5,10500157796.167824,47.655,-122.3035,60.0,8.0
2026-01-20T23:08:01+00:00,SAT-54780,213.9643149241403,53.595913392873015,1042.9094924203853,-4.478426376063449,156853.43541453005,10.5,10500156853.435415,47.655,-122.3035,60.0,8.016666666666667
2026-01-20T23:08:02+00:00,SAT-54780,214.05595705657268,53.90821290566872,1038.443008514658,-4.451155882140847,155898.30736328557,10.5,10500155898.307364,47.655,-122.3035,60.0,8.033333333333333
2026-01-20T23:08:03+00:00,SAT-54780,214.15025056024095,54.22287093351191,1034.0037223815364,-4.42352758930138,154930.64768048466,10.5,10500154930.64768,47.655,-122.3035,60.0,8.05
2026-01-20T23:08:04+00:00,SAT-54780,214.24729039576786,54.53989830819877,1029.5919908658063,-4.3955375753455215,153950.31899410885,10.5,10500153950.318995,47.655,-122.3035,60.0,8.066666666666666
2026-01-20T23:08:05+00:00,SAT-54780,214.34717606433944,54.85930530566118,1025.208174723995,-4.367181959000678,152957.1853655742,10.5,10500152957.185366,47.655,-122.3035,60.0,8.083333333333334
2026-01-20T23:08:06+00:00,SAT-54780,214.4500118799751,55.181101611561026,1020.8526385835518,-4.338456884526202,151951.11175053348,10.5,10500151951.11175,47.655,-122.3035,60.0,8.1
2026-01-20T23:08:07+00:00,SAT-54780,214.5559072609687,55.505296283777696,1016.5257509173842,-4.30935848946113,150931.96286926558,10.5,10500150931.96287,47.655,-122.3035,60.0,8.116666666666667
2026-01-20T23:08:08+00:00,SAT-54780,214.66497704150765,55.83189771023276,1012.2278840505617,-4.279882966262723,149899.60536551787,10.5,10500149899.605366,47.655,-122.3035,60.0,8.133333333333333
2026-01-20T23:08:09+00:00,SAT-54780,214.77734180775198,56.16091356895314,1007.9594141055424,-4.250026501533683,148853.9056779863,10.5,10500148853.905678,47.655,-122.3035,60.0,8.15
2026-01-20T23:08:10+00:00,SAT-54780,214.89312825704505,56.49235078101117,1003.7207210080128,-4.219785354766222,147794.73279826582,10.5,10500147794.732798,47.655,-122.3035,60.0,8.166666666666666
2026-01-20T23:08:11+00:00,SAT-54780,215.0124695862767,56.826215466839585,999.5121884141926,-4.189155783280803,146721.95564188753,10.5,10500146721.955643,47.655,-122.3035,60.0,8.183333333333334
2026-01-20T23:08:12+00:00,SAT-54780,215.13550590736511,57.162512893850824,995.3342037130005,-4.158134111032237,145635.44545819925,10.5,10500145635.445457,47.655,-122.3035,60.0,8.2
2026-01-20T23:08:13+00:00,SAT-54780,215.2623846966627,57.50124742640046,991.1871579595977,-4.126716676141066,144535.07399269263,10.5,10500144535.073992,47.655,-122.3035,60.0,8.216666666666667
2026-01-20T23:08:14+00:00,SAT-54780,215.39326127741657,57.8424224682478,987.0714458612596,-4.094899898704577,143420.71586203168,10.5,10500143420.715862,47.655,-122.3035,60.0,8.233333333333333
2026-01-20T23:08:15+00:00,SAT-54780,215.52829934229126,58.18604040704385,982.9874656956183,-4.0626802222682965,142292.2465041369,10.5,10500142292.246504,47.655,-122.3035,60.0,8.25
2026-01-20T23:08:16+00:00,SAT-54780,215.66767151527253,58.53210255022341,978.935619287276,-4.030054198384742,141149.54513979063,10.5,10500141149.54514,47.655,-122.3035,60.0,8.266666666666667
2026-01-20T23:08:17+00:00,SAT-54780,215.81155996171697,58.88060906402289,974.916311900087,-3.997018359875359,139992.49033373373,10.5,10500139992.490334,47.655,-122.3035,60.0,8.283333333333333
2026-01-20T23:08:18+00:00,SAT-54780,215.96015704311245,59.23155889723457,970.929952255838,-3.9635693812105752,138820.96561185352,10.5,10500138820.965612,47.655,-122.3035,60.0,8.3
2026-01-20T23:08:19+00:00,SAT-54780,216.1136660317799,59.58494971406365,966.9769523929773,-3.929703977847849,137634.85593557666,10.5,10500137634.855936,47.655,-122.3035,60.0,8.316666666666666
2026-01-20T23:08:20+00:00,SAT-54780,216.2723018810659,59.94077781325299,963.057727625737,-3.895418943576427,136434.0490098403,10.5,10500136434.04901,47.655,-122.3035,60.0,8.333333333333334
2026-01-20T23:08:21+00:00,SAT-54780,216.43629206184963,60.2990380448881,959.1726964660102,-3.8607111493735937,135218.43524303313,10.5,10500135218.435244,47.655,-122.3035,60.0,8.35
2026-01-20T23:08:22+00:00,SAT-54780,216.60587747021117,60.65972372109908,955.3222805463682,-3.8255775791420468,133987.90899866965,10.5,10500133987.908998,47.655,-122.3035,60.0,8.366666666666667
2026-01-20T23:08:23+00:00,SAT-54780,216.78131341509243,61.022826523614896,951.5069045074373,-3.7900153103208125,132742.36791630206,10.5,10500132742.367916,47.655,-122.3035,60.0,8.383333333333333
2026-01-20T23:08:24+00:00,SAT-54780,216.96287069137315,61.38833640252544,947.7269959046106,-3.75402146983643,131481.7113687447,10.5,10500131481.711369,47.655,-122.3035,60.0,8.4
2026-01-20T23:08:25+00:00,SAT-54780,217.15083674551718,61.75624146292889,943.9829851586937,-3.7175933660260148,130205.84508257761,10.5,10500130205.845083,47.655,-122.3035,60.0,8.416666666666666
2026-01-20T23:08:26+00:00,SAT-54780,217.3455169523915,62.1265278559023,940.275305374977,-3.6807283652911695,128914.67681804484,10.5,10500128914.676819,47.655,-122.3035,60.0,8.433333333333334
2026-01-20T23:08:27+00:00,SAT-54780,217.54723600145073,62.49917964826581,936.6043922853268,-3.643423984832975,127608.11961702596,10.5,10500127608.119617,47.655,-122.3035,60.0,8.45
2026-01-20T23:08:28+00:00,SAT-54780,217.75633941522275,62.8741786912615,932.9706840977867,-3.605677848992225,126286.09027388661,10.5,10500126286.090275,47.655,-122.3035,60.0,8.466666666666667
2026-01-20T23:08:29+00:00,SAT-54780,217.97319520662984,63.25150447371068,929.374621389725,-3.5674877079059266,124948.50998890781,10.5,10500124948.509989,47.655,-122.3035,60.0,8.483333333333333
2026-01-20T23:08:30+00:00,SAT-54780,218.19819569334268,63.631133964594746,925.8166469823735,-3.528851490387304,123595.30622036761,10.5,10500123595.306221,47.655,-122.3035,60.0,8.5
2026-01-20T23:08:31+00:00,SAT-54780,218.43175948885835,64.01304144769277,922.2972057626273,-3.4897672242784945,122226.40989495537,10.5,10500122226.409895,47.655,-122.3035,60.0,8.516666666666667
2026-01-20T23:08:32+00:00,SAT-54780,218.67433368051886,64.39719833261287,918.8167445842802,-3.4502330999575563,120841.75763205605,10.5,10500120841.757631,47.655,-122.3035,60.0,8.533333333333333
2026-01-20T23:08:33+00:00,SAT-54780,218.92639622488073,64.78357295571413,915.3757121059225,-3.410247507234975,119441.29303602171,10.5,10500119441.293036,47.655,-122.3035,60.0,8.55
2026-01-20T23:08:34+00:00,SAT-54780,219.18845858342232,65.1721303666728,911.9745585920402,-3.3698089289499706,118024.96296946435,10.5,10500118024.962969,47.655,-122.3035,60.0,8.566666666666666
2026-01-20T23:08:35+00:00,SAT-54780,219.46106861421435,65.56283208220313,908.6137358202341,-3.3289160965613562,116592.72300270556,10.5,10500116592.723003,47.655,-122.3035,60.0,8.583333333333334
2026-01-20T23:08:36+00:00,SAT-54780,219.74481376989797,65.95563583420557,905.2936968332635,-3.287567857983323,115144.53278482708,10.5,10500115144.532785,47.655,-122.3035,60.0,8.6
2026-01-20T23:08:37+00:00,SAT-54780,220.0403246132542,66.35049527670395,902.0148958229015,-3.245763305146959,113680.36051141442,10.5,10500113680.360512,47.655,-122.3035,60.0,8.616666666666667
2026-01-20T23:08:38+00:00,SAT-54780,220.34827870996347,66.74735967855453,898.7777878865683,-3.203501678865696,112200.17959254267,10.5,10500112200.179592,47.655,-122.3035,60.0,8.633333333333333
2026-01-20T23:08:39+00:00,SAT-54780,220.66940492231276,67.1461735720381,895.5828288788463,-3.1607824327875282,110703.9708926535,10.5,10500110703.970892,47.655,-122.3035,60.0,8.65
2026-01-20T23:08:40+00:00,SAT-54780,221.00448816612575,67.54687637205707,892.4304751992128,-3.1176052508773906,109191.72334286208,10.5,10500109191.723343,47.655,-122.3035,60.0,8.666666666666666
2026-01-20T23:08:41+00:00,SAT-54780,221.3543746822565,67.94940195602548,889.3211835623378,-3.0739700046082827,107663.4324416092,10.5,10500107663.432442,47.655,-122.3035,60.0,8.683333333333334
2026-01-20T23:08:42+00:00,SAT-54780,221.71997787688528,68.353678191104,886.255410811075,-3.0298768050906397,106119.10208045231,10.5,10500106119.102081,47.655,-122.3035,60.0,8.7
2026-01-20T23:08:43+00:00,SAT-54780,222.1022848101395,68.75962641464668,883.2336136774646,-2.9853259788151325,104558.74369447578,10.5,10500104558.743694,47.655,-122.3035,60.0,8.716666666666667
2026-01-20T23:08:44+00:00,SAT-54780,222.5023634018293,69.16716085073824,880.2562485679264,-2.9403181023332037,102982.37747694986,10.5,10500102982.377478,47.655,-122.3035,60.0,8.733333333333333
2026-01-20T23:08:45+00:00,SAT-54780,222.92137044888545,69.57618796234469,877.323771313866,-2.894853997066487,101390.03219753485,10.5,10500101390.032198,47.655,-122.3035,60.0,8.75
2026-01-20T23:08:46+00:00,SAT-54780,223.36056054716622,69.98660572416202,874.4366369274585,-2.848934712182983,99781.74460253208,10.5,10500099781.744602,47.655,-122.3035,60.0,8.766666666666667
2026-01-20T23:08:47+00:00,SAT-54780,223.8212960242046,70.39830280310116,871.5952993745079,-2.8025615779850366,98157.56128475681,10.5,10500098157.561285,47.655,-122.3035,60.0,8.783333333333333
2026-01-20T23:08:48+00:00,SAT-54780,224.30505801527582,70.81115764358995,868.8002112940642,-2.7557361778176124,96517.5376996473,10.5,10500096517.537699,47.655,-122.3035,60.0,8.8
2026-01-20T23:08:49+00:00,SAT-54780,224.81345880534852,71.22503743129643,866.0518237460541,-2.708460359112425,94861.7385520768,10.5,10500094861.738552,47.655,-122.3035,60.0,8.816666666666666
2026-01-20T23:08:50+00:00,SAT-54780,225.34825559045956,71.63979692333486,863.3505859478993,-2.660736247467145,93190.23828946699,10.5,10500093190.238289,47.655,-122.3035,60.0,8.833333333333334
2026-01-20T23:08:51+00:00,SAT-54780,225.91136582169514,72.05527712555612,860.696944997092,-2.6125662626844375,91503.12166354296,10.5,10500091503.121664,47.655,-122.3035,60.0,8.85
2026-01-20T23:08:52+00:00,SAT-54780,226.50488430782045,72.47130379412465,858.0913455777747,-2.563953090731062,89800.48274822226,10.5,10500089800.482748,47.655,-122.3035,60.0,8.866666666666667
2026-01-20T23:08:53+00:00,SAT-54780,227.13110225262753,72.88768572745782,855.5342296952857,-2.514899722857962,88082.42630976594,10.5,10500088082.42631,47.655,-122.3035,60.0,8.883333333333333
2026-01-20T23:08:54+00:00,SAT-54780,227.7925284349329,73.30421282794308,853.0260363716887,-2.4654094368672865,86349.06715067031,10.5,10500086349.06715,47.655,-122.3035,60.0,8.9
2026-01-20T23:08:55+00:00,SAT-54780,228.49191271316658,73.72065388832034,850.5672013599864,-2.4154858245887794,84600.53107200643,10.5,10500084600.531073,47.655,-122.3035,60.0,8.916666666666666
2026-01-20T23:08:56+00:00,SAT-54780,229.23227205208858,74.13675406879807,848.1581568309298,-2.3651327737256658,82836.95423758622,10.5,10500082836.954237,47.655,-122.3035,60.0,8.933333333333334
2026-01-20T23:08:57+00:00,SAT-54780,230.0169192223398,74.55223200981602,845.7993310779341,-2.3143544979345236,81058.4842274868,10.5,10500081058.484228,47.655,-122.3035,60.0,8.95
2026-01-20T23:08:58+00:00,SAT-54780,230.84949430361706,74.96677653443281,843.4911481919941,-2.263155487332052,79265.27830458812,10.5,10500079265.278305,47.655,-122.3035,60.0,8.966666666666667
2026-01-20T23:08:59+00:00,SAT-54780,231.7339990015682,75.38004286473785,841.2340277859615,-2.2115406002322935,77457.50662759862,10.5,10500077457.506628,47.655,-122.3035,60.0,8.983333333333333
2026-01-20T23:09:00+00:00,SAT-54780,232.67483374136916,75.79164830892387,839.0283846273298,-2.159514979611061,75635.34932528604,10.5,10500075635.349325,47.655,-122.3035,60.0,9.0
2026-01-20T23:09:01+00:00,SAT-54780,233.67683719197697,76.20116731131931,836.8746283543311,-2.107084096806103,73798.99802704203,10.5,10500073798.998028,47.655,-122.3035,60.0,9.016666666666667
2026-01-20T23:09:02+00:00,SAT-54780,234.7453276976977,76.60812580594933,834.7731631484498,-2.054253758600417,71948.65611096987,10.5,10500071948.65611,47.655,-122.3035,60.0,9.033333333333333
2026-01-20T23:09:03+00:00,SAT-54780,235.88614562219723,77.01199478119109,832.7243873998723,-2.0010300846804148,70084.53791437394,10.5,10500070084.537914,47.655,-122.3035,60.0,9.05
2026-01-20T23:09:04+00:00,SAT-54780,237.1056950101591,77.4121829632854,830.7286933954177,-1.947419525494768,68206.86935925207,10.5,10500068206.86936,47.655,-122.3035,60.0,9.066666666666666
2026-01-20T23:09:05+00:00,SAT-54780,238.410982181082,77.80802854725138,828.7864669886576,-1.8934288697414965,66315.88821452511,10.5,10500066315.888214,47.655,-122.3035,60.0,9.083333333333334
2026-01-20T23:09:06+00:00,SAT-54780,239.809647712044,78.19878991196644,826.8980872625688,-1.839065213534536,64411.8430161196,10.5,10500064411.843016,47.655,-122.3035,60.0,9.1
2026-01-20T23:09:07+00:00,SAT-54780,241.30998671108895,78.58363528462004,825.063926222937,-1.7843359892525725,62494.99407737606,10.5,10500062494.994078,47.655,-122.3035,60.0,9.116666666666667
2026-01-20T23:09:08+00:00,SAT-54780,242.920950342058,78.96163139943624,823.2843484629891,-1.7292489646675768,60565.613458526546,10.5,10500060565.613459,47.655,-122.3035,60.0,9.133333333333333
2026-01-20T23:09:09+00:00,SAT-54780,244.6521189444452,79.33173127289632,821.5597108288939,-1.673812206581043,58623.98369308194,10.5,10500058623.983692,47.655,-122.3035,60.0,9.15
2026-01-20T23:09:10+00:00,SAT-54780,246.51363391707918,79.69276136020106,819.8903621215304,-1.6180341209055031,56670.39919165606,10.5,10500056670.39919,47.655,-122.3035,60.0,9.166666666666666
2026-01-20T23:09:11+00:00,SAT-54780,248.5160719974827,80.04340859317234,818.2766427582808,-1.5619234329256533,54705.165550626894,10.5,10500054705.16555,47.655,-122.3035,60.0,9.183333333333334
2026-01-20T23:09:12+00:00,SAT-54780,250.67024157037127,80.38220806475498,816.7188844545095,-1.505489168270477,52728.598885699816,10.5,10500052728.598886,47.655,-122.3035,60.0,9.2
2026-01-20T23:09:13+00:00,SAT-54780,252.98687721268152,80.70753253110661,815.2174099240211,-1.4487406657215278,50741.02628050784,10.5,10500050741.026281,47.655,-122.3035,60.0,9.216666666666667
2026-01-20T23:09:14+00:00,SAT-54780,255.47620682734535,81.01758540504107,813.7725325667415,-1.3916875831962006,48742.785996171086,10.5,10500048742.785995,47.655,-122.3035,60.0,9.233333333333333
2026-01-20T23:09:15+00:00,SAT-54780,258.147367201386,81.3103994857465,812.3845561504338,-1.3343398567657794,46734.22603593545,10.5,10500046734.226036,47.655,-122.3035,60.0,9.25
2026-01-20T23:09:16+00:00,SAT-54780,261.00765132444644,81.5838442638932,811.0537745332861,-1.2767077319746056,44715.70524210238,10.5,10500044715.705242,47.655,-122.3035,60.0,9.266666666666667
2026-01-20T23:09:17+00:00,SAT-54780,264.06158794060855,81.83564516744222,809.7804713552633,-1.218801726781076,42687.59199806587,10.5,10500042687.591997,47.655,-122.3035,60.0,9.283333333333333
2026-01-20T23:09:18+00:00,SAT-54780,267.30988280974793,82.06341827061037,808.5649197664204,-1.1606326475785071,40650.26478943085,10.5,10500040650.26479,47.655,-122.3035,60.0,9.3
2026-01-20T23:09:19+00:00,SAT-54780,270.7482941304752,82.26472359604654,807.4073821392356,-1.1022115694244983,38604.11151156188,10.5,10500038604.111511,47.655,-122.3035,60.0,9.316666666666666
2026-01-20T23:09:20+00:00,SAT-54780,274.36656719571124,82.43713876863018,806.3081098006627,-1.0435498240709564,36549.529050344034,10.5,10500036549.52905,47.655,-122.3035,60.0,9.333333333333334
2026-01-20T23:09:21+00:00,SAT-54780,278.147605623485,82.57835225574254,805.2673427761226,-0.9846589994382179,34486.923263764314,10.5,10500034486.923264,47.655,-122.3035,60.0,9.35
2026-01-20T23:09:22+00:00,SAT-54780,282.0670890888331,82.6862717471371,804.2853095340163,-0.9255509238697623,32416.70843044525,10.5,10500032416.708431,47.655,-122.3035,60.0,9.366666666666667
2026-01-20T23:09:23+00:00,SAT-54780,286.09373642957274,82.7591389084135,803.3622267459435,-0.8662376610723794,30339.307072428033,10.5,10500030339.307072,47.655,-122.3035,60.0,9.383333333333333
2026-01-20T23:09:24+00:00,SAT-54780,290.19033985785006,82.79563788233517,802.4982990519674,-0.806731487273848,28255.149155137868,10.5,10500028255.149155,47.655,-122.3035,60.0,9.4
2026-01-20T23:09:25+00:00,SAT-54780,294.31556070185104,82.79498294106146,801.6937188486595,-0.7470448970724199,26164.672292257634,10.5,10500026164.672293,47.655,-122.3035,60.0,9.416666666666666
2026-01-20T23:09:26+00:00,SAT-54780,298.42630953115525,82.75697186976093,800.9486660713126,-0.6871905770590694,24068.32082186747,10.5,10500024068.320822,47.655,-122.3035,60.0,9.433333333333334
2026-01-20T23:09:27+00:00,SAT-54780,302.4803865796294,82.68199632144155,800.263308002459,-0.6271813955387495,21966.545446439715,10.5,10500021966.545446,47.655,-122.3035,60.0,9.45
2026-01-20T23:09:28+00:00,SAT-54780,306.4389889356147,82.57100755775264,799.6377990906418,-0.5670303970810041,19859.803041978274,10.5,10500019859.803041,47.655,-122.3035,60.0,9.466666666666667
2026-01-20T23:09:29+00:00,SAT-54780,310.268726908584,82.42544360904348,799.0722807746197,-0.5067507803138153,17748.55588026521,10.5,10500017748.55588,47.655,-122.3035,60.0,9.483333333333333
2026-01-20T23:09:30+00:00,SAT-54780,313.9429184886988,82.24712971072542,798.56688132972,-0.44635588935654086,15633.271328806006,10.5,10500015633.271328,47.655,-122.3035,60.0,9.5
2026-01-20T23:09:31+00:00,SAT-54780,317.44209845817363,82.03816643375346,798.1217157227351,-0.3858591966085446,13514.42124801458,10.5,10500013514.421247,47.655,-122.3035,60.0,9.516666666666667
2026-01-20T23:09:32+00:00,SAT-54780,320.75382923881824,81.80081910110887,797.7368854839841,-0.3252742875574913,11392.481459135504,10.5,10500011392.481459,47.655,-122.3035,60.0,9.533333333333333
2026-01-20T23:09:33+00:00,SAT-54780,323.8719956312499,81.53741883536247,797.4124785945268,-0.264614850054384,9267.931368610454,10.5,10500009267.931368,47.655,-122.3035,60.0,9.55
2026-01-20T23:09:34+00:00,SAT-54780,326.7957957280273,81.25028134718272,797.1485693840725,-0.20389465475637858,7141.253283102856,10.5,10500007141.253283,47.655,-122.3035,60.0,9.566666666666666
2026-01-20T23:09:35+00:00,SAT-54780,329.5286192972827,80.94164562356335,796.9452184483955,-0.14312754150954307,5012.931932564502,10.5,10500005012.931932,47.655,-122.3035,60.0,9.583333333333334
2026-01-20T23:09:36+00:00,SAT-54780,332.07695689494955,80.61363169659974,796.80247258033,-0.08232740386518021,2883.4539279316773,10.5,10500002883.453928,47.655,-122.3035,60.0,9.6
2026-01-20T23:09:37+00:00,SAT-54780,334.44942869639186,80.26821489697328,796.7203647162085,-0.02150817218901638,753.3071695375072,10.5,10500000753.307169,47.655,-122.3035,60.0,9.616666666666667
2026-01-20T23:09:38+00:00,SAT-54780,336.65597526884494,79.90721325166919,796.6989138991453,0.03931620066081285,-1377.0196545055678,10.5,10499998622.980345,47.655,-122.3035,60.0,9.633333333333333
2026-01-20T23:09:39+00:00,SAT-54780,338.7072188625287,79.53228464270092,796.7381252566042,0.10013175626383351,-3507.0376612684895,10.5,10499996492.96234,47.655,-122.3035,60.0,9.65
2026-01-20T23:09:40+00:00,SAT-54780,340.6139829838182,79.1449307416839,796.8379899948516,0.16092454700750028,-5636.258346361578,10.5,10499994363.741653,47.655,-122.3035,60.0,9.666666666666666
2026-01-20T23:09:41+00:00,SAT-54780,342.3869477786659,78.74650528536417,796.9984854097336,0.22168064991788927,-7764.194068343899,10.5,10499992235.805931,47.655,-122.3035,60.0,9.683333333333334
2026-01-20T23:09:42+00:00,SAT-54780,344.03641552677954,78.33822484275139,797.2195749112518,0.28238618525927106,-9890.358700158982,10.5,10499990109.6413,47.655,-122.3035,60.0,9.7
2026-01-20T23:09:43+00:00,SAT-54780,345.5721616336357,77.9211807266803,797.5012080666836,0.3430273303233834,-12014.268112093487,10.5,10499987985.731888,47.655,-122.3035,60.0,9.716666666666667
2026-01-20T23:09:44+00:00,SAT-54780,347.0033495200398,77.49635114670356,797.8433206574595,0.40359033598430905,-14135.440751599044,10.5,10499985864.559248,47.655,-122.3035,60.0,9.733333333333333
2026-01-20T23:09:45+00:00,SAT-54780,348.33849172512214,77.0646130057029,798.2458347525478,0.4640615398383711,-16253.398103506981,10.5,10499983746.601896,47.655,-122.3035,60.0,9.75
2026-01-20T23:09:46+00:00,SAT-54780,349.5854432561716,76.62675299193151,798.7086587949466,0.5244273875985328,-18367.665439350694,10.5,10499981632.33456,47.655,-122.3035,60.0,9.766666666666667
2026-01-20T23:09:47+00:00,SAT-54780,350.751416592113,76.18347777140005,799.2316877095116,0.5846744376213665,-20477.771975919248,10.5,10499979522.228024,47.655,-122.3035,60.0,9.783333333333333
2026-01-20T23:09:48+00:00,SAT-54780,351.84301043567774,75.73542322121143,799.8148030152993,0.6447893868459533,-22583.251783747375,10.5,10499977416.748217,47.655,-122.3035,60.0,9.8
2026-01-20T23:09:49+00:00,SAT-54780,352.8662465924,75.28316268226608,800.4578729637803,0.7047590751863019,-24683.643940956546,10.5,10499975316.356058,47.655,-122.3035,60.0,9.816666666666666
2026-01-20T23:09:50+00:00,SAT-54780,353.82661093019175,74.82721429052934,801.1607526814328,0.7645705080071112,-26778.49332045127,10.5,10499973221.50668,47.655,-122.3035,60.0,9.833333333333334
2026-01-20T23:09:51+00:00,SAT-54780,354.72909571282605,74.36804743860759,801.9232843347519,0.8242108599914523,-28867.350725381653,10.5,10499971132.649275,47.655,-122.3035,60.0,9.85
2026-01-20T23:09:52+00:00,SAT-54780,355.57824145655053,73.90608845796378,802.7452972991167,0.8836675006781743,-30949.7737835714,10.5,10499969050.226217,47.655,-122.3035,60.0,9.866666666666667
2026-01-20T23:09:53+00:00,SAT-54780,356.378177180099,73.44172558874354,803.6266083531265,0.9429279946409265,-33025.3269537879,10.5,10499966974.673046,47.655,-122.3035,60.0,9.883333333333333
2026-01-20T23:09:54+00:00,SAT-54780,357.13265832866614,72.97531333122696,804.567021873115,1.0019801150771916,-35093.58200168769,10.5,10499964906.417997,47.655,-122.3035,60.0,9.9
2026-01-20T23:09:55+00:00,SAT-54780,357.84510202602064,72.50717624427762,805.5663300412185,1.0608118695156938,-37154.11890019857,10.5,10499962845.8811,47.655,-122.3035,60.0,9.916666666666666
2026-01-20T23:09:56+00:00,SAT-54780,358.51861951527127,72.03761225455521,806.6243130790823,1.1194114882253032,-39206.52542355046,10.5,10499960793.474577,47.655,-122.3035,60.0,9.933333333333334
2026-01-20T23:09:57+00:00,SAT-54780,359.15604576549293,71.56689555432317,807.7407394700056,1.1777674602778023,-41250.39841034601,10.5,10499958749.60159,47.655,-122.3035,60.0,9.95
2026-01-20T23:09:58+00:00,SAT-54780,359.75996637068306,71.09527912119374,808.9153662170561,1.2358685097861986,-43285.34293132579,10.5,10499956714.657068,47.655,-122.3035,60.0,9.966666666666667
2026-01-20T23:09:59+00:00,SAT-54780,0.332741857109063,70.62299693250336,810.1479390774828,1.2937036471068484,-45310.97408268326,10.5,10499954689.025917,47.655,-122.3035,60.0,9.983333333333333
2026-01-20T23:10:00+00:00,SAT-54780,0.8765296186983339,70.15026588649393,811.4381928481973,1.3512621389294541,-47326.91593848991,10.5,10499952673.08406,47.655,-122.3035,60.0,10.0
2026-01-20T23:10:01+00:00,SAT-54780,1.3933036338595928,69.67728749819726,812.785851621423,1.408533542956329,-49332.80276530991,10.5,10499950667.197235,47.655,-122.3035,60.0,10.016666666666667
2026-01-20T23:10:02+00:00,SAT-54780,1.8848721890949158,69.20424937718687,814.1906290749314,1.465507688154121,-51328.278330531815,10.5,10499948671.72167,47.655,-122.3035,60.0,10.033333333333333
2026-01-20T23:10:03+00:00,SAT-54780,2.352893776472602,68.73132653380551,815.6522287425838,1.5221747210428485,-53312.99752360651,10.5,10499946687.002476,47.655,-122.3035,60.0,10.05
2026-01-20T23:10:04+00:00,SAT-54780,2.7988913667228075,68.25868251583552,817.1703443310372,1.5785250747610746,-55286.62527257868,10.5,10499944713.374727,47.655,-122.3035,60.0,10.066666666666666
2026-01-20T23:10:05+00:00,SAT-54780,3.2242651988180646,67.78647042109284,818.7446600055989,1.634549488395408,-57248.83722108774,10.5,10499942751.162779,47.655,-122.3035,60.0,10.083333333333334
2026-01-20T23:10:06+00:00,SAT-54780,3.630304256318567,67.31483378705371,820.3748506953586,1.6902390141128594,-59199.31997817311,10.5,10499940800.680021,47.655,-122.3035,60.0,10.1
2026-01-20T23:10:07+00:00,SAT-54780,4.018196565041915,66.84390737692921,822.0605824054338,1.7455850241049036,-61137.77136148464,10.5,10499938862.228638,47.655,-122.3035,60.0,10.116666666666667
2026-01-20T23:10:08+00:00,SAT-54780,4.3890384374728235,66.37381787564496,823.8015125361411,1.8005791995446268,-63063.900010515215,10.5,10499936936.099989,47.655,-122.3035,60.0,10.133333333333333
2026-01-20T23:10:09+00:00,SAT-54780,4.7438427738503215,65.90468451155596,825.5972901911537,1.855213549593507,-64977.42605229857,10.5,10499935022.573948,47.655,-122.3035,60.0,10.15
2026-01-20T23:10:10+00:00,SAT-54780,5.083546527580492,65.43661960579198,827.4475565046149,1.909480403537861,-66878.08082599443,10.5,10499933121.919174,47.655,-122.3035,60.0,10.166666666666666
2026-01-20T23:10:11+00:00,SAT-54780,5.409017420042828,64.96972906470978,829.35194496041,1.963372421179776,-68765.6072468229,10.5,10499931234.392754,47.655,-122.3035,60.0,10.183333333333334
2026-01-20T23:10:12+00:00,SAT-54780,5.721059988960572,64.50411281822377,831.3100817217999,2.0168825872643543,-70639.75961088295,10.5,10499929360.240389,47.655,-122.3035,60.0,10.2
2026-01-20T23:10:13+00:00,SAT-54780,6.020421039358601,64.03986521425695,833.3215859554982,2.0700042014621918,-72500.30324429646,10.5,10499927499.696756,47.655,-122.3035,60.0,10.216666666666667
2026-01-20T23:10:14+00:00,SAT-54780,6.307794560861295,63.57707537553538,835.3860701457565,2.1227309109890844,-74347.01564568841,10.5,10499925652.984354,47.655,-122.3035,60.0,10.233333333333333
2026-01-20T23:10:15+00:00,SAT-54780,6.583826174025348,63.11582751396502,837.503140440983,2.1750566781551774,-76179.68534962065,10.5,10499923820.31465,47.655,-122.3035,60.0,10.25
2026-01-20T23:10:16+00:00,SAT-54780,6.849117146546017,62.65620122160435,839.6723969679964,2.2269757877923464,-77998.11218673032,10.5,10499922001.887814,47.655,-122.3035,60.0,10.266666666666667
2026-01-20T23:10:17+00:00,SAT-54780,7.104228030483762,62.19827173236719,841.8934341536881,2.2784828544922595,-79802.10753723739,10.5,10499920197.892464,47.655,-122.3035,60.0,10.283333333333333
2026-01-20T23:10:18+00:00,SAT-54780,7.349681959533774,61.74211015816827,844.1658410539015,2.3295728125103397,-81591.4939773387,10.5,10499918408.506023,47.655,-122.3035,60.0,10.3
2026-01-20T23:10:19+00:00,SAT-54780,7.58596763974825,61.28778370573465,846.4892016722453,2.3802409197220014,-83366.10541777211,10.5,10499916633.894583,47.655,-122.3035,60.0,10.316666666666666
2026-01-20T23:10:20+00:00,SAT-54780,7.813542066728316,60.835355873632494,848.863095282848,2.430482728669118,-85125.78608974125,10.5,10499914874.213911,47.655,-122.3035,60.0,10.333333333333334
2026-01-20T23:10:21+00:00,SAT-54780,8.032832994216633,60.38488663765212,851.2870967242407,2.4802941455863112,-86870.392612266,10.5,10499913129.607388,47.655,-122.3035,60.0,10.35
2026-01-20T23:10:22+00:00,SAT-54780,8.244241186809807,59.93643261026744,853.7607767521055,2.5296713537315596,-88599.79130689598,10.5,10499911400.208693,47.655,-122.3035,60.0,10.366666666666667
2026-01-20T23:10:23+00:00,SAT-54780,8.448142466785752,59.49004720066641,856.2837023155603,2.5786108407437918,-90313.85915588916,10.5,10499909686.140844,47.655,-122.3035,60.0,10.383333333333333
2026-01-20T23:10:24+00:00,SAT-54780,8.644889584434772,59.04578075736362,858.8554368607288,2.627109412270292,-92012.48427950134,10.5,10499907987.51572,47.655,-122.3035,60.0,10.4
2026-01-20T23:10:25+00:00,SAT-54780,8.83481392762369,58.603680697701144,861.4755406478997,2.6751641588114583,-93695.5647747493,10.5,10499906304.435225,47.655,-122.3035,60.0,10.416666666666666
2026-01-20T23:10:26+00:00,SAT-54780,9.01822708285252,58.16379163328313,864.143571035621,2.7227724631517396,-95363.00897567366,10.5,10499904636.991024,47.655,-122.3035,60.0,10.433333333333334
2026-01-20T23:10:27+00:00,SAT-54780,9.195422265141957,57.7261554851253,866.8590827722044,2.7699319934925675,-97014.73521282499,10.5,10499902985.264788,47.655,-122.3035,60.0,10.45
2026-01-20T23:10:28+00:00,SAT-54780,9.366675628118662,57.290811591935544,869.621628280381,2.8166406970204565,-98650.67158799169,10.5,10499901349.328411,47.655,-122.3035,60.0,10.466666666666667
2026-01-20T23:10:29+00:00,SAT-54780,9.53224746570011,56.85779681204526,872.4307579355427,2.8628967973782298,-100270.75588563141,10.5,10499899729.244114,47.655,-122.3035,60.0,10.483333333333333
2026-01-20T23:10:30+00:00,SAT-54780,9.692383315661143,56.42714561912324,875.2860203414613,2.9086987698735456,-101874.93470456895,10.5,10499898125.065296,47.655,-122.3035,60.0,10.5
2026-01-20T23:10:31+00:00,SAT-54780,9.847314973014674,55.998890195393585,878.1869625812818,2.9540453921805616,-103463.16523378281,10.5,10499896536.834766,47.655,-122.3035,60.0,10.516666666666667
2026-01-20T23:10:32+00:00,SAT-54780,9.997261425246446,55.57306051197111,881.1331305190832,2.998935634676519,-105035.41141152874,10.5,10499894964.588589,47.655,-122.3035,60.0,10.533333333333333
2026-01-20T23:10:33+00:00,SAT-54780,10.142429708538947,55.14968441981649,884.1240689920672,3.043368770167793,-106591.64776840994,10.5,10499893408.352232,47.655,-122.3035,60.0,10.55
2026-01-20T23:10:34+00:00,SAT-54780,10.283015702677508,54.728787720219934,887.1593221121813,3.087344286296564,-108131.85635948827,10.5,10499891868.14364,47.655,-122.3035,60.0,10.566666666666666
2026-01-20T23:10:35+00:00,SAT-54780,10.419204860733444,54.31039424332801,890.238433480381,3.130861911466375,-109656.02767230703,10.5,10499890343.972328,47.655,-122.3035,60.0,10.583333333333334
2026-01-20T23:10:36+00:00,SAT-54780,10.551172884414147,53.8945259189275,893.3609464267502,3.1739216002531787,-111164.16011592386,10.5,10499888835.839884,47.655,-122.3035,60.0,10.6
2026-01-20T23:10:37+00:00,SAT-54780,10.67908634812946,53.48120284529529,896.5264042360693,3.2165235227344997,-112656.25964717314,10.5,10499887343.740353,47.655,-122.3035,60.0,10.616666666666667
2026-01-20T23:10:38+00:00,SAT-54780,10.803103276200687,53.07044335593578,899.7343503627433,3.2586680943956257,-114132.34081810714,10.5,10499885867.659182,47.655,-122.3035,60.0,10.633333333333333
2026-01-20T23:10:39+00:00,SAT-54780,10.923373678741314,52.66226407923025,902.9843286755538,3.300355867502208,-115592.42297140506,10.5,10499884407.577028,47.655,-122.3035,60.0,10.65
2026-01-20T23:10:40+00:00,SAT-54780,11.040040044753116,52.25668000844874,906.275883594076,3.3415876653133516,-117036.53494108311,10.5,10499882963.46506,47.655,-122.3035,60.0,10.666666666666666
2026-01-20T23:10:41+00:00,SAT-54780,11.153237804478087,51.85370455209997,909.6085603589486,3.382364475421275,-118464.71131679833,10.5,10499881535.288683,47.655,-122.3035,60.0,10.683333333333334
2026-01-20T23:10:42+00:00,SAT-54780,11.263095755184262,51.45334959478757,912.9819051957687,3.4226874639846465,-119876.99294236011,10.5,10499880123.007057,47.655,-122.3035,60.0,10.7
2026-01-20T23:10:43+00:00,SAT-54780,11.369736457591308,51.05562555341383,916.3954654931827,3.4625579784445035,-121273.42701085325,10.5,10499878726.572989,47.655,-122.3035,60.0,10.716666666666667
2026-01-20T23:10:44+00:00,SAT-54780,11.473276604808525,50.66054143052707,919.8487899836847,3.5019775364932215,-122654.06667828458,10.5,10499877345.933321,47.655,-122.3035,60.0,10.733333333333333
2026-01-20T23:10:45+00:00,SAT-54780,11.573827365592779,50.26810486649185,923.3414289134139,3.540947839017851,-124018.97151691334,10.5,10499875981.028482,47.655,-122.3035,60.0,10.75
2026-01-20T23:10:46+00:00,SAT-54780,11.671494704541413,49.87832218801284,926.8729342248611,3.5794707222493223,-125368.20583931396,10.5,10499874631.79416,47.655,-122.3035,60.0,10.766666666666667
2026-01-20T23:10:47+00:00,SAT-54780,11.766379679454115,49.491198459685315,930.442859691851,3.617548163218311,-126701.83888946354,10.5,10499873298.16111,47.655,-122.3035,60.0,10.783333333333333
2026-01-20T23:10:48+00:00,SAT-54780,11.858578719093424,49.1067375326605,934.0507610599675,3.655182316874722,-128019.94614282317,10.5,10499871980.053858,47.655,-122.3035,60.0,10.8
2026-01-20T23:10:49+00:00,SAT-54780,11.948183883500999,48.72494208738731,937.6961962239972,3.6923754500784516,-129322.60699441526,10.5,10499870677.393005,47.655,-122.3035,60.0,10.816666666666666
2026-01-20T23:10:50+00:00,SAT-54780,12.0352831057431,48.34581368138706,941.378725339542,3.7291299693330706,-130609.90573017432,10.5,10499869390.09427,47.655,-122.3035,60.0,10.833333333333334
2026-01-20T23:10:51+00:00,SAT-54780,12.119960418697922,47.96935279213481,945.0979109622903,3.765448392095164,-131881.93052207876,10.5,10499868118.069477,47.655,-122.3035,60.0,10.85
2026-01-20T23:10:52+00:00,SAT-54780,12.202296166721998,47.59555886100568,948.8533181586731,3.8013333727153937,-133138.77433671674,10.5,10499866861.225664,47.655,-122.3035,60.0,10.866666666666667
2026-01-20T23:10:53+00:00,SAT-54780,12.282367204471196,47.22443033285486,952.6445146423946,3.836787670762177,-134380.53382584715,10.5,10499865619.466175,47.655,-122.3035,60.0,10.883333333333333
2026-01-20T23:10:54+00:00,SAT-54780,12.36024708258625,46.855964697048165,956.4710708793681,3.871814127045529,-135607.30848665332,10.5,10499864392.691513,47.655,-122.3035,60.0,10.9
2026-01-20T23:10:55+00:00,SAT-54780,12.436006221425423,46.4901585289707,960.3325601687415,3.9064157220361633,-136819.202707827,10.5,10499863180.797293,47.655,-122.3035,60.0,10.916666666666666
2026-01-20T23:10:56+00:00,SAT-54780,12.509712075246988,46.1270075244322,964.2285587821856,3.9405955093581992,-138016.32344020173,10.5,10499861983.67656,47.655,-122.3035,60.0,10.933333333333334
2026-01-20T23:10:57+00:00,SAT-54780,12.581429285118624,45.76650653878562,968.1586460368521,3.9743566133093102,-139198.78010989775,10.5,10499860801.21989,47.655,-122.3035,60.0,10.95
2026-01-20T23:10:58+00:00,SAT-54780,12.65121982264184,45.408649624589515,972.1224043658593,4.007702263665634,-140366.6858373374,10.5,10499859633.314163,47.655,-122.3035,60.0,10.966666666666667
2026-01-20T23:10:59+00:00,SAT-54780,12.719143125684278,45.0534300646145,976.1194194234886,4.040635778270054,-141520.15682741278,10.5,10499858479.843172,47.655,-122.3035,60.0,10.983333333333333
2026-01-20T23:11:00+00:00,SAT-54780,12.785256225765432,44.700840405122044,980.1492801730165,4.0731605073962145,-142659.31042087873,10.5,10499857340.689579,47.655,-122.3035,60.0,11.0
2026-01-20T23:11:01+00:00,SAT-54780,12.849613867118663,44.3508724924678,984.2115789190597,4.1052798925542735,-143784.2671539785,10.5,10499856215.732845,47.655,-122.3035,60.0,11.016666666666667
2026-01-20T23:11:02+00:00,SAT-54780,12.912268619769481,44.003517503210844,988.3059113985671,4.136997442744826,-144895.1499267559,10.5,10499855104.850073,47.655,-122.3035,60.0,11.033333333333333
2026-01-20T23:11:03+00:00,SAT-54780,12.97327098576969,43.658765974977904,992.4318768481313,4.168316707114906,-145992.08304535304,10.5,10499854007.916954,47.655,-122.3035,60.0,11.05
2026-01-20T23:11:04+00:00,SAT-54780,13.032669498923523,43.31660783834374,996.5890780440272,4.1992412815550635,-147075.19245306752,10.5,10499852924.807547,47.655,-122.3035,60.0,11.066666666666666
2026-01-20T23:11:05+00:00,SAT-54780,13.090510819063564,42.97703244674133,1000.7771213488314,4.229774842906865,-148144.6069284441,10.5,10499851855.393072,47.655,-122.3035,60.0,11.083333333333334
2026-01-20T23:11:06+00:00,SAT-54780,13.146839821463445,42.640028602512785,1004.9956167921573,4.259921069949475,-149200.45531789027,10.5,10499850799.544682,47.655,-122.3035,60.0,11.1
2026-01-20T23:11:07+00:00,SAT-54780,13.201699680274798,42.30558458801111,1009.2441780725869,4.2896837145809,-150242.86902874472,10.5,10499849757.130972,47.655,-122.3035,60.0,11.116666666666667
2026-01-20T23:11:08+00:00,SAT-54780,13.255131948267998,41.97368818994649,1013.5224226305955,4.319066535537498,-151271.97970785422,10.5,10499848728.020292,47.655,-122.3035,60.0,11.133333333333333
2026-01-20T23:11:09+00:00,SAT-54780,13.307176631464902,41.64432672768421,1017.8299716553717,4.348073335000669,-152287.92052369454,10.5,10499847712.079475,47.655,-122.3035,60.0,11.15
2026-01-20T23:11:10+00:00,SAT-54780,13.357872260115993,41.317487077671075,1022.1664501281456,4.376707956275558,-153290.826085069,10.5,10499846709.173916,47.655,-122.3035,60.0,11.166666666666666
2026-01-20T23:11:11+00:00,SAT-54780,13.407255955889793,40.99315569697229,1026.5314868632045,4.404974220685914,-154280.83023089962,10.5,10499845719.16977,47.655,-122.3035,60.0,11.183333333333334
2026-01-20T23:11:12+00:00,SAT-54780,13.45536349479486,40.67131865039707,1030.9247144859685,4.432876045972785,-155258.07017704973,10.5,10499844741.929823,47.655,-122.3035,60.0,11.2
2026-01-20T23:11:13+00:00,SAT-54780,13.50222936801921,40.35196162800412,1035.345769529152,4.460417269784954,-156222.68033421316,10.5,10499843777.319666,47.655,-122.3035,60.0,11.216666666666667
2026-01-20T23:11:14+00:00,SAT-54780,13.547886837829216,40.03506997430845,1039.7942923528842,4.487601820004612,-157174.79827343902,10.5,10499842825.201727,47.655,-122.3035,60.0,11.233333333333333
2026-01-20T23:11:15+00:00,SAT-54780,13.59236799224291,39.72062870433336,1044.2699272347022,4.514433608154862,-158114.56099281207,10.5,10499841885.439007,47.655,-122.3035,60.0,11.25
2026-01-20T23:11:16+00:00,SAT-54780,13.635703795857161,39.40862252637869,1048.7723223532353,4.540916556332066,-159042.10586073744,10.5,10499840957.894138,47.655,-122.3035,60.0,11.266666666666667
2026-01-20T23:11:17+00:00,SAT-54780,13.677924138343243,39.09903586191764,1053.3011297987505,4.567054567568753,-159957.56957792415,10.5,10499840042.430422,47.655,-122.3035,60.0,11.283333333333333
2026-01-20T23:11:18+00:00,SAT-54780,13.719057880240207,38.791852866612466,1057.856005554139,4.59285157752135,-160861.089987708,10.5,10499839138.910013,47.655,-122.3035,60.0,11.3
2026-01-20T23:11:19+00:00,SAT-54780,13.759132896905948,38.487057446979556,1062.4366095274538,4.618311522014761,-161752.80493932567,10.5,10499838247.19506,47.655,-122.3035,60.0,11.316666666666666
2026-01-20T23:11:20+00:00,SAT-54780,13.798176119964737,38.184633278505125,1067.0426055520763,4.643438296194068,-162632.85085723444,10.5,10499837367.149143,47.655,-122.3035,60.0,11.333333333333334
2026-01-20T23:11:21+00:00,SAT-54780,13.836213576433188,37.884563825495896,1071.6736613461474,4.6682358304748135,-163501.36540121213,10.5,10499836498.6346,47.655,-122.3035,60.0,11.35
2026-01-20T23:11:22+00:00,SAT-54780,13.873270426497822,37.58683235528445,1076.3294485477409,4.692708030667199,-164358.48536925364,10.5,10499835641.514631,47.655,-122.3035,60.0,11.366666666666667
2026-01-20T23:11:23+00:00,SAT-54780,13.909370998995833,37.29142195553005,1081.0096426903262,4.716858784937312,-165204.34694138227,10.5,10499834795.653059,47.655,-122.3035,60.0,11.383333333333333
2026-01-20T23:11:24+00:00,SAT-54780,13.94453882525094,36.998315550319106,1085.7139231851704,4.740691971835208,-166039.08596082724,10.5,10499833960.91404,47.655,-122.3035,60.0,11.4
