satellites_20260121_005943/SAT-52849.csv

timestamp,satellite,azimuth_deg,elevation_deg,distance_km,relative_velocity_kms,doppler_shift_hz,tx_freq_ghz,rx_freq_hz,ue_lat,ue_lon,ue_alt_m,time_minutes
2026-01-20T23:04:21+00:00,SAT-52849,212.12607106062623,30.089734452474268,1675.9308388974828,-6.202758661968877,217246.84598527564,10.5,10500217246.845985,47.655,-122.3035,60.0,4.35
2026-01-20T23:04:22+00:00,SAT-52849,212.11591191558156,30.221896413089716,1669.7446209252792,-6.1973953313330465,217058.99945954274,10.5,10500217058.99946,47.655,-122.3035,60.0,4.366666666666666
2026-01-20T23:04:23+00:00,SAT-52849,212.10584810679362,30.35484722501343,1663.5637519814961,-6.1919650386645255,216868.80764017592,10.5,10500216868.80764,47.655,-122.3035,60.0,4.383333333333334
2026-01-20T23:04:24+00:00,SAT-52849,212.09588109575466,30.48859500517293,1657.3882988496016,-6.1864668456127605,216676.23766216956,10.5,10500216676.237661,47.655,-122.3035,60.0,4.4
2026-01-20T23:04:25+00:00,SAT-52849,212.08601237406293,30.623147969418433,1651.2183292489103,-6.180899851133327,216481.25796713648,10.5,10500216481.257967,47.655,-122.3035,60.0,4.416666666666667
2026-01-20T23:04:26+00:00,SAT-52849,212.07624346413115,30.758514434913828,1645.0539117973801,-6.175263092229807,216283.8348268687,10.5,10500216283.834827,47.655,-122.3035,60.0,4.433333333333334
2026-01-20T23:04:27+00:00,SAT-52849,212.066575920035,30.894702820397665,1638.8951160733961,-6.169555594754426,216083.9341225905,10.5,10500216083.934122,47.655,-122.3035,60.0,4.45
2026-01-20T23:04:28+00:00,SAT-52849,212.05701132832854,31.031721647553084,1632.7420126268944,-6.163776406659855,215881.5225095772,10.5,10500215881.52251,47.655,-122.3035,60.0,4.466666666666667
2026-01-20T23:04:29+00:00,SAT-52849,212.0475513088619,31.169579543139555,1626.5946729573188,-6.157924490623807,215676.5636564145,10.5,10500215676.563656,47.655,-122.3035,60.0,4.483333333333333
2026-01-20T23:04:30+00:00,SAT-52849,212.03819751570563,31.308285238758653,1620.4531695986702,-6.151998888625846,215469.0240091743,10.5,10500215469.02401,47.655,-122.3035,60.0,4.5
2026-01-20T23:04:31+00:00,SAT-52849,212.0289516379844,31.447847574309613,1614.317576040414,-6.145998519053347,215258.86568520725,10.5,10500215258.865685,47.655,-122.3035,60.0,4.516666666666667
2026-01-20T23:04:32+00:00,SAT-52849,212.01981540088508,31.588275496911727,1608.1879668507447,-6.139922401678448,215046.05435278732,10.5,10500215046.054354,47.655,-122.3035,60.0,4.533333333333333
2026-01-20T23:04:33+00:00,SAT-52849,212.0107905665309,31.729578064924215,1602.0644175754708,-6.133769410390584,214830.55057075896,10.5,10500214830.550571,47.655,-122.3035,60.0,4.55
2026-01-20T23:04:34+00:00,SAT-52849,212.00187893506555,31.871764446362,1595.947004883508,-6.127538492540574,214612.31747089524,10.5,10500214612.31747,47.655,-122.3035,60.0,4.566666666666666
2026-01-20T23:04:35+00:00,SAT-52849,211.99308234561656,32.014843922326826,1589.8358064936142,-6.121228561569293,214391.3169972994,10.5,10500214391.316998,47.655,-122.3035,60.0,4.583333333333333
2026-01-20T23:04:36+00:00,SAT-52849,211.9844026773519,32.158825888019166,1583.7309012082092,-6.114838480964692,214167.50934451216,10.5,10500214167.509344,47.655,-122.3035,60.0,4.6
2026-01-20T23:04:37+00:00,SAT-52849,211.9758418506041,32.30371985336927,1577.6323689631936,-6.10836713232717,213940.85534144854,10.5,10500213940.855341,47.655,-122.3035,60.0,4.616666666666666
2026-01-20T23:04:38+00:00,SAT-52849,211.96740182796486,32.44953544528154,1571.5402908098858,-6.10181336400405,213711.31465236034,10.5,10500213711.314651,47.655,-122.3035,60.0,4.633333333333334
2026-01-20T23:04:39+00:00,SAT-52849,211.95908461546676,32.59628240869107,1565.4547489481859,-6.095175992950426,213478.84584201072,10.5,10500213478.845842,47.655,-122.3035,60.0,4.65
2026-01-20T23:04:40+00:00,SAT-52849,211.95089226378258,32.74397060767209,1559.3758267578835,-6.088453834231836,213243.4074089825,10.5,10500213243.40741,47.655,-122.3035,60.0,4.666666666666667
2026-01-20T23:04:41+00:00,SAT-52849,211.94282686947244,32.892610027266166,1553.3036088005429,-6.081645666336222,213004.95657075645,10.5,10500213004.956572,47.655,-122.3035,60.0,4.683333333333334
2026-01-20T23:04:42+00:00,SAT-52849,211.9348905762603,33.04221077449241,1547.2381808559835,-6.07475028997877,212763.4513233054,10.5,10500212763.451323,47.655,-122.3035,60.0,4.7
2026-01-20T23:04:43+00:00,SAT-52849,211.92708557635467,33.192783080813925,1541.1796299001114,-6.06776641688056,212518.8465456522,10.5,10500212518.846546,47.655,-122.3035,60.0,4.716666666666667
2026-01-20T23:04:44+00:00,SAT-52849,211.91941411185118,33.344337301883456,1535.1280441936758,-6.060692802045716,212271.09863277484,10.5,10500212271.098633,47.655,-122.3035,60.0,4.733333333333333
2026-01-20T23:04:45+00:00,SAT-52849,211.9118784761181,33.49688392056125,1529.083513239102,-6.0535281305023405,212020.1615287953,10.5,10500212020.16153,47.655,-122.3035,60.0,4.75
2026-01-20T23:04:46+00:00,SAT-52849,211.9044810152938,33.65043354714213,1523.046127850281,-6.046271109442261,211765.98995410267,10.5,10500211765.989954,47.655,-122.3035,60.0,4.766666666666667
2026-01-20T23:04:47+00:00,SAT-52849,211.89722412978563,33.80499692190024,1517.015980130464,-6.038920380537608,211508.53633430923,10.5,10500211508.536335,47.655,-122.3035,60.0,4.783333333333333
2026-01-20T23:04:48+00:00,SAT-52849,211.8901102758545,33.960584915432776,1510.993163537608,-6.031474607011315,211247.7538498277,10.5,10500211247.753849,47.655,-122.3035,60.0,4.8
2026-01-20T23:04:49+00:00,SAT-52849,211.88314196723633,34.11720853123242,1504.977772862882,-6.02393239105675,210983.59354355698,10.5,10500210983.593544,47.655,-122.3035,60.0,4.816666666666666
2026-01-20T23:04:50+00:00,SAT-52849,211.87632177682775,34.27487890615541,1498.9699042915345,-6.016292334046504,210716.00642964905,10.5,10500210716.00643,47.655,-122.3035,60.0,4.833333333333333
2026-01-20T23:04:51+00:00,SAT-52849,211.86965233843844,34.433607312448565,1492.9696554037123,-6.008553008161532,210444.94249984127,10.5,10500210444.9425,47.655,-122.3035,60.0,4.85
2026-01-20T23:04:52+00:00,SAT-52849,211.8631363485798,34.593405159056395,1486.9771252035725,-6.000712956427998,210170.350724747,10.5,10500210170.350725,47.655,-122.3035,60.0,4.866666666666666
2026-01-20T23:04:53+00:00,SAT-52849,211.85677656835733,34.7542839929332,1480.9924141483616,-5.9927707193937385,209892.17998817784,10.5,10500209892.179989,47.655,-122.3035,60.0,4.883333333333334
2026-01-20T23:04:54+00:00,SAT-52849,211.85057582538835,34.91625550107763,1475.0156241508862,-5.984724791231782,209610.3775497038,10.5,10500209610.37755,47.655,-122.3035,60.0,4.9
2026-01-20T23:04:55+00:00,SAT-52849,211.8445370158181,35.07933151140753,1469.0468586257646,-5.976573610813737,209324.88873200482,10.5,10500209324.888733,47.655,-122.3035,60.0,4.916666666666667
2026-01-20T23:04:56+00:00,SAT-52849,211.83866310642324,35.243523993363915,1463.0862225445796,-5.9683156789802245,209035.6610281782,10.5,10500209035.661028,47.655,-122.3035,60.0,4.933333333333334
2026-01-20T23:04:57+00:00,SAT-52849,211.83295713672223,35.40884506174253,1457.1338223740765,-5.959949404063672,208742.63869129276,10.5,10500208742.63869,47.655,-122.3035,60.0,4.95
2026-01-20T23:04:58+00:00,SAT-52849,211.82742222125543,35.575306976316746,1451.1897661684236,-5.951473188265342,208445.76575967798,10.5,10500208445.76576,47.655,-122.3035,60.0,4.966666666666667
2026-01-20T23:04:59+00:00,SAT-52849,211.82206155188416,35.74292214381775,1445.2541635753273,-5.94288536141143,208144.98373678242,10.5,10500208144.983736,47.655,-122.3035,60.0,4.983333333333333
2026-01-20T23:05:00+00:00,SAT-52849,211.81687840021274,35.911703118054696,1439.3271259082128,-5.934184318398303,207840.23640508723,10.5,10500207840.236404,47.655,-122.3035,60.0,5.0
2026-01-20T23:05:01+00:00,SAT-52849,211.8118761200656,36.08166260392439,1433.4087660813304,-5.925368349677067,207531.4638889588,10.5,10500207531.463888,47.655,-122.3035,60.0,5.016666666666667
2026-01-20T23:05:02+00:00,SAT-52849,211.8070581501007,36.2528134566374,1427.499198713919,-5.916435743096231,207218.60622160955,10.5,10500207218.606222,47.655,-122.3035,60.0,5.033333333333333
2026-01-20T23:05:03+00:00,SAT-52849,211.8024280164799,36.42516868381103,1421.5985401328044,-5.907384779102849,206901.6031770216,10.5,10500206901.603176,47.655,-122.3035,60.0,5.05
2026-01-20T23:05:04+00:00,SAT-52849,211.79798933568213,36.5987414474551,1415.7069083797792,-5.898213652202236,206580.39151913382,10.5,10500206580.39152,47.655,-122.3035,60.0,5.066666666666666
2026-01-20T23:05:05+00:00,SAT-52849,211.79374581738548,36.773545063646864,1409.8244232973161,-5.888920605107397,206254.9097003223,10.5,10500206254.9097,47.655,-122.3035,60.0,5.083333333333333
2026-01-20T23:05:06+00:00,SAT-52849,211.78970126750025,36.94959300614203,1403.951206480489,-5.879503773362018,205925.0924194403,10.5,10500205925.092419,47.655,-122.3035,60.0,5.1
2026-01-20T23:05:07+00:00,SAT-52849,211.78585959127935,37.126898905390625,1398.087381383856,-5.8699613141192915,205590.87513219749,10.5,10500205590.875132,47.655,-122.3035,60.0,5.116666666666666
2026-01-20T23:05:08+00:00,SAT-52849,211.78222479659215,37.30547655135866,1392.2330732999076,-5.860291347573906,205252.19199986017,10.5,10500205252.192,47.655,-122.3035,60.0,5.133333333333334
2026-01-20T23:05:09+00:00,SAT-52849,211.77880099729484,37.485339894613006,1386.3884093959273,-5.8504919433984215,204908.97541419612,10.5,10500204908.975414,47.655,-122.3035,60.0,5.15
2026-01-20T23:05:10+00:00,SAT-52849,211.7755924167531,37.66650304696258,1380.5535187643777,-5.840561138922547,204561.15663418974,10.5,10500204561.156633,47.655,-122.3035,60.0,5.166666666666667
2026-01-20T23:05:11+00:00,SAT-52849,211.77260339149433,37.84898028262162,1374.7285324551592,-5.830496960175726,204208.66652304213,10.5,10500204208.666523,47.655,-122.3035,60.0,5.183333333333334
2026-01-20T23:05:12+00:00,SAT-52849,211.7698383750256,38.03278604002038,1368.913583486877,-5.820297404739797,203851.43494759922,10.5,10500203851.434948,47.655,-122.3035,60.0,5.2
2026-01-20T23:05:13+00:00,SAT-52849,211.7673019417834,38.217934923081174,1363.1088068752167,-5.809960398055315,203489.38924801373,10.5,10500203489.389248,47.655,-122.3035,60.0,5.216666666666667
2026-01-20T23:05:14+00:00,SAT-52849,211.764998791263,38.40444170107147,1357.3143397048896,-5.799483850586102,203122.45623989005,10.5,10500203122.45624,47.655,-122.3035,60.0,5.233333333333333
2026-01-20T23:05:15+00:00,SAT-52849,211.76293375229255,38.592321310220086,1351.5303211445719,-5.78886568991486,202750.56333840804,10.5,10500202750.56334,47.655,-122.3035,60.0,5.25
2026-01-20T23:05:16+00:00,SAT-52849,211.76111178754698,38.78158885639588,1345.7568924298298,-5.778103718410371,202373.63357322649,10.5,10500202373.633574,47.655,-122.3035,60.0,5.266666666666667
2026-01-20T23:05:17+00:00,SAT-52849,211.75953799815105,38.97225961312156,1339.994196988002,-5.767195758813153,201991.59068750855,10.5,10500201991.590687,47.655,-122.3035,60.0,5.283333333333333
2026-01-20T23:05:18+00:00,SAT-52849,211.75821762856137,39.164349024265114,1334.242380417879,-5.756139602572377,201604.3573284621,10.5,10500201604.357328,47.655,-122.3035,60.0,5.3
2026-01-20T23:05:19+00:00,SAT-52849,211.75715607162522,39.35787270504588,1328.5015905209134,-5.744932966479992,201211.8535284831,10.5,10500201211.853529,47.655,-122.3035,60.0,5.316666666666666
2026-01-20T23:05:20+00:00,SAT-52849,211.75635887383797,39.552846441528544,1322.7719773756774,-5.7335735885969354,200814.00006489764,10.5,10500200814.000065,47.655,-122.3035,60.0,5.333333333333333
2026-01-20T23:05:21+00:00,SAT-52849,211.75583174086412,39.74928619329992,1317.0536933166502,-5.722059097518692,200410.71388108857,10.5,10500200410.71388,47.655,-122.3035,60.0,5.35
2026-01-20T23:05:22+00:00,SAT-52849,211.75558054324623,39.94720809166234,1311.3468930433914,-5.710387151922529,200001.91297403,10.5,10500200001.912973,47.655,-122.3035,60.0,5.366666666666666
2026-01-20T23:05:23+00:00,SAT-52849,211.75561132241629,40.14662844253159,1305.6517335905407,-5.698555344066723,199587.51301442215,10.5,10500199587.513014,47.655,-122.3035,60.0,5.383333333333334
2026-01-20T23:05:24+00:00,SAT-52849,211.7559302969503,40.3475637259877,1299.9683743940582,-5.686561207225828,199167.42760710543,10.5,10500199167.427607,47.655,-122.3035,60.0,5.4
2026-01-20T23:05:25+00:00,SAT-52849,211.75654386905143,40.5500305959707,1294.2969773500515,-5.674402265547522,198741.57003725888,10.5,10500198741.570038,47.655,-122.3035,60.0,5.416666666666667
2026-01-20T23:05:26+00:00,SAT-52849,211.7574586314113,40.754045881672916,1288.637706823879,-5.66207598913235,198309.85169710199,10.5,10500198309.851698,47.655,-122.3035,60.0,5.433333333333334
2026-01-20T23:05:27+00:00,SAT-52849,211.7586813743037,40.95962658727601,1282.9907297040509,-5.649579817764019,197872.18291703056,10.5,10500197872.182917,47.655,-122.3035,60.0,5.45
2026-01-20T23:05:28+00:00,SAT-52849,211.76021909304416,41.166789892456016,1277.3562154324677,-5.636911160287853,197428.4729438472,10.5,10500197428.472944,47.655,-122.3035,60.0,5.466666666666667
2026-01-20T23:05:29+00:00,SAT-52849,211.76207899578134,41.37555315280194,1271.7343360352738,-5.624067341373752,196978.62807617526,10.5,10500196978.628077,47.655,-122.3035,60.0,5.483333333333333
2026-01-20T23:05:30+00:00,SAT-52849,211.7642685115919,41.58593389816289,1266.1252662068105,-5.6110456973400105,196522.555020614,10.5,10500196522.555021,47.655,-122.3035,60.0,5.5
2026-01-20T23:05:31+00:00,SAT-52849,211.76679529904257,41.79794983444383,1260.5291832979967,-5.597843484300222,196060.15767465482,10.5,10500196060.157675,47.655,-122.3035,60.0,5.516666666666667
2026-01-20T23:05:32+00:00,SAT-52849,211.7696672550739,42.011618841895455,1254.9462673963212,-5.5844579306908395,195591.33896641864,10.5,10500195591.338966,47.655,-122.3035,60.0,5.533333333333333
2026-01-20T23:05:33+00:00,SAT-52849,211.7728925243271,42.22695897523982,1249.3767013534455,-5.570886222141729,195116.0003247585,10.5,10500195116.000324,47.655,-122.3035,60.0,5.55
2026-01-20T23:05:34+00:00,SAT-52849,211.77647950893112,42.44398846312676,1243.820670827896,-5.557125529554797,194634.04266269223,10.5,10500194634.042664,47.655,-122.3035,60.0,5.566666666666666
2026-01-20T23:05:35+00:00,SAT-52849,211.7804368787713,42.66272570857347,1238.2783642997535,-5.5431729143385455,194145.36305831524,10.5,10500194145.363058,47.655,-122.3035,60.0,5.583333333333333
2026-01-20T23:05:36+00:00,SAT-52849,211.78477358212427,42.88318928555509,1232.7499731798532,-5.529025450169141,193649.8590193886,10.5,10500193649.85902,47.655,-122.3035,60.0,5.6
2026-01-20T23:05:37+00:00,SAT-52849,211.78949885698367,43.105397940214814,1227.2356917975512,-5.5146801292274175,193147.42519936204,10.5,10500193147.4252,47.655,-122.3035,60.0,5.616666666666666
2026-01-20T23:05:38+00:00,SAT-52849,211.79462224280454,43.32937058823526,1221.7357174820017,-5.500133941588914,192637.95617794894,10.5,10500192637.956179,47.655,-122.3035,60.0,5.633333333333334
2026-01-20T23:05:39+00:00,SAT-52849,211.8001535929408,43.55512631524345,1216.2502505642572,-5.485383799298376,192121.34380189425,10.5,10500192121.343801,47.655,-122.3035,60.0,5.65
2026-01-20T23:05:40+00:00,SAT-52849,211.80610308759896,43.78268437398476,1210.7794944550901,-5.470426582346616,191597.47879527867,10.5,10500191597.478796,47.655,-122.3035,60.0,5.666666666666667
2026-01-20T23:05:41+00:00,SAT-52849,211.81248124747881,44.0120641831782,1205.323655676963,-5.455259112401912,191066.24983948085,10.5,10500191066.24984,47.655,-122.3035,60.0,5.683333333333334
2026-01-20T23:05:42+00:00,SAT-52849,211.81929894810386,44.2432853251061,1199.8829439221943,-5.439878173123549,190527.54428464393,10.5,10500190527.544285,47.655,-122.3035,60.0,5.7
2026-01-20T23:05:43+00:00,SAT-52849,211.8265674348659,44.47636754384334,1194.4575720908658,-5.424280522192644,189981.24857104567,10.5,10500189981.248571,47.655,-122.3035,60.0,5.716666666666667
2026-01-20T23:05:44+00:00,SAT-52849,211.83429833893166,44.71133074383743,1189.0477563167321,-5.408462817747095,189427.24565253907,10.5,10500189427.245653,47.655,-122.3035,60.0,5.733333333333333
2026-01-20T23:05:45+00:00,SAT-52849,211.84250369374465,44.94819498507039,1183.6537160664993,-5.392421733767529,188865.4190378567,10.5,10500188865.419039,47.655,-122.3035,60.0,5.75
2026-01-20T23:05:46+00:00,SAT-52849,211.85119595271402,45.18698048300417,1178.2756741240216,-5.3761538631059285,188295.6493942628,10.5,10500188295.649395,47.655,-122.3035,60.0,5.766666666666667
2026-01-20T23:05:47+00:00,SAT-52849,211.8603880075538,45.427707604075636,1172.9138566712174,-5.359655747604767,187717.8156024527,10.5,10500187717.815603,47.655,-122.3035,60.0,5.783333333333333
2026-01-20T23:05:48+00:00,SAT-52849,211.87009320771196,45.67039686221896,1167.5684933389396,-5.342923891369673,187131.79522141803,10.5,10500187131.795221,47.655,-122.3035,60.0,5.8
2026-01-20T23:05:49+00:00,SAT-52849,211.88032538083516,45.91506891572223,1162.2398172446135,-5.325954765016374,186537.4646371922,10.5,10500186537.464638,47.655,-122.3035,60.0,5.816666666666666
2026-01-20T23:05:50+00:00,SAT-52849,211.89109885439947,46.16174456402702,1156.9280650256371,-5.308744763648794,185934.69759106592,10.5,10500185934.697592,47.655,-122.3035,60.0,5.833333333333333
2026-01-20T23:05:51+00:00,SAT-52849,211.90242847834864,46.41044474228779,1151.6334769146915,-5.291290249952535,185323.36668890322,10.5,10500185323.36669,47.655,-122.3035,60.0,5.85
2026-01-20T23:05:52+00:00,SAT-52849,211.91432964915728,46.66119051759663,1146.356296772072,-5.273587551529392,184703.34330778467,10.5,10500184703.343307,47.655,-122.3035,60.0,5.866666666666666
2026-01-20T23:05:53+00:00,SAT-52849,211.92681833517992,46.91400308479268,1141.0967721206803,-5.255632917897511,184074.49608997125,10.5,10500184074.49609,47.655,-122.3035,60.0,5.883333333333334
2026-01-20T23:05:54+00:00,SAT-52849,211.93991110331103,47.1689037598699,1135.855154223897,-5.237422591564019,183436.69343216834,10.5,10500183436.693432,47.655,-122.3035,60.0,5.9
2026-01-20T23:05:55+00:00,SAT-52849,211.95362514737903,47.42591397643707,1130.6316980925774,-5.218952718704003,182789.80035712585,10.5,10500182789.800358,47.655,-122.3035,60.0,5.916666666666667
2026-01-20T23:05:56+00:00,SAT-52849,211.96797831785665,47.685055277461025,1125.4266625811229,-5.200219438985941,182133.68165970466,10.5,10500182133.68166,47.655,-122.3035,60.0,5.933333333333334
2026-01-20T23:05:57+00:00,SAT-52849,211.98298915358728,47.946349310995785,1120.2403103939744,-5.181218841574349,181468.20036590338,10.5,10500181468.200365,47.655,-122.3035,60.0,5.95
2026-01-20T23:05:58+00:00,SAT-52849,211.99867691524423,48.209817823381954,1115.0729081359775,-5.16194694548773,180793.21704491033,10.5,10500180793.217045,47.655,-122.3035,60.0,5.966666666666667
2026-01-20T23:05:59+00:00,SAT-52849,212.01506162060565,48.47548265096395,1109.9247263823445,-5.142399739094866,180108.59119243117,10.5,10500180108.591192,47.655,-122.3035,60.0,5.983333333333333
2026-01-20T23:06:00+00:00,SAT-52849,212.032164082153,48.74336571335456,1104.7960397092206,-5.122573177387078,179414.18113515156,10.5,10500179414.181135,47.655,-122.3035,60.0,6.0
2026-01-20T23:06:01+00:00,SAT-52849,212.0500059468559,49.01348900611602,1099.687126726973,-5.102463148858821,178709.84287075564,10.5,10500178709.84287,47.655,-122.3035,60.0,6.016666666666667
2026-01-20T23:06:02+00:00,SAT-52849,212.0686097382638,49.28587459120665,1094.5982701465114,-5.0820654971592285,177995.4308262548,10.5,10500177995.430826,47.655,-122.3035,60.0,6.033333333333333
2026-01-20T23:06:03+00:00,SAT-52849,212.08799890121648,49.56054458799312,1089.5297568240112,-5.061376040876999,177270.79855093782,10.5,10500177270.798552,47.655,-122.3035,60.0,6.05
2026-01-20T23:06:04+00:00,SAT-52849,212.10819784946193,49.8375211648094,1084.48187778591,-5.040390553892986,176535.79802823576,10.5,10500176535.798029,47.655,-122.3035,60.0,6.066666666666666
2026-01-20T23:06:05+00:00,SAT-52849,212.12923201609678,50.116826528898486,1079.4549282734938,-5.019104747783604,175790.27905941466,10.5,10500175790.27906,47.655,-122.3035,60.0,6.083333333333333
2026-01-20T23:06:06+00:00,SAT-52849,212.15112790714758,50.398482914764934,1074.4492078050378,-4.997514308801317,175034.09055878856,10.5,10500175034.090559,47.655,-122.3035,60.0,6.1
2026-01-20T23:06:07+00:00,SAT-52849,212.17391315869182,50.68251257391227,1069.4650202010598,-4.97561487990029,174267.0799241822,10.5,10500174267.079924,47.655,-122.3035,60.0,6.116666666666666
2026-01-20T23:06:08+00:00,SAT-52849,212.19761659762446,50.96893776296081,1064.502673627506,-4.95340205933079,173489.09298770048,10.5,10500173489.092987,47.655,-122.3035,60.0,6.133333333333334
2026-01-20T23:06:09+00:00,SAT-52849,212.22226830629452,51.25778073095456,1059.5624806403334,-4.930871429265809,172699.9750183542,10.5,10500172699.975018,47.655,-122.3035,60.0,6.15
2026-01-20T23:06:10+00:00,SAT-52849,212.24789969163385,51.549063707647775,1054.6447582015455,-4.908018492465694,171899.56850378733,10.5,10500171899.568504,47.655,-122.3035,60.0,6.166666666666667
2026-01-20T23:06:11+00:00,SAT-52849,212.27454355841525,51.84280888728949,1049.7498277583932,-4.884838754498072,171087.71602996683,10.5,10500171087.71603,47.655,-122.3035,60.0,6.183333333333334
2026-01-20T23:06:12+00:00,SAT-52849,212.3022341879962,52.13903841646362,1044.8780152405739,-4.861327682391375,170264.2588330539,10.5,10500170264.258833,47.655,-122.3035,60.0,6.2
2026-01-20T23:06:13+00:00,SAT-52849,212.33100742212744,52.43777437870434,1040.0296510986689,-4.837480690286271,169429.03629685656,10.5,10500169429.036297,47.655,-122.3035,60.0,6.216666666666667
2026-01-20T23:06:14+00:00,SAT-52849,212.36090075241768,52.73903877732923,1035.20507035689,-4.8132931863481625,168581.8875959038,10.5,10500168581.887596,47.655,-122.3035,60.0,6.233333333333333
2026-01-20T23:06:15+00:00,SAT-52849,212.39195341632646,53.04285352024901,1030.4046126190387,-4.788760513061781,167722.6496043096,10.5,10500167722.649605,47.655,-122.3035,60.0,6.25
2026-01-20T23:06:16+00:00,SAT-52849,212.42420649947374,53.34924040009576,1025.6286221340117,-4.763878031739112,166851.1598555981,10.5,10500166851.159855,47.655,-122.3035,60.0,6.266666666666667
2026-01-20T23:06:17+00:00,SAT-52849,212.45770304585585,53.65822107871031,1020.877447777024,-4.738641061990679,165967.25442273176,10.5,10500165967.254423,47.655,-122.3035,60.0,6.283333333333333
2026-01-20T23:06:18+00:00,SAT-52849,212.49248817553845,53.96981706680452,1016.1514430911985,-4.713044888805672,165070.7681660876,10.5,10500165070.768166,47.655,-122.3035,60.0,6.3
2026-01-20T23:06:19+00:00,SAT-52849,212.52860921090942,54.28404970292416,1011.4509663220964,-4.687084777819517,164161.53526819183,10.5,10500164161.535269,47.655,-122.3035,60.0,6.316666666666666
2026-01-20T23:06:20+00:00,SAT-52849,212.5661158124083,54.60094013226278,1006.7763804370178,-4.6607559964981125,163239.38997568173,10.5,10500163239.389977,47.655,-122.3035,60.0,6.333333333333333
2026-01-20T23:06:21+00:00,SAT-52849,212.60506012451634,54.92050928574365,1002.1280531231769,-4.634053786398829,162304.1656277681,10.5,10500162304.165628,47.655,-122.3035,60.0,6.35
2026-01-20T23:06:22+00:00,SAT-52849,212.64549693256814,55.242777856035914,997.5063568135419,-4.606973356438364,161355.69442044743,10.5,10500161355.69442,47.655,-122.3035,60.0,6.366666666666666
2026-01-20T23:06:23+00:00,SAT-52849,212.68748383137472,55.567766271699,992.9116687193873,-4.579509967058895,160393.81035435654,10.5,10500160393.810354,47.655,-122.3035,60.0,6.383333333333334
2026-01-20T23:06:24+00:00,SAT-52849,212.73108140788264,55.895494675962574,988.3443707789072,-4.55165879642576,159418.34454844918,10.5,10500159418.34455,47.655,-122.3035,60.0,6.4
2026-01-20T23:06:25+00:00,SAT-52849,212.77635343658093,56.22598289457244,983.804849739272,-4.523415065442402,158429.12961854838,10.5,10500158429.129618,47.655,-122.3035,60.0,6.416666666666667
2026-01-20T23:06:26+00:00,SAT-52849,212.82336709190562,56.55925041102486,979.2934971140041,-4.494773994668324,157425.99816843093,10.5,10500157425.998169,47.655,-122.3035,60.0,6.433333333333334
2026-01-20T23:06:27+00:00,SAT-52849,212.87219317715773,56.89531633720716,974.8107091833216,-4.465730802882867,156408.78273952476,10.5,10500156408.78274,47.655,-122.3035,60.0,6.45
2026-01-20T23:06:28+00:00,SAT-52849,212.9229063721425,57.23419938229965,970.356886995913,-4.436280708866129,155377.31587328445,10.5,10500155377.315874,47.655,-122.3035,60.0,6.466666666666667
2026-01-20T23:06:29+00:00,SAT-52849,212.97558550118032,57.575917819994736,965.9324363689371,-4.406418953368935,154331.43088067218,10.5,10500154331.430882,47.655,-122.3035,60.0,6.483333333333333
2026-01-20T23:06:30+00:00,SAT-52849,213.03031382393053,57.92048945560102,961.5377678661106,-4.376140800733921,153270.96189893535,10.5,10500153270.961899,47.655,-122.3035,60.0,6.5
2026-01-20T23:06:31+00:00,SAT-52849,213.08717935087256,58.26793159136861,957.1732967741787,-4.345441526230324,152195.743448017,10.5,10500152195.743448,47.655,-122.3035,60.0,6.516666666666667
2026-01-20T23:06:32+00:00,SAT-52849,213.1462751858122,58.618260988815564,952.8394430920182,-4.314316438667598,151105.61122258045,10.5,10500151105.611223,47.655,-122.3035,60.0,6.533333333333333
2026-01-20T23:06:33+00:00,SAT-52849,213.20769989858582,58.971493830686846,948.536631497187,-4.282760863869505,150000.4015132022,10.5,10500150000.401514,47.655,-122.3035,60.0,6.55
2026-01-20T23:06:34+00:00,SAT-52849,213.2715579305626,59.327645679300744,944.2652913289545,-4.250770185667251,148879.95264212458,10.5,10500148879.952642,47.655,-122.3035,60.0,6.566666666666666
2026-01-20T23:06:35+00:00,SAT-52849,213.33796003721562,59.686731435867735,940.0258565304491,-4.218339819206379,147744.10402835076,10.5,10500147744.104029,47.655,-122.3035,60.0,6.583333333333333
2026-01-20T23:06:36+00:00,SAT-52849,213.4070237707026,60.04876529511432,935.8187656174273,-4.185465215307432,146592.69634037305,10.5,10500146592.69634,47.655,-122.3035,60.0,6.6
2026-01-20T23:06:37+00:00,SAT-52849,213.47887400709777,60.41376069744756,931.644461642694,-4.152141900294749,145425.57289114615,10.5,10500145425.572891,47.655,-122.3035,60.0,6.616666666666666
2026-01-20T23:06:38+00:00,SAT-52849,213.55364352404183,60.78173028172729,927.5033921208,-4.118365448108414,144242.57866132958,10.5,10500144242.578661,47.655,-122.3035,60.0,6.633333333333334
2026-01-20T23:06:39+00:00,SAT-52849,213.63147363297605,61.152685832549096,923.3960089805532,-4.084131494824093,143043.56080783386,10.5,10500143043.560808,47.655,-122.3035,60.0,6.65
2026-01-20T23:06:40+00:00,SAT-52849,213.71251487302027,61.526638225460864,919.3227685030487,-4.049435737724776,141828.36863130878,10.5,10500141828.368631,47.655,-122.3035,60.0,6.666666666666667
2026-01-20T23:06:41+00:00,SAT-52849,213.7969277731529,61.903597368478614,915.2841312606245,-4.014273994115649,140596.85563608914,10.5,10500140596.855637,47.655,-122.3035,60.0,6.683333333333334
2026-01-20T23:06:42+00:00,SAT-52849,213.88488369218499,62.28357214530426,911.2805619971598,-3.9786421250142596,139348.87685750163,10.5,10500139348.876858,47.655,-122.3035,60.0,6.7
2026-01-20T23:06:43+00:00,SAT-52849,213.97656574243578,62.66657034733458,907.312529584479,-3.942536090698942,138084.29080740546,10.5,10500138084.290808,47.655,-122.3035,60.0,6.716666666666667
2026-01-20T23:06:44+00:00,SAT-52849,214.07216981036999,63.052598606262364,903.3805069233551,-3.9059519712227213,136802.96019267626,10.5,10500136802.960192,47.655,-122.3035,60.0,6.733333333333333
2026-01-20T23:06:45+00:00,SAT-52849,214.17190568529895,63.441662323932704,899.4849708240557,-3.8688859341010895,135504.75078349514,10.5,10500135504.750784,47.655,-122.3035,60.0,6.75
2026-01-20T23:06:46+00:00,SAT-52849,214.27599830820822,63.83376559374344,895.6264019191121,-3.831334257883863,134189.53223893497,10.5,10500134189.532238,47.655,-122.3035,60.0,6.766666666666667
2026-01-20T23:06:47+00:00,SAT-52849,214.38468915726787,64.22891111842448,891.8052845525827,-3.7932933712342445,132857.17947567438,10.5,10500132857.179476,47.655,-122.3035,60.0,6.783333333333333
2026-01-20T23:06:48+00:00,SAT-52849,214.49823778849094,64.62710012555817,888.0221066303385,-3.754759813230119,131507.57127758113,10.5,10500131507.571278,47.655,-122.3035,60.0,6.8
2026-01-20T23:06:49+00:00,SAT-52849,214.6169235491894,65.02833227195843,884.2773595099436,-3.7157302564538726,130140.59110441552,10.5,10500130140.591105,47.655,-122.3035,60.0,6.816666666666666
2026-01-20T23:06:50+00:00,SAT-52849,214.7410474894226,65.43260554254039,880.571537867507,-3.6762015499135945,128756.1285951121,10.5,10500128756.128595,47.655,-122.3035,60.0,6.833333333333333
2026-01-20T23:06:51+00:00,SAT-52849,214.87093449919857,65.83991614521706,876.9051395217264,-3.6361706489931045,127354.07711433353,10.5,10500127354.077114,47.655,-122.3035,60.0,6.85
2026-01-20T23:06:52+00:00,SAT-52849,215.00693569849943,66.25025838835721,873.2786653277973,-3.5956347342990207,125934.33791499758,10.5,10500125934.337915,47.655,-122.3035,60.0,6.866666666666666
2026-01-20T23:06:53+00:00,SAT-52849,215.1494311232647,66.66362456058651,869.6926189527898,-3.554591123324165,124496.81704435585,10.5,10500124496.817045,47.655,-122.3035,60.0,6.883333333333334
2026-01-20T23:06:54+00:00,SAT-52849,215.29883274168347,67.08000478851778,866.1475067391278,-3.513037332967099,123041.42753369246,10.5,10500123041.427534,47.655,-122.3035,60.0,6.9
2026-01-20T23:06:55+00:00,SAT-52849,215.4555878556069,67.49938688769035,862.6438375057153,-3.4709710493187185,121568.08834012278,10.5,10500121568.08834,47.655,-122.3035,60.0,6.916666666666667
2026-01-20T23:06:56+00:00,SAT-52849,215.62018294069836,67.92175619416885,859.1821223791948,-3.4283902000863637,120076.72688319204,10.5,10500120076.726883,47.655,-122.3035,60.0,6.933333333333334
2026-01-20T23:06:57+00:00,SAT-52849,215.7931479976545,68.34709538695216,855.7628745529753,-3.3852928897472627,118567.27677367473,10.5,10500118567.276773,47.655,-122.3035,60.0,6.95
2026-01-20T23:06:58+00:00,SAT-52849,215.97506148721902,68.77538428195636,852.3866091109339,-3.3416774766663115,117039.68051456542,10.5,10500117039.680515,47.655,-122.3035,60.0,6.966666666666667
2026-01-20T23:06:59+00:00,SAT-52849,216.16655594988825,69.20659961187022,849.0538427742055,-3.297542505223064,115493.88712387878,10.5,10500115493.887123,47.655,-122.3035,60.0,6.983333333333333
2026-01-20T23:07:00+00:00,SAT-52849,216.36832441347363,69.64071476996793,845.7650937156629,-3.2528868159499487,113929.85599215596,10.5,10500113929.855991,47.655,-122.3035,60.0,7.0
2026-01-20T23:07:01+00:00,SAT-52849,216.58112773108812,70.07769953644802,842.5208812645557,-3.207709468846097,112347.5541965903,10.5,10500112347.554197,47.655,-122.3035,60.0,7.016666666666667
2026-01-20T23:07:02+00:00,SAT-52849,216.80580299578298,70.51751975777809,839.3217256876264,-3.16200978853381,110746.95808259794,10.5,10500110746.958082,47.655,-122.3035,60.0,7.033333333333333
2026-01-20T23:07:03+00:00,SAT-52849,217.0432732276589,70.9601369884976,836.1681479251954,-3.1157873683428727,109128.05340686778,10.5,10500109128.053408,47.655,-122.3035,60.0,7.05
2026-01-20T23:07:04+00:00,SAT-52849,217.29455855751007,71.40550808246967,833.0606693231681,-3.0690420936398692,107490.83615445264,10.5,10500107490.836155,47.655,-122.3035,60.0,7.066666666666666
2026-01-20T23:07:05+00:00,SAT-52849,217.5607891817533,71.85358472707138,829.9998113417779,-3.02177414263295,105835.3125669558,10.5,10500105835.312567,47.655,-122.3035,60.0,7.083333333333333
2026-01-20T23:07:06+00:00,SAT-52849,217.84322041771574,72.30431290582122,826.9860952635253,-2.9739839684066456,104161.49851331409,10.5,10500104161.498514,47.655,-122.3035,60.0,7.1
2026-01-20T23:07:07+00:00,SAT-52849,218.1432502589654,72.75763227247613,824.0200419190344,-2.9256723677005176,102469.42189871712,10.5,10500102469.421898,47.655,-122.3035,60.0,7.116666666666666
2026-01-20T23:07:08+00:00,SAT-52849,218.46243993010287,73.21347543266982,821.1021713443145,-2.876840438618921,100759.12118342439,10.5,10500100759.121183,47.655,-122.3035,60.0,7.133333333333334
2026-01-20T23:07:09+00:00,SAT-52849,218.80253803193523,73.67176709530109,818.2330024801985,-2.8274896057595487,99030.64626287317,10.5,10500099030.646263,47.655,-122.3035,60.0,7.15
2026-01-20T23:07:10+00:00,SAT-52849,219.1655090238958,74.13242307742298,815.413052846721,-2.777621643930907,97284.05929836477,10.5,10500097284.059298,47.655,-122.3035,60.0,7.166666666666667
2026-01-20T23:07:11+00:00,SAT-52849,219.55356696070484,74.59534913003282,812.6428381938406,-2.7272386507707025,95519.43375804463,10.5,10500095519.433758,47.655,-122.3035,60.0,7.183333333333334
2026-01-20T23:07:12+00:00,SAT-52849,219.9692156140497,75.06043953505089,809.9228721794719,-2.67634311466751,93736.85679580655,10.5,10500093736.856796,47.655,-122.3035,60.0,7.2
2026-01-20T23:07:13+00:00,SAT-52849,220.4152964138653,75.52757543763359,807.2536659797769,-2.6249378658100584,91936.42753683156,10.5,10500091936.427536,47.655,-122.3035,60.0,7.216666666666667
2026-01-20T23:07:14+00:00,SAT-52849,220.89504597301894,75.99662282806969,804.6357279482756,-2.5730260969912115,90118.25780623115,10.5,10500090118.257807,47.655,-122.3035,60.0,7.233333333333333
2026-01-20T23:07:15+00:00,SAT-52849,221.41216544760047,76.46743010030622,802.0695632542097,-2.520611400337896,88282.47341548502,10.5,10500088282.473415,47.655,-122.3035,60.0,7.25
2026-01-20T23:07:16+00:00,SAT-52849,221.9709045759442,76.93982508209182,799.5556734842727,-2.46769774671054,86429.21344092207,10.5,10500086429.213442,47.655,-122.3035,60.0,7.266666666666667
2026-01-20T23:07:17+00:00,SAT-52849,222.57616399106377,77.41361138582424,797.0945562648867,-2.4142894829284502,84558.6301265415,10.5,10500084558.630127,47.655,-122.3035,60.0,7.283333333333333
2026-01-20T23:07:18+00:00,SAT-52849,223.23362040601057,77.88856389973935,794.6867048872462,-2.36039138598047,82670.8907826992,10.5,10500082670.890783,47.655,-122.3035,60.0,7.3
2026-01-20T23:07:19+00:00,SAT-52849,223.94988057295643,78.36442319071608,792.3326078782949,-2.306008615888865,80766.1761352018,10.5,10500080766.176136,47.655,-122.3035,60.0,7.316666666666666
2026-01-20T23:07:20+00:00,SAT-52849,224.73267153672418,78.84088848136629,790.0327486187151,-2.2511467444679574,78844.68133255558,10.5,10500078844.681332,47.655,-122.3035,60.0,7.333333333333333
2026-01-20T23:07:21+00:00,SAT-52849,225.59107689271633,79.31760879390713,787.7876049322324,-2.195811757334132,76906.61601636551,10.5,10500076906.616016,47.655,-122.3035,60.0,7.35
2026-01-20T23:07:22+00:00,SAT-52849,226.53583147382867,79.79417169020999,785.5976486729178,-2.140010060131913,74952.20453939869,10.5,10500074952.20454,47.655,-122.3035,60.0,7.366666666666666
2026-01-20T23:07:23+00:00,SAT-52849,227.5796903504576,80.2700888473014,783.4633453062796,-2.083748480587551,72981.6860375096,10.5,10500072981.686037,47.655,-122.3035,60.0,7.383333333333334
2026-01-20T23:07:24+00:00,SAT-52849,228.73789224900037,80.74477743536326,781.3851534883069,-2.027034274856942,70995.3146519713,10.5,10500070995.314651,47.655,-122.3035,60.0,7.4
2026-01-20T23:07:25+00:00,SAT-52849,230.02874241673055,81.21753589592859,779.363524638183,-1.96987510130403,68993.35861108392,10.5,10500068993.35861,47.655,-122.3035,60.0,7.416666666666667
2026-01-20T23:07:26+00:00,SAT-52849,231.47434507889966,81.68751219929638,777.3989025371491,-1.9122790721187817,66976.10203805463,10.5,10500066976.102037,47.655,-122.3035,60.0,7.433333333333334
2026-01-20T23:07:27+00:00,SAT-52849,233.10151978447925,82.15366199640619,775.4917228758893,-1.8542547111124565,64943.84347280942,10.5,10500064943.843473,47.655,-122.3035,60.0,7.45
2026-01-20T23:07:28+00:00,SAT-52849,234.94293571911004,82.61469312359569,773.6424128440065,-1.795810964907336,62896.89626390477,10.5,10500062896.896263,47.655,-122.3035,60.0,7.466666666666667
2026-01-20T23:07:29+00:00,SAT-52849,237.03848707561127,83.06899179291659,771.8513907083388,-1.7369572129811808,60835.588920327005,10.5,10500060835.58892,47.655,-122.3035,60.0,7.483333333333333
2026-01-20T23:07:30+00:00,SAT-52849,239.43689639200534,83.51452444715626,770.1190653812589,-1.6777032500308589,58760.26449379197,10.5,10500058760.264494,47.655,-122.3035,60.0,7.5
2026-01-20T23:07:31+00:00,SAT-52849,242.1974436496276,83.94870803050067,768.4458360065615,-1.6180592888831755,56671.28068069458,10.5,10500056671.280682,47.655,-122.3035,60.0,7.516666666666667
2026-01-20T23:07:32+00:00,SAT-52849,245.39152515341564,84.3682411948866,766.8320915424487,-1.558035964214914,54569.00995240046,10.5,10500054569.009953,47.655,-122.3035,60.0,7.533333333333333
2026-01-20T23:07:33+00:00,SAT-52849,249.10336017553828,84.76889177066043,765.278210340805,-1.4976443007367553,52453.83844091211,10.5,10500052453.838442,47.655,-122.3035,60.0,7.55
2026-01-20T23:07:34+00:00,SAT-52849,253.4284638332265,85.14524612321628,763.7845597582036,-1.436895746985062,50326.167122400235,10.5,10500050326.167122,47.655,-122.3035,60.0,7.566666666666666
2026-01-20T23:07:35+00:00,SAT-52849,258.4674071389469,85.4904520125947,762.3514957332104,-1.3758021373182234,48186.41048615488,10.5,10500048186.410486,47.655,-122.3035,60.0,7.583333333333333
2026-01-20T23:07:36+00:00,SAT-52849,264.3111109101774,85.79603973044887,760.9793624015917,-1.3143756883173132,46034.99640852136,10.5,10500046034.996408,47.655,-122.3035,60.0,7.6
2026-01-20T23:07:37+00:00,SAT-52849,271.0136538702008,86.05199296424263,759.6684917151099,-1.252629003704007,43872.366325146424,10.5,10500043872.366325,47.655,-122.3035,60.0,7.616666666666666
2026-01-20T23:07:38+00:00,SAT-52849,278.55225383516046,86.24733242664342,758.4192030554158,-1.1905750583347086,41698.97467038494,10.5,10500041698.97467,47.655,-122.3035,60.0,7.633333333333334
2026-01-20T23:07:39+00:00,SAT-52849,286.7852728350558,86.37146012250872,757.2318028639033,-1.1282271737334515,39515.28802035854,10.5,10500039515.288021,47.655,-122.3035,60.0,7.65
2026-01-20T23:07:40+00:00,SAT-52849,295.4350069326398,86.41620781100396,756.1065842959664,-1.0655990261487096,37321.785375139254,10.5,10500037321.785376,47.655,-122.3035,60.0,7.666666666666667
2026-01-20T23:07:41+00:00,SAT-52849,304.1244796728468,86.3779248893326,755.0438268672208,-1.0027046225511902,35118.957318090695,10.5,10500035118.957317,47.655,-122.3035,60.0,7.683333333333334
2026-01-20T23:07:42+00:00,SAT-52849,312.4665287766359,86.25852010855085,754.0437961236631,-0.9395582924873296,32907.30573054296,10.5,10500032907.30573,47.655,-122.3035,60.0,7.7
2026-01-20T23:07:43+00:00,SAT-52849,320.15878854703544,86.06480776546971,753.1067433199557,-0.8761746686642773,30687.343111796734,10.5,10500030687.343111,47.655,-122.3035,60.0,7.716666666666667
2026-01-20T23:07:44+00:00,SAT-52849,327.0325591329398,85.80658699196864,752.2329051170747,-0.8125686757216726,28459.592185863334,10.5,10500028459.592186,47.655,-122.3035,60.0,7.733333333333333
2026-01-20T23:07:45+00:00,SAT-52849,333.0444623054122,85.49452347823195,751.4225032911548,-0.7487555096435331,26224.58518038201,10.5,10500026224.58518,47.655,-122.3035,60.0,7.75
2026-01-20T23:07:46+00:00,SAT-52849,338.2368028624766,85.13863117674025,750.6757444628703,-0.6847506313290214,23982.863601440982,10.5,10500023982.863602,47.655,-122.3035,60.0,7.766666666666667
2026-01-20T23:07:47+00:00,SAT-52849,342.69579158000806,84.7475293240429,749.9928198332249,-0.6205697317018871,21734.977011562492,10.5,10500021734.97701,47.655,-122.3035,60.0,7.783333333333333
2026-01-20T23:07:48+00:00,SAT-52849,346.52159818715876,84.32826949456634,749.3739049541409,-0.5562287315597795,19481.48302442513,10.5,10500019481.483025,47.655,-122.3035,60.0,7.8
2026-01-20T23:07:49+00:00,SAT-52849,349.8114480794632,83.8864630764568,748.8191594991986,-0.4917437506293814,17222.94622104371,10.5,10500017222.94622,47.655,-122.3035,60.0,7.816666666666666
2026-01-20T23:07:50+00:00,SAT-52849,352.65203375858,83.42651842573551,748.3287270652376,-0.4271310959767115,14959.937743849016,10.5,10500014959.937744,47.655,-122.3035,60.0,7.833333333333333
2026-01-20T23:07:51+00:00,SAT-52849,355.1172898097197,82.95188727675655,747.9027349855168,-0.36240723093825195,12693.034208524503,10.5,10500012693.034208,47.655,-122.3035,60.0,7.85
2026-01-20T23:07:52+00:00,SAT-52849,357.2687946026881,82.46527963190589,747.541294173861,-0.29758876977231674,10422.817516674573,10.5,10500010422.817516,47.655,-122.3035,60.0,7.866666666666666
2026-01-20T23:07:53+00:00,SAT-52849,359.15723107006283,81.96883691181658,747.2444989741414,-0.23269244350985974,8149.873659775415,10.5,10500008149.87366,47.655,-122.3035,60.0,7.883333333333334
2026-01-20T23:07:54+00:00,SAT-52849,0.8241143506890218,81.46426611679755,747.0124270438142,-0.16773508616164406,5874.792236091752,10.5,10500005874.792236,47.655,-122.3035,60.0,7.9
2026-01-20T23:07:55+00:00,SAT-52849,2.303432509687797,80.95294176402484,746.8451392512158,-0.10273360971573535,3598.165574983281,10.5,10500003598.165575,47.655,-122.3035,60.0,7.916666666666667
2026-01-20T23:07:56+00:00,SAT-52849,3.6230700952397052,80.43598272022632,746.7426795977925,-0.03770498398925619,1320.58803122789,10.5,10500001320.588032,47.655,-122.3035,60.0,7.933333333333334
2026-01-20T23:07:57+00:00,SAT-52849,4.805989213269095,79.91431000685017,746.7050751604272,0.027333786225240554,-957.3448154090181,10.5,10499999042.655184,47.655,-122.3035,60.0,7.95
2026-01-20T23:07:58+00:00,SAT-52849,5.871186606416433,79.38869038979689,746.7323360565558,0.0923656829335582,-3235.0369227846318,10.5,10499996764.963078,47.655,-122.3035,60.0,7.966666666666667
2026-01-20T23:07:59+00:00,SAT-52849,6.834459855475811,78.85976940468666,746.8244554310016,0.1573736974337903,-5511.892574211451,10.5,10499994488.107426,47.655,-122.3035,60.0,7.983333333333333
2026-01-20T23:08:00+00:00,SAT-52849,7.7090174246066985,78.32809652039471,746.9814094652423,0.2223408512833084,-7787.317112809884,10.5,10499992212.682888,47.655,-122.3035,60.0,8.0
2026-01-20T23:08:01+00:00,SAT-52849,8.50596365975111,77.79414444922006,747.2031574075888,0.2872502212399013,-10060.71781505245,10.5,10499989939.282185,47.655,-122.3035,60.0,8.016666666666667
2026-01-20T23:08:02+00:00,SAT-52849,9.23468481434228,77.25832406004633,747.4896416282387,0.3520849571722018,-12331.504518062688,10.5,10499987668.495481,47.655,-122.3035,60.0,8.033333333333333
2026-01-20T23:08:03+00:00,SAT-52849,9.903157113606214,76.72099599163596,747.8407876921917,0.41682830688431677,-14599.090489078702,10.5,10499985400.909512,47.655,-122.3035,60.0,8.05
2026-01-20T23:08:04+00:00,SAT-52849,10.518193541444578,76.18247974804507,748.2565044569245,0.48146363592026215,-16862.89311908825,10.5,10499983137.10688,47.655,-122.3035,60.0,8.066666666666666
2026-01-20T23:08:05+00:00,SAT-52849,11.085642392596382,75.64306087820869,748.7366841898155,0.5459744483590455,-19122.334651160494,10.5,10499980877.665348,47.655,-122.3035,60.0,8.083333333333334
2026-01-20T23:08:06+00:00,SAT-52849,11.610547778711409,75.10299667908896,749.2812027063123,0.6103444111681752,-21376.843033408928,10.5,10499978623.156967,47.655,-122.3035,60.0,8.1
2026-01-20T23:08:07+00:00,SAT-52849,12.097280022176786,74.56252075181321,749.889919532384,0.6745573651532567,-23625.85230249253,10.5,10499976374.147697,47.655,-122.3035,60.0,8.116666666666667
2026-01-20T23:08:08+00:00,SAT-52849,12.549642110259924,74.02184667249496,750.562678077897,0.7385973556788603,-25868.80365959051,10.5,10499974131.19634,47.655,-122.3035,60.0,8.133333333333333
2026-01-20T23:08:09+00:00,SAT-52849,12.970957052439903,73.4811709528969,751.2993058406273,0.8024486471474482,-28105.14597751557,10.5,10499971894.854023,47.655,-122.3035,60.0,8.15
2026-01-20T23:08:10+00:00,SAT-52849,13.364139911391671,72.94067545138135,752.0996146247156,0.8660957345542595,-30334.336205414897,10.5,10499969665.663795,47.655,-122.3035,60.0,8.166666666666666
2026-01-20T23:08:11+00:00,SAT-52849,13.731757484716526,72.40052934730376,752.9634007706444,0.9295233729211115,-32555.840399666333,10.5,10499967444.159601,47.655,-122.3035,60.0,8.183333333333334
2026-01-20T23:08:12+00:00,SAT-52849,14.076077995728467,71.86089075488279,753.8904454145711,0.9927165903144508,-34769.13417982561,10.5,10499965230.86582,47.655,-122.3035,60.0,8.2
2026-01-20T23:08:13+00:00,SAT-52849,14.399112647685069,71.32190805756606,754.8805147606447,1.0556606935870907,-36973.702929726314,10.5,10499963026.29707,47.655,-122.3035,60.0,8.216666666666667
2026-01-20T23:08:14+00:00,SAT-52849,14.702650527971857,70.78372101792026,755.933360359049,1.1183413021102837,-39169.04297891971,10.5,10499960830.957022,47.655,-122.3035,60.0,8.233333333333333
2026-01-20T23:08:15+00:00,SAT-52849,14.988288058488523,70.24646169236289,757.0487194176869,1.1807443476314194,-41354.661597690705,10.5,10499958645.338402,47.655,-122.3035,60.0,8.25
2026-01-20T23:08:16+00:00,SAT-52849,15.257453939071747,69.71025520150789,758.2263151137247,1.2428560948454903,-43530.07771755769,10.5,10499956469.922283,47.655,-122.3035,60.0,8.266666666666667
2026-01-20T23:08:17+00:00,SAT-52849,15.511430362068602,69.17522037316472,759.4658569256507,1.3046631517091574,-45694.82229251462,10.5,10499954305.177708,47.655,-122.3035,60.0,8.283333333333333
2026-01-20T23:08:18+00:00,SAT-52849,15.751371123040109,68.64147028401966,760.7670409756217,1.3661524838773689,-47848.43880466257,10.5,10499952151.561195,47.655,-122.3035,60.0,8.3
2026-01-20T23:08:19+00:00,SAT-52849,15.978317138840401,68.10911271639385,762.1295503862088,1.4273114173650332,-49990.48335743272,10.5,10499950009.516642,47.655,-122.3035,60.0,8.316666666666666
2026-01-20T23:08:20+00:00,SAT-52849,16.193209789975505,67.57825054826395,763.5530556397943,1.4881276703713604,-52120.52579020945,10.5,10499947879.47421,47.655,-122.3035,60.0,8.333333333333334
2026-01-20T23:08:21+00:00,SAT-52849,16.39690243515078,67.04898207769698,765.0372149697113,1.5485893224361311,-54238.14859805238,10.5,10499945761.851402,47.655,-122.3035,60.0,8.35
2026-01-20T23:08:22+00:00,SAT-52849,16.590170373117047,66.52140131346071,766.581674720621,1.6086848754396643,-56342.94906817327,10.5,10499943657.050932,47.655,-122.3035,60.0,8.366666666666667
2026-01-20T23:08:23+00:00,SAT-52849,16.773719499171875,65.99559820738025,768.1860697697261,1.6684032117688323,-58434.53781473295,10.5,10499941565.462185,47.655,-122.3035,60.0,8.383333333333333
2026-01-20T23:08:24+00:00,SAT-52849,16.9481938389759,65.47165886998306,769.8500239062636,1.7277336332446644,-60512.5401422506,10.5,10499939487.459858,47.655,-122.3035,60.0,8.4
2026-01-20T23:08:25+00:00,SAT-52849,17.114182132560646,64.94966574766705,771.5731502498195,1.7866658404273832,-62576.59532077863,10.5,10499937423.404678,47.655,-122.3035,60.0,8.416666666666666
2026-01-20T23:08:26+00:00,SAT-52849,17.272223599116398,64.42969778452127,773.3550516480059,1.8451899699906305,-64626.357894906156,10.5,10499935373.642105,47.655,-122.3035,60.0,8.433333333333334
2026-01-20T23:08:27+00:00,SAT-52849,17.422813002830022,63.91183055520328,775.1953211114098,1.9032965612315658,-66661.49651080095,10.5,10499933338.503489,47.655,-122.3035,60.0,8.45
2026-01-20T23:08:28+00:00,SAT-52849,17.566405110792775,63.3961363921907,777.0935422151447,1.9609766053225697,-68681.6956412125,10.5,10499931318.30436,47.655,-122.3035,60.0,8.466666666666667
2026-01-20T23:08:29+00:00,SAT-52849,17.703418631512093,62.88268448705388,779.0492895495198,2.018221472230766,-70686.65302588447,10.5,10499929313.346973,47.655,-122.3035,60.0,8.483333333333333
2026-01-20T23:08:30+00:00,SAT-52849,17.834239695319965,62.37154099985541,781.0621290978246,2.0750230016592486,-72676.08285670118,10.5,10499927323.917143,47.655,-122.3035,60.0,8.5
2026-01-20T23:08:31+00:00,SAT-52849,17.95922494698654,61.86276913600146,783.1316187048127,2.1313734306056893,-74649.71324048364,10.5,10499925350.28676,47.655,-122.3035,60.0,8.516666666666667
2026-01-20T23:08:32+00:00,SAT-52849,18.078704290507705,61.35642923381964,785.2573084729369,2.1872654478249483,-76607.28810650052,10.5,10499923392.711893,47.655,-122.3035,60.0,8.533333333333333
2026-01-20T23:08:33+00:00,SAT-52849,18.192983337335185,60.852578832398684,787.4387412129008,2.2426921303395897,-78548.56498279783,10.5,10499921451.435017,47.655,-122.3035,60.0,8.55
2026-01-20T23:08:34+00:00,SAT-52849,18.302345589087132,60.351272748365716,789.6754528308928,2.2976470099705533,-80473.31732638455,10.5,10499919526.682674,47.655,-122.3035,60.0,8.566666666666666
2026-01-20T23:08:35+00:00,SAT-52849,18.407054393156177,59.85256313286544,791.9669727821702,2.3521240229746083,-82381.33275932308,10.5,10499917618.66724,47.655,-122.3035,60.0,8.583333333333334
2026-01-20T23:08:36+00:00,SAT-52849,18.50735469342564,59.35649953572147,794.3128244744169,2.4061175075233248,-84272.4129804323,10.5,10499915727.587019,47.655,-122.3035,60.0,8.6
2026-01-20T23:08:37+00:00,SAT-52849,18.60347460255067,58.863128966125295,796.7125256685869,2.459622238887897,-86146.3749976089,10.5,10499913853.625002,47.655,-122.3035,60.0,8.616666666666667
2026-01-20T23:08:38+00:00,SAT-52849,18.695626817867645,58.37249594302658,799.1655889148377,2.512633372594885,-88003.04913690087,10.5,10499911996.950863,47.655,-122.3035,60.0,8.633333333333333
2026-01-20T23:08:39+00:00,SAT-52849,18.78400989556808,57.88464255432816,801.6715219317723,2.565146480660887,-89842.28031159914,10.5,10499910157.719688,47.655,-122.3035,60.0,8.65
2026-01-20T23:08:40+00:00,SAT-52849,18.868809402451305,57.39960850624532,804.2298280218181,2.6171575205982505,-91663.9269366864,10.5,10499908336.073063,47.655,-122.3035,60.0,8.666666666666666
2026-01-20T23:08:41+00:00,SAT-52849,18.950198956549382,56.917431176554054,806.8400064556948,2.6686628406254664,-93467.8611113272,10.5,10499906532.13889,47.655,-122.3035,60.0,8.683333333333334
2026-01-20T23:08:42+00:00,SAT-52849,19.02834117010539,56.43814566464466,809.5015528620785,2.719659163531574,-95253.96805373112,10.5,10499904746.031946,47.655,-122.3035,60.0,8.7
2026-01-20T23:08:43+00:00,SAT-52849,19.103388504588807,55.961784842750184,812.213959601174,2.7701435877289367,-97022.14613802537,10.5,10499902977.853863,47.655,-122.3035,60.0,8.716666666666667
2026-01-20T23:08:44+00:00,SAT-52849,19.17548404789149,55.48837940498314,814.9767161393356,2.8201135850456645,-98772.30681693625,10.5,10499901227.693184,47.655,-122.3035,60.0,8.733333333333333
2026-01-20T23:08:45+00:00,SAT-52849,19.2447622214336,55.01795791539027,817.7893094214879,2.8695669636409415,-100504.37332292691,10.5,10499899495.626677,47.655,-122.3035,60.0,8.75
2026-01-20T23:08:46+00:00,SAT-52849,19.311349423864844,54.55054686041902,820.6512242065592,2.918501913015005,-102218.28224463723,10.5,10499897781.717756,47.655,-122.3035,60.0,8.766666666666667
2026-01-20T23:08:47+00:00,SAT-52849,19.37536461949632,54.086170692623,823.561943447806,2.966916915865412,-103913.98043971747,10.5,10499896086.01956,47.655,-122.3035,60.0,8.783333333333333
2026-01-20T23:08:48+00:00,SAT-52849,19.436919874327582,53.62485188684538,826.5209485852292,3.0148108347176734,-105591.42806899955,10.5,10499894408.571932,47.655,-122.3035,60.0,8.8
2026-01-20T23:08:49+00:00,SAT-52849,19.496120848248882,53.16661098139039,829.5277199243876,3.06218280824944,-107250.59496533137,10.5,10499892749.405035,47.655,-122.3035,60.0,8.816666666666666
2026-01-20T23:08:50+00:00,SAT-52849,19.553067244195983,52.71146663362707,832.5817369118151,3.10903232733504,-108891.46329697834,10.5,10499891108.536703,47.655,-122.3035,60.0,8.833333333333334
2026-01-20T23:08:51+00:00,SAT-52849,19.60785322151805,52.259435662735115,835.6824784862773,3.155359152489503,-110514.02467616375,10.5,10499889485.975325,47.655,-122.3035,60.0,8.85
2026-01-20T23:08:52+00:00,SAT-52849,19.660567774387918,51.81053310313153,838.8294233476934,3.20116335881742,-112118.28173336806,10.5,10499887881.718267,47.655,-122.3035,60.0,8.866666666666667
2026-01-20T23:08:53+00:00,SAT-52849,19.7112950805102,51.36477224990876,842.0220502708873,3.246445295716451,-113704.24670597528,10.5,10499886295.753294,47.655,-122.3035,60.0,8.883333333333333
2026-01-20T23:08:54+00:00,SAT-52849,19.760114821606585,50.92216470854734,845.2598383791485,3.291205583722678,-115271.9413277839,10.5,10499884728.058672,47.655,-122.3035,60.0,8.9
2026-01-20T23:08:55+00:00,SAT-52849,19.80710247877321,50.48272044355772,848.542267414648,3.3354450991092617,-116821.3962895866,10.5,10499883178.60371,47.655,-122.3035,60.0,8.916666666666666
2026-01-20T23:08:56+00:00,SAT-52849,19.852329604926098,50.04644782751314,851.8688179934929,3.379165001632698,-118352.65221096165,10.5,10499881647.34779,47.655,-122.3035,60.0,8.933333333333334
2026-01-20T23:08:57+00:00,SAT-52849,19.89586407673001,49.61335368520157,855.2389718884547,3.4223666498033043,-119865.75667268685,10.5,10499880134.243328,47.655,-122.3035,60.0,8.95
2026-01-20T23:08:58+00:00,SAT-52849,19.93777032662751,49.18344334702423,858.6522122271917,3.465051680647778,-121360.76701036179,10.5,10499878639.23299,47.655,-122.3035,60.0,8.966666666666667
2026-01-20T23:08:59+00:00,SAT-52849,19.978109558496794,48.75672069080148,862.1080237700245,3.507221921479698,-122837.74722423746,10.5,10499877162.252775,47.655,-122.3035,60.0,8.983333333333333
2026-01-20T23:09:00+00:00,SAT-52849,20.01693994656646,48.333188193019815,865.6058930997136,3.548879429738747,-124296.7693745546,10.5,10499875703.230625,47.655,-122.3035,60.0,9.0
2026-01-20T23:09:01+00:00,SAT-52849,20.05431682027224,47.912846973618265,869.145308850973,3.590026456512985,-125737.9123039391,10.5,10499874262.087696,47.655,-122.3035,60.0,9.016666666666667
2026-01-20T23:09:02+00:00,SAT-52849,20.090292835598714,47.49569684348849,872.7257619036019,3.6306654773946474,-127161.2627181028,10.5,10499872838.737282,47.655,-122.3035,60.0,9.033333333333333
2026-01-20T23:09:03+00:00,SAT-52849,20.124918134481728,47.08173634701972,876.3467456063902,3.670799102523087,-128566.91203516672,10.5,10499871433.087965,47.655,-122.3035,60.0,9.05
2026-01-20T23:09:04+00:00,SAT-52849,20.15824049233342,46.670962813183785,880.0077559113066,3.7104301628140437,-129954.95940577485,10.5,10499870045.040594,47.655,-122.3035,60.0,9.066666666666666
2026-01-20T23:09:05+00:00,SAT-52849,20.190305456087934,46.26337239530362,883.7082915936865,3.749561636839012,-131325.50915210025,10.5,10499868674.490849,47.655,-122.3035,60.0,9.083333333333334
2026-01-20T23:09:06+00:00,SAT-52849,20.221156472213828,45.85896011744172,887.4478543994938,3.7881966691984092,-132678.67141135118,10.5,10499867321.328588,47.655,-122.3035,60.0,9.1
2026-01-20T23:09:07+00:00,SAT-52849,20.25083500618807,45.45771991720239,891.2259492109077,3.8263385356006436,-134014.56091269234,10.5,10499865985.439087,47.655,-122.3035,60.0,9.116666666666667
2026-01-20T23:09:08+00:00,SAT-52849,20.279380653826806,45.05964469049378,895.0420841770801,3.863990690817735,-135333.29865685353,10.5,10499864666.701344,47.655,-122.3035,60.0,9.133333333333333
2026-01-20T23:09:09+00:00,SAT-52849,20.306831245478822,44.664726329914245,898.8957708927225,3.901156674419192,-136635.0086145313,10.5,10499863364.991386,47.655,-122.3035,60.0,9.15
2026-01-20T23:09:10+00:00,SAT-52849,20.33322294286296,44.272955771122156,902.7865244826764,3.93784018440822,-137919.8203054405,10.5,10499862080.179695,47.655,-122.3035,60.0,9.166666666666666
2026-01-20T23:09:11+00:00,SAT-52849,20.35859033008396,43.88432303016957,906.7138637599263,3.974045031534423,-139187.8671981516,10.5,10499860812.132801,47.655,-122.3035,60.0,9.183333333333334
2026-01-20T23:09:12+00:00,SAT-52849,20.382966498544764,43.498817243937665,910.6773113380433,4.009775114769527,-140439.28585114717,10.5,10499859560.71415,47.655,-122.3035,60.0,9.2
2026-01-20T23:09:13+00:00,SAT-52849,20.406383126365657,43.116426711326135,914.6763937191733,4.045034468837875,-141674.21757754055,10.5,10499858325.782423,47.655,-122.3035,60.0,9.216666666666667
2026-01-20T23:09:14+00:00,SAT-52849,20.428870553047616,42.73713892839937,918.7106414294277,4.0798271654714835,-142892.80498661034,10.5,10499857107.195013,47.655,-122.3035,60.0,9.233333333333333
2026-01-20T23:09:15+00:00,SAT-52849,20.450457849071817,42.36094063122142,922.7795890557912,4.114157433697527,-144095.19619677705,10.5,10499855904.803802,47.655,-122.3035,60.0,9.25
2026-01-20T23:09:16+00:00,SAT-52849,20.471172881742902,41.98781782611713,926.8827754029988,4.1480295256081074,-145281.54013429224,10.5,10499854718.459866,47.655,-122.3035,60.0,9.266666666666667
2026-01-20T23:09:17+00:00,SAT-52849,20.491042376431505,41.61775583075087,931.0197435165387,4.181447809328878,-146451.98978939364,10.5,10499853548.01021,47.655,-122.3035,60.0,9.283333333333333
2026-01-20T23:09:18+00:00,SAT-52849,20.51009197455202,41.250739305344915,935.1900407983761,4.214416664186283,-147606.6985446177,10.5,10499852393.301455,47.655,-122.3035,60.0,9.3
2026-01-20T23:09:19+00:00,SAT-52849,20.528346287662785,40.88675229162658,939.3932190181245,4.246940589253502,-148745.82397653838,10.5,10499851254.176023,47.655,-122.3035,60.0,9.316666666666666
2026-01-20T23:09:20+00:00,SAT-52849,20.54582894876063,40.525778241021335,943.6288344324734,4.279024107223106,-149869.52448898033,10.5,10499850130.475512,47.655,-122.3035,60.0,9.333333333333334
2026-01-20T23:09:21+00:00,SAT-52849,20.56256266026707,40.167800049688665,947.8964478087439,4.310671786328854,-150977.96008081353,10.5,10499849022.039919,47.655,-122.3035,60.0,9.35
2026-01-20T23:09:22+00:00,SAT-52849,20.578569239280945,39.81280009029265,952.1956244703091,4.341888244224434,-152071.29248180272,10.5,10499847928.707518,47.655,-122.3035,60.0,9.366666666666667
2026-01-20T23:09:23+00:00,SAT-52849,20.59386966027376,39.460760242068055,956.5259343458824,4.372678136526025,-153149.68475131973,10.5,10499846850.315248,47.655,-122.3035,60.0,9.383333333333333
2026-01-20T23:09:24+00:00,SAT-52849,20.608484095300067,39.111661920567116,960.8869520073777,4.403046173827496,-154213.3018742877,10.5,10499845786.698126,47.655,-122.3035,60.0,9.4
2026-01-20T23:09:25+00:00,SAT-52849,20.622431952004266,38.765486104807785,965.2782567247416,4.43299704023608,-155262.30790795558,10.5,10499844737.692093,47.655,-122.3035,60.0,9.416666666666666
2026-01-20T23:09:26+00:00,SAT-52849,20.6357319093035,38.42221336947636,969.6994324395371,4.462535481057562,-156296.86905300466,10.5,10499843703.130947,47.655,-122.3035,60.0,9.433333333333334
2026-01-20T23:09:27+00:00,SAT-52849,20.648401951282178,38.081823909050975,974.1500678259785,4.491666263767803,-157317.152286606,10.5,10499842682.847713,47.655,-122.3035,60.0,9.45
2026-01-20T23:09:28+00:00,SAT-52849,20.66045939917255,37.74429756384035,978.6297563130428,4.520394141159174,-158323.3240716527,10.5,10499841676.675928,47.655,-122.3035,60.0,9.466666666666667
2026-01-20T23:09:29+00:00,SAT-52849,20.67192094151142,37.40961384750136,983.1380960698256,4.548723900655668,-159315.55208398376,10.5,10499840684.447916,47.655,-122.3035,60.0,9.483333333333333
2026-01-20T23:09:30+00:00,SAT-52849,20.682802662741956,37.07775196982012,987.6746900400796,4.5766603377524415,-160294.00428212452,10.5,10499839705.995718,47.655,-122.3035,60.0,9.5
2026-01-20T23:09:31+00:00,SAT-52849,20.693120070290643,36.748690860300144,992.2391459502646,4.604208215494185,-161258.8474880477,10.5,10499838741.152512,47.655,-122.3035,60.0,9.516666666666667
2026-01-20T23:09:32+00:00,SAT-52849,20.702888120075475,36.42240919357358,996.8310762771841,4.631372342109374,-162210.25010625328,10.5,10499837789.749893,47.655,-122.3035,60.0,9.533333333333333
2026-01-20T23:09:33+00:00,SAT-52849,20.712121240864644,36.09888540820707,1001.450098293048,4.658157468828244,-163148.37854492175,10.5,10499836851.621454,47.655,-122.3035,60.0,9.55
2026-01-20T23:09:34+00:00,SAT-52849,20.720833357177582,35.77809773164497,1006.095834008626,4.684568390855245,-164073.40075239676,10.5,10499835926.599247,47.655,-122.3035,60.0,9.566666666666666
2026-01-20T23:09:35+00:00,SAT-52849,20.72903791115134,35.46002419717511,1010.7679102171056,4.710609859991599,-164985.4831568571,10.5,10499835014.516844,47.655,-122.3035,60.0,9.583333333333334
2026-01-20T23:09:36+00:00,SAT-52849,20.736747883179326,35.14464266592626,1015.4659584508039,4.73628662554024,-165884.79209898107,10.5,10499834115.207901,47.655,-122.3035,60.0,9.6
