satellites_20260121_005943/SAT-64303.csv

timestamp,satellite,azimuth_deg,elevation_deg,distance_km,relative_velocity_kms,doppler_shift_hz,tx_freq_ghz,rx_freq_hz,ue_lat,ue_lon,ue_alt_m,time_minutes
2026-01-20T23:01:39+00:00,SAT-64303,156.37675617309517,30.459809036243968,746.0869377038553,-2.7438513864937737,96101.282034869,10.5,10500096101.282034,47.655,-122.3035,60.0,1.65
2026-01-20T23:01:40+00:00,SAT-64303,156.4444387917656,30.985856080734425,743.3504032543921,-2.686415109316747,94089.62065291798,10.5,10500094089.620653,47.655,-122.3035,60.0,1.6666666666666667
2026-01-20T23:01:41+00:00,SAT-64303,156.51372744486804,31.5154754244125,740.6711519187002,-2.628350995864676,92055.96978887006,10.5,10500092055.96979,47.655,-122.3035,60.0,1.6833333333333333
2026-01-20T23:01:42+00:00,SAT-64303,156.58466825912694,32.04862522782418,738.0498098588245,-2.5696637654709034,90000.49473374171,10.5,10500090000.494734,47.655,-122.3035,60.0,1.7
2026-01-20T23:01:43+00:00,SAT-64303,156.65730914139633,32.585260684111425,735.4869985300616,-2.5103587604660365,87923.38259854884,10.5,10500087923.382599,47.655,-122.3035,60.0,1.7166666666666666
2026-01-20T23:01:44+00:00,SAT-64303,156.731699865342,33.125333986238765,732.9833340596234,-2.45044188760168,85824.84026271813,10.5,10500085824.840263,47.655,-122.3035,60.0,1.7333333333333334
2026-01-20T23:01:45+00:00,SAT-64303,156.80789216189916,33.66879428485344,730.5394266837219,-2.3899196541293377,83705.09563772297,10.5,10500083705.095638,47.655,-122.3035,60.0,1.75
2026-01-20T23:01:46+00:00,SAT-64303,156.88593981537986,34.21558765471776,728.1558801486703,-2.3287992070565795,81564.39904200021,10.5,10500081564.399042,47.655,-122.3035,60.0,1.7666666666666666
2026-01-20T23:01:47+00:00,SAT-64303,156.96589876615516,34.765657072359296,725.8332910728325,-2.2670882740161797,79403.02112993745,10.5,10500079403.02113,47.655,-122.3035,60.0,1.7833333333333334
2026-01-20T23:01:48+00:00,SAT-64303,157.04782721765878,35.318942383459806,723.5722483675471,-2.2047952240312827,77221.25502012618,10.5,10500077221.25502,47.655,-122.3035,60.0,1.8
2026-01-20T23:01:49+00:00,SAT-64303,157.1317857512113,35.87538028646002,721.3733325974466,-2.141929070294736,75019.41639270567,10.5,10500075019.416393,47.655,-122.3035,60.0,1.8166666666666667
2026-01-20T23:01:50+00:00,SAT-64303,157.21783744771847,36.43490432079293,719.237115338006,-2.0784994496727083,72797.84277149304,10.5,10500072797.842772,47.655,-122.3035,60.0,1.8333333333333333
2026-01-20T23:01:51+00:00,SAT-64303,157.30604801623352,36.99744485452607,717.1641585535324,-2.0145166405222437,70556.89414802943,10.5,10500070556.894148,47.655,-122.3035,60.0,1.85
2026-01-20T23:01:52+00:00,SAT-64303,157.39648593062023,37.562929080201044,715.1550139573849,-1.9499915605007039,68296.95290485723,10.5,10500068296.952906,47.655,-122.3035,60.0,1.8666666666666667
2026-01-20T23:01:53+00:00,SAT-64303,157.48922257495127,38.13128101551356,713.2102223743789,-1.8849357783798477,66018.42422929933,10.5,10500066018.424229,47.655,-122.3035,60.0,1.8833333333333333
2026-01-20T23:01:54+00:00,SAT-64303,157.58433239810455,38.702421512162,711.330313091408,-1.8193615035334314,63721.735745270256,10.5,10500063721.735744,47.655,-122.3035,60.0,1.9
2026-01-20T23:01:55+00:00,SAT-64303,157.68189307813253,39.27626826842001,709.5158032185507,-1.7532815781788504,61407.33724154571,10.5,10500061407.337242,47.655,-122.3035,60.0,1.9166666666666667
2026-01-20T23:01:56+00:00,SAT-64303,157.78198569680947,39.85273584562368,707.7671970579137,-1.686709478161327,59075.700699228175,10.5,10500059075.700699,47.655,-122.3035,60.0,1.9333333333333333
2026-01-20T23:01:57+00:00,SAT-64303,157.88469492578113,40.431735691905764,706.084985471694,-1.619659326564793,56727.32076845751,10.5,10500056727.320768,47.655,-122.3035,60.0,1.95
2026-01-20T23:01:58+00:00,SAT-64303,157.99010922560495,41.01317617789124,704.4696452366668,-1.5521458383717166,54362.71283016407,10.5,10500054362.71283,47.655,-122.3035,60.0,1.9666666666666666
2026-01-20T23:01:59+00:00,SAT-64303,158.09832105602337,41.59696262340171,702.921638453864,-1.484184376395861,51982.41495507049,10.5,10500051982.414955,47.655,-122.3035,60.0,1.9833333333333334
2026-01-20T23:02:00+00:00,SAT-64303,158.2094271031583,42.18299735095934,701.4414119024719,-1.4157908730118682,49586.98516233059,10.5,10500049586.985163,47.655,-122.3035,60.0,2.0
2026-01-20T23:02:01+00:00,SAT-64303,158.3235285187783,42.77117972275484,700.029396471788,-1.3469818705226453,47177.00283336606,10.5,10500047177.002832,47.655,-122.3035,60.0,2.0166666666666666
2026-01-20T23:02:02+00:00,SAT-64303,158.44073117856166,43.3614062013234,698.68600655292,-1.2777744822322727,44753.067348475,10.5,10500044753.067348,47.655,-122.3035,60.0,2.033333333333333
2026-01-20T23:02:03+00:00,SAT-64303,158.56114595699427,43.953570407873656,697.4116394693071,-1.2081863733970377,42315.79741965655,10.5,10500042315.79742,47.655,-122.3035,60.0,2.05
2026-01-20T23:02:04+00:00,SAT-64303,158.6848890209536,44.54756318408444,696.2066749262392,-1.138235761908226,39865.83111452514,10.5,10500039865.831114,47.655,-122.3035,60.0,2.066666666666667
2026-01-20T23:02:05+00:00,SAT-64303,158.81208214534044,45.14327266722515,695.0714744596961,-1.067941371388268,37403.824213539134,10.5,10500037403.824213,47.655,-122.3035,60.0,2.0833333333333335
2026-01-20T23:02:06+00:00,SAT-64303,158.94285304903488,45.74058435813081,694.0063809319648,-0.9973224393155184,34930.45049456495,10.5,10500034930.450495,47.655,-122.3035,60.0,2.1
2026-01-20T23:02:07+00:00,SAT-64303,159.0773357572732,46.33938120709421,693.0117180191542,-0.9263986780114035,32446.40036648199,10.5,10500032446.400366,47.655,-122.3035,60.0,2.1166666666666667
2026-01-20T23:02:08+00:00,SAT-64303,159.21567098902653,46.939543697099325,692.0877897376175,-0.8551902468670977,29952.37989644331,10.5,10500029952.379896,47.655,-122.3035,60.0,2.1333333333333333
2026-01-20T23:02:09+00:00,SAT-64303,159.35800657244704,47.54094992891646,691.2348799980753,-0.7837177408409879,27449.11040700821,10.5,10500027449.110407,47.655,-122.3035,60.0,2.15
2026-01-20T23:02:10+00:00,SAT-64303,159.50449789248012,48.143475717563945,690.4532521712099,-0.7120021449140488,24937.326880976816,10.5,10500024937.326881,47.655,-122.3035,60.0,2.1666666666666665
2026-01-20T23:02:11+00:00,SAT-64303,159.65530837006153,48.74699468151621,689.7431486986823,-0.6400648223075311,22417.777548723647,10.5,10500022417.777548,47.655,-122.3035,60.0,2.183333333333333
2026-01-20T23:02:12+00:00,SAT-64303,159.81060997945323,49.351378344370445,689.104790715901,-0.5679274783789016,19891.22262368077,10.5,10500019891.222624,47.655,-122.3035,60.0,2.2
2026-01-20T23:02:13+00:00,SAT-64303,159.97058380491868,49.95649623642781,688.5383777107977,-0.4956121197387394,17358.432870438533,10.5,10500017358.43287,47.655,-122.3035,60.0,2.216666666666667
2026-01-20T23:02:14+00:00,SAT-64303,160.1354206383872,50.56221598894873,688.0440872233783,-0.42314103422242977,14820.188903269584,10.5,10500014820.188904,47.655,-122.3035,60.0,2.2333333333333334
2026-01-20T23:02:15+00:00,SAT-64303,160.3053216259874,51.16840343838514,687.6220745652471,-0.35053675822865904,12277.280042184784,10.5,10500012277.280043,47.655,-122.3035,60.0,2.25
2026-01-20T23:02:16+00:00,SAT-64303,160.48049896628604,51.77492273334285,687.272472571707,-0.2778220305922443,9730.502697364605,10.5,10500009730.502697,47.655,-122.3035,60.0,2.2666666666666666
2026-01-20T23:02:17+00:00,SAT-64303,160.66117666156646,52.38163642879325,686.995391399863,-0.2050197685796436,7180.65952842035,10.5,10500007180.659529,47.655,-122.3035,60.0,2.283333333333333
2026-01-20T23:02:18+00:00,SAT-64303,160.84759133235937,52.98840558969438,686.7909183506663,-0.13215302490487094,4628.557938909673,10.5,10500004628.55794,47.655,-122.3035,60.0,2.3
2026-01-20T23:02:19+00:00,SAT-64303,161.03999309656507,53.59508988375003,686.6591177338278,-0.05924495837929715,2075.0090483684553,10.5,10500002075.009048,47.655,-122.3035,60.0,2.316666666666667
2026-01-20T23:02:20+00:00,SAT-64303,161.23864652313068,54.20154767928988,686.6000307620042,0.013681207758560025,-479.1737671562113,10.5,10499999520.826233,47.655,-122.3035,60.0,2.3333333333333335
2026-01-20T23:02:21+00:00,SAT-64303,161.4438316645359,54.80763613446939,686.6136754865421,0.08660222197860475,-3033.176140726495,10.5,10499996966.82386,47.655,-122.3035,60.0,2.35
2026-01-20T23:02:22+00:00,SAT-64303,161.65584517507236,55.413211276979936,686.700046769262,0.15949483932380157,-5586.183935620943,10.5,10499994413.816065,47.655,-122.3035,60.0,2.3666666666666667
2026-01-20T23:02:23+00:00,SAT-64303,161.87500152673252,56.01812808446214,686.8591162890143,0.23233585957303307,-8137.384581959187,10.5,10499991862.615417,47.655,-122.3035,60.0,2.3833333333333333
2026-01-20T23:02:24+00:00,SAT-64303,162.10163432921465,56.62224055463801,687.0908325862952,0.30510216460465495,-10685.968385331686,10.5,10499989314.031614,47.655,-122.3035,60.0,2.4
2026-01-20T23:02:25+00:00,SAT-64303,162.336097764589,57.22540176423765,687.3951211451275,0.37777075394443593,-13231.129771838947,10.5,10499986768.870228,47.655,-122.3035,60.0,2.4166666666666665
2026-01-20T23:02:26+00:00,SAT-64303,162.57876814924978,57.82746392080693,687.7718845103948,0.45031877989078584,-15772.068518325605,10.5,10499984227.931482,47.655,-122.3035,60.0,2.433333333333333
2026-01-20T23:02:27+00:00,SAT-64303,162.83004563343707,58.42827839739832,688.2210024402059,0.5227235849354853,-18307.99106301265,10.5,10499981692.008938,47.655,-122.3035,60.0,2.45
2026-01-20T23:02:28+00:00,SAT-64303,163.0903560564434,59.027695761742365,688.7423320955816,0.5949627368656631,-20838.11173491717,10.5,10499979161.888266,47.655,-122.3035,60.0,2.466666666666667
2026-01-20T23:02:29+00:00,SAT-64303,163.36015296938592,59.625565786096494,689.3357082651489,0.6670140573174884,-23361.65375392342,10.5,10499976638.346247,47.655,-122.3035,60.0,2.4833333333333334
2026-01-20T23:02:30+00:00,SAT-64303,163.63991984179026,60.221737435751834,690.0009436183135,0.7388556632557975,-25877.85068357482,10.5,10499974122.149317,47.655,-122.3035,60.0,2.5
2026-01-20T23:02:31+00:00,SAT-64303,163.93017247739297,60.816058848277656,690.7378289998006,0.8104659920149717,-28385.94730811141,10.5,10499971614.052692,47.655,-122.3035,60.0,2.5166666666666666
2026-01-20T23:02:32+00:00,SAT-64303,164.23146165293466,61.408377284301075,691.5461337491703,0.8818238358820212,-30885.200843715764,10.5,10499969114.799156,47.655,-122.3035,60.0,2.533333333333333
2026-01-20T23:02:33+00:00,SAT-64303,164.5443760085036,61.99853905845415,692.4256060548232,0.9529083675399733,-33374.88182964803,10.5,10499966625.11817,47.655,-122.3035,60.0,2.55
2026-01-20T23:02:34+00:00,SAT-64303,164.8695452124037,62.58638944150834,693.3759733333831,1.0236991768275356,-35854.27541572484,10.5,10499964145.724585,47.655,-122.3035,60.0,2.566666666666667
2026-01-20T23:02:35+00:00,SAT-64303,165.20764343409877,63.17177253987175,694.396942645739,1.094176283376741,-38322.68180494314,10.5,10499961677.318195,47.655,-122.3035,60.0,2.5833333333333335
2026-01-20T23:02:36+00:00,SAT-64303,165.55939314935378,63.7545311338866,695.4882011256935,1.1643201785367607,-40779.41772182938,10.5,10499959220.582277,47.655,-122.3035,60.0,2.6
2026-01-20T23:02:37+00:00,SAT-64303,165.92556932375558,64.33450649133073,696.6494164504209,1.2341118354159453,-43223.816764154304,10.5,10499956776.183235,47.655,-122.3035,60.0,2.6166666666666667
2026-01-20T23:02:38+00:00,SAT-64303,166.30700400363622,64.91153813415703,697.8802373209423,1.3035327409997886,-45655.23052783996,10.5,10499954344.769472,47.655,-122.3035,60.0,2.6333333333333333
2026-01-20T23:02:39+00:00,SAT-64303,166.70459136548396,65.48546356670673,699.1802939746327,1.3725649120197094,-48073.02916275148,10.5,10499951926.970837,47.655,-122.3035,60.0,2.65
2026-01-20T23:02:40+00:00,SAT-64303,167.11929326686095,66.05611795416573,700.5491987135539,1.441190902970981,-50476.60165351893,10.5,10499949523.398346,47.655,-122.3035,60.0,2.6666666666666665
2026-01-20T23:02:41+00:00,SAT-64303,167.5521453492911,66.62333374196126,701.9865464407835,1.5093938546493695,-52865.35751949564,10.5,10499947134.64248,47.655,-122.3035,60.0,2.683333333333333
2026-01-20T23:02:42+00:00,SAT-64303,168.00426376293464,67.18694023134977,703.4919152451538,1.5771574705557623,-55238.72598834859,10.5,10499944761.274012,47.655,-122.3035,60.0,2.7
2026-01-20T23:02:43+00:00,SAT-64303,168.47685255362947,67.74676306980464,705.0648669624547,1.6444660574487995,-57596.15741638302,10.5,10499942403.842583,47.655,-122.3035,60.0,2.716666666666667
2026-01-20T23:02:44+00:00,SAT-64303,168.97121179901586,68.30262368052817,706.7049477770837,1.7113045315269908,-59937.1235050663,10.5,10499940062.876495,47.655,-122.3035,60.0,2.7333333333333334
2026-01-20T23:02:45+00:00,SAT-64303,169.48874655515792,68.85433860653866,708.4116888298599,1.777658418765278,-62261.11731281585,10.5,10499937738.882687,47.655,-122.3035,60.0,2.75
2026-01-20T23:02:46+00:00,SAT-64303,170.03097668764536,69.40171875851019,710.1846068261752,1.8435138753506841,-64567.65397074193,10.5,10499935432.34603,47.655,-122.3035,60.0,2.7666666666666666
2026-01-20T23:02:47+00:00,SAT-64303,170.59954767169964,69.94456856432508,712.0232046645249,1.9088576900745018,-66856.27076643225,10.5,10499933143.729233,47.655,-122.3035,60.0,2.783333333333333
2026-01-20T23:02:48+00:00,SAT-64303,171.19624243545064,70.48268500090086,713.9269720674258,1.9736772825428504,-69126.52708127811,10.5,10499930873.47292,47.655,-122.3035,60.0,2.8
2026-01-20T23:02:49+00:00,SAT-64303,171.82299432277372,71.01585649460715,715.8953862105487,2.037960722561705,-71378.00506942006,10.5,10499928621.99493,47.655,-122.3035,60.0,2.816666666666667
2026-01-20T23:02:50+00:00,SAT-64303,172.48190125453974,71.5438616808273,717.9279123711835,2.1016967193989733,-73610.3092816605,10.5,10499926389.690718,47.655,-122.3035,60.0,2.8333333333333335
2026-01-20T23:02:51+00:00,SAT-64303,173.17524113961412,72.06646799705628,720.0240045659974,2.1648746133622776,-75823.06637048192,10.5,10499924176.93363,47.655,-122.3035,60.0,2.85
2026-01-20T23:02:52+00:00,SAT-64303,173.90548857721768,72.5834300912671,722.1831061803907,2.2274844081125846,-78015.92622180689,10.5,10499921984.073778,47.655,-122.3035,60.0,2.8666666666666667
2026-01-20T23:02:53+00:00,SAT-64303,174.67533287483343,73.0944880355907,724.4046506300816,2.2895167241666723,-80188.56032645778,10.5,10499919811.439674,47.655,-122.3035,60.0,2.8833333333333333
2026-01-20T23:02:54+00:00,SAT-64303,175.48769731989623,73.59936530082581,726.6880619763172,2.350962842158826,-82340.6632953644,10.5,10499917659.336704,47.655,-122.3035,60.0,2.9
2026-01-20T23:02:55+00:00,SAT-64303,176.34575963298533,74.09776649060178,729.0327555842302,2.4118146412944106,-84471.9507039477,10.5,10499915528.049295,47.655,-122.3035,60.0,2.9166666666666665
2026-01-20T23:02:56+00:00,SAT-64303,177.25297336823354,74.58937478265638,731.4381387198146,2.472064649853446,-86582.16086096864,10.5,10499913417.83914,47.655,-122.3035,60.0,2.933333333333333
2026-01-20T23:02:57+00:00,SAT-64303,178.21308997020364,75.07384907748458,733.9036111972684,2.5317060007959618,-88671.05325363988,10.5,10499911328.946747,47.655,-122.3035,60.0,2.95
2026-01-20T23:02:58+00:00,SAT-64303,179.23018094108502,75.55082080507438,736.4285659820623,2.590732442051536,-90738.40890800905,10.5,10499909261.591091,47.655,-122.3035,60.0,2.966666666666667
2026-01-20T23:02:59+00:00,SAT-64303,180.30865937977998,76.0198903786507,739.0123898042684,2.6491382891726594,-92784.02873067914,10.5,10499907215.97127,47.655,-122.3035,60.0,2.9833333333333334
2026-01-20T23:03:00+00:00,SAT-64303,181.45329978301663,76.48062326431501,741.6544637246699,2.7069185012456094,-94807.73616752861,10.5,10499905192.263832,47.655,-122.3035,60.0,3.0
2026-01-20T23:03:01+00:00,SAT-64303,182.66925464276022,76.93254568073714,744.3541637765788,2.7640685528824744,-96809.37272033034,10.5,10499903190.62728,47.655,-122.3035,60.0,3.0166666666666666
2026-01-20T23:03:02+00:00,SAT-64303,183.9620656766123,77.37513989400422,747.110861479987,2.8205845244821246,-98788.80110807292,10.5,10499901211.198893,47.655,-122.3035,60.0,3.033333333333333
2026-01-20T23:03:03+00:00,SAT-64303,185.33766699835354,77.80783917670999,749.9239244457372,2.8764630054102818,-100745.90187591696,10.5,10499899254.098124,47.655,-122.3035,60.0,3.05
2026-01-20T23:03:04+00:00,SAT-64303,186.80237647495,78.23002245662772,752.7927168831329,2.9317011667206856,-102680.57594219799,10.5,10499897319.424057,47.655,-122.3035,60.0,3.066666666666667
2026-01-20T23:03:05+00:00,SAT-64303,188.36287061267964,78.64100879156274,755.7166001800757,2.9862966690340365,-104592.74137195734,10.5,10499895407.258629,47.655,-122.3035,60.0,3.0833333333333335
2026-01-20T23:03:06+00:00,SAT-64303,190.0261369126796,79.04005181426288,758.6949333913257,3.0402476811350243,-106482.33402828884,10.5,10499893517.665972,47.655,-122.3035,60.0,3.1
2026-01-20T23:03:07+00:00,SAT-64303,191.79939640453563,79.42633442458764,761.727073745311,3.0935528859492503,-108349.30778167583,10.5,10499891650.692219,47.655,-122.3035,60.0,3.1166666666666667
2026-01-20T23:03:08+00:00,SAT-64303,193.68998763724633,79.79896409583904,764.8123771568977,3.146211422970436,-110193.63249354852,10.5,10499889806.367506,47.655,-122.3035,60.0,3.1333333333333333
2026-01-20T23:03:09+00:00,SAT-64303,195.70520220661973,80.1569692978834,767.9501986827402,3.1982228835929387,-112015.29385280886,10.5,10499887984.706146,47.655,-122.3035,60.0,3.15
2026-01-20T23:03:10+00:00,SAT-64303,197.85206136610643,80.49929772257926,771.1398929719769,3.249587337113031,-113814.29428650545,10.5,10499886185.705713,47.655,-122.3035,60.0,3.1666666666666665
2026-01-20T23:03:11+00:00,SAT-64303,200.13702377447487,80.82481717805283,774.3808147428578,3.3003052389019785,-115590.64974366625,10.5,10499884409.350256,47.655,-122.3035,60.0,3.183333333333333
2026-01-20T23:03:12+00:00,SAT-64303,202.56561668243398,81.13232018819035,777.6723191677892,3.35037749288683,-117344.3918836401,10.5,10499882655.608116,47.655,-122.3035,60.0,3.2
2026-01-20T23:03:13+00:00,SAT-64303,205.1419881421401,81.42053352041853,781.0137623206952,3.3998053853216335,-119075.5657564846,10.5,10499880924.434244,47.655,-122.3035,60.0,3.216666666666667
2026-01-20T23:03:14+00:00,SAT-64303,207.86838637229377,81.68813390279334,784.4045015583224,3.4485905526111496,-120784.2286760165,10.5,10499879215.771324,47.655,-122.3035,60.0,3.2333333333333334
2026-01-20T23:03:15+00:00,SAT-64303,210.74458552523143,81.93377112871832,787.84389586946,3.496735046757619,-122470.45251203417,10.5,10499877529.547487,47.655,-122.3035,60.0,3.25
2026-01-20T23:03:16+00:00,SAT-64303,213.7672942560002,82.15609942910075,791.3313062894263,3.544241226295017,-124134.31987037405,10.5,10499875865.68013,47.655,-122.3035,60.0,3.2666666666666666
2026-01-20T23:03:17+00:00,SAT-64303,216.92960281840323,82.35381733500049,794.8660962057845,3.5911117875668097,-125775.92518838983,10.5,10499874224.074812,47.655,-122.3035,60.0,3.283333333333333
2026-01-20T23:03:18+00:00,SAT-64303,220.22054308454756,82.52571529079398,798.4476316952511,3.6373497461891393,-127395.37408571487,10.5,10499872604.625914,47.655,-122.3035,60.0,3.3
2026-01-20T23:03:19+00:00,SAT-64303,223.62484733505605,82.6707289592224,802.0752818421171,3.6829584095243746,-128992.78240016942,10.5,10499871007.2176,47.655,-122.3035,60.0,3.316666666666667
2026-01-20T23:03:20+00:00,SAT-64303,227.12298967167385,82.78799471140276,805.748419029216,3.727941375836577,-130568.27615818159,10.5,10499869431.723843,47.655,-122.3035,60.0,3.3333333333333335
2026-01-20T23:03:21+00:00,SAT-64303,230.6915725514481,82.87690248944072,809.4664192280504,3.7723025103974206,-132121.99073791548,10.5,10499867878.009262,47.655,-122.3035,60.0,3.35
2026-01-20T23:03:22+00:00,SAT-64303,234.30407861296754,82.93714044792102,813.2286622650868,3.816045898250595,-133654.06921488082,10.5,10499866345.930784,47.655,-122.3035,60.0,3.3666666666666667
2026-01-20T23:03:23+00:00,SAT-64303,237.93195021768543,82.96872589477996,817.0345320409419,3.8591759044973437,-135164.66447338747,10.5,10499864835.335527,47.655,-122.3035,60.0,3.3833333333333333
2026-01-20T23:03:24+00:00,SAT-64303,241.54589876826392,82.97201824222105,820.883416809694,3.901697107474834,-136653.93686616945,10.5,10499863346.063133,47.655,-122.3035,60.0,3.4
2026-01-20T23:03:25+00:00,SAT-64303,245.1172991470422,82.94771182776778,824.774709391549,3.943614254343221,-138122.05265885583,10.5,10499861877.947342,47.655,-122.3035,60.0,3.4166666666666665
2026-01-20T23:03:26+00:00,SAT-64303,248.61950675655592,82.89680916021089,828.7078073412139,3.984932340997232,-139569.18682881256,10.5,10499860430.813171,47.655,-122.3035,60.0,3.433333333333333
2026-01-20T23:03:27+00:00,SAT-64303,252.02895111732113,82.82057774131262,832.6821131959686,4.025656501520482,-140995.51919336498,10.5,10499859004.480806,47.655,-122.3035,60.0,3.45
2026-01-20T23:03:28+00:00,SAT-64303,255.3259050591329,82.72049552441442,836.697034613485,4.065792063528076,-142401.2363481299,10.5,10499857598.763653,47.655,-122.3035,60.0,3.466666666666667
2026-01-20T23:03:29+00:00,SAT-64303,258.4948890859266,82.598190921637,840.7519845648436,4.105344502943558,-143786.53008311288,10.5,10499856213.469917,47.655,-122.3035,60.0,3.4833333333333334
2026-01-20T23:03:30+00:00,SAT-64303,261.52472847195685,82.45538303327106,844.846381482446,4.144319417300089,-145151.59644760287,10.5,10499854848.403553,47.655,-122.3035,60.0,3.5
2026-01-20T23:03:31+00:00,SAT-64303,264.4083239910429,82.29382669704192,848.9796493813,4.182722565200418,-146496.63713222696,10.5,10499853503.362867,47.655,-122.3035,60.0,3.5166666666666666
2026-01-20T23:03:32+00:00,SAT-64303,267.14221962709644,82.11526544133018,853.1512180196598,4.220559810592229,-147821.85751723748,10.5,10499852178.142483,47.655,-122.3035,60.0,3.533333333333333
2026-01-20T23:03:33+00:00,SAT-64303,269.726053351867,81.9213938808015,857.3605230040904,4.257837111067652,-149127.4662627115,10.5,10499850872.533737,47.655,-122.3035,60.0,3.55
2026-01-20T23:03:34+00:00,SAT-64303,272.1619660671895,81.71382977701275,861.6070058828619,4.294560563652979,-150413.67691230006,10.5,10499849586.323088,47.655,-122.3035,60.0,3.566666666666667
2026-01-20T23:03:35+00:00,SAT-64303,274.4540255815634,81.49409504845015,865.8901142850119,4.330736291999627,-151680.7039421788,10.5,10499848319.296059,47.655,-122.3035,60.0,3.5833333333333335
2026-01-20T23:03:36+00:00,SAT-64303,276.6077027548877,81.2636044763445,870.2093019468995,4.3663705426966075,-152928.76613431808,10.5,10499847071.233866,47.655,-122.3035,60.0,3.6
2026-01-20T23:03:37+00:00,SAT-64303,278.6294199175934,81.02366061185391,874.5640288348156,4.401469623175359,-154158.08440164718,10.5,10499845841.915598,47.655,-122.3035,60.0,3.6166666666666667
2026-01-20T23:03:38+00:00,SAT-64303,280.52617821840033,80.77545341524794,878.9537612056624,4.436039877255214,-155368.8809315535,10.5,10499844631.119068,47.655,-122.3035,60.0,3.6333333333333333
2026-01-20T23:03:39+00:00,SAT-64303,282.3052617473452,80.52006329664898,883.377971643245,4.470087731644884,-156561.38081456098,10.5,10499843438.619184,47.655,-122.3035,60.0,3.65
2026-01-20T23:03:40+00:00,SAT-64303,283.9740110201129,80.2584664389279,887.8361391409387,4.503619617553742,-157735.80929882595,10.5,10499842264.1907,47.655,-122.3035,60.0,3.6666666666666665
2026-01-20T23:03:41+00:00,SAT-64303,285.53965586489096,79.99154152410034,892.3277491061791,4.536642018064902,-158892.39344934243,10.5,10499841107.60655,47.655,-122.3035,60.0,3.683333333333333
2026-01-20T23:03:42+00:00,SAT-64303,287.0091972776043,79.72007718475072,896.8522934121958,4.569161465310021,-160031.36204899198,10.5,10499839968.63795,47.655,-122.3035,60.0,3.7
2026-01-20T23:03:43+00:00,SAT-64303,288.38932829144574,79.44477969647983,901.4092704469317,4.601184461084357,-161152.94281814704,10.5,10499838847.057182,47.655,-122.3035,60.0,3.716666666666667
2026-01-20T23:03:44+00:00,SAT-64303,289.6863850540916,79.16628057911764,905.9981850827864,4.6327175688132,-162257.36563572453,10.5,10499837742.634365,47.655,-122.3035,60.0,3.7333333333333334
2026-01-20T23:03:45+00:00,SAT-64303,290.9063207579,78.8851438757269,910.6185487380828,4.663767307628705,-163344.8588293085,10.5,10499836655.14117,47.655,-122.3035,60.0,3.75
2026-01-20T23:03:46+00:00,SAT-64303,292.0546963133769,78.60187298758893,915.2698793328912,4.69434024651037,-164415.65247234766,10.5,10499835584.347528,47.655,-122.3035,60.0,3.7666666666666666
2026-01-20T23:03:47+00:00,SAT-64303,293.1366830324759,78.31691698215889,919.9517013387441,4.724442925294465,-165469.97561757168,10.5,10499834530.024382,47.655,-122.3035,60.0,3.783333333333333
2026-01-20T23:03:48+00:00,SAT-64303,294.1570735522965,78.03067635746045,924.6635457495712,4.754081848294348,-166508.05607354754,10.5,10499833491.943926,47.655,-122.3035,60.0,3.8
2026-01-20T23:03:49+00:00,SAT-64303,295.12029819660506,77.74350826089571,929.4049500462702,4.783263558508176,-167530.12300374766,10.5,10499832469.876997,47.655,-122.3035,60.0,3.816666666666667
2026-01-20T23:03:50+00:00,SAT-64303,296.0304446831385,77.4557311787705,934.1754582352889,4.81199452192433,-168536.4028744361,10.5,10499831463.597126,47.655,-122.3035,60.0,3.8333333333333335
2026-01-20T23:03:51+00:00,SAT-64303,296.8912795911055,77.16762914051372,938.9746207718215,4.84028120607605,-169527.12220598466,10.5,10499830472.877794,47.655,-122.3035,60.0,3.85
2026-01-20T23:03:52+00:00,SAT-64303,297.7062705272162,76.87945546406138,943.801994561348,4.868130056538176,-170502.506749689,10.5,10499829497.49325,47.655,-122.3035,60.0,3.8666666666666667
2026-01-20T23:03:53+00:00,SAT-64303,298.47860819446737,76.59143608913976,948.6571429377354,4.8955474561427765,-171462.7800593274,10.5,10499828537.21994,47.655,-122.3035,60.0,3.8833333333333333
2026-01-20T23:03:54+00:00,SAT-64303,299.21122783838734,76.30377253987226,953.5396356006618,4.922539782367432,-172408.1655011416,10.5,10499827591.8345,47.655,-122.3035,60.0,3.9
2026-01-20T23:03:55+00:00,SAT-64303,299.90682975018746,76.01664454960111,958.4490486102762,4.949113346704891,-173338.88413030512,10.5,10499826661.11587,47.655,-122.3035,60.0,3.9166666666666665
2026-01-20T23:03:56+00:00,SAT-64303,300.56789860147285,75.73021239130382,963.3849643213899,4.975274411643572,-174255.15528565267,10.5,10499825744.844715,47.655,-122.3035,60.0,3.933333333333333
2026-01-20T23:03:57+00:00,SAT-64303,301.1967215182216,75.44461894230419,968.3469713346025,5.001029225252298,-175157.1978009838,10.5,10499824842.802198,47.655,-122.3035,60.0,3.95
2026-01-20T23:03:58+00:00,SAT-64303,301.79540485556566,75.15999151263475,973.3346644819208,5.026383968898463,-176045.22817393177,10.5,10499823954.771826,47.655,-122.3035,60.0,3.966666666666667
2026-01-20T23:03:59+00:00,SAT-64303,302.3658896694653,74.87644346935966,978.3476447602354,5.051344732885499,-176919.45971268477,10.5,10499823080.540287,47.655,-122.3035,60.0,3.9833333333333334
2026-01-20T23:04:00+00:00,SAT-64303,302.90996593042496,74.59407567941301,983.3855192404999,5.075917619691244,-177780.10615183008,10.5,10499822219.893848,47.655,-122.3035,60.0,4.0
2026-01-20T23:04:01+00:00,SAT-64303,303.4292855537079,74.31297778533765,988.447901079872,5.100108610877506,-178627.37699096423,10.5,10499821372.623009,47.655,-122.3035,60.0,4.016666666666667
2026-01-20T23:04:02+00:00,SAT-64303,303.92537428764797,74.03322934647841,993.5344094011205,5.123923701220824,-179461.48219251953,10.5,10499820538.517807,47.655,-122.3035,60.0,4.033333333333333
2026-01-20T23:04:03+00:00,SAT-64303,304.39964256987304,73.7549008473121,998.6446693058048,5.147368747391938,-180282.6268818789,10.5,10499819717.373117,47.655,-122.3035,60.0,4.05
2026-01-20T23:04:04+00:00,SAT-64303,304.8533953972486,73.47805460375379,1003.7783117365369,5.170449573063004,-181091.01502867544,10.5,10499818908.984972,47.655,-122.3035,60.0,4.066666666666666
2026-01-20T23:04:05+00:00,SAT-64303,305.2878413171356,73.2027455660684,1008.9349734440718,5.193171976854757,-181886.84972513534,10.5,10499818113.150274,47.655,-122.3035,60.0,4.083333333333333
2026-01-20T23:04:06+00:00,SAT-64303,305.7041006023103,72.92902203543241,1014.1142969623216,5.215541609412755,-182670.32888076833,10.5,10499817329.67112,47.655,-122.3035,60.0,4.1
2026-01-20T23:04:07+00:00,SAT-64303,306.103212670788,72.65692631103077,1019.3159304607759,5.2375641462171,-183441.6512748948,10.5,10499816558.348724,47.655,-122.3035,60.0,4.116666666666666
2026-01-20T23:04:08+00:00,SAT-64303,306.48614284399827,72.38649526066177,1024.5395277692699,5.2592451341901425,-184201.01118419896,10.5,10499815798.988815,47.655,-122.3035,60.0,4.133333333333334
2026-01-20T23:04:09+00:00,SAT-64303,306.8537884761701,72.11776084000174,1029.7847482497687,5.280590064673037,-184948.60093867636,10.5,10499815051.399061,47.655,-122.3035,60.0,4.15
2026-01-20T23:04:10+00:00,SAT-64303,307.2069845323985,71.85075055520305,1035.051256740936,5.301604364224159,-185684.6105993556,10.5,10499814315.3894,47.655,-122.3035,60.0,4.166666666666667
2026-01-20T23:04:11+00:00,SAT-64303,307.54650866065367,71.58548787915974,1040.3387234935224,5.322293398452868,-186409.22809257303,10.5,10499813590.771908,47.655,-122.3035,60.0,4.183333333333334
2026-01-20T23:04:12+00:00,SAT-64303,307.8730858062183,71.3219926260217,1045.6468241095793,5.342662449348839,-187122.63841594977,10.5,10499812877.361584,47.655,-122.3035,60.0,4.2
2026-01-20T23:04:13+00:00,SAT-64303,308.18739241077367,71.0602812898343,1050.9752394590632,5.36271674600763,-187825.02471453138,10.5,10499812174.975285,47.655,-122.3035,60.0,4.216666666666667
2026-01-20T23:04:14+00:00,SAT-64303,308.49006023889916,70.80036734869019,1056.3236556270815,5.382461396909129,-188516.56590889237,10.5,10499811483.434092,47.655,-122.3035,60.0,4.233333333333333
2026-01-20T23:04:15+00:00,SAT-64303,308.78167986160395,70.5422615428076,1061.691763793599,5.401901502120661,-189197.44062496378,10.5,10499810802.559376,47.655,-122.3035,60.0,4.25
2026-01-20T23:04:16+00:00,SAT-64303,309.06280384042367,70.28597212083744,1067.0792602250472,5.421042072699434,-189867.82437116568,10.5,10499810132.175629,47.655,-122.3035,60.0,4.266666666666667
2026-01-20T23:04:17+00:00,SAT-64303,309.33394962903134,70.03150506668001,1072.4858461855526,5.439888015940189,-190527.88902171777,10.5,10499809472.11098,47.655,-122.3035,60.0,4.283333333333333
2026-01-20T23:04:18+00:00,SAT-64303,309.59560222265077,69.77886430596774,1077.9112278334503,5.458444195179829,-191177.8049112503,10.5,10499808822.19509,47.655,-122.3035,60.0,4.3
2026-01-20T23:04:19+00:00,SAT-64303,309.84821658425466,69.52805189075734,1083.355116177443,5.476715411382593,-191817.74018983904,10.5,10499808182.25981,47.655,-122.3035,60.0,4.316666666666666
2026-01-20T23:04:20+00:00,SAT-64303,310.0922198628031,69.27906816828646,1088.8172270143953,5.494706362296969,-192447.85939250738,10.5,10499807552.140608,47.655,-122.3035,60.0,4.333333333333333
2026-01-20T23:04:21+00:00,SAT-64303,310.3280134229761,69.03191193635473,1094.2972808263928,5.512421711391512,-193068.32585365063,10.5,10499806931.674147,47.655,-122.3035,60.0,4.35
2026-01-20T23:04:22+00:00,SAT-64303,310.5559747087452,68.78658058183481,1099.7950027465538,5.52986601447947,-193679.29913711984,10.5,10499806320.700863,47.655,-122.3035,60.0,4.366666666666666
2026-01-20T23:04:23+00:00,SAT-64303,310.77645894943,68.54307021020286,1105.3101224516613,5.54704379872753,-194280.9378034422,10.5,10499805719.062197,47.655,-122.3035,60.0,4.383333333333334
2026-01-20T23:04:24+00:00,SAT-64303,310.9898007296914,68.3013757603487,1110.8423741335926,5.563959474832503,-194873.39633387732,10.5,10499805126.603666,47.655,-122.3035,60.0,4.4
2026-01-20T23:04:25+00:00,SAT-64303,311.1963154283658,68.06149111325448,1116.3914963831587,5.580617411542741,-195456.8277404723,10.5,10499804543.17226,47.655,-122.3035,60.0,4.416666666666667
2026-01-20T23:04:26+00:00,SAT-64303,311.3963005448951,67.8234091882464,1121.9572321482706,5.597021908852092,-196031.3826272006,10.5,10499803968.617373,47.655,-122.3035,60.0,4.433333333333334
2026-01-20T23:04:27+00:00,SAT-64303,311.5900369194194,67.5871220321819,1127.5393286653657,5.613177212251128,-196597.20968910048,10.5,10499803402.790312,47.655,-122.3035,60.0,4.45
2026-01-20T23:04:28+00:00,SAT-64303,311.7777898571179,67.35262090059464,1133.1375374050508,5.629087442540867,-197154.45325405453,10.5,10499802845.546745,47.655,-122.3035,60.0,4.466666666666667
2026-01-20T23:04:29+00:00,SAT-64303,311.9598101624191,67.11989633499445,1138.751613947745,5.644756709697878,-197703.2572708274,10.5,10499802296.74273,47.655,-122.3035,60.0,4.483333333333333
2026-01-20T23:04:30+00:00,SAT-64303,312.1363350977893,66.88893822914538,1144.3813179728836,5.6601890427524095,-198243.7628531012,10.5,10499801756.237146,47.655,-122.3035,60.0,4.5
2026-01-20T23:04:31+00:00,SAT-64303,312.3075892665855,66.65973589275197,1150.0264131781887,5.675388399662461,-198776.10862530716,10.5,10499801223.891375,47.655,-122.3035,60.0,4.516666666666667
2026-01-20T23:04:32+00:00,SAT-64303,312.47378542949406,66.43227810960128,1155.6866672087854,5.690358673172416,-199300.43092781995,10.5,10499800699.569073,47.655,-122.3035,60.0,4.533333333333333
2026-01-20T23:04:33+00:00,SAT-64303,312.63512526035527,66.2065531907669,1161.3618515921626,5.70510366197144,-199816.86280680256,10.5,10499800183.137194,47.655,-122.3035,60.0,4.55
2026-01-20T23:04:34+00:00,SAT-64303,312.79180004472096,65.98254902474321,1167.051741644369,5.719627172839305,-200325.53759178525,10.5,10499799674.462408,47.655,-122.3035,60.0,4.566666666666666
2026-01-20T23:04:35+00:00,SAT-64303,312.9439913307752,65.76025311957545,1172.7561164780807,5.733932891585502,-200826.58437540734,10.5,10499799173.415625,47.655,-122.3035,60.0,4.583333333333333
2026-01-20T23:04:36+00:00,SAT-64303,313.0918715286758,65.53965264664949,1178.4747588819553,5.748024431436844,-201320.12970815584,10.5,10499798679.870293,47.655,-122.3035,60.0,4.6
2026-01-20T23:04:37+00:00,SAT-64303,313.2356044684672,65.32073447922596,1184.2074552482416,5.761905396803041,-201806.2998317053,10.5,10499798193.700169,47.655,-122.3035,60.0,4.616666666666666
2026-01-20T23:04:38+00:00,SAT-64303,313.37534592013776,65.10348522554114,1189.9539955639864,5.7755792877585685,-202285.2173334693,10.5,10499797714.782667,47.655,-122.3035,60.0,4.633333333333334
2026-01-20T23:04:39+00:00,SAT-64303,313.51124407437464,64.88789126288474,1195.7141733069775,5.789049587452154,-202757.00420804988,10.5,10499797242.995792,47.655,-122.3035,60.0,4.65
2026-01-20T23:04:40+00:00,SAT-64303,313.64343999198456,64.67393876584879,1201.4877854288632,5.802319641767192,-203221.77764243665,10.5,10499796778.222357,47.655,-122.3035,60.0,4.666666666666667
2026-01-20T23:04:41+00:00,SAT-64303,313.7720680193079,64.46161373677757,1207.2746322182525,5.815392805793481,-203679.65514606624,10.5,10499796320.344854,47.655,-122.3035,60.0,4.683333333333334
2026-01-20T23:04:42+00:00,SAT-64303,313.8972561789366,64.25090202859899,1213.0745173098971,5.828272372043969,-204130.75203666955,10.5,10499795869.247963,47.655,-122.3035,60.0,4.7
2026-01-20T23:04:43+00:00,SAT-64303,314.01912653215743,64.04178936844788,1218.8872476222823,5.840961566111258,-204575.1812881437,10.5,10499795424.818712,47.655,-122.3035,60.0,4.716666666666667
2026-01-20T23:04:44+00:00,SAT-64303,314.13779551689925,63.83426137965341,1224.712633290884,5.853463518014942,-205013.05252701484,10.5,10499794986.947474,47.655,-122.3035,60.0,4.733333333333333
2026-01-20T23:04:45+00:00,SAT-64303,314.25337426272074,63.628303603058214,1230.550487572851,5.865781351025448,-205444.47514342473,10.5,10499794555.524857,47.655,-122.3035,60.0,4.75
2026-01-20T23:04:46+00:00,SAT-64303,314.36596888699,63.42390151364269,1236.4006268402736,5.877918139308506,-205869.556807661,10.5,10499794130.443192,47.655,-122.3035,60.0,4.766666666666667
2026-01-20T23:04:47+00:00,SAT-64303,314.47568077102375,63.22104053727547,1242.2628705312106,5.889876873027979,-206288.4022479104,10.5,10499793711.597752,47.655,-122.3035,60.0,4.783333333333333
2026-01-20T23:04:48+00:00,SAT-64303,314.5826068172656,63.019706067451125,1248.1370410659106,5.901660484734664,-206701.11417450657,10.5,10499793298.885826,47.655,-122.3035,60.0,4.8
2026-01-20T23:04:49+00:00,SAT-64303,314.6868396910413,62.81988347980523,1254.0229637893524,5.913271874049514,-207107.79414444073,10.5,10499792892.205856,47.655,-122.3035,60.0,4.816666666666666
2026-01-20T23:04:50+00:00,SAT-64303,314.78846804715516,62.62155814474211,1259.9204669384046,5.924713889617769,-207508.54192931892,10.5,10499792491.45807,47.655,-122.3035,60.0,4.833333333333333
2026-01-20T23:04:51+00:00,SAT-64303,314.8875767421856,62.424715439641005,1265.8293815909833,5.93598933433879,-207903.45569853293,10.5,10499792096.544302,47.655,-122.3035,60.0,4.85
2026-01-20T23:04:52+00:00,SAT-64303,314.9842470334846,62.229340759975024,1271.7495416204306,5.947100941259672,-208292.63117495293,10.5,10499791707.368826,47.655,-122.3035,60.0,4.866666666666666
2026-01-20T23:04:53+00:00,SAT-64303,315.0785567655181,62.03541953035799,1277.680783625847,5.9580513996593725,-208676.16254850352,10.5,10499791323.837452,47.655,-122.3035,60.0,4.883333333333334
2026-01-20T23:04:54+00:00,SAT-64303,315.1705805454375,61.842937213880425,1283.6229468884405,5.968843355289854,-209054.14248461003,10.5,10499790945.857515,47.655,-122.3035,60.0,4.9
2026-01-20T23:04:55+00:00,SAT-64303,315.2603899078822,61.65187932072681,1289.5758733281164,5.979479421856776,-209426.6625263006,10.5,10499790573.337473,47.655,-122.3035,60.0,4.916666666666667
2026-01-20T23:04:56+00:00,SAT-64303,315.3480534702597,61.46223141572037,1295.5394074715148,5.989962136072789,-209793.81151998253,10.5,10499790206.18848,47.655,-122.3035,60.0,4.933333333333334
2026-01-20T23:04:57+00:00,SAT-64303,315.4336370778621,61.273979126702905,1301.5133963752246,6.00029400405851,-210155.67724060072,10.5,10499789844.32276,47.655,-122.3035,60.0,4.95
2026-01-20T23:04:58+00:00,SAT-64303,315.5172039414158,61.087108150787216,1307.4976895952723,6.0104775121205885,-210512.34676913114,10.5,10499789487.65323,47.655,-122.3035,60.0,4.966666666666667
2026-01-20T23:04:59+00:00,SAT-64303,315.5988147666599,60.90160425976662,1313.4921391673606,6.020515026259643,-210863.90297292353,10.5,10499789136.097027,47.655,-122.3035,60.0,4.983333333333333
2026-01-20T23:05:00+00:00,SAT-64303,315.67852787480444,60.7174533081617,1319.4965994868835,6.0304089653288555,-211210.4305704481,10.5,10499788789.56943,47.655,-122.3035,60.0,5.0
2026-01-20T23:05:01+00:00,SAT-64303,315.7563993189777,60.534641235351614,1325.5109273616383,6.040161659882289,-211552.01118756642,10.5,10499788447.988811,47.655,-122.3035,60.0,5.016666666666667
2026-01-20T23:05:02+00:00,SAT-64303,315.8324829916952,60.3531540717248,1331.5349819237608,6.049775357368643,-211888.72353943854,10.5,10499788111.27646,47.655,-122.3035,60.0,5.033333333333333
2026-01-20T23:05:03+00:00,SAT-64303,315.9068307263652,60.17297794420053,1337.568624546843,6.059252340689258,-212220.64758292623,10.5,10499787779.352417,47.655,-122.3035,60.0,5.05
2026-01-20T23:05:04+00:00,SAT-64303,315.97949239510865,59.99409907774064,1343.6117188812907,6.068594805988816,-212547.86023630577,10.5,10499787452.139763,47.655,-122.3035,60.0,5.066666666666666
2026-01-20T23:05:05+00:00,SAT-64303,316.0505159990737,59.81650380028676,1349.664130767797,6.077804930341292,-212870.4377499169,10.5,10499787129.56225,47.655,-122.3035,60.0,5.083333333333333
2026-01-20T23:05:06+00:00,SAT-64303,316.1199477550303,59.64017854528114,1355.7257282183239,6.086884820589782,-213188.45391431666,10.5,10499786811.546085,47.655,-122.3035,60.0,5.1
2026-01-20T23:05:07+00:00,SAT-64303,316.1878321763048,59.465109855440154,1361.7963813460588,6.095836565868457,-213501.98189982082,10.5,10499786498.0181,47.655,-122.3035,60.0,5.116666666666666
2026-01-20T23:05:08+00:00,SAT-64303,316.2542121502968,59.291284384654645,1367.8759623477515,6.1046622430923625,-213811.09444877965,10.5,10499786188.905552,47.655,-122.3035,60.0,5.133333333333334
2026-01-20T23:05:09+00:00,SAT-64303,316.31912901172996,59.11868889953591,1373.964345491529,6.113363856354497,-214115.8617530072,10.5,10499785884.138247,47.655,-122.3035,60.0,5.15
2026-01-20T23:05:10+00:00,SAT-64303,316.38262261132013,58.94731028245544,1380.0614070442666,6.121943352308606,-214416.35199255202,10.5,10499785583.648008,47.655,-122.3035,60.0,5.166666666666667
2026-01-20T23:05:11+00:00,SAT-64303,316.44473138094264,58.777135533898736,1386.1670252143024,6.130402724884563,-214712.63500327253,10.5,10499785287.364996,47.655,-122.3035,60.0,5.183333333333334
2026-01-20T23:05:12+00:00,SAT-64303,316.50549239689315,58.60815177163628,1392.2810801985872,6.138743839521067,-215004.77612072282,10.5,10499784995.223879,47.655,-122.3035,60.0,5.2
2026-01-20T23:05:13+00:00,SAT-64303,316.5649414374193,58.44034623471853,1398.403454054536,6.146968600167427,-215292.8420292614,10.5,10499784707.15797,47.655,-122.3035,60.0,5.216666666666667
2026-01-20T23:05:14+00:00,SAT-64303,316.6231130396487,58.27370628253775,1404.5340307384363,6.155078808887087,-215576.89584477278,10.5,10499784423.104155,47.655,-122.3035,60.0,5.233333333333333
2026-01-20T23:05:15+00:00,SAT-64303,316.68004055158843,58.10821939770275,1410.6726960038334,6.1630763025855115,-215857.00190345637,10.5,10499784142.998096,47.655,-122.3035,60.0,5.25
2026-01-20T23:05:16+00:00,SAT-64303,316.73575618343915,57.94387318492572,1416.8193374362786,6.170962854245553,-216133.2223026715,10.5,10499783866.777697,47.655,-122.3035,60.0,5.266666666666667
2026-01-20T23:05:17+00:00,SAT-64303,316.79029105494624,57.780655372539705,1422.9738443895794,6.1787401893416805,-216405.61747583273,10.5,10499783594.382524,47.655,-122.3035,60.0,5.283333333333333
2026-01-20T23:05:18+00:00,SAT-64303,316.84367524069665,57.618553813393994,1429.136107938416,6.186409996363687,-216674.24656099494,10.5,10499783325.753439,47.655,-122.3035,60.0,5.3
2026-01-20T23:05:19+00:00,SAT-64303,316.8959378132316,57.45755648534774,1435.3060208414563,6.1939740225226005,-216939.170752879,10.5,10499783060.829247,47.655,-122.3035,60.0,5.316666666666666
2026-01-20T23:05:20+00:00,SAT-64303,316.94710688525095,57.29765148911123,1441.4834775999188,6.201433848033007,-217200.44539728406,10.5,10499782799.554604,47.655,-122.3035,60.0,5.333333333333333
2026-01-20T23:05:21+00:00,SAT-64303,316.99720964700384,57.138827052010306,1447.6683742910236,6.208791118386257,-217458.1281262776,10.5,10499782541.871874,47.655,-122.3035,60.0,5.35
2026-01-20T23:05:22+00:00,SAT-64303,317.04627240474554,56.981071525443376,1453.8606086330942,6.216047423217554,-217712.27461560862,10.5,10499782287.725384,47.655,-122.3035,60.0,5.366666666666666
2026-01-20T23:05:23+00:00,SAT-64303,317.09432061573784,56.82437338551967,1460.0600799298497,6.2232043399071415,-217962.94011180557,10.5,10499782037.059889,47.655,-122.3035,60.0,5.383333333333334
2026-01-20T23:05:24+00:00,SAT-64303,317.14137892228115,56.66872123243748,1466.2666890581838,6.23026338594614,-218210.17776382645,10.5,10499781789.822237,47.655,-122.3035,60.0,5.4
2026-01-20T23:05:25+00:00,SAT-64303,317.1874711834689,56.51410379103965,1472.4803384084344,6.237226046069888,-218454.03957338323,10.5,10499781545.960426,47.655,-122.3035,60.0,5.416666666666667
2026-01-20T23:05:26+00:00,SAT-64303,317.2326205058562,56.36050991057036,1478.7009318517146,6.24409382033096,-218694.57807866228,10.5,10499781305.42192,47.655,-122.3035,60.0,5.433333333333334
2026-01-20T23:05:27+00:00,SAT-64303,317.2768492731333,56.20792856317649,1484.9283747551913,6.25086819297172,-218931.84526410955,10.5,10499781068.154736,47.655,-122.3035,60.0,5.45
2026-01-20T23:05:28+00:00,SAT-64303,317.3201791741066,56.0563488431703,1491.162573966315,6.257550526952971,-219165.88886637767,10.5,10499780834.111134,47.655,-122.3035,60.0,5.466666666666667
2026-01-20T23:05:29+00:00,SAT-64303,317.3626312283748,55.90575996883437,1497.403437691863,6.2641422710751025,-219396.7596285847,10.5,10499780603.240372,47.655,-122.3035,60.0,5.483333333333333
2026-01-20T23:05:30+00:00,SAT-64303,317.40422581287396,55.75615127903836,1503.6508755835487,6.270644774826005,-219624.50481550492,10.5,10499780375.495184,47.655,-122.3035,60.0,5.5
2026-01-20T23:05:31+00:00,SAT-64303,317.44498268538194,55.60751223441193,1509.904798638975,6.27705940577324,-219849.17232513908,10.5,10499780150.827675,47.655,-122.3035,60.0,5.516666666666667
2026-01-20T23:05:32+00:00,SAT-64303,317.4849210081543,55.459832415577736,1516.1651192196662,6.283387502210399,-220070.80903018973,10.5,10499779929.19097,47.655,-122.3035,60.0,5.533333333333333
2026-01-20T23:05:33+00:00,SAT-64303,317.5240593700005,55.31310152252882,1522.4317510218707,6.289630314851844,-220289.45873596446,10.5,10499779710.541264,47.655,-122.3035,60.0,5.55
2026-01-20T23:05:34+00:00,SAT-64303,317.56241580690863,55.16730937534195,1528.7046089892162,6.295789198931405,-220505.1689084845,10.5,10499779494.83109,47.655,-122.3035,60.0,5.566666666666666
2026-01-20T23:05:35+00:00,SAT-64303,317.6000078233982,55.022445910311276,1534.9836094169505,6.301865365046866,-220717.98194800515,10.5,10499779282.018051,47.655,-122.3035,60.0,5.583333333333333
2026-01-20T23:05:36+00:00,SAT-64303,317.63685241088393,54.8785011819526,1541.2686698076905,6.307860043410497,-220927.94094176384,10.5,10499779072.05906,47.655,-122.3035,60.0,5.6
2026-01-20T23:05:37+00:00,SAT-64303,317.67296606651166,54.73546536110893,1547.5597088909851,6.313774474943526,-221135.0893520711,10.5,10499778864.910648,47.655,-122.3035,60.0,5.616666666666666
2026-01-20T23:05:38+00:00,SAT-64303,317.70836481122785,54.59332873325485,1553.8566466339955,6.3196098416378215,-221339.468577282,10.5,10499778660.531424,47.655,-122.3035,60.0,5.633333333333334
2026-01-20T23:05:39+00:00,SAT-64303,317.7430642064213,54.45208169841568,1560.1594041827223,6.32536732067191,-221541.11984716795,10.5,10499778458.880154,47.655,-122.3035,60.0,5.65
2026-01-20T23:05:40+00:00,SAT-64303,317.77707937035854,54.31171476980596,1566.4679038572058,6.331048052084881,-221740.08309072023,10.5,10499778259.91691,47.655,-122.3035,60.0,5.666666666666667
2026-01-20T23:05:41+00:00,SAT-64303,317.81042499356676,54.17221857321405,1572.782069114485,6.336653167076363,-221936.3979273348,10.5,10499778063.602072,47.655,-122.3035,60.0,5.683333333333334
2026-01-20T23:05:42+00:00,SAT-64303,317.8431153539643,54.03358384569955,1579.1018245397827,6.3421837924488615,-222130.10382240184,10.5,10499777869.896177,47.655,-122.3035,60.0,5.7
2026-01-20T23:05:43+00:00,SAT-64303,317.8751643311857,53.89580143423659,1585.4270958421184,6.34764101479327,-222321.23883293066,10.5,10499777678.761168,47.655,-122.3035,60.0,5.716666666666667
2026-01-20T23:05:44+00:00,SAT-64303,317.9065854202484,53.758862295109346,1591.7578098142053,6.353025873920625,-222509.83937750218,10.5,10499777490.160622,47.655,-122.3035,60.0,5.733333333333333
2026-01-20T23:05:45+00:00,SAT-64303,317.9373917444234,53.622757493467695,1598.0938942857956,6.358339477902745,-222695.94426547855,10.5,10499777304.055735,47.655,-122.3035,60.0,5.75
2026-01-20T23:05:46+00:00,SAT-64303,317.9675960686053,53.487478200326464,1604.4352781917573,6.363582818807737,-222879.58824328144,10.5,10499777120.411757,47.655,-122.3035,60.0,5.766666666666667
2026-01-20T23:05:47+00:00,SAT-64303,317.9972108106281,53.35301569363695,1610.7818914563816,6.368756935644166,-223060.8077013857,10.5,10499776939.192299,47.655,-122.3035,60.0,5.783333333333333
2026-01-20T23:05:48+00:00,SAT-64303,318.0262480534212,53.21936135577221,1617.1336650401972,6.3738628282437055,-223239.63765812587,10.5,10499776760.36234,47.655,-122.3035,60.0,5.8
2026-01-20T23:05:49+00:00,SAT-64303,318.0547195560094,53.08650667289938,1623.490530900899,6.37890146834822,-223416.11214801244,10.5,10499776583.887852,47.655,-122.3035,60.0,5.816666666666666
2026-01-20T23:05:50+00:00,SAT-64303,318.0826367641917,52.95444323410423,1629.8524219653318,6.383873832021472,-223590.2653569272,10.5,10499776409.734644,47.655,-122.3035,60.0,5.833333333333333
2026-01-20T23:05:51+00:00,SAT-64303,318.1100108209474,52.823162729838906,1636.219272133801,6.388780852115583,-223762.1299572974,10.5,10499776237.870043,47.655,-122.3035,60.0,5.85
2026-01-20T23:05:52+00:00,SAT-64303,318.1368525762343,52.69265695135916,1642.5910162369776,6.393623476987701,-223931.73916460187,10.5,10499776068.260836,47.655,-122.3035,60.0,5.866666666666666
2026-01-20T23:05:53+00:00,SAT-64303,318.16317259664174,52.56291778896317,1648.9675900513603,6.398402612382776,-224099.12470186007,10.5,10499775900.875298,47.655,-122.3035,60.0,5.883333333333334
2026-01-20T23:05:54+00:00,SAT-64303,318.1889811744271,52.43393723142396,1655.3489302567766,6.403119180521482,-224264.31886914102,10.5,10499775735.681131,47.655,-122.3035,60.0,5.9
2026-01-20T23:05:55+00:00,SAT-64303,318.2142883364845,52.30570736422501,1661.7349744528167,6.407774039564663,-224427.35172286746,10.5,10499775572.648277,47.655,-122.3035,60.0,5.916666666666667
2026-01-20T23:05:56+00:00,SAT-64303,318.2391038525364,52.17822036944324,1668.1256610949424,6.412368070335697,-224588.25411319992,10.5,10499775411.745886,47.655,-122.3035,60.0,5.933333333333334
2026-01-20T23:05:57+00:00,SAT-64303,318.26343724348277,52.05146852387179,1674.5209295170905,6.416902117423163,-224747.05562120315,10.5,10499775252.944378,47.655,-122.3035,60.0,5.95
2026-01-20T23:05:58+00:00,SAT-64303,318.2872977891668,51.92544419834032,1680.920719895534,6.421377059074781,-224903.78700682722,10.5,10499775096.212994,47.655,-122.3035,60.0,5.966666666666667
2026-01-20T23:05:59+00:00,SAT-64303,318.31069453610905,51.80013985567031,1687.3249732824513,6.425793672985976,-225058.4755082556,10.5,10499774941.524492,47.655,-122.3035,60.0,5.983333333333333
2026-01-20T23:06:00+00:00,SAT-64303,318.3336363043661,51.67554805128289,1693.7336315056425,6.430152798470004,-225211.1505217888,10.5,10499774788.849478,47.655,-122.3035,60.0,6.0
2026-01-20T23:06:01+00:00,SAT-64303,318.35613169489886,51.55166143060979,1700.1466372299833,6.434455228740781,-225361.8398291334,10.5,10499774638.160172,47.655,-122.3035,60.0,6.016666666666667
2026-01-20T23:06:02+00:00,SAT-64303,318.3781890961691,51.42847272864666,1706.5639339114475,6.4387017540482825,-225510.57110818633,10.5,10499774489.428892,47.655,-122.3035,60.0,6.033333333333333
2026-01-20T23:06:03+00:00,SAT-64303,318.39981669064707,51.30597476867335,1712.9854657941517,6.442893135587559,-225657.3710192181,10.5,10499774342.62898,47.655,-122.3035,60.0,6.05
2026-01-20T23:06:04+00:00,SAT-64303,318.42102246104383,51.18416046147549,1719.4111778813776,6.447030131645376,-225802.26612063884,10.5,10499774197.73388,47.655,-122.3035,60.0,6.066666666666666
2026-01-20T23:06:05+00:00,SAT-64303,318.4418141963114,51.06302280409724,1725.841015932672,6.451113499565496,-225945.28293783063,10.5,10499774054.717062,47.655,-122.3035,60.0,6.083333333333333
2026-01-20T23:06:06+00:00,SAT-64303,318.46219949761667,50.942554878536875,1732.2749264629053,6.455143972436639,-226086.4471466614,10.5,10499773913.552853,47.655,-122.3035,60.0,6.1
2026-01-20T23:06:07+00:00,SAT-64303,318.4821857837916,50.82274985094207,1738.712856718082,6.4591222554099215,-226225.78344450603,10.5,10499773774.216555,47.655,-122.3035,60.0,6.116666666666666
2026-01-20T23:06:08+00:00,SAT-64303,318.5017802967493,50.70360097084099,1745.1547546474776,6.463049090173142,-226363.3178084086,10.5,10499773636.682192,47.655,-122.3035,60.0,6.133333333333334
2026-01-20T23:06:09+00:00,SAT-64303,318.52099010686874,50.585101569207296,1751.6005689400768,6.466925124816535,-226499.07293723052,10.5,10499773500.927063,47.655,-122.3035,60.0,6.15
2026-01-20T23:06:10+00:00,SAT-64303,318.5398221176734,50.46724505895597,1758.0502489312273,6.470751077938457,-226633.07399932592,10.5,10499773366.926,47.655,-122.3035,60.0,6.166666666666667
2026-01-20T23:06:11+00:00,SAT-64303,318.55828307108095,50.35002493238597,1764.5037446729577,6.474527634877843,-226765.34499816317,10.5,10499773234.655003,47.655,-122.3035,60.0,6.183333333333334
2026-01-20T23:06:12+00:00,SAT-64303,318.5763795519832,50.233434760590164,1770.9610069008093,6.478255431189429,-226895.90819355773,10.5,10499773104.091806,47.655,-122.3035,60.0,6.2
2026-01-20T23:06:13+00:00,SAT-64303,318.5941179925768,50.11746819316472,1777.4219869841822,6.481935119140001,-227024.78643065132,10.5,10499772975.21357,47.655,-122.3035,60.0,6.216666666666667
2026-01-20T23:06:14+00:00,SAT-64303,318.61150467689976,50.00211895669537,1783.8866369430045,6.485567372995398,-227152.0033250859,10.5,10499772847.996675,47.655,-122.3035,60.0,6.233333333333333
2026-01-20T23:06:15+00:00,SAT-64303,318.6285457451702,49.88738085319196,1790.354909469672,6.489152785148271,-227277.5796249579,10.5,10499772722.420376,47.655,-122.3035,60.0,6.25
2026-01-20T23:06:16+00:00,SAT-64303,318.6452471975685,49.77324776040454,1796.826757847393,6.4926920091451015,-227401.53822022956,10.5,10499772598.46178,47.655,-122.3035,60.0,6.266666666666667
2026-01-20T23:06:17+00:00,SAT-64303,318.6616148984918,49.659713629566504,1803.3021360111804,6.496185633191317,-227523.8997123431,10.5,10499772476.100288,47.655,-122.3035,60.0,6.283333333333333
2026-01-20T23:06:18+00:00,SAT-64303,318.67765458012127,49.546772485436804,1809.7809984826833,6.499634235399103,-227644.68434923264,10.5,10499772355.31565,47.655,-122.3035,60.0,6.3
2026-01-20T23:06:19+00:00,SAT-64303,318.69337184609356,49.4344184253467,1816.2633003601213,6.5030384726879955,-227763.91513899912,10.5,10499772236.084862,47.655,-122.3035,60.0,6.316666666666666
2026-01-20T23:06:20+00:00,SAT-64303,318.70877217548264,49.32264561670081,1822.7489973968823,6.506398870403752,-227881.61048147315,10.5,10499772118.389519,47.655,-122.3035,60.0,6.333333333333333
2026-01-20T23:06:21+00:00,SAT-64303,318.72386092566,49.211448298215736,1829.2380458702983,6.509716011319186,-227997.7907878238,10.5,10499772002.209211,47.655,-122.3035,60.0,6.35
2026-01-20T23:06:22+00:00,SAT-64303,318.73864333597896,49.10082077781073,1835.7304026389206,6.512990462837782,-228112.4759309212,10.5,10499771887.524069,47.655,-122.3035,60.0,6.366666666666666
2026-01-20T23:06:23+00:00,SAT-64303,318.75312453091004,48.990757431825465,1842.226025127191,6.516222794958504,-228225.6858745402,10.5,10499771774.314125,47.655,-122.3035,60.0,6.383333333333334
2026-01-20T23:06:24+00:00,SAT-64303,318.7673095232672,48.881252703917326,1848.7248713280294,6.519413523693654,-228337.4386916143,10.5,10499771662.561308,47.655,-122.3035,60.0,6.4
2026-01-20T23:06:25+00:00,SAT-64303,318.7812032169636,48.772301104967674,1855.2268997489932,6.522563195862546,-228447.753534069,10.5,10499771552.246466,47.655,-122.3035,60.0,6.416666666666667
2026-01-20T23:06:26+00:00,SAT-64303,318.79481041017743,48.66389721150901,1861.732069443,6.525672343315895,-228556.64902956598,10.5,10499771443.350971,47.655,-122.3035,60.0,6.433333333333334
2026-01-20T23:06:27+00:00,SAT-64303,318.8081357980708,48.556035664989665,1868.2403399934005,6.528741468119693,-228664.14276258004,10.5,10499771335.857237,47.655,-122.3035,60.0,6.45
2026-01-20T23:06:28+00:00,SAT-64303,318.82118397552006,48.44871117126565,1874.751671484272,6.531771090870892,-228770.25296661854,10.5,10499771229.747034,47.655,-122.3035,60.0,6.466666666666667
2026-01-20T23:06:29+00:00,SAT-64303,318.8339594397984,48.34191849931882,1881.2660245189006,6.534761730530739,-228874.9978178996,10.5,10499771125.002182,47.655,-122.3035,60.0,6.483333333333333
2026-01-20T23:06:30+00:00,SAT-64303,318.8464665932317,48.23565248030593,1887.78336021815,6.537713858386924,-228978.3938229117,10.5,10499771021.606176,47.655,-122.3035,60.0,6.5
2026-01-20T23:06:31+00:00,SAT-64303,318.8587097454801,48.12990800741066,1894.3036401729144,6.540627943857149,-229080.4574226482,10.5,10499770919.542578,47.655,-122.3035,60.0,6.516666666666667
2026-01-20T23:06:32+00:00,SAT-64303,318.87069311601044,48.02468003491331,1900.8268264422545,6.5435045150539155,-229181.2071138431,10.5,10499770818.792887,47.655,-122.3035,60.0,6.533333333333333
2026-01-20T23:06:33+00:00,SAT-64303,318.88242083663874,47.91996357630775,1907.352881611935,6.546344003981816,-229280.65802712445,10.5,10499770719.341972,47.655,-122.3035,60.0,6.55
2026-01-20T23:06:34+00:00,SAT-64303,318.8938969535123,47.81575370495604,1913.8817686985728,6.549146884746369,-229378.82676767296,10.5,10499770621.173233,47.655,-122.3035,60.0,6.566666666666666
2026-01-20T23:06:35+00:00,SAT-64303,318.9051254294337,47.712045552499575,1920.4134511916266,6.5519136191864416,-229475.7295110394,10.5,10499770524.270489,47.655,-122.3035,60.0,6.583333333333333
2026-01-20T23:06:36+00:00,SAT-64303,318.91611014602205,47.60883430816145,1926.947893041162,6.554644633460319,-229571.38118308948,10.5,10499770428.618816,47.655,-122.3035,60.0,6.6
2026-01-20T23:06:37+00:00,SAT-64303,318.92685490562224,47.50611521845112,1933.4850586222663,6.557340402889942,-229665.79843160827,10.5,10499770334.201569,47.655,-122.3035,60.0,6.616666666666666
2026-01-20T23:06:38+00:00,SAT-64303,318.93736343353356,47.40388358550238,1940.0249127840818,6.560001345461423,-229758.99589623744,10.5,10499770241.004105,47.655,-122.3035,60.0,6.633333333333334
2026-01-20T23:06:39+00:00,SAT-64303,318.94763937975415,47.30213476714449,1946.567420792622,6.562627883728242,-229850.9883765873,10.5,10499770149.011623,47.655,-122.3035,60.0,6.65
2026-01-20T23:06:40+00:00,SAT-64303,318.9576863209248,47.20086417597902,1953.1125483353271,6.565220444536305,-229941.79082260703,10.5,10499770058.209177,47.655,-122.3035,60.0,6.666666666666667
2026-01-20T23:06:41+00:00,SAT-64303,318.96750776216345,47.10006727848524,1959.6602615253446,6.5677794369369655,-230031.41756100528,10.5,10499769968.58244,47.655,-122.3035,60.0,6.683333333333334
2026-01-20T23:06:42+00:00,SAT-64303,318.9771071388151,46.99973959448386,1966.2105268837831,6.5703052807187365,-230119.88329455152,10.5,10499769880.116705,47.655,-122.3035,60.0,6.7
2026-01-20T23:06:43+00:00,SAT-64303,318.986487818227,46.89987669615759,1972.7633113504198,6.572798388999238,-230207.20249237222,10.5,10499769792.797508,47.655,-122.3035,60.0,6.716666666666667
2026-01-20T23:06:44+00:00,SAT-64303,318.99565310141253,46.8004742073711,1979.3185822770483,6.575259101491619,-230293.38705265895,10.5,10499769706.612947,47.655,-122.3035,60.0,6.733333333333333
2026-01-20T23:06:45+00:00,SAT-64303,319.00460622444155,46.70152780401691,1985.8763073542693,6.57768788652548,-230378.45337829523,10.5,10499769621.546621,47.655,-122.3035,60.0,6.75
2026-01-20T23:06:46+00:00,SAT-64303,319.0133503604729,46.603033211258676,1992.436454739764,6.580085071528266,-230462.41293717537,10.5,10499769537.587063,47.655,-122.3035,60.0,6.766666666666667
2026-01-20T23:06:47+00:00,SAT-64303,319.02188862081437,46.504986204946654,1998.9989929177682,6.582451045831898,-230545.2793653499,10.5,10499769454.720634,47.655,-122.3035,60.0,6.783333333333333
2026-01-20T23:06:48+00:00,SAT-64303,319.0302240566604,46.407382609903905,2005.5638907608113,6.584786198111672,-230627.06627587194,10.5,10499769372.933723,47.655,-122.3035,60.0,6.8
2026-01-20T23:06:49+00:00,SAT-64303,319.03835966051344,46.31021829921158,2012.1311175290614,6.587090866812477,-230707.78552251306,10.5,10499769292.214478,47.655,-122.3035,60.0,6.816666666666666
2026-01-20T23:06:50+00:00,SAT-64303,319.04629836747523,46.213489194233816,2018.700642820229,6.5893654574009375,-230787.45130642963,10.5,10499769212.548693,47.655,-122.3035,60.0,6.833333333333333
2026-01-20T23:06:51+00:00,SAT-64303,319.0540430567866,46.117191262899034,2025.2724366364102,6.591610274929111,-230866.07431183493,10.5,10499769133.925688,47.655,-122.3035,60.0,6.85
2026-01-20T23:06:52+00:00,SAT-64303,319.0615965529176,46.02132052049098,2031.8464692839395,6.593825691595807,-230943.66757470588,10.5,10499769056.332426,47.655,-122.3035,60.0,6.866666666666666
2026-01-20T23:06:53+00:00,SAT-64303,319.06896162701923,45.92587302795142,2038.4227114403577,6.596012068834222,-231020.24375396172,10.5,10499768979.756247,47.655,-122.3035,60.0,6.883333333333334
2026-01-20T23:06:54+00:00,SAT-64303,319.0761409981783,45.83084489135919,2045.001134143675,6.598169718095152,-231095.8137579268,10.5,10499768904.186241,47.655,-122.3035,60.0,6.9
