satellites_20260121_005943/SAT-59769.csv

timestamp,satellite,azimuth_deg,elevation_deg,distance_km,relative_velocity_kms,doppler_shift_hz,tx_freq_ghz,rx_freq_hz,ue_lat,ue_lon,ue_alt_m,time_minutes
2026-01-20T23:08:54+00:00,SAT-59769,210.3096844991629,30.120876423011197,1499.7275671014856,-5.954982788547854,208568.68680716597,10.5,10500208568.686808,47.655,-122.3035,60.0,8.9
2026-01-20T23:08:55+00:00,SAT-59769,210.3333156077495,30.283626446278365,1493.7884642670406,-5.946202354960412,208261.15888173654,10.5,10500208261.158882,47.655,-122.3035,60.0,8.916666666666666
2026-01-20T23:08:56+00:00,SAT-59769,210.35744389228947,30.447449831875748,1487.8581184516934,-5.937309710202845,207949.7008464765,10.5,10500207949.700846,47.655,-122.3035,60.0,8.933333333333334
2026-01-20T23:08:57+00:00,SAT-59769,210.3820778238558,30.612357477200195,1481.9366415673844,-5.928303221972868,207634.25553125527,10.5,10500207634.255531,47.655,-122.3035,60.0,8.95
2026-01-20T23:08:58+00:00,SAT-59769,210.407226066207,30.778360391242604,1476.0241471540035,-5.919181260893257,207314.76586839018,10.5,10500207314.76587,47.655,-122.3035,60.0,8.966666666666667
2026-01-20T23:08:59+00:00,SAT-59769,210.432897481386,30.94546969583422,1470.1207503764726,-5.909942200576387,206991.174894907,10.5,10500206991.174894,47.655,-122.3035,60.0,8.983333333333333
2026-01-20T23:09:00+00:00,SAT-59769,210.45910113552614,31.113696626915107,1464.2265680217645,-5.900584324260453,206663.42248254543,10.5,10500206663.422483,47.655,-122.3035,60.0,9.0
2026-01-20T23:09:01+00:00,SAT-59769,210.48584630439603,31.283052533130785,1458.3417185890353,-5.891105942313188,206331.44945323633,10.5,10500206331.449453,47.655,-122.3035,60.0,9.016666666666667
2026-01-20T23:09:02+00:00,SAT-59769,210.5131424797106,31.45354887771232,1452.4663222625684,-5.881505314370046,205995.19485205156,10.5,10500205995.194853,47.655,-122.3035,60.0,9.033333333333333
2026-01-20T23:09:03+00:00,SAT-59769,210.54099937529224,31.62519723811742,1446.6005009623698,-5.871780682187308,205654.5970978587,10.5,10500205654.597097,47.655,-122.3035,60.0,9.05
2026-01-20T23:09:04+00:00,SAT-59769,210.56942693358536,31.798009306573693,1440.744378362002,-5.8619302501790465,205309.59330164333,10.5,10500205309.593302,47.655,-122.3035,60.0,9.066666666666666
2026-01-20T23:09:05+00:00,SAT-59769,210.59843533233555,31.971996890015966,1434.8980799258234,-5.851952188895635,204960.11938834089,10.5,10500204960.119389,47.655,-122.3035,60.0,9.083333333333334
2026-01-20T23:09:06+00:00,SAT-59769,210.62803499148407,32.14717191007577,1429.0617329427646,-5.841844657076165,204606.11086920585,10.5,10500204606.110868,47.655,-122.3035,60.0,9.1
2026-01-20T23:09:07+00:00,SAT-59769,210.6582365804586,32.323546403667805,1423.2354665381072,-5.831605802300494,204247.50286464908,10.5,10500204247.502865,47.655,-122.3035,60.0,9.116666666666667
2026-01-20T23:09:08+00:00,SAT-59769,210.68905102572293,32.5011325235913,1417.419411684613,-5.821233694659192,203884.22778107887,10.5,10500203884.227781,47.655,-122.3035,60.0,9.133333333333333
2026-01-20T23:09:09+00:00,SAT-59769,210.72048951822367,32.67994253705822,1411.6137012798063,-5.810726383830439,203516.21730997518,10.5,10500203516.21731,47.655,-122.3035,60.0,9.15
2026-01-20T23:09:10+00:00,SAT-59769,210.7525635214121,32.85998882586387,1405.8184701663326,-5.800081949518798,203143.404194469,10.5,10500203143.404194,47.655,-122.3035,60.0,9.166666666666666
2026-01-20T23:09:11+00:00,SAT-59769,210.78528477990017,33.04128388807852,1400.0338551020127,-5.78929836587972,202765.71748091496,10.5,10500202765.717482,47.655,-122.3035,60.0,9.183333333333334
2026-01-20T23:09:12+00:00,SAT-59769,210.81866532758116,33.22384033551571,1394.2599948651084,-5.778373596805667,202383.08585621425,10.5,10500202383.085855,47.655,-122.3035,60.0,9.2
2026-01-20T23:09:13+00:00,SAT-59769,210.85271749665506,33.40767089402728,1388.497030264561,-5.767305614072604,201995.43828338184,10.5,10500201995.438284,47.655,-122.3035,60.0,9.216666666666667
2026-01-20T23:09:14+00:00,SAT-59769,210.88745392708157,33.59278840434636,1382.7451041321258,-5.756092303489342,201602.70071449928,10.5,10500201602.700714,47.655,-122.3035,60.0,9.233333333333333
2026-01-20T23:09:15+00:00,SAT-59769,210.92288757581952,33.779205819887444,1377.0043614081126,-5.744731567962226,201204.79970047603,10.5,10500201204.7997,47.655,-122.3035,60.0,9.25
2026-01-20T23:09:16+00:00,SAT-59769,210.95903172705277,33.96693620773265,1371.2749491243317,-5.733221224272643,200801.6587757613,10.5,10500200801.658775,47.655,-122.3035,60.0,9.266666666666667
2026-01-20T23:09:17+00:00,SAT-59769,210.99590000212277,34.155992746220434,1365.5570164899902,-5.72155910546552,200393.20204442219,10.5,10500200393.202044,47.655,-122.3035,60.0,9.283333333333333
2026-01-20T23:09:18+00:00,SAT-59769,211.0335063705469,34.3463887257508,1359.8507148754727,-5.709742976454607,199979.3512242839,10.5,10500199979.351225,47.655,-122.3035,60.0,9.3
2026-01-20T23:09:19+00:00,SAT-59769,211.07186516084673,34.53813754675458,1354.1561978802886,-5.697770618550599,199560.02860746183,10.5,10500199560.028608,47.655,-122.3035,60.0,9.316666666666666
2026-01-20T23:09:20+00:00,SAT-59769,211.1109910724257,34.731252720351094,1348.473621316721,-5.68563969963107,199135.15251316372,10.5,10500199135.152514,47.655,-122.3035,60.0,9.333333333333334
2026-01-20T23:09:21+00:00,SAT-59769,211.15089918692914,34.92574786456957,1342.8031433229555,-5.673347922629567,198704.64248840595,10.5,10500198704.642488,47.655,-122.3035,60.0,9.35
2026-01-20T23:09:22+00:00,SAT-59769,211.19160498116403,35.12163670541319,1337.1449243281195,-5.660892935450627,198268.41615285593,10.5,10500198268.416153,47.655,-122.3035,60.0,9.366666666666667
2026-01-20T23:09:23+00:00,SAT-59769,211.2331243398375,35.31893307480922,1331.4991271071635,-5.648272312909917,197826.38856629984,10.5,10500197826.388567,47.655,-122.3035,60.0,9.383333333333333
2026-01-20T23:09:24+00:00,SAT-59769,211.27547356864787,35.51765090775384,1325.8659168537547,-5.635483676008594,197378.47640613504,10.5,10500197378.476406,47.655,-122.3035,60.0,9.4
2026-01-20T23:09:25+00:00,SAT-59769,211.31866940884439,35.7178042434822,1320.2454611342152,-5.62252451826368,196924.59188472526,10.5,10500196924.591885,47.655,-122.3035,60.0,9.416666666666666
2026-01-20T23:09:26+00:00,SAT-59769,211.36272905097215,35.91940722044008,1314.637930014667,-5.609392379317972,196464.6488299539,10.5,10500196464.64883,47.655,-122.3035,60.0,9.433333333333334
2026-01-20T23:09:27+00:00,SAT-59769,211.4076701505638,36.12247407719604,1309.0434960150274,-5.596084680782764,195998.55693574194,10.5,10500195998.556936,47.655,-122.3035,60.0,9.45
2026-01-20T23:09:28+00:00,SAT-59769,211.4535108431221,36.327019147373164,1303.4623342267266,-5.58259890687542,195526.22808873968,10.5,10500195526.228088,47.655,-122.3035,60.0,9.466666666666667
2026-01-20T23:09:29+00:00,SAT-59769,211.50026976122862,36.53305686091218,1297.8946222502695,-5.568932387049204,195047.568755104,10.5,10500195047.568754,47.655,-122.3035,60.0,9.483333333333333
2026-01-20T23:09:30+00:00,SAT-59769,211.5479660504618,36.74060173726199,1292.340540349586,-5.5550825210904184,194562.48786435247,10.5,10500194562.487864,47.655,-122.3035,60.0,9.5
2026-01-20T23:09:31+00:00,SAT-59769,211.59661938796245,36.94966838661704,1286.800271381885,-5.541046582481071,194070.88992229165,10.5,10500194070.889923,47.655,-122.3035,60.0,9.516666666666667
2026-01-20T23:09:32+00:00,SAT-59769,211.64624999997488,37.160271503709964,1281.2740009236238,-5.526821890843165,193572.68105074624,10.5,10500193572.681051,47.655,-122.3035,60.0,9.533333333333333
2026-01-20T23:09:33+00:00,SAT-59769,211.69687868173014,37.37242586783416,1275.7619172244897,-5.5124056617752695,193067.76372820002,10.5,10500193067.76373,47.655,-122.3035,60.0,9.55
2026-01-20T23:09:34+00:00,SAT-59769,211.74852681673036,37.58614633701353,1270.2642113111456,-5.497795105116551,192556.04023141833,10.5,10500192556.040232,47.655,-122.3035,60.0,9.566666666666666
2026-01-20T23:09:35+00:00,SAT-59769,211.80121639777119,37.801447845649705,1264.7810769929763,-5.482987368789763,192037.41066859162,10.5,10500192037.41067,47.655,-122.3035,60.0,9.583333333333334
2026-01-20T23:09:36+00:00,SAT-59769,211.85497004832467,38.01834539978286,1259.3127109238367,-5.467979589434922,191511.7747527414,10.5,10500191511.774754,47.655,-122.3035,60.0,9.6
2026-01-20T23:09:37+00:00,SAT-59769,211.90981104531062,38.23685407407613,1253.8593126133069,-5.452768850963233,190979.03035010293,10.5,10500190979.03035,47.655,-122.3035,60.0,9.616666666666667
2026-01-20T23:09:38+00:00,SAT-59769,211.96576334245202,38.45698900692648,1248.4210844792794,-5.437352188421837,190439.0736154853,10.5,10500190439.073616,47.655,-122.3035,60.0,9.633333333333333
2026-01-20T23:09:39+00:00,SAT-59769,212.02285159462625,38.67876539542962,1242.9982318966934,-5.421726601931489,189891.79948042802,10.5,10500189891.79948,47.655,-122.3035,60.0,9.65
2026-01-20T23:09:40+00:00,SAT-59769,212.08110118345928,38.90219849060562,1237.5909632323671,-5.405889084190648,189337.10261651015,10.5,10500189337.102617,47.655,-122.3035,60.0,9.666666666666666
2026-01-20T23:09:41+00:00,SAT-59769,212.14053824432065,39.12730359347854,1232.199489852401,-5.389836537709855,188774.8745365485,10.5,10500188774.874537,47.655,-122.3035,60.0,9.683333333333334
2026-01-20T23:09:42+00:00,SAT-59769,212.2011896935699,39.35409604743379,1226.8240262121249,-5.373565843196772,188205.00598973077,10.5,10500188205.00599,47.655,-122.3035,60.0,9.7
2026-01-20T23:09:43+00:00,SAT-59769,212.26308325777765,39.5825912330219,1221.4647898778433,-5.357073846665687,187627.38651013598,10.5,10500187627.38651,47.655,-122.3035,60.0,9.716666666666667
2026-01-20T23:09:44+00:00,SAT-59769,212.32624750410224,39.81280456190123,1216.1220015614354,-5.340357389920799,187041.9054843881,10.5,10500187041.905485,47.655,-122.3035,60.0,9.733333333333333
2026-01-20T23:09:45+00:00,SAT-59769,212.39071187240484,40.04475147175406,1210.7958851245544,-5.3234132025877186,186448.4483701423,10.5,10500186448.44837,47.655,-122.3035,60.0,9.75
2026-01-20T23:09:46+00:00,SAT-59769,212.4565067074639,40.27844741616433,1205.486667690507,-5.306238010192503,185846.90048147005,10.5,10500185846.900482,47.655,-122.3035,60.0,9.766666666666667
2026-01-20T23:09:47+00:00,SAT-59769,212.5236632939723,40.51390785869772,1200.1945796483415,-5.288828508040177,185237.14607397447,10.5,10500185237.146074,47.655,-122.3035,60.0,9.783333333333333
2026-01-20T23:09:48+00:00,SAT-59769,212.5922138928448,40.75114826547323,1194.9198546829896,-5.2711813510394006,184619.0679884072,10.5,10500184619.06799,47.655,-122.3035,60.0,9.8
2026-01-20T23:09:49+00:00,SAT-59769,212.6621917790291,40.99018409686062,1189.662729815553,-5.253293137474014,183992.54708227896,10.5,10500183992.547083,47.655,-122.3035,60.0,9.816666666666666
2026-01-20T23:09:50+00:00,SAT-59769,212.73363128084074,41.2310307979553,1184.4234454597788,-5.235160420327426,183357.46262648798,10.5,10500183357.462627,47.655,-122.3035,60.0,9.833333333333334
2026-01-20T23:09:51+00:00,SAT-59769,212.80656782126962,41.47370378904502,1179.202245467239,-5.2167797510634735,182713.6938387105,10.5,10500182713.693838,47.655,-122.3035,60.0,9.85
2026-01-20T23:09:52+00:00,SAT-59769,212.88103796185433,41.71821845758503,1173.999377128845,-5.1981476179577575,182061.1177235034,10.5,10500182061.117723,47.655,-122.3035,60.0,9.866666666666667
2026-01-20T23:09:53+00:00,SAT-59769,212.95707944772312,41.964590146833615,1168.8150912378685,-5.1792604454179,181399.609048497,10.5,10500181399.609049,47.655,-122.3035,60.0,9.883333333333333
2026-01-20T23:09:54+00:00,SAT-59769,213.03473125473775,42.21283414379959,1163.6496421536385,-5.160114676548166,180729.04323615687,10.5,10500180729.043236,47.655,-122.3035,60.0,9.9
2026-01-20T23:09:55+00:00,SAT-59769,213.11403364014686,42.46296567053123,1158.5032877828942,-5.140706668477284,180049.29269772183,10.5,10500180049.292698,47.655,-122.3035,60.0,9.916666666666666
2026-01-20T23:09:56+00:00,SAT-59769,213.19502819406105,42.71499986981601,1153.376289665533,-5.121032766957225,179360.22944596846,10.5,10500179360.229446,47.655,-122.3035,60.0,9.933333333333334
2026-01-20T23:09:57+00:00,SAT-59769,213.2777578945626,42.96895179378092,1148.268912985954,-5.101089259612076,178661.7234577889,10.5,10500178661.723457,47.655,-122.3035,60.0,9.95
2026-01-20T23:09:58+00:00,SAT-59769,213.36226716476168,43.22483638953507,1143.1814266310346,-5.080872423497106,177953.64433991068,10.5,10500177953.64434,47.655,-122.3035,60.0,9.966666666666667
2026-01-20T23:09:59+00:00,SAT-59769,213.44860193342188,43.4826684864443,1138.114103200667,-5.060378474624677,177235.85956108046,10.5,10500177235.859562,47.655,-122.3035,60.0,9.983333333333333
2026-01-20T23:10:00+00:00,SAT-59769,213.53680969772117,43.74246278013515,1133.0672190686412,-5.039603636706807,176508.23685971939,10.5,10500176508.23686,47.655,-122.3035,60.0,10.0
2026-01-20T23:10:01+00:00,SAT-59769,213.62693959034286,44.00423381920242,1128.0410543749654,-5.018544035349658,175770.6405381666,10.5,10500175770.640537,47.655,-122.3035,60.0,10.016666666666667
2026-01-20T23:10:02+00:00,SAT-59769,213.71904244799563,44.26799598565809,1123.0358931237101,-4.997195801368008,175022.93508118903,10.5,10500175022.935081,47.655,-122.3035,60.0,10.033333333333333
2026-01-20T23:10:03+00:00,SAT-59769,213.81317088525535,44.53376347978698,1118.0520231778123,-4.975555050922376,174264.98446029934,10.5,10500174264.98446,47.655,-122.3035,60.0,10.05
2026-01-20T23:10:04+00:00,SAT-59769,213.90937937185447,44.8015503031531,1113.0897362736926,-4.953617833893797,173496.6503256225,10.5,10500173496.650326,47.655,-122.3035,60.0,10.066666666666666
2026-01-20T23:10:05+00:00,SAT-59769,214.00772431284503,45.07137023790131,1108.1493280873558,-4.931380179463642,172717.7936022935,10.5,10500172717.793602,47.655,-122.3035,60.0,10.083333333333334
2026-01-20T23:10:06+00:00,SAT-59769,214.10826413380678,45.34323682742886,1103.2310982550373,-4.9088380957776865,171928.27447869186,10.5,10500171928.274479,47.655,-122.3035,60.0,10.1
2026-01-20T23:10:07+00:00,SAT-59769,214.21105937044436,45.61716335602504,1098.3353503941817,-4.88598755540416,171127.95189712103,10.5,10500171127.951897,47.655,-122.3035,60.0,10.116666666666667
2026-01-20T23:10:08+00:00,SAT-59769,214.31617276255537,45.893162826604936,1093.4623921389255,-4.862824512158874,170316.68414309536,10.5,10500170316.684143,47.655,-122.3035,60.0,10.133333333333333
2026-01-20T23:10:09+00:00,SAT-59769,214.4236693532942,46.171247938215444,1088.612535158799,-4.83934490412163,169494.32895098755,10.5,10500169494.32895,47.655,-122.3035,60.0,10.15
2026-01-20T23:10:10+00:00,SAT-59769,214.53361659376458,46.45143106252345,1083.7860951744215,-4.815544608279639,168660.7419154494,10.5,10500168660.741915,47.655,-122.3035,60.0,10.166666666666666
2026-01-20T23:10:11+00:00,SAT-59769,214.6460844520808,46.733724216394585,1078.9833920184305,-4.791419521411588,167815.779324314,10.5,10500167815.779324,47.655,-122.3035,60.0,10.183333333333334
2026-01-20T23:10:12+00:00,SAT-59769,214.761145530222,47.01813903777796,1074.204749615743,-4.766965503391533,166959.29617285798,10.5,10500166959.296173,47.655,-122.3035,60.0,10.2
2026-01-20T23:10:13+00:00,SAT-59769,214.87887518580416,47.304686756936974,1069.4504960203603,-4.7421783890441365,166091.14657902246,10.5,10500166091.14658,47.655,-122.3035,60.0,10.216666666666667
2026-01-20T23:10:14+00:00,SAT-59769,214.99935166076574,47.59337816683724,1064.7209634403534,-4.717054003925534,165211.1843361253,10.5,10500165211.184336,47.655,-122.3035,60.0,10.233333333333333
2026-01-20T23:10:15+00:00,SAT-59769,215.12265621746684,47.884223592922815,1060.0164882471051,-4.691588172961537,164319.26321540796,10.5,10500164319.263216,47.655,-122.3035,60.0,10.25
2026-01-20T23:10:16+00:00,SAT-59769,215.24887328257773,48.17723286180955,1055.3374109759382,-4.665776680306031,163415.2355601065,10.5,10500163415.23556,47.655,-122.3035,60.0,10.266666666666667
2026-01-20T23:10:17+00:00,SAT-59769,215.37809059780602,48.47241526577191,1050.6840763667797,-4.639615325205499,162498.95424206348,10.5,10500162498.954243,47.655,-122.3035,60.0,10.283333333333333
2026-01-20T23:10:18+00:00,SAT-59769,215.51039938062678,48.76977952885824,1046.056833349108,-4.613099907345911,161570.2721485144,10.5,10500161570.272148,47.655,-122.3035,60.0,10.3
2026-01-20T23:10:19+00:00,SAT-59769,215.6458944936667,49.069333770258496,1041.4560350415152,-4.586226175106418,160629.04036971266,10.5,10500160629.040369,47.655,-122.3035,60.0,10.316666666666666
2026-01-20T23:10:20+00:00,SAT-59769,215.78467462211387,49.37108546226695,1036.8820388028757,-4.558989922177643,159675.11158291134,10.5,10500159675.111584,47.655,-122.3035,60.0,10.333333333333334
2026-01-20T23:10:21+00:00,SAT-59769,215.92684246416732,49.675041392354856,1032.3352061871572,-4.531386936122868,158708.3382507578,10.5,10500158708.338251,47.655,-122.3035,60.0,10.35
2026-01-20T23:10:22+00:00,SAT-59769,216.07250493092542,49.98120761974661,1027.8159029495307,-4.503412992455978,157728.57241387895,10.5,10500157728.572414,47.655,-122.3035,60.0,10.366666666666667
2026-01-20T23:10:23+00:00,SAT-59769,216.2217733575692,50.28958942919351,1023.3244990583878,-4.475063870942002,156735.6662617944,10.5,10500156735.666262,47.655,-122.3035,60.0,10.383333333333333
2026-01-20T23:10:24+00:00,SAT-59769,216.37476372739368,50.60019128329894,1018.8613686911017,-4.446335392351547,155729.47342021274,10.5,10500155729.473421,47.655,-122.3035,60.0,10.4
2026-01-20T23:10:25+00:00,SAT-59769,216.53159691027483,50.91301677478913,1014.4268901931298,-4.417223368865166,154709.84721398243,10.5,10500154709.847214,47.655,-122.3035,60.0,10.416666666666666
2026-01-20T23:10:26+00:00,SAT-59769,216.6923989135024,51.22806857262173,1010.0214460865816,-4.387723626430956,153676.64145014962,10.5,10500153676.64145,47.655,-122.3035,60.0,10.433333333333334
2026-01-20T23:10:27+00:00,SAT-59769,216.8573011482853,51.54534836664937,1005.6454230564877,-4.357832024281344,152629.7111015185,10.5,10500152629.711102,47.655,-122.3035,60.0,10.45
2026-01-20T23:10:28+00:00,SAT-59769,217.02644071297425,51.864856810586694,1001.2992119176045,-4.3275444428870085,151568.9118847466,10.5,10500151568.911884,47.655,-122.3035,60.0,10.466666666666667
2026-01-20T23:10:29+00:00,SAT-59769,217.19996069288914,52.18659346085901,996.9832075932318,-4.296856792719726,150494.10056725686,10.5,10500150494.100567,47.655,-122.3035,60.0,10.483333333333333
2026-01-20T23:10:30+00:00,SAT-59769,217.3780104787149,52.51055671260334,992.6978090852926,-4.265765017544756,149405.1350825508,10.5,10500149405.135082,47.655,-122.3035,60.0,10.5
2026-01-20T23:10:31+00:00,SAT-59769,217.56074610443653,52.83674373223445,988.4434194411281,-4.234265099854207,148301.8747205081,10.5,10500148301.87472,47.655,-122.3035,60.0,10.516666666666667
2026-01-20T23:10:32+00:00,SAT-59769,217.7483306063134,53.165150386513574,984.2204457148734,-4.202353060864505,147184.18012729762,10.5,10500147184.180128,47.655,-122.3035,60.0,10.533333333333333
2026-01-20T23:10:33+00:00,SAT-59769,217.94093440400772,53.495771167465314,980.0292989288379,-4.170024987678574,146051.9142567123,10.5,10500146051.914257,47.655,-122.3035,60.0,10.55
2026-01-20T23:10:34+00:00,SAT-59769,218.13873570673192,53.82859911503112,975.8703940077932,-4.137276983503424,144904.94062657826,10.5,10500144904.940626,47.655,-122.3035,60.0,10.566666666666666
2026-01-20T23:10:35+00:00,SAT-59769,218.34192094237955,54.16362573110008,971.7441497629125,-4.10410524239048,143743.12593647712,10.5,10500143743.125937,47.655,-122.3035,60.0,10.583333333333334
2026-01-20T23:10:36+00:00,SAT-59769,218.5506852173247,54.50084089446989,967.6509888011683,-4.070506019573704,142566.3390288621,10.5,10500142566.33903,47.655,-122.3035,60.0,10.6
2026-01-20T23:10:37+00:00,SAT-59769,218.76523280390285,54.84023276824005,963.5913374643135,-4.036475611633163,141374.45019430146,10.5,10500141374.450193,47.655,-122.3035,60.0,10.616666666666667
2026-01-20T23:10:38+00:00,SAT-59769,218.9857776577781,55.18178769983657,959.5656257876446,-4.002010409595328,140167.33303127642,10.5,10500140167.33303,47.655,-122.3035,60.0,10.633333333333333
2026-01-20T23:10:39+00:00,SAT-59769,219.21254397120293,55.52549011937976,955.5742874058083,-3.96710688441364,138944.86393764857,10.5,10500138944.863937,47.655,-122.3035,60.0,10.65
2026-01-20T23:10:40+00:00,SAT-59769,219.4457667611123,55.871322430481435,951.6177594730864,-3.9317615954379805,137706.92240729684,10.5,10500137706.922407,47.655,-122.3035,60.0,10.666666666666666
2026-01-20T23:10:41+00:00,SAT-59769,219.68569249561781,56.21926489490162,947.6964825752362,-3.89597118061467,136453.39068687992,10.5,10500136453.390686,47.655,-122.3035,60.0,10.683333333333334
2026-01-20T23:10:42+00:00,SAT-59769,219.93257976046158,56.56929550896513,943.8109006511032,-3.859732375864005,135184.1544545195,10.5,10500135184.154455,47.655,-122.3035,60.0,10.7
2026-01-20T23:10:43+00:00,SAT-59769,220.18669996988865,56.921389873755544,939.9614608949082,-3.8230420383929253,133899.1036363087,10.5,10500133899.103636,47.655,-122.3035,60.0,10.716666666666667
2026-01-20T23:10:44+00:00,SAT-59769,220.44833812547887,57.275521059023355,936.1486136352843,-3.7858971259965024,132598.13168136228,10.5,10500132598.131681,47.655,-122.3035,60.0,10.733333333333333
2026-01-20T23:10:45+00:00,SAT-59769,220.71779362317577,57.63165945619617,932.3728122349571,-3.7482947083357088,131281.1359568123,10.5,10500131281.135958,47.655,-122.3035,60.0,10.75
2026-01-20T23:10:46+00:00,SAT-59769,220.99538111385266,57.98977262265075,928.634512979177,-3.7102319859574195,129948.01841396859,10.5,10500129948.018414,47.655,-122.3035,60.0,10.766666666666667
2026-01-20T23:10:47+00:00,SAT-59769,221.28143142164348,58.34982511732367,924.934174945182,-3.6717062945912886,128598.68573881379,10.5,10500128598.68574,47.655,-122.3035,60.0,10.783333333333333
2026-01-20T23:10:48+00:00,SAT-59769,221.5762925229093,58.71177832555204,921.2722598673764,-3.6327151146787315,127233.04968574853,10.5,10500127233.049686,47.655,-122.3035,60.0,10.8
2026-01-20T23:10:49+00:00,SAT-59769,221.88033059014245,59.07559027280121,917.6492319930035,-3.593256048146655,125851.02626410927,10.5,10500125851.026264,47.655,-122.3035,60.0,10.816666666666666
2026-01-20T23:10:50+00:00,SAT-59769,222.19393110216922,59.441215423022754,914.0655579609852,-3.5533268693066806,124452.53752087435,10.5,10500124452.537521,47.655,-122.3035,60.0,10.833333333333334
2026-01-20T23:10:51+00:00,SAT-59769,222.51750003110337,59.80860446802444,910.5217066299966,-3.5129255165585853,123037.51125008338,10.5,10500123037.51125,47.655,-122.3035,60.0,10.85
2026-01-20T23:10:52+00:00,SAT-59769,222.85146510593242,60.17770410098209,907.0181489148156,-3.4720500937119243,121605.88103912608,10.5,10500121605.881039,47.655,-122.3035,60.0,10.866666666666667
2026-01-20T23:10:53+00:00,SAT-59769,223.19627715793143,60.548456773760954,903.5553576213536,-3.430698860800721,120157.58594703396,10.5,10500120157.585947,47.655,-122.3035,60.0,10.883333333333333
2026-01-20T23:10:54+00:00,SAT-59769,223.5524115513433,60.92080043552642,900.1338072908484,-3.388870303138088,118692.57292306508,10.5,10500118692.572924,47.655,-122.3035,60.0,10.9
2026-01-20T23:10:55+00:00,SAT-59769,223.9203697122952,61.29466825973295,896.7539739751852,-3.34656304882224,117210.79391741577,10.5,10500117210.793917,47.655,-122.3035,60.0,10.916666666666666
2026-01-20T23:10:56+00:00,SAT-59769,224.3006807450268,61.669988341572285,893.4163350944932,-3.3037759805227433,115712.20979644793,10.5,10500115712.209797,47.655,-122.3035,60.0,10.933333333333334
2026-01-20T23:10:57+00:00,SAT-59769,224.6939031607425,62.04668338542893,890.1213691832519,-3.26050813782303,114196.78692231083,10.5,10500114196.786922,47.655,-122.3035,60.0,10.95
2026-01-20T23:10:58+00:00,SAT-59769,225.10062670047932,62.42467035737662,886.8695557337963,-3.2167588154703406,112664.50059406957,10.5,10500112664.500593,47.655,-122.3035,60.0,10.966666666666667
2026-01-20T23:10:59+00:00,SAT-59769,225.5214742783034,62.80386012266581,883.6613749418339,-3.1725274938698047,111115.33261331393,10.5,10500111115.332613,47.655,-122.3035,60.0,10.983333333333333
2026-01-20T23:11:00+00:00,SAT-59769,225.95710402839848,63.18415704701413,880.4973075212811,-3.1278139394188407,109549.27479829338,10.5,10500109549.274797,47.655,-122.3035,60.0,11.0
2026-01-20T23:11:01+00:00,SAT-59769,226.4082114805873,63.56545857923401,877.3778344190341,-3.082618086181905,107966.32483966625,10.5,10500107966.32484,47.655,-122.3035,60.0,11.016666666666667
2026-01-20T23:11:02+00:00,SAT-59769,226.8755318362121,63.9476547866886,874.3034366477485,-3.036940194959342,106366.49187176379,10.5,10500106366.49187,47.655,-122.3035,60.0,11.033333333333333
2026-01-20T23:11:03+00:00,SAT-59769,227.35984238388238,64.33062787441875,871.2745949599758,-2.9907807119518433,104749.79152242167,10.5,10500104749.791523,47.655,-122.3035,60.0,11.05
2026-01-20T23:11:04+00:00,SAT-59769,227.8619650096254,64.71425164845131,868.2917896632559,-2.9441403979008767,103116.25043602398,10.5,10500103116.250437,47.655,-122.3035,60.0,11.066666666666666
2026-01-20T23:11:05+00:00,SAT-59769,228.38276883830764,65.09839095368204,865.355500306416,-2.8970202538583534,101465.90367364316,10.5,10500101465.903673,47.655,-122.3035,60.0,11.083333333333334
2026-01-20T23:11:06+00:00,SAT-59769,228.92317296759592,65.48290105776638,862.4662054399013,-2.8494215715670954,99798.79647757683,10.5,10500099798.796478,47.655,-122.3035,60.0,11.1
2026-01-20T23:11:07+00:00,SAT-59769,229.48414930358126,65.8676269934046,859.6243823258585,-2.8013459263141156,98114.9840210397,10.5,10500098114.98402,47.655,-122.3035,60.0,11.116666666666667
2026-01-20T23:11:08+00:00,SAT-59769,230.066725473104,66.25240284828526,856.8305066553478,-2.7527951829158024,96414.53161778982,10.5,10500096414.531618,47.655,-122.3035,60.0,11.133333333333333
2026-01-20T23:11:09+00:00,SAT-59769,230.6719877929545,66.63705100073305,854.0850522595864,-2.7037715180061452,94697.51550275665,10.5,10500094697.515503,47.655,-122.3035,60.0,11.15
2026-01-20T23:11:10+00:00,SAT-59769,231.30108427091253,67.02138129983777,851.3884907989616,-2.6542773907994888,92964.02180802905,10.5,10500092964.021809,47.655,-122.3035,60.0,11.166666666666666
2026-01-20T23:11:11+00:00,SAT-59769,231.95522758871883,67.4051901792134,848.7412914812044,-2.6043155985988062,91214.14850698969,10.5,10500091214.148506,47.655,-122.3035,60.0,11.183333333333334
2026-01-20T23:11:12+00:00,SAT-59769,232.63569803744463,67.78825971299963,846.1439207242017,-2.553889237023054,89448.00402130885,10.5,10500089448.00402,47.655,-122.3035,60.0,11.2
2026-01-20T23:11:13+00:00,SAT-59769,233.34384632041923,68.17035659738664,843.5968418584774,-2.503001739418088,87665.7086012815,10.5,10500087665.708601,47.655,-122.3035,60.0,11.216666666666667
2026-01-20T23:11:14+00:00,SAT-59769,234.08109616444614,68.55123106638317,841.1005147903644,-2.451656868601781,85867.39403670622,10.5,10500085867.394037,47.655,-122.3035,60.0,11.233333333333333
2026-01-20T23:11:15+00:00,SAT-59769,234.84894662996203,68.93061573293794,838.6553956734123,-2.3998587139634826,84053.20355529613,10.5,10500084053.203556,47.655,-122.3035,60.0,11.25
2026-01-20T23:11:16+00:00,SAT-59769,235.64897399990525,69.3082243550058,836.2619365826861,-2.3476117047201694,82223.29228696534,10.5,10500082223.292288,47.655,-122.3035,60.0,11.266666666666667
2026-01-20T23:11:17+00:00,SAT-59769,236.4828331044422,69.6837505292814,833.9205851758451,-2.2949206241365645,80377.82776187762,10.5,10500080377.827763,47.655,-122.3035,60.0,11.283333333333333
2026-01-20T23:11:18+00:00,SAT-59769,237.35225790443303,70.05686631501226,831.6317843400396,-2.241790594708367,78516.98939150048,10.5,10500078516.989391,47.655,-122.3035,60.0,11.3
2026-01-20T23:11:19+00:00,SAT-59769,238.25906110798064,70.42722078757656,829.3959718535838,-2.1882270939690316,76640.96902222547,10.5,10500076640.969023,47.655,-122.3035,60.0,11.316666666666666
2026-01-20T23:11:20+00:00,SAT-59769,239.2051325743242,70.7944385341358,827.2135800318653,-2.1342359454881827,74749.97062009451,10.5,10500074749.97062,47.655,-122.3035,60.0,11.333333333333334
2026-01-20T23:11:21+00:00,SAT-59769,240.1924361924602,71.15811809849006,825.0850353822318,-2.0798233384425187,72844.21095625576,10.5,10500072844.210957,47.655,-122.3035,60.0,11.35
2026-01-20T23:11:22+00:00,SAT-59769,241.22300489288398,71.5178303959944,823.0107582393584,-2.024995822369716,70923.91942322317,10.5,10500070923.919424,47.655,-122.3035,60.0,11.366666666666667
2026-01-20T23:11:23+00:00,SAT-59769,242.29893337361673,71.87311711633872,820.9911624058484,-1.9697602835808048,68989.33720873808,10.5,10500068989.337208,47.655,-122.3035,60.0,11.383333333333333
2026-01-20T23:11:24+00:00,SAT-59769,243.42236806214567,72.2234891399157,819.0266548163571,-1.9141239949606248,67040.71903999186,10.5,10500067040.71904,47.655,-122.3035,60.0,11.4
2026-01-20T23:11:25+00:00,SAT-59769,244.59549382990343,72.56842501851197,817.1176351520497,-1.8580945736249868,65078.33170060055,10.5,10500065078.331701,47.655,-122.3035,60.0,11.416666666666666
2026-01-20T23:11:26+00:00,SAT-59769,245.82051683564245,72.90736955215374,815.2644954972877,-1.8016800026202577,63102.454790616204,10.5,10500063102.45479,47.655,-122.3035,60.0,11.433333333333334
2026-01-20T23:11:27+00:00,SAT-59769,247.09964291415434,73.23973253310686,813.4676199746744,-1.7448886028512107,61113.37974332133,10.5,10500061113.379744,47.655,-122.3035,60.0,11.45
2026-01-20T23:11:28+00:00,SAT-59769,248.4350508365679,73.56488772123221,811.7273844080975,-1.6877290848236361,59111.41163747415,10.5,10500059111.411638,47.655,-122.3035,60.0,11.466666666666667
2026-01-20T23:11:29+00:00,SAT-59769,249.82885986211608,73.88217215347154,810.0441559341667,-1.6302104784043092,57096.8667372054,10.5,10500057096.866737,47.655,-122.3035,60.0,11.483333333333333
2026-01-20T23:11:30+00:00,SAT-59769,251.2830908964591,74.19088586836321,808.4182926837049,-1.572342182757899,55070.07424102022,10.5,10500055070.074242,47.655,-122.3035,60.0,11.5
2026-01-20T23:11:31+00:00,SAT-59769,252.79962085317175,74.4902921877596,806.8501434134342,-1.5141339303589108,53031.37502134414,10.5,10500053031.375021,47.655,-122.3035,60.0,11.516666666666667
2026-01-20T23:11:32+00:00,SAT-59769,254.38012982879746,74.77961867443825,805.3400471735564,-1.455595797884487,50981.122006034966,10.5,10500050981.122005,47.655,-122.3035,60.0,11.533333333333333
2026-01-20T23:11:33+00:00,SAT-59769,256.02604107246555,75.05805892225321,803.8883329644661,-1.3967381994026131,48919.67993980502,10.5,10500048919.67994,47.655,-122.3035,60.0,11.55
2026-01-20T23:11:34+00:00,SAT-59769,257.73845404876135,75.3247753317349,802.495319400262,-1.3375718695499133,46847.424795036335,10.5,10500046847.424795,47.655,-122.3035,60.0,11.566666666666666
2026-01-20T23:11:35+00:00,SAT-59769,259.5180713827511,75.57890302723557,801.161314389031,-1.278107868332803,44764.74393993738,10.5,10500044764.74394,47.655,-122.3035,60.0,11.583333333333334
2026-01-20T23:11:36+00:00,SAT-59769,261.3651211267744,75.81955506969884,799.886614808347,-1.2183575666166735,42672.035630312865,10.5,10500042672.035631,47.655,-122.3035,60.0,11.6
2026-01-20T23:11:37+00:00,SAT-59769,263.2792764657546,76.04582909029047,798.6715061952412,-1.1583326432897676,40569.70891023069,10.5,10500040569.70891,47.655,-122.3035,60.0,11.616666666666667
2026-01-20T23:11:38+00:00,SAT-59769,265.2595758181393,76.25681543887829,797.5162624390003,-1.09804506726331,38458.1829815904,10.5,10500038458.182981,47.655,-122.3035,60.0,11.633333333333333
2026-01-20T23:11:39+00:00,SAT-59769,267.30434707895927,76.45160688083939,796.4211454919164,-1.0375070902848953,36337.8869524176,10.5,10500036337.886953,47.655,-122.3035,60.0,11.65
2026-01-20T23:11:40+00:00,SAT-59769,269.4111405520767,76.62930980523716,795.3864050872056,-0.9767312540623335,34209.260086371156,10.5,10500034209.260086,47.655,-122.3035,60.0,11.666666666666666
2026-01-20T23:11:41+00:00,SAT-59769,271.5766757352429,76.78905681366783,794.4122784498207,-0.9157303415197837,32072.750095526848,10.5,10500032072.750095,47.655,-122.3035,60.0,11.683333333333334
2026-01-20T23:11:42+00:00,SAT-59769,273.7968072522934,76.93002043784539,793.4989900558783,-0.8545173993253565,29928.813929389256,10.5,10500029928.813929,47.655,-122.3035,60.0,11.7
2026-01-20T23:11:43+00:00,SAT-59769,276.0665153430679,77.05142763900133,792.6467513696178,-0.7931057138768417,27777.916933810382,10.5,10500027777.916933,47.655,-122.3035,60.0,11.716666666666667
2026-01-20T23:11:44+00:00,SAT-59769,278.3799253880172,77.15257460639322,791.8557606043114,-0.7315087902622984,25620.53211410053,10.5,10500025620.532114,47.655,-122.3035,60.0,11.733333333333333
2026-01-20T23:11:45+00:00,SAT-59769,280.7303597255378,77.23284128251726,791.1262025041564,-0.6697403490200282,23457.140021548832,10.5,10500023457.140022,47.655,-122.3035,60.0,11.75
2026-01-20T23:11:46+00:00,SAT-59769,283.11042318704847,77.29170497489092,790.4582481294004,-0.6078143047855931,21288.22800555152,10.5,10500021288.228006,47.655,-122.3035,60.0,11.766666666666667
2026-01-20T23:11:47+00:00,SAT-59769,285.5121213240186,77.32875238421599,789.8520546627609,-0.5457447571007886,19114.289891703284,10.5,10500019114.289892,47.655,-122.3035,60.0,11.783333333333333
2026-01-20T23:11:48+00:00,SAT-59769,287.92700779650187,77.34368941146714,789.3077652250124,-0.4835459716128162,16935.825323312736,10.5,10500016935.825323,47.655,-122.3035,60.0,11.8
2026-01-20T23:11:49+00:00,SAT-59769,290.34635479271657,77.3363481912753,788.8255087093239,-0.4212323630213495,14753.339164136578,10.5,10500014753.339165,47.655,-122.3035,60.0,11.816666666666666
2026-01-20T23:11:50+00:00,SAT-59769,292.76133824524544,77.3066909425288,788.405399632604,-0.35881848110592174,12567.341008999561,10.5,10500012567.34101,47.655,-122.3035,60.0,11.833333333333334
2026-01-20T23:11:51+00:00,SAT-59769,295.1632281976643,77.25481041126955,788.047538000781,-0.29631899496958775,10378.34463194091,10.5,10500010378.344631,47.655,-122.3035,60.0,11.85
2026-01-20T23:11:52+00:00,SAT-59769,297.54357415108075,77.18092688908925,787.752009189798,-0.2337486743656592,8186.867332197601,10.5,10500008186.867332,47.655,-122.3035,60.0,11.866666666666667
2026-01-20T23:11:53+00:00,SAT-59769,299.8943757015754,77.08538200089951,787.5188838452306,-0.17112237129252608,5993.429289577138,10.5,10500005993.429289,47.655,-122.3035,60.0,11.883333333333333
2026-01-20T23:11:54+00:00,SAT-59769,302.2082302008315,76.96862964532907,787.3482178002615,-0.10845500570912332,3798.5530641527844,10.5,10500003798.553064,47.655,-122.3035,60.0,11.9
2026-01-20T23:11:55+00:00,SAT-59769,304.47845135855266,76.83122461564952,787.2400520079009,-0.04576154611534525,1602.762916107533,10.5,10500001602.762917,47.655,-122.3035,60.0,11.916666666666666
2026-01-20T23:11:56+00:00,SAT-59769,306.69915514521824,76.6738095262882,787.1944124925752,0.016943008509830767,-593.4158268692106,10.5,10499999406.584173,47.655,-122.3035,60.0,11.933333333333334
2026-01-20T23:11:57+00:00,SAT-59769,308.86531200793354,76.49710070429707,787.211310319729,0.07964364550373713,-2789.457357827327,10.5,10499997210.542643,47.655,-122.3035,60.0,11.95
2026-01-20T23:11:58+00:00,SAT-59769,310.97276671370196,76.30187369075838,787.2907415821782,0.14232535731728654,-4984.8360489159095,10.5,10499995015.163952,47.655,-122.3035,60.0,11.966666666666667
2026-01-20T23:11:59+00:00,SAT-59769,313.0182291483983,76.08894892403609,787.4326874052092,0.20497315854185882,-7179.027047736863,10.5,10499992820.972952,47.655,-122.3035,60.0,11.983333333333333
2026-01-20T23:12:00+00:00,SAT-59769,314.9992405229164,75.85917809741946,787.6371139686617,0.26757210567955814,-9371.506969782944,10.5,10499990628.49303,47.655,-122.3035,60.0,12.0
2026-01-20T23:12:01+00:00,SAT-59769,316.91412032552137,75.61343155678117,787.903972548726,0.33010730990740667,-11561.754345493808,10.5,10499988438.245655,47.655,-122.3035,60.0,12.016666666666667
2026-01-20T23:12:02+00:00,SAT-59769,318.7618993638127,75.3525870029534,788.2331995724736,0.3925639618575051,-13749.250488162057,10.5,10499986250.749512,47.655,-122.3035,60.0,12.033333333333333
2026-01-20T23:12:03+00:00,SAT-59769,320.5422441130028,75.07751963656004,788.6247166970996,0.45492734297422,-15933.479891709983,10.5,10499984066.52011,47.655,-122.3035,60.0,12.05
2026-01-20T23:12:04+00:00,SAT-59769,322.2553768202788,74.78909381061442,789.0784309004925,0.5171828462323976,-18113.930956329048,10.5,10499981886.069044,47.655,-122.3035,60.0,12.066666666666666
2026-01-20T23:12:05+00:00,SAT-59769,323.9019952051753,74.48815616023066,789.5942345924684,0.5793159873209943,-20290.096380177918,10.5,10499979709.90362,47.655,-122.3035,60.0,12.083333333333334
2026-01-20T23:12:06+00:00,SAT-59769,325.4831946676714,74.17553013549657,790.1720057371565,0.641312432258087,-22461.474126576974,10.5,10499977538.525873,47.655,-122.3035,60.0,12.1
2026-01-20T23:12:07+00:00,SAT-59769,327.00039519909467,73.85201180968009,790.8116080029286,0.7031579976082639,-24627.567431622218,10.5,10499975372.432568,47.655,-122.3035,60.0,12.116666666666667
2026-01-20T23:12:08+00:00,SAT-59769,328.45527434451145,73.51836683502273,791.5128909125432,0.7648386834692644,-26787.885959516956,10.5,10499973212.11404,47.655,-122.3035,60.0,12.133333333333333
2026-01-20T23:12:09+00:00,SAT-59769,329.8497071080002,73.175328377859,792.2756900261899,0.8263406717643599,-28941.945742763743,10.5,10499971058.054256,47.655,-122.3035,60.0,12.15
2026-01-20T23:12:10+00:00,SAT-59769,331.18571303956253,72.82359589803497,793.0998271228295,0.8876503589344803,-31089.270327180955,10.5,10499968910.729673,47.655,-122.3035,60.0,12.166666666666666
2026-01-20T23:12:11+00:00,SAT-59769,332.4654105174154,72.46383461256035,793.9851104141402,0.9487543464304388,-33229.39043890026,10.5,10499966770.609562,47.655,-122.3035,60.0,12.183333333333334
2026-01-20T23:12:12+00:00,SAT-59769,333.69097783614416,72.09667552850163,794.9313347489801,1.0096394829158817,-35361.84546249245,10.5,10499964638.154537,47.655,-122.3035,60.0,12.2
2026-01-20T23:12:13+00:00,SAT-59769,334.86462068556233,71.72271590584633,795.9382818599415,1.070292848875219,-37486.18290187207,10.5,10499962513.817099,47.655,-122.3035,60.0,12.216666666666667
2026-01-20T23:12:14+00:00,SAT-59769,335.98854534692055,71.34252006964223,797.0057205945532,1.1307017897153733,-39601.95953966067,10.5,10499960398.04046,47.655,-122.3035,60.0,12.233333333333333
2026-01-20T23:12:15+00:00,SAT-59769,337.06493703251545,70.95662046493405,798.1334071794959,1.1908539257566202,-41708.74178710831,10.5,10499958291.258213,47.655,-122.3035,60.0,12.25
2026-01-20T23:12:16+00:00,SAT-59769,338.09594269373275,70.56551889009819,799.3210854947838,1.2507371368472504,-43806.10514523394,10.5,10499956193.894855,47.655,-122.3035,60.0,12.266666666666667
2026-01-20T23:12:17+00:00,SAT-59769,339.0836576635085,70.169687855628,800.5684873325995,1.3103396166288623,-45893.63610542549,10.5,10499954106.363895,47.655,-122.3035,60.0,12.283333333333333
2026-01-20T23:12:18+00:00,SAT-59769,340.03011561652386,69.76957199715336,801.8753327102506,1.3696498468281926,-47970.931249031026,10.5,10499952029.06875,47.655,-122.3035,60.0,12.3
2026-01-20T23:12:19+00:00,SAT-59769,340.9372812541223,69.3655895300234,803.2413301574873,1.4286566173085453,-50037.59794964463,10.5,10499949962.40205,47.655,-122.3035,60.0,12.316666666666666
2026-01-20T23:12:20+00:00,SAT-59769,341.80704528885036,68.95813370018253,804.6661770238164,1.4873490388369086,-52093.254820264825,10.5,10499947906.74518,47.655,-122.3035,60.0,12.333333333333334
2026-01-20T23:12:21+00:00,SAT-59769,342.64122131000437,68.54757421132553,806.1495597985497,1.5457165448766998,-54137.53177608406,10.5,10499945862.468224,47.655,-122.3035,60.0,12.35
2026-01-20T23:12:22+00:00,SAT-59769,343.44154416947976,68.13425861434821,807.69115443264,1.6037489022823594,-56170.07040905871,10.5,10499943829.92959,47.655,-122.3035,60.0,12.366666666666667
2026-01-20T23:12:23+00:00,SAT-59769,344.2096695898385,67.71851364463114,809.2906266711831,1.6614362086710956,-58190.523895856335,10.5,10499941809.476105,47.655,-122.3035,60.0,12.383333333333333
2026-01-20T23:12:24+00:00,SAT-59769,344.9471747318006,67.3006465021442,810.9476323832977,1.718768911443515,-60198.55766403872,10.5,10499939801.442335,47.655,-122.3035,60.0,12.4
2026-01-20T23:12:25+00:00,SAT-59769,345.6555595154884,66.88094606389528,812.6618179109773,1.7757378050783692,-62193.84929731246,10.5,10499937806.150703,47.655,-122.3035,60.0,12.416666666666666
2026-01-20T23:12:26+00:00,SAT-59769,346.3362485058793,66.45968403145058,814.4328204152421,1.832334030673378,-64176.08851944657,10.5,10499935823.91148,47.655,-122.3035,60.0,12.433333333333334
2026-01-20T23:12:27+00:00,SAT-59769,346.9905932169578,66.03711601183862,816.2602682218337,1.8885490742556548,-66144.97713509649,10.5,10499933855.022865,47.655,-122.3035,60.0,12.45
2026-01-20T23:12:28+00:00,SAT-59769,347.619874714232,65.61348253228815,818.1437811652247,1.9443748028575565,-68100.23029333295,10.5,10499931899.769707,47.655,-122.3035,60.0,12.466666666666667
2026-01-20T23:12:29+00:00,SAT-59769,348.22530642915865,65.18900998221356,820.082970968608,1.9998034181463344,-70041.57486355615,10.5,10499929958.425137,47.655,-122.3035,60.0,12.483333333333333
2026-01-20T23:12:30+00:00,SAT-59769,348.8080370797322,64.76391150281033,822.0774415776393,2.0548274928605657,-71968.75071165379,10.5,10499928031.249289,47.655,-122.3035,60.0,12.5
2026-01-20T23:12:31+00:00,SAT-59769,349.3691536623783,64.33838780861923,824.126789530519,2.10943995000097,-73881.5099711754,10.5,10499926118.490028,47.655,-122.3035,60.0,12.516666666666667
2026-01-20T23:12:32+00:00,SAT-59769,349.9096844477893,63.91262795645143,826.2306043073198,2.1636340806517707,-75779.6176675118,10.5,10499924220.382332,47.655,-122.3035,60.0,12.533333333333333
2026-01-20T23:12:33+00:00,SAT-59769,350.430601953818,63.48681005680686,828.3884686970898,2.217403536326905,-77662.851449827,10.5,10499922337.14855,47.655,-122.3035,60.0,12.55
2026-01-20T23:12:34+00:00,SAT-59769,350.93282585905365,63.06110193634125,830.5999591573199,2.270742312347045,-79531.00100885118,10.5,10499920468.998991,47.655,-122.3035,60.0,12.566666666666666
2026-01-20T23:12:35+00:00,SAT-59769,351.41722583440657,62.63566175604412,832.8646461568339,2.3236447598846595,-81383.86849874964,10.5,10499918616.131502,47.655,-122.3035,60.0,12.583333333333334
2026-01-20T23:12:36+00:00,SAT-59769,351.88462428381746,62.21063858272226,835.1820945306923,2.376105604581375,-83221.26918918168,10.5,10499916778.73081,47.655,-122.3035,60.0,12.6
2026-01-20T23:12:37+00:00,SAT-59769,352.3357989831859,61.78617291614495,837.5518638536614,2.4281199017013937,-85043.02989458338,10.5,10499914956.970106,47.655,-122.3035,60.0,12.616666666666667
2026-01-20T23:12:38+00:00,SAT-59769,352.77148559823866,61.36239718615596,839.9735087689584,2.4796830368531646,-86848.98899944383,10.5,10499913151.011,47.655,-122.3035,60.0,12.633333333333333
2026-01-20T23:12:39+00:00,SAT-59769,353.1923800877877,60.939436213788724,842.4465793177133,2.530790781341758,-88638.99839697922,10.5,10499911361.001602,47.655,-122.3035,60.0,12.65
2026-01-20T23:12:40+00:00,SAT-59769,353.5991409987376,60.51740763025139,844.9706213236382,2.5814392058634947,-90412.92046635374,10.5,10499909587.079535,47.655,-122.3035,60.0,12.666666666666666
2026-01-20T23:12:41+00:00,SAT-59769,353.99239162901745,60.09642228028875,847.5451766916192,2.6316247328101423,-92170.62990459384,10.5,10499907829.370096,47.655,-122.3035,60.0,12.683333333333334
2026-01-20T23:12:42+00:00,SAT-59769,354.372722084058,59.67658458856225,850.1697837584752,2.681344091127823,-93912.01214555616,10.5,10499906087.987854,47.655,-122.3035,60.0,12.7
2026-01-20T23:12:43+00:00,SAT-59769,354.74069121371497,59.25799290739416,852.8439775986934,2.7305943606693486,-95636.96491333401,10.5,10499904363.035088,47.655,-122.3035,60.0,12.716666666666667
2026-01-20T23:12:44+00:00,SAT-59769,355.0968284462838,58.8407398335715,855.567290374401,2.7793729070631947,-97345.39594109317,10.5,10499902654.60406,47.655,-122.3035,60.0,12.733333333333333
2026-01-20T23:12:45+00:00,SAT-59769,355.4416355084532,58.42491251313713,858.3392516203787,2.827677437979394,-99037.22494174165,10.5,10499900962.775059,47.655,-122.3035,60.0,12.75
2026-01-20T23:12:46+00:00,SAT-59769,355.77558805202506,58.01059291713301,861.1593885851901,2.875505923278432,-100712.38081120618,10.5,10499899287.619188,47.655,-122.3035,60.0,12.766666666666667
2026-01-20T23:12:47+00:00,SAT-59769,356.09913717479003,57.59785811026709,864.0272264926732,2.922856659398878,-102370.8038835594,10.5,10499897629.196115,47.655,-122.3035,60.0,12.783333333333333
2026-01-20T23:12:48+00:00,SAT-59769,356.4127108580903,57.18678049254646,866.942288867647,2.9697282256083044,-104012.444398742,10.5,10499895987.555601,47.655,-122.3035,60.0,12.8
2026-01-20T23:12:49+00:00,SAT-59769,356.71671531252764,56.77742803122772,869.904097817987,3.016119481812349,-105637.26242582682,10.5,10499894362.737574,47.655,-122.3035,60.0,12.816666666666666
2026-01-20T23:12:50+00:00,SAT-59769,357.0115362419925,56.36986447791455,872.9121743145145,3.062029547888088,-107245.22713918616,10.5,10499892754.772861,47.655,-122.3035,60.0,12.833333333333334
2026-01-20T23:12:51+00:00,SAT-59769,357.2975400286149,55.96414957454579,875.9660384502748,3.10745782968138,-108836.3177290287,10.5,10499891163.68227,47.655,-122.3035,60.0,12.85
2026-01-20T23:12:52+00:00,SAT-59769,357.5750748477729,55.560339242918694,879.0652097257438,3.1524039940520074,-110410.52252737485,10.5,10499889589.477472,47.655,-122.3035,60.0,12.866666666666667
2026-01-20T23:12:53+00:00,SAT-59769,357.84447171217363,55.15848576576261,882.209207309145,3.1968679339230195,-111967.83778393686,10.5,10499888032.162216,47.655,-122.3035,60.0,12.883333333333333
2026-01-20T23:12:54+00:00,SAT-59769,358.1060454491129,54.75863796093853,885.3975502619109,3.2408498106641046,-113508.2691505638,10.5,10499886491.73085,47.655,-122.3035,60.0,12.9
2026-01-20T23:12:55+00:00,SAT-59769,358.36009562121995,54.36084133993155,888.6297578064132,3.2843500182900423,-115031.83042731996,10.5,10499884968.169573,47.655,-122.3035,60.0,12.916666666666666
2026-01-20T23:12:56+00:00,SAT-59769,358.6069073877628,53.965138261241925,891.9053495579877,3.3273691621967956,-116538.54281773277,10.5,10499883461.457182,47.655,-122.3035,60.0,12.933333333333334
2026-01-20T23:12:57+00:00,SAT-59769,358.8467523116673,53.57156807726172,895.223845735752,3.369908092594618,-118028.43609976167,10.5,10499881971.5639,47.655,-122.3035,60.0,12.95
2026-01-20T23:12:58+00:00,SAT-59769,359.07988911962116,53.18016726873189,898.5847674067664,3.411967843261852,-119501.54648069714,10.5,10499880498.45352,47.655,-122.3035,60.0,12.966666666666667
2026-01-20T23:12:59+00:00,SAT-59769,359.30656441154963,52.79096957853899,901.9876366691129,3.4535496623083635,-120957.91767462617,10.5,10499879042.082325,47.655,-122.3035,60.0,12.983333333333333
2026-01-20T23:13:00+00:00,SAT-59769,359.52701332915035,52.404006134430894,905.4319768656552,3.4946550277473976,-122397.60144782452,10.5,10499877602.398552,47.655,-122.3035,60.0,13.0
2026-01-20T23:13:01+00:00,SAT-59769,359.74146018467366,52.01930556334883,908.9173128133286,3.535285535919225,-123820.65371088107,10.5,10499876179.346289,47.655,-122.3035,60.0,13.016666666666667
2026-01-20T23:13:02+00:00,SAT-59769,359.9501190450618,51.63689411143645,912.443170921152,3.5754430265325254,-125227.13889817573,10.5,10499874772.861101,47.655,-122.3035,60.0,13.033333333333333
2026-01-20T23:13:03+00:00,SAT-59769,0.15319428849409492,51.25679574422959,916.0090794329471,3.615129475688947,-126617.12622114712,10.5,10499873382.87378,47.655,-122.3035,60.0,13.05
2026-01-20T23:13:04+00:00,SAT-59769,0.3508811213421009,50.879032252759885,919.6145685633675,3.6543470614697657,-127990.69196541475,10.5,10499872009.308035,47.655,-122.3035,60.0,13.066666666666666
2026-01-20T23:13:05+00:00,SAT-59769,0.543366068022163,50.50362334727742,923.2591706993401,3.6930980594195897,-129347.91583017641,10.5,10499870652.08417,47.655,-122.3035,60.0,13.083333333333334
2026-01-20T23:13:06+00:00,SAT-59769,0.7308274263833289,50.130586756596,926.9424204972679,3.731384945019483,-130688.88451725016,10.5,10499869311.115482,47.655,-122.3035,60.0,13.1
2026-01-20T23:13:07+00:00,SAT-59769,0.9134357015593016,49.75993831208702,930.6638550824339,3.7692103203084115,-132013.68916104728,10.5,10499867986.310839,47.655,-122.3035,60.0,13.116666666666667
2026-01-20T23:13:08+00:00,SAT-59769,1.0913540106498067,49.391692034621784,934.4230141752215,3.806576936011133,-133322.42610358426,10.5,10499866677.573896,47.655,-122.3035,60.0,13.133333333333333
2026-01-20T23:13:09+00:00,SAT-59769,1.264738464917144,49.025860214987745,938.2194402394033,3.8434876240471185,-134615.19453066008,10.5,10499865384.80547,47.655,-122.3035,60.0,13.15
2026-01-20T23:13:10+00:00,SAT-59769,1.433738526882285,48.66245349655008,942.0526785631196,3.8799454075906312,-135892.10032662537,10.5,10499864107.899673,47.655,-122.3035,60.0,13.166666666666666
2026-01-20T23:13:11+00:00,SAT-59769,1.5984973516423224,48.30148094364609,945.9222774496234,3.915953360070861,-137153.251135971,10.5,10499862846.748863,47.655,-122.3035,60.0,13.183333333333334
2026-01-20T23:13:12+00:00,SAT-59769,1.7591521026619814,47.942950119482454,949.8277882674007,3.9515147064729623,-138398.75991131872,10.5,10499861601.24009,47.655,-122.3035,60.0,13.2
2026-01-20T23:13:13+00:00,SAT-59769,1.9158342538245154,47.58686715108389,953.768765601323,3.986632742351708,-139628.74207693688,10.5,10499860371.257923,47.655,-122.3035,60.0,13.216666666666667
2026-01-20T23:13:14+00:00,SAT-59769,2.0686698711732707,47.23323679827787,957.7447673230286,4.021310881897007,-140843.31721219808,10.5,10499859156.682787,47.655,-122.3035,60.0,13.233333333333333
2026-01-20T23:13:15+00:00,SAT-59769,2.217779880712873,46.88206251514267,961.7553547092404,4.055552620344578,-142042.60773504205,10.5,10499857957.392265,47.655,-122.3035,60.0,13.25
2026-01-20T23:13:16+00:00,SAT-59769,2.363280319845928,46.53334651174464,965.8000925225974,4.089361511947921,-143226.7381304608,10.5,10499856773.26187,47.655,-122.3035,60.0,13.266666666666667
2026-01-20T23:13:17+00:00,SAT-59769,2.505282574142159,46.1870898147854,969.8785490705135,4.12274122840517,-144395.83699685428,10.5,10499855604.163004,47.655,-122.3035,60.0,13.283333333333333
2026-01-20T23:13:18+00:00,SAT-59769,2.6438936031029607,45.84329232047178,973.9902963223095,4.155695489111008,-145550.0346031573,10.5,10499854449.965397,47.655,-122.3035,60.0,13.3
2026-01-20T23:13:19+00:00,SAT-59769,2.779216151162986,45.50195285069713,978.134909956783,4.188228074042206,-146689.46334014565,10.5,10499853310.53666,47.655,-122.3035,60.0,13.316666666666666
2026-01-20T23:13:20+00:00,SAT-59769,2.9113489477448766,45.16306920544275,982.3119694226277,4.220342830864562,-147814.25796935125,10.5,10499852185.742031,47.655,-122.3035,60.0,13.333333333333334
2026-01-20T23:13:21+00:00,SAT-59769,3.0403868967315284,44.82663821218997,986.5210580059434,4.252043669022177,-148924.55541604338,10.5,10499851075.444584,47.655,-122.3035,60.0,13.35
2026-01-20T23:13:22+00:00,SAT-59769,3.166421255571416,44.49265577349533,990.7617628918481,4.283334544914471,-150020.4942500653,10.5,10499849979.50575,47.655,-122.3035,60.0,13.366666666666667
2026-01-20T23:13:23+00:00,SAT-59769,3.2895398044113273,44.1611169135146,995.0336752113094,4.31421943350511,-151102.2136914587,10.5,10499848897.786308,47.655,-122.3035,60.0,13.383333333333333
2026-01-20T23:13:24+00:00,SAT-59769,3.4098270055156723,43.83201582446603,999.3363900596586,4.344702398275292,-152169.8560605236,10.5,10499847830.14394,47.655,-122.3035,60.0,13.4
2026-01-20T23:13:25+00:00,SAT-59769,3.527364156261573,43.50534590572751,1003.6695065848718,4.374787498109488,-153223.56351656327,10.5,10499846776.436483,47.655,-122.3035,60.0,13.416666666666666
2026-01-20T23:13:26+00:00,SAT-59769,3.642229531566664,43.18109980802867,1008.0326279829862,4.404478837966491,-154263.47983259856,10.5,10499845736.520168,47.655,-122.3035,60.0,13.433333333333334
2026-01-20T23:13:27+00:00,SAT-59769,3.7544985203709005,42.859269471857296,1012.4253615440516,4.43378056524182,-155289.7502679641,10.5,10499844710.249733,47.655,-122.3035,60.0,13.45
2026-01-20T23:13:28+00:00,SAT-59769,3.864243754916631,42.53984616439591,1016.8473186944527,4.46269680554768,-156302.5193190505,10.5,10499843697.48068,47.655,-122.3035,60.0,13.466666666666667
2026-01-20T23:13:29+00:00,SAT-59769,3.9715352318939297,42.22282051927552,1021.2981149751856,4.491231772155802,-157301.93455245602,10.5,10499842698.065447,47.655,-122.3035,60.0,13.483333333333333
2026-01-20T23:13:30+00:00,SAT-59769,4.076440430038347,41.908182566858905,1025.7773701292824,4.519389633658537,-158288.14196991784,10.5,10499841711.85803,47.655,-122.3035,60.0,13.5
2026-01-20T23:13:31+00:00,SAT-59769,4.179024418677065,41.59592177227556,1030.284708057251,4.547174592998302,-159261.2887762579,10.5,10499840738.711224,47.655,-122.3035,60.0,13.516666666666667
2026-01-20T23:13:32+00:00,SAT-59769,4.279349962714875,41.28602706626167,1034.8197568513347,4.574590859438624,-160221.52239769002,10.5,10499839778.477602,47.655,-122.3035,60.0,13.533333333333333
2026-01-20T23:13:33+00:00,SAT-59769,4.37747762171439,40.97848687651119,1039.382148801815,4.601642669935035,-161168.9912303193,10.5,10499838831.00877,47.655,-122.3035,60.0,13.55
2026-01-20T23:13:34+00:00,SAT-59769,4.473465844560269,40.67328915613916,1043.97152042463,4.628334230067363,-162103.84257134085,10.5,10499837896.157429,47.655,-122.3035,60.0,13.566666666666666
2026-01-20T23:13:35+00:00,SAT-59769,4.56737105822062,40.37042141471795,1048.587512430084,4.654669764203804,-163026.22437599796,10.5,10499836973.775623,47.655,-122.3035,60.0,13.583333333333334
2026-01-20T23:13:36+00:00,SAT-59769,4.659247753222959,40.06987074460014,1053.2297697415831,4.680653486011739,-163936.2842247461,10.5,10499836063.715775,47.655,-122.3035,60.0,13.6
2026-01-20T23:13:37+00:00,SAT-59769,4.749148564410848,39.77162384792229,1057.8979414849657,4.706289623072205,-164834.17018535588,10.5,10499835165.829815,47.655,-122.3035,60.0,13.616666666666667
2026-01-20T23:13:38+00:00,SAT-59769,4.837124348253892,39.4756670608102,1062.5916810023762,4.731582358998626,-165720.028785666,10.5,10499834279.971214,47.655,-122.3035,60.0,13.633333333333333
2026-01-20T23:13:39+00:00,SAT-59769,4.92322425540371,39.18198638003487,1067.3106458084176,4.7565358946133784,-166594.00715624564,10.5,10499833405.992844,47.655,-122.3035,60.0,13.65
2026-01-20T23:13:40+00:00,SAT-59769,5.007495800929812,38.89056748467539,1072.054497607312,4.781154401397535,-167456.25140000723,10.5,10499832543.7486,47.655,-122.3035,60.0,13.666666666666666
2026-01-20T23:13:41+00:00,SAT-59769,5.089984930389473,38.60139575958503,1076.822902263639,4.805442064966649,-168306.90811491266,10.5,10499831693.091885,47.655,-122.3035,60.0,13.683333333333334
2026-01-20T23:13:42+00:00,SAT-59769,5.170736083555939,38.3144563151934,1081.6155298164324,4.829403016335303,-169146.12198656672,10.5,10499830853.878014,47.655,-122.3035,60.0,13.7
2026-01-20T23:13:43+00:00,SAT-59769,5.249792254009051,38.02973401038681,1086.4320544247244,4.853041388491876,-169974.037769705,10.5,10499830025.96223,47.655,-122.3035,60.0,13.716666666666667
2026-01-20T23:13:44+00:00,SAT-59769,5.327195046929675,37.74721347103898,1091.2721543695136,4.876361289245763,-170790.79933718845,10.5,10499829209.200663,47.655,-122.3035,60.0,13.733333333333333
2026-01-20T23:13:45+00:00,SAT-59769,5.402984733767212,37.46687910921776,1096.1355120286546,4.899366807951626,-171596.54991551547,10.5,10499828403.450085,47.655,-122.3035,60.0,13.75
2026-01-20T23:13:46+00:00,SAT-59769,5.477200304531483,37.18871514110441,1101.0218138584517,4.922062001567788,-172391.43159652725,10.5,10499827608.568403,47.655,-122.3035,60.0,13.766666666666667
2026-01-20T23:13:47+00:00,SAT-59769,5.549879517488327,36.912705604836354,1105.9307503613486,4.944450888782478,-173175.58513168473,10.5,10499826824.414867,47.655,-122.3035,60.0,13.783333333333333
2026-01-20T23:13:48+00:00,SAT-59769,5.621058946546598,36.63883437780462,1110.862016047761,4.966537511622647,-173949.15208986943,10.5,10499826050.84791,47.655,-122.3035,60.0,13.8
2026-01-20T23:13:49+00:00,SAT-59769,5.690774027376803,36.367085189795795,1115.8153094593526,4.988325829317481,-174712.271140035,10.5,10499825287.72886,47.655,-122.3035,60.0,13.816666666666666
2026-01-20T23:13:50+00:00,SAT-59769,5.759059099991357,36.09744164120111,1120.7903330864585,5.00981980052086,-175465.08093098534,10.5,10499824534.91907,47.655,-122.3035,60.0,13.833333333333334
2026-01-20T23:13:51+00:00,SAT-59769,5.825947450573396,35.82988721595581,1125.7867933675113,5.031023332696734,-176207.71831863665,10.5,10499823792.281681,47.655,-122.3035,60.0,13.85
2026-01-20T23:13:52+00:00,SAT-59769,5.891471350789427,35.564405296526644,1130.8044006379876,5.0519403305546335,-176940.32006243351,10.5,10499823059.679937,47.655,-122.3035,60.0,13.866666666666667
2026-01-20T23:13:53+00:00,SAT-59769,5.955662096005966,35.30097917563884,1135.8428691276608,5.072574636829099,-177663.02075119427,10.5,10499822336.979248,47.655,-122.3035,60.0,13.883333333333333
2026-01-20T23:13:54+00:00,SAT-59769,6.018550041090094,35.03959207048,1140.9019168987916,5.092930077215078,-178375.95437693872,10.5,10499821624.045624,47.655,-122.3035,60.0,13.9
2026-01-20T23:13:55+00:00,SAT-59769,6.080164635226956,34.780227133903175,1145.9812658291344,5.113010430450682,-179079.25328705955,10.5,10499820920.746714,47.655,-122.3035,60.0,13.916666666666666
2026-01-20T23:13:56+00:00,SAT-59769,6.14053445487739,34.52286746658805,1151.0806415651036,5.132819469720578,-179773.04963444432,10.5,10499820226.950365,47.655,-122.3035,60.0,13.933333333333334
2026-01-20T23:13:57+00:00,SAT-59769,6.199687235805644,34.26749612654594,1156.199773516238,5.152360899597219,-180457.47316889072,10.5,10499819542.52683,47.655,-122.3035,60.0,13.95
2026-01-20T23:13:58+00:00,SAT-59769,6.257649903027567,34.01409614122824,1161.33839478677,5.171638393831313,-181132.65256068847,10.5,10499818867.347439,47.655,-122.3035,60.0,13.966666666666667
2026-01-20T23:13:59+00:00,SAT-59769,6.314448599924513,33.76265051717818,1166.4962421448843,5.1906555955253735,-181798.71540669785,10.5,10499818201.284594,47.655,-122.3035,60.0,13.983333333333333
2026-01-20T23:14:00+00:00,SAT-59769,6.370108716146646,33.51314224920338,1171.673055992155,5.209416122698471,-182455.788425251,10.5,10499817544.211575,47.655,-122.3035,60.0,14.0
2026-01-20T23:14:01+00:00,SAT-59769,6.4246549143842016,33.26555432880703,1176.8685803385263,5.2279235337659165,-183103.99624710414,10.5,10499816896.003754,47.655,-122.3035,60.0,14.016666666666667
2026-01-20T23:14:02+00:00,SAT-59769,6.478111155689073,33.019869753798105,1182.082562742869,5.246181343239443,-183743.46196532453,10.5,10499816256.538034,47.655,-122.3035,60.0,14.033333333333333
2026-01-20T23:14:03+00:00,SAT-59769,6.530500723917485,32.77607153664988,1187.314754269193,5.264193068714912,-184374.30878099866,10.5,10499815625.69122,47.655,-122.3035,60.0,14.05
2026-01-20T23:14:04+00:00,SAT-59769,6.581846249610994,32.53414271033391,1192.5649094897246,5.281962141834244,-184996.65688474246,10.5,10499815003.343115,47.655,-122.3035,60.0,14.066666666666666
2026-01-20T23:14:05+00:00,SAT-59769,6.6321697320785,32.294066337782006,1197.8327863991806,5.2994919750390785,-185610.62579469668,10.5,10499814389.374205,47.655,-122.3035,60.0,14.083333333333334
2026-01-20T23:14:06+00:00,SAT-59769,6.681492561177525,32.055825517938004,1203.1181463956198,5.316785953030886,-186216.33405742416,10.5,10499813783.665943,47.655,-122.3035,60.0,14.1
2026-01-20T23:14:07+00:00,SAT-59769,6.729835538170019,31.81940339180657,1208.4207542527759,5.333847394913694,-186813.89792198772,10.5,10499813186.102077,47.655,-122.3035,60.0,14.116666666666667
2026-01-20T23:14:08+00:00,SAT-59769,6.77721889538388,31.584783149851383,1213.7403780546363,5.350679602072698,-187403.4330168617,10.5,10499812596.566982,47.655,-122.3035,60.0,14.133333333333333
