satellites_20260121_005943/SAT-55410.csv

timestamp,satellite,azimuth_deg,elevation_deg,distance_km,relative_velocity_kms,doppler_shift_hz,tx_freq_ghz,rx_freq_hz,ue_lat,ue_lon,ue_alt_m,time_minutes
2026-01-20T23:00:00+00:00,SAT-55410,259.7552979583064,39.50115109816289,2746.466610648644,-6.173489998695627,216221.7335911235,10.5,10500216221.733591,47.655,-122.3035,60.0,0.0
2026-01-20T23:00:01+00:00,SAT-55410,259.8086015050744,39.57464922711935,2740.3095832899444,-6.1708572712860335,216129.52434081363,10.5,10500216129.524342,47.655,-122.3035,60.0,0.016666666666666666
2026-01-20T23:00:02+00:00,SAT-55410,259.862322736633,39.64830338352655,2734.155181638049,-6.168199468994591,216036.4368620748,10.5,10500216036.436863,47.655,-122.3035,60.0,0.03333333333333333
2026-01-20T23:00:03+00:00,SAT-55410,259.91646550089547,39.72211410632071,2728.003430700972,-6.165516432903012,215942.46558891627,10.5,10500215942.46559,47.655,-122.3035,60.0,0.05
2026-01-20T23:00:04+00:00,SAT-55410,259.97103369092656,39.79608193257022,2721.854355645223,-6.162807934841458,215847.60252986522,10.5,10500215847.60253,47.655,-122.3035,60.0,0.06666666666666667
2026-01-20T23:00:05+00:00,SAT-55410,260.02603124491964,39.87020739653436,2715.7079818648745,-6.1600737804092605,215751.84087618787,10.5,10500215751.840876,47.655,-122.3035,60.0,0.08333333333333333
2026-01-20T23:00:06+00:00,SAT-55410,260.081462147147,39.944491029950676,2709.5643349478796,-6.157313789432855,215655.17431744392,10.5,10500215655.174318,47.655,-122.3035,60.0,0.1
2026-01-20T23:00:07+00:00,SAT-55410,260.1373304287764,40.01893336209422,2703.4234406618853,-6.154527685110854,215557.5931588778,10.5,10500215557.593159,47.655,-122.3035,60.0,0.11666666666666667
2026-01-20T23:00:08+00:00,SAT-55410,260.19364016752627,40.09353491847532,2697.2853250506014,-6.151715330107026,215459.09259039394,10.5,10500215459.09259,47.655,-122.3035,60.0,0.13333333333333333
2026-01-20T23:00:09+00:00,SAT-55410,260.2503954897763,40.16829622241613,2691.150014294708,-6.148876469552213,215359.66368539608,10.5,10500215359.663685,47.655,-122.3035,60.0,0.15
2026-01-20T23:00:10+00:00,SAT-55410,260.3076005700219,40.243217793484554,2685.0175348290745,-6.14601088340402,215259.29873706898,10.5,10500215259.298737,47.655,-122.3035,60.0,0.16666666666666666
2026-01-20T23:00:11+00:00,SAT-55410,260.3652596319393,40.31830014778645,2678.8879133080263,-6.14311840131633,215157.99177917102,10.5,10500215157.99178,47.655,-122.3035,60.0,0.18333333333333332
2026-01-20T23:00:12+00:00,SAT-55410,260.4233769495879,40.3935437984405,2672.7611765557804,-6.14019875181441,215055.7333035086,10.5,10500215055.733303,47.655,-122.3035,60.0,0.2
2026-01-20T23:00:13+00:00,SAT-55410,260.48195684707207,40.46894925419243,2666.637351667304,-6.137251744129833,214952.5166285646,10.5,10500214952.516628,47.655,-122.3035,60.0,0.21666666666666667
2026-01-20T23:00:14+00:00,SAT-55410,260.5410037001008,40.54451702026347,2660.516465927825,-6.134277129742629,214848.3330501183,10.5,10500214848.33305,47.655,-122.3035,60.0,0.23333333333333334
2026-01-20T23:00:15+00:00,SAT-55410,260.60052193611716,40.62024759748778,2654.3985468704286,-6.131274707012535,214743.17550587485,10.5,10500214743.175507,47.655,-122.3035,60.0,0.25
2026-01-20T23:00:16+00:00,SAT-55410,260.66051603552233,40.69614148273984,2648.2836222293013,-6.128244248246424,214637.03602105778,10.5,10500214637.03602,47.655,-122.3035,60.0,0.26666666666666666
2026-01-20T23:00:17+00:00,SAT-55410,260.72099053218125,40.77219916845617,2642.171719965717,-6.125185496464495,214529.90559514743,10.5,10500214529.905596,47.655,-122.3035,60.0,0.2833333333333333
2026-01-20T23:00:18+00:00,SAT-55410,260.78195001382994,40.84842114210272,2636.062868297243,-6.122098244763873,214421.7769815299,10.5,10500214421.776981,47.655,-122.3035,60.0,0.3
2026-01-20T23:00:19+00:00,SAT-55410,260.8433991234325,40.92480788663709,2629.9570956477983,-6.118982226381019,214312.64083701765,10.5,10500214312.640837,47.655,-122.3035,60.0,0.31666666666666665
2026-01-20T23:00:20+00:00,SAT-55410,260.9053425592765,41.00135987958365,2623.8544307073544,-6.115837255612427,214202.4906574884,10.5,10500214202.490658,47.655,-122.3035,60.0,0.3333333333333333
2026-01-20T23:00:21+00:00,SAT-55410,260.9677850767091,41.078077593881474,2617.75490235109,-6.112663039883094,214091.31619572794,10.5,10500214091.316196,47.655,-122.3035,60.0,0.35
2026-01-20T23:00:22+00:00,SAT-55410,261.03073148771773,41.15496149634993,2611.65853974598,-6.109459373196809,213979.11023687758,10.5,10500213979.110237,47.655,-122.3035,60.0,0.36666666666666664
2026-01-20T23:00:23+00:00,SAT-55410,261.09418666275815,41.23201204860264,2605.565372264445,-6.106225968653855,213865.8627324957,10.5,10500213865.862732,47.655,-122.3035,60.0,0.38333333333333336
2026-01-20T23:00:24+00:00,SAT-55410,261.1581555306454,41.30922970582449,2599.475429565041,-6.102962625307696,213751.56664458453,10.5,10500213751.566645,47.655,-122.3035,60.0,0.4
2026-01-20T23:00:25+00:00,SAT-55410,261.22264308040883,41.386614917671054,2593.3887415067343,-6.099669072061708,213636.21247819363,10.5,10500213636.212479,47.655,-122.3035,60.0,0.4166666666666667
2026-01-20T23:00:26+00:00,SAT-55410,261.2876543613241,41.464168127172385,2587.3053382188646,-6.096345035560741,213519.7906592693,10.5,10500213519.790659,47.655,-122.3035,60.0,0.43333333333333335
2026-01-20T23:00:27+00:00,SAT-55410,261.35319448377675,41.54188977049476,2581.2252501033986,-6.0929903172113145,213402.29423222784,10.5,10500213402.294231,47.655,-122.3035,60.0,0.45
2026-01-20T23:00:28+00:00,SAT-55410,261.41926862101434,41.61978027768722,2575.148507760367,-6.089604597028097,213283.71198982937,10.5,10500213283.71199,47.655,-122.3035,60.0,0.4666666666666667
2026-01-20T23:00:29+00:00,SAT-55410,261.4858820086229,41.69784007090245,2569.075142108931,-6.086187629834693,213164.03534495947,10.5,10500213164.035345,47.655,-122.3035,60.0,0.48333333333333334
2026-01-20T23:00:30+00:00,SAT-55410,261.5530399463107,41.77606956513157,2563.005184312776,-6.082739193831288,213043.2565292504,10.5,10500213043.256529,47.655,-122.3035,60.0,0.5
2026-01-20T23:00:31+00:00,SAT-55410,261.6207477991455,41.85446916828079,2556.9386657567948,-6.079258960748062,212921.36404530448,10.5,10500212921.364046,47.655,-122.3035,60.0,0.5166666666666667
2026-01-20T23:00:32+00:00,SAT-55410,261.68901099717607,41.933039279549355,2550.875618153275,-6.0757467291058616,212798.3508364695,10.5,10500212798.350836,47.655,-122.3035,60.0,0.5333333333333333
2026-01-20T23:00:33+00:00,SAT-55410,261.7578350379581,42.01178029083697,2544.8160734154467,-6.072202160322579,212674.20504416787,10.5,10500212674.205044,47.655,-122.3035,60.0,0.55
2026-01-20T23:00:34+00:00,SAT-55410,261.8272254858282,42.09069258470489,2538.7600637942187,-6.068625016050259,212548.9183204459,10.5,10500212548.91832,47.655,-122.3035,60.0,0.5666666666666667
2026-01-20T23:00:35+00:00,SAT-55410,261.8971879741097,42.16977653542463,2532.707621778211,-6.065015024669317,212422.48115203698,10.5,10500212422.481152,47.655,-122.3035,60.0,0.5833333333333334
2026-01-20T23:00:36+00:00,SAT-55410,261.96772820573875,42.249032508285524,2526.658780126941,-6.061371890411609,212294.88317988938,10.5,10500212294.88318,47.655,-122.3035,60.0,0.6
2026-01-20T23:00:37+00:00,SAT-55410,262.0388519539285,42.328460858999726,2520.6135718949035,-6.057695340913517,212166.11486467722,10.5,10500212166.114864,47.655,-122.3035,60.0,0.6166666666666667
2026-01-20T23:00:38+00:00,SAT-55410,262.1105650635203,42.40806193373548,2514.5720304082324,-6.053985069734276,212036.1654735487,10.5,10500212036.165474,47.655,-122.3035,60.0,0.6333333333333333
2026-01-20T23:00:39+00:00,SAT-55410,262.18287345156824,42.48783606837742,2508.5341892986844,-6.050240824260203,211905.02615890402,10.5,10500211905.02616,47.655,-122.3035,60.0,0.65
2026-01-20T23:00:40+00:00,SAT-55410,262.25578310911953,42.567783588949844,2502.5000824499552,-6.046462271502147,211772.68525805455,10.5,10500211772.685259,47.655,-122.3035,60.0,0.6666666666666666
2026-01-20T23:00:41+00:00,SAT-55410,262.3293001012009,42.64790481024325,2496.469744077844,-6.042649153091341,211639.13372183326,10.5,10500211639.133722,47.655,-122.3035,60.0,0.6833333333333333
2026-01-20T23:00:42+00:00,SAT-55410,262.40343056893846,42.728200036504575,2490.443208655827,-6.038801150425831,211504.36039145198,10.5,10500211504.360392,47.655,-122.3035,60.0,0.7
2026-01-20T23:00:43+00:00,SAT-55410,262.47818072981204,42.80866956030918,2484.420510975136,-6.034917967962098,211368.3549157265,10.5,10500211368.354916,47.655,-122.3035,60.0,0.7166666666666667
2026-01-20T23:00:44+00:00,SAT-55410,262.5535568791204,42.889313662547195,2478.401686121755,-6.030999301669355,211231.10664621266,10.5,10500211231.106646,47.655,-122.3035,60.0,0.7333333333333333
2026-01-20T23:00:45+00:00,SAT-55410,262.62956539097905,42.970132611972694,2472.38676948489,-6.027044834468272,211092.6044774511,10.5,10500211092.604477,47.655,-122.3035,60.0,0.75
2026-01-20T23:00:46+00:00,SAT-55410,262.70621271930906,43.05112666468531,2466.3757967699808,-6.0230542917575445,210952.83879174246,10.5,10500210952.83879,47.655,-122.3035,60.0,0.7666666666666667
2026-01-20T23:00:47+00:00,SAT-55410,262.78350539958876,43.13229606435291,2460.3688039563344,-6.019027314155662,210811.79700202614,10.5,10500210811.797003,47.655,-122.3035,60.0,0.7833333333333333
2026-01-20T23:00:48+00:00,SAT-55410,262.86145004886316,43.21364104070002,2454.365827381683,-6.014963605510259,210669.46873579358,10.5,10500210669.468737,47.655,-122.3035,60.0,0.8
2026-01-20T23:00:49+00:00,SAT-55410,262.94005336782004,43.29516180999461,2448.3669036791207,-6.010862856003958,210525.8431419297,10.5,10500210525.843142,47.655,-122.3035,60.0,0.8166666666666667
2026-01-20T23:00:50+00:00,SAT-55410,263.0193221418381,43.3768585744825,2442.372069790733,-6.0067247219135,210380.90818179204,10.5,10500210380.908182,47.655,-122.3035,60.0,0.8333333333333334
2026-01-20T23:00:51+00:00,SAT-55410,263.0992632417135,43.45873152153221,2436.3813630014115,-6.0025489073152185,210234.65349088202,10.5,10500210234.65349,47.655,-122.3035,60.0,0.85
2026-01-20T23:00:52+00:00,SAT-55410,263.1798836256394,43.54078082389161,2430.3948208911825,-5.998335021028294,210087.06536839256,10.5,10500210087.065369,47.655,-122.3035,60.0,0.8666666666666667
2026-01-20T23:00:53+00:00,SAT-55410,263.2611903390435,43.623006637961176,2424.4124814302104,-5.994082816253073,209938.13517035593,10.5,10500209938.13517,47.655,-122.3035,60.0,0.8833333333333333
2026-01-20T23:00:54+00:00,SAT-55410,263.3431905180475,43.70540910536896,2418.4343828348,-5.989791884801669,209787.84860030576,10.5,10500209787.8486,47.655,-122.3035,60.0,0.9
2026-01-20T23:00:55+00:00,SAT-55410,263.4258913883528,43.78798835030316,2412.460563728358,-5.985461911907152,209636.19463377263,10.5,10500209636.194633,47.655,-122.3035,60.0,0.9166666666666666
2026-01-20T23:00:56+00:00,SAT-55410,263.50930026797147,43.870744480362575,2406.491063048216,-5.981092563610689,209483.16157410553,10.5,10500209483.161573,47.655,-122.3035,60.0,0.9333333333333333
2026-01-20T23:00:57+00:00,SAT-55410,263.5934245682743,43.953677585833766,2400.5259200647747,-5.97668346741565,209328.7363748968,10.5,10500209328.736376,47.655,-122.3035,60.0,0.95
2026-01-20T23:00:58+00:00,SAT-55410,263.6782717947875,44.03678773868949,2394.565174419939,-5.972234322602808,209172.90850368718,10.5,10500209172.908504,47.655,-122.3035,60.0,0.9666666666666667
2026-01-20T23:00:59+00:00,SAT-55410,263.7638495496481,44.120074993110414,2388.60886605553,-5.967744688755518,209015.66253522274,10.5,10500209015.662535,47.655,-122.3035,60.0,0.9833333333333333
2026-01-20T23:01:00+00:00,SAT-55410,263.85016553086564,44.203539383034446,2382.657035352611,-5.963214293194562,208856.98891912383,10.5,10500208856.988918,47.655,-122.3035,60.0,1.0
2026-01-20T23:01:01+00:00,SAT-55410,263.93722753632284,44.28718092400826,2376.709722964198,-5.9586427236413915,208696.87321565178,10.5,10500208696.873215,47.655,-122.3035,60.0,1.0166666666666666
2026-01-20T23:01:02+00:00,SAT-55410,264.025043463067,44.37099961070907,2370.7669699544863,-5.954029634197058,208535.3033099622,10.5,10500208535.30331,47.655,-122.3035,60.0,1.0333333333333334
2026-01-20T23:01:03+00:00,SAT-55410,264.11362130977096,44.45499541734444,2364.8288177326476,-5.949374660410051,208372.2664374216,10.5,10500208372.266438,47.655,-122.3035,60.0,1.05
2026-01-20T23:01:04+00:00,SAT-55410,264.2029691779462,44.539168296852246,2358.895308071332,-5.944677398512978,208207.748456388,10.5,10500208207.748457,47.655,-122.3035,60.0,1.0666666666666667
2026-01-20T23:01:05+00:00,SAT-55410,264.2930952727741,44.623518179777584,2352.9664831458813,-5.93993750652628,208041.73738929065,10.5,10500208041.737389,47.655,-122.3035,60.0,1.0833333333333333
2026-01-20T23:01:06+00:00,SAT-55410,264.38400790564987,44.708044974584894,2347.042385472706,-5.935154582880109,207874.21917145478,10.5,10500207874.219172,47.655,-122.3035,60.0,1.1
2026-01-20T23:01:07+00:00,SAT-55410,264.4757154947085,44.79274856621806,2341.1230579687135,-5.930328237692653,207705.18014757015,10.5,10500207705.180147,47.655,-122.3035,60.0,1.1166666666666667
2026-01-20T23:01:08+00:00,SAT-55410,264.5682265666066,44.87762881566804,2335.2085439396546,-5.9254581166646005,207534.60790857623,10.5,10500207534.607908,47.655,-122.3035,60.0,1.1333333333333333
2026-01-20T23:01:09+00:00,SAT-55410,264.66154975865675,44.962685559866806,2329.2988870446347,-5.920543771496307,207362.48675312314,10.5,10500207362.486753,47.655,-122.3035,60.0,1.15
2026-01-20T23:01:10+00:00,SAT-55410,264.7556938188516,45.0479186096984,2323.394131389862,-5.915584865007337,207188.80487172576,10.5,10500207188.804873,47.655,-122.3035,60.0,1.1666666666666667
2026-01-20T23:01:11+00:00,SAT-55410,264.85066760935587,45.133327750960156,2317.494321417828,-5.910580935741254,207013.5461022277,10.5,10500207013.546103,47.655,-122.3035,60.0,1.1833333333333333
2026-01-20T23:01:12+00:00,SAT-55410,264.94648010600775,45.21891274189266,2311.599502031249,-5.905531633099602,206836.69816518808,10.5,10500206836.698166,47.655,-122.3035,60.0,1.2
2026-01-20T23:01:13+00:00,SAT-55410,265.0431404018867,45.304673314112925,2305.7097184825043,-5.900436517446871,206658.2456627116,10.5,10500206658.245663,47.655,-122.3035,60.0,1.2166666666666666
2026-01-20T23:01:14+00:00,SAT-55410,265.1406577074396,45.39060917061963,2299.8250164624374,-5.895295164651303,206478.17373991004,10.5,10500206478.17374,47.655,-122.3035,60.0,1.2333333333333334
2026-01-20T23:01:15+00:00,SAT-55410,265.23904135240997,45.47671998529661,2293.9454420848915,-5.890107181528673,206296.4686258087,10.5,10500206296.468626,47.655,-122.3035,60.0,1.25
2026-01-20T23:01:16+00:00,SAT-55410,265.33830078813594,45.5630054026402,2288.071041855847,-5.884872130333795,206113.11498871946,10.5,10500206113.114988,47.655,-122.3035,60.0,1.2666666666666666
2026-01-20T23:01:17+00:00,SAT-55410,265.43844558843955,45.64946503634686,2282.201862717861,-5.879589609159106,205928.09875213943,10.5,10500205928.098753,47.655,-122.3035,60.0,1.2833333333333334
2026-01-20T23:01:18+00:00,SAT-55410,265.5394854520781,45.73609846907797,2276.337952014326,-5.874259141643865,205741.40323190048,10.5,10500205741.403233,47.655,-122.3035,60.0,1.3
2026-01-20T23:01:19+00:00,SAT-55410,265.6414302030842,45.82290525056011,2270.479357563727,-5.8688803268997445,205553.01438719756,10.5,10500205553.014387,47.655,-122.3035,60.0,1.3166666666666667
2026-01-20T23:01:20+00:00,SAT-55410,265.74428979399136,45.90988489789909,2264.6261275843653,-5.863452719523702,205362.9166181321,10.5,10500205362.916618,47.655,-122.3035,60.0,1.3333333333333333
2026-01-20T23:01:21+00:00,SAT-55410,265.8480743067933,45.9970368940895,2258.7783107387604,-5.857975859759552,205171.09382209776,10.5,10500205171.093822,47.655,-122.3035,60.0,1.35
2026-01-20T23:01:22+00:00,SAT-55410,265.95279395449495,46.0843606869473,2252.9359561479605,-5.852449317902906,204977.53094902914,10.5,10500204977.530949,47.655,-122.3035,60.0,1.3666666666666667
2026-01-20T23:01:23+00:00,SAT-55410,266.0584590835282,46.17185568868993,2247.099113361572,-5.846872615148231,204782.21122913115,10.5,10500204782.21123,47.655,-122.3035,60.0,1.3833333333333333
2026-01-20T23:01:24+00:00,SAT-55410,266.1650801746745,46.25952127430599,2241.2678324067306,-5.841245332198466,204585.11997684708,10.5,10500204585.119976,47.655,-122.3035,60.0,1.4
2026-01-20T23:01:25+00:00,SAT-55410,266.2726678460939,46.3473567815392,2235.4421637287514,-5.83556695613738,204386.23922768093,10.5,10500204386.239227,47.655,-122.3035,60.0,1.4166666666666667
2026-01-20T23:01:26+00:00,SAT-55410,266.38123285339344,46.43536150853433,2229.622158284497,-5.829837048379193,204185.5536205034,10.5,10500204185.553621,47.655,-122.3035,60.0,1.4333333333333333
2026-01-20T23:01:27+00:00,SAT-55410,266.49078609299556,46.52353471400375,2223.8078674682465,-5.824055140655035,203983.04675455802,10.5,10500203983.046755,47.655,-122.3035,60.0,1.45
2026-01-20T23:01:28+00:00,SAT-55410,266.60133860350584,46.61187561579533,2217.9993431413,-5.818220745151438,203778.7015445535,10.5,10500203778.701544,47.655,-122.3035,60.0,1.4666666666666666
2026-01-20T23:01:29+00:00,SAT-55410,266.71290156724524,46.70038338958673,2212.1966376514692,-5.812333374134967,203572.50090800202,10.5,10500203572.500908,47.655,-122.3035,60.0,1.4833333333333334
2026-01-20T23:01:30+00:00,SAT-55410,266.82548631223534,46.78905716785455,2206.3998038329987,-5.806392539730655,203364.42775745838,10.5,10500203364.427757,47.655,-122.3035,60.0,1.5
2026-01-20T23:01:31+00:00,SAT-55410,266.939104314148,46.877896038812864,2200.608895006707,-5.800397759023505,203154.46517919673,10.5,10500203154.46518,47.655,-122.3035,60.0,1.5166666666666666
2026-01-20T23:01:32+00:00,SAT-55410,267.05376719843827,46.96689904541039,2194.823964975041,-5.794348534126873,202942.5957351207,10.5,10500202942.595736,47.655,-122.3035,60.0,1.5333333333333334
2026-01-20T23:01:33+00:00,SAT-55410,267.16948674202365,47.056065183990256,2189.045068037005,-5.788244337607232,202728.80095227723,10.5,10500202728.800953,47.655,-122.3035,60.0,1.55
2026-01-20T23:01:34+00:00,SAT-55410,267.2862748746879,47.14539340269668,2183.2722590176313,-5.782084710294884,202513.06474860111,10.5,10500202513.064749,47.655,-122.3035,60.0,1.5666666666666667
2026-01-20T23:01:35+00:00,SAT-55410,267.40414368258615,47.23488260137252,2177.5055931998977,-5.775869090080214,202295.36743663595,10.5,10500202295.367437,47.655,-122.3035,60.0,1.5833333333333333
2026-01-20T23:01:36+00:00,SAT-55410,267.52310540808264,47.32453162876827,2171.7451264273905,-5.76959698772394,202075.69188115254,10.5,10500202075.691881,47.655,-122.3035,60.0,1.6
2026-01-20T23:01:37+00:00,SAT-55410,267.64317245338384,47.41433928245778,2165.9909150316344,-5.763267859984358,201854.01905552862,10.5,10500201854.019056,47.655,-122.3035,60.0,1.6166666666666667
2026-01-20T23:01:38+00:00,SAT-55410,267.7643573814439,47.50430430674571,2160.243015885943,-5.756881187486531,201630.33076905683,10.5,10500201630.330769,47.655,-122.3035,60.0,1.6333333333333333
2026-01-20T23:01:39+00:00,SAT-55410,267.8866729185674,47.594425391763366,2154.501486381623,-5.750436460191012,201404.60915799832,10.5,10500201404.609158,47.655,-122.3035,60.0,1.65
2026-01-20T23:01:40+00:00,SAT-55410,268.0101319567633,47.68470117231438,2148.7663844186595,-5.7439330748983615,201176.83309575717,10.5,10500201176.833096,47.655,-122.3035,60.0,1.6666666666666667
2026-01-20T23:01:41+00:00,SAT-55410,268.13474755366076,47.775130225054205,2143.0377684986274,-5.7373705447099015,200946.98552908216,10.5,10500200946.985529,47.655,-122.3035,60.0,1.6833333333333333
2026-01-20T23:01:42+00:00,SAT-55410,268.26053293735447,47.865711068967016,2137.3156976087034,-5.730748304052248,200715.04664920093,10.5,10500200715.04665,47.655,-122.3035,60.0,1.7
2026-01-20T23:01:43+00:00,SAT-55410,268.3875015066749,47.95644216271424,2131.6002313001286,-5.72406579175701,200480.99680162268,10.5,10500200480.996801,47.655,-122.3035,60.0,1.7166666666666666
2026-01-20T23:01:44+00:00,SAT-55410,268.5156668334436,48.04732190326858,2125.891429683816,-5.717322436093209,200244.8159619102,10.5,10500200244.815962,47.655,-122.3035,60.0,1.7333333333333334
2026-01-20T23:01:45+00:00,SAT-55410,268.6450426643123,48.13834862427232,2120.189353440886,-5.710517679208082,200006.48459169996,10.5,10500200006.484592,47.655,-122.3035,60.0,1.75
2026-01-20T23:01:46+00:00,SAT-55410,268.7756429232737,48.229520594760096,2114.4940638088224,-5.703650962018972,199765.9831095524,10.5,10500199765.98311,47.655,-122.3035,60.0,1.7666666666666666
2026-01-20T23:01:47+00:00,SAT-55410,268.9074817137327,48.32083601759736,2108.8056225827017,-5.696721676620835,199523.2902240615,10.5,10500199523.290224,47.655,-122.3035,60.0,1.7833333333333334
2026-01-20T23:01:48+00:00,SAT-55410,269.04057331947723,48.41229302712332,2103.1240921638855,-5.689729257313485,199278.38612201373,10.5,10500199278.386122,47.655,-122.3035,60.0,1.8
2026-01-20T23:01:49+00:00,SAT-55410,269.17493220782836,48.50388968821752,2097.449535517925,-5.682673108607434,199031.24994684837,10.5,10500199031.249947,47.655,-122.3035,60.0,1.8166666666666667
2026-01-20T23:01:50+00:00,SAT-55410,269.3105730310524,48.5956239941733,2091.782016204274,-5.675552633737308,198781.86079731776,10.5,10500198781.860798,47.655,-122.3035,60.0,1.8333333333333333
2026-01-20T23:01:51+00:00,SAT-55410,269.4475106284216,48.68749386498836,2086.1215983775596,-5.6683672351665075,198530.19774516253,10.5,10500198530.197744,47.655,-122.3035,60.0,1.85
2026-01-20T23:01:52+00:00,SAT-55410,269.58576002837276,48.77949714563465,2080.4683467883538,-5.661116280258749,198276.23863278396,10.5,10500198276.238632,47.655,-122.3035,60.0,1.8666666666666667
2026-01-20T23:01:53+00:00,SAT-55410,269.72533644962436,48.8716316037124,2074.822326818176,-5.653799202352292,198019.96361329098,10.5,10500198019.963614,47.655,-122.3035,60.0,1.8833333333333333
2026-01-20T23:01:54+00:00,SAT-55410,269.866255305084,48.963894928736416,2069.1836044136962,-5.646415332951117,197761.3492731252,10.5,10500197761.349274,47.655,-122.3035,60.0,1.9
2026-01-20T23:01:55+00:00,SAT-55410,270.00853220118404,49.05628472861589,2063.5522461882997,-5.638964074063006,197500.37466806974,10.5,10500197500.374668,47.655,-122.3035,60.0,1.9166666666666667
2026-01-20T23:01:56+00:00,SAT-55410,270.15218294186997,49.14879852893083,2057.9283193517676,-5.631444764112621,197237.01662695775,10.5,10500197237.016626,47.655,-122.3035,60.0,1.9333333333333333
2026-01-20T23:01:57+00:00,SAT-55410,270.2972235288911,49.241433769953225,2052.3118917736924,-5.623856806906337,196971.25426856652,10.5,10500196971.254269,47.655,-122.3035,60.0,1.95
2026-01-20T23:01:58+00:00,SAT-55410,270.4436701656675,49.334187805763904,2046.7030319182713,-5.616199523721738,196703.06382116608,10.5,10500196703.063822,47.655,-122.3035,60.0,1.9666666666666666
2026-01-20T23:01:59+00:00,SAT-55410,270.59153925698405,49.427057900866224,2041.1018089266129,-5.608472272431273,196432.42279473343,10.5,10500196432.422794,47.655,-122.3035,60.0,1.9833333333333334
2026-01-20T23:02:00+00:00,SAT-55410,270.74084741199965,49.52004122873659,2035.5082925802415,-5.60067439502477,196159.30814296898,10.5,10500196159.308144,47.655,-122.3035,60.0,2.0
2026-01-20T23:02:01+00:00,SAT-55410,270.8916114457345,49.61313486945759,2029.9225533169367,-5.592805222486298,195883.69643410484,10.5,10500195883.696434,47.655,-122.3035,60.0,2.0166666666666666
2026-01-20T23:02:02+00:00,SAT-55410,271.0438483806928,49.70633580738476,2024.3446622417102,-5.584864102799116,195605.56483175678,10.5,10500195605.564833,47.655,-122.3035,60.0,2.033333333333333
2026-01-20T23:02:03+00:00,SAT-55410,271.19757544920884,49.799640929235956,2018.7746911098523,-5.5768503351652665,195324.88879101587,10.5,10500195324.88879,47.655,-122.3035,60.0,2.05
2026-01-20T23:02:04+00:00,SAT-55410,271.35281009389007,49.89304702103033,2013.2127123755806,-5.568763231183791,195041.64420116867,10.5,10500195041.644201,47.655,-122.3035,60.0,2.066666666666667
2026-01-20T23:02:05+00:00,SAT-55410,271.50956996972343,49.98655076600176,2007.65879917968,-5.56060214279495,194755.80836442183,10.5,10500194755.808365,47.655,-122.3035,60.0,2.0833333333333335
2026-01-20T23:02:06+00:00,SAT-55410,271.66787294708286,50.080148742946484,2002.1130253092658,-5.552366326093328,194467.35522606087,10.5,10500194467.355227,47.655,-122.3035,60.0,2.1
2026-01-20T23:02:07+00:00,SAT-55410,271.82773711049305,50.173837422208805,1996.5754652933754,-5.544055096415416,194176.26080627376,10.5,10500194176.260807,47.655,-122.3035,60.0,2.1166666666666667
2026-01-20T23:02:08+00:00,SAT-55410,271.9891807620817,50.26761316424652,1991.0461943438838,-5.535667752810789,193882.50055481144,10.5,10500193882.500555,47.655,-122.3035,60.0,2.1333333333333333
2026-01-20T23:02:09+00:00,SAT-55410,272.1522224226396,50.36147221686584,1985.5252883717471,-5.5272035597705855,193586.04871104244,10.5,10500193586.048712,47.655,-122.3035,60.0,2.15
2026-01-20T23:02:10+00:00,SAT-55410,272.3168808320753,50.45541071209044,1980.0128240214694,-5.518661816861489,193286.88074282923,10.5,10500193286.880743,47.655,-122.3035,60.0,2.1666666666666665
2026-01-20T23:02:11+00:00,SAT-55410,272.4831749519247,50.549424664167105,1974.5088786361193,-5.510041761162538,192984.9699294525,10.5,10500192984.969929,47.655,-122.3035,60.0,2.183333333333333
2026-01-20T23:02:12+00:00,SAT-55410,272.6511239647414,50.64350996584913,1969.0135303196532,-5.5013426878941205,192680.29158654908,10.5,10500192680.291586,47.655,-122.3035,60.0,2.2
2026-01-20T23:02:13+00:00,SAT-55410,272.8207472772126,50.73766238669397,1963.5268578789269,-5.492563829814896,192372.81884208176,10.5,10500192372.818842,47.655,-122.3035,60.0,2.216666666666667
2026-01-20T23:02:14+00:00,SAT-55410,272.9920645193485,50.83187756923659,1958.0489408859917,-5.483704454414752,192062.52604044796,10.5,10500192062.526041,47.655,-122.3035,60.0,2.2333333333333334
2026-01-20T23:02:15+00:00,SAT-55410,273.16509554668613,50.92615102677861,1952.5798596434552,-5.474763794541031,191749.38631271644,10.5,10500191749.386312,47.655,-122.3035,60.0,2.25
2026-01-20T23:02:16+00:00,SAT-55410,273.3398604401534,51.02047813992841,1947.119695219033,-5.465741066942196,191433.37222610536,10.5,10500191433.372227,47.655,-122.3035,60.0,2.2666666666666666
2026-01-20T23:02:17+00:00,SAT-55410,273.51637950636336,51.114854153398646,1941.6685294616027,-5.456635541278235,191114.45820101807,10.5,10500191114.4582,47.655,-122.3035,60.0,2.283333333333333
2026-01-20T23:02:18+00:00,SAT-55410,273.6946732802434,51.209274173955706,1936.2264449484344,-5.447446401782726,190792.61566586385,10.5,10500190792.615665,47.655,-122.3035,60.0,2.3
2026-01-20T23:02:19+00:00,SAT-55410,273.8747625226732,51.30373316589572,1930.7935250703897,-5.4381728856602365,190467.81790431993,10.5,10500190467.817904,47.655,-122.3035,60.0,2.316666666666667
2026-01-20T23:02:20+00:00,SAT-55410,274.05666822290965,51.39822594888517,1925.3698539790914,-5.428814181573733,190140.03649993154,10.5,10500190140.036499,47.655,-122.3035,60.0,2.3333333333333335
2026-01-20T23:02:21+00:00,SAT-55410,274.24041159719576,51.492747193962245,1919.955516635335,-5.419369512372096,189809.2442335791,10.5,10500189809.244234,47.655,-122.3035,60.0,2.35
2026-01-20T23:02:22+00:00,SAT-55410,274.4260140902554,51.5872914209342,1914.5505987749962,-5.409838043494431,189475.4118754099,10.5,10500189475.411875,47.655,-122.3035,60.0,2.3666666666666667
2026-01-20T23:02:23+00:00,SAT-55410,274.6134973732631,51.68185299410684,1909.1551869662842,-5.400218974466905,189138.5113894443,10.5,10500189138.511389,47.655,-122.3035,60.0,2.3833333333333333
2026-01-20T23:02:24+00:00,SAT-55410,274.80288334502256,51.77642611956516,1903.7693685757492,-5.390511492824238,188798.51431971148,10.5,10500188798.51432,47.655,-122.3035,60.0,2.4
2026-01-20T23:02:25+00:00,SAT-55410,274.99419413124764,51.87100484158207,1898.3932317802391,-5.380714751865183,188455.39101115218,10.5,10500188455.39101,47.655,-122.3035,60.0,2.4166666666666665
2026-01-20T23:02:26+00:00,SAT-55410,275.1874520828657,51.965583038580675,1893.0268656010455,-5.3708279338715,188109.11282381476,10.5,10500188109.112823,47.655,-122.3035,60.0,2.433333333333333
2026-01-20T23:02:27+00:00,SAT-55410,275.3826797764443,52.06015442014808,1887.6703598749978,-5.360850177797946,187759.64960025257,10.5,10500187759.649601,47.655,-122.3035,60.0,2.45
2026-01-20T23:02:28+00:00,SAT-55410,275.57990001173,52.15471252271728,1882.323805297674,-5.35078065138764,187406.97219130918,10.5,10500187406.97219,47.655,-122.3035,60.0,2.466666666666667
2026-01-20T23:02:29+00:00,SAT-55410,275.7791358116668,52.24925070646351,1876.9872933946901,-5.340618483783902,187051.0500958999,10.5,10500187051.050097,47.655,-122.3035,60.0,2.4833333333333334
2026-01-20T23:02:30+00:00,SAT-55410,275.9804104196737,52.343762150952486,1871.6609165601963,-5.330362805712645,186691.85286836926,10.5,10500186691.852869,47.655,-122.3035,60.0,2.5
2026-01-20T23:02:31+00:00,SAT-55410,276.1837472980828,52.43823985143315,1866.3447680552988,-5.320012772147716,186329.35091232686,10.5,10500186329.350912,47.655,-122.3035,60.0,2.5166666666666666
2026-01-20T23:02:32+00:00,SAT-55410,276.3891701274519,52.53267661549187,1861.0389419838768,-5.309567476999843,185963.51249269367,10.5,10500185963.512493,47.655,-122.3035,60.0,2.533333333333333
2026-01-20T23:02:33+00:00,SAT-55410,276.59670280200584,52.62706505811596,1855.7435333534825,-5.299026038322226,185594.30671996213,10.5,10500185594.30672,47.655,-122.3035,60.0,2.55
2026-01-20T23:02:34+00:00,SAT-55410,276.80636942832837,52.72139759822774,1850.4586380512624,-5.2883875756988274,185221.70275823845,10.5,10500185221.702759,47.655,-122.3035,60.0,2.566666666666667
2026-01-20T23:02:35+00:00,SAT-55410,277.0181943228214,52.81566645475563,1845.184352842432,-5.2776511660373755,184845.66827692656,10.5,10500184845.668278,47.655,-122.3035,60.0,2.5833333333333335
2026-01-20T23:02:36+00:00,SAT-55410,277.23220200705657,52.90986364186231,1839.9207754128372,-5.266815940858386,184466.17285820132,10.5,10500184466.172857,47.655,-122.3035,60.0,2.6
2026-01-20T23:02:37+00:00,SAT-55410,277.44841720683,53.003980965857906,1834.6680043144881,-5.255880922828058,184083.1822716988,10.5,10500184083.182272,47.655,-122.3035,60.0,2.6166666666666667
2026-01-20T23:02:38+00:00,SAT-55410,277.6668648439753,53.098010019130264,1829.4261390741208,-5.244845246651919,183696.6662111465,10.5,10500183696.666212,47.655,-122.3035,60.0,2.6333333333333333
2026-01-20T23:02:39+00:00,SAT-55410,277.8875700372781,53.19194217798836,1824.19528008146,-5.233707955958961,183306.59118038617,10.5,10500183306.59118,47.655,-122.3035,60.0,2.65
2026-01-20T23:02:40+00:00,SAT-55410,278.110558094315,53.285768596808495,1818.9755286800503,-5.22246812227944,182912.92466048,10.5,10500182912.92466,47.655,-122.3035,60.0,2.6666666666666665
2026-01-20T23:02:41+00:00,SAT-55410,278.33585450794783,53.3794802042648,1813.76698713943,-5.211124797005403,182515.6334271649,10.5,10500182515.633427,47.655,-122.3035,60.0,2.683333333333333
2026-01-20T23:02:42+00:00,SAT-55410,278.56348495047575,53.47306769865563,1808.5697586752167,-5.199677006794349,182114.68338986923,10.5,10500182114.68339,47.655,-122.3035,60.0,2.7
2026-01-20T23:02:43+00:00,SAT-55410,278.79347526693505,53.56652154309153,1803.383947473774,-5.188123849678165,181710.0429578543,10.5,10500181710.042957,47.655,-122.3035,60.0,2.716666666666667
2026-01-20T23:02:44+00:00,SAT-55410,279.02585147260004,53.65983196238538,1798.2096586210282,-5.176464294612599,181301.67601958918,10.5,10500181301.67602,47.655,-122.3035,60.0,2.7333333333333334
2026-01-20T23:02:45+00:00,SAT-55410,279.26063974060304,53.752988936273404,1793.046998231201,-5.164697420935182,180889.55032957968,10.5,10500180889.55033,47.655,-122.3035,60.0,2.75
2026-01-20T23:02:46+00:00,SAT-55410,279.49786640031385,53.845982196927885,1787.8960733367219,-5.152822214045367,180473.63035222306,10.5,10500180473.630352,47.655,-122.3035,60.0,2.7666666666666666
2026-01-20T23:02:47+00:00,SAT-55410,279.737557925579,53.93880122273893,1782.756991981914,-5.140837704426028,180053.88213092837,10.5,10500180053.882132,47.655,-122.3035,60.0,2.783333333333333
2026-01-20T23:02:48+00:00,SAT-55410,279.9797409290644,54.0314352345777,1777.6298631780332,-5.1287428982104615,179630.27085627965,10.5,10500179630.270857,47.655,-122.3035,60.0,2.8
2026-01-20T23:02:49+00:00,SAT-55410,280.2244421527845,54.12387319077551,1772.5147969275513,-5.11653677743701,179202.7608749537,10.5,10500179202.760876,47.655,-122.3035,60.0,2.816666666666667
2026-01-20T23:02:50+00:00,SAT-55410,280.471688457922,54.216103782074995,1767.4119042481873,-5.104218364579003,178771.31794983157,10.5,10500178771.31795,47.655,-122.3035,60.0,2.8333333333333335
2026-01-20T23:02:51+00:00,SAT-55410,280.7215068175104,54.30811542773485,1762.3212971325806,-5.091786619447286,178335.9056490891,10.5,10500178335.90565,47.655,-122.3035,60.0,2.85
2026-01-20T23:02:52+00:00,SAT-55410,280.97392430311584,54.3998962697408,1757.243088610785,-5.079240525234623,177896.48835983576,10.5,10500177896.48836,47.655,-122.3035,60.0,2.8666666666666667
2026-01-20T23:02:53+00:00,SAT-55410,281.22896807541014,54.49143416856674,1752.177392726951,-5.066579058386912,177453.03023287724,10.5,10500177453.030233,47.655,-122.3035,60.0,2.8833333333333333
2026-01-20T23:02:54+00:00,SAT-55410,281.48666537247357,54.58271669837339,1747.1243245460532,-5.053801197160324,177005.4954824227,10.5,10500177005.495481,47.655,-122.3035,60.0,2.9
2026-01-20T23:02:55+00:00,SAT-55410,281.747043498016,54.673731142361895,1742.0840001520855,-5.040905879304647,176553.84690397646,10.5,10500176553.846905,47.655,-122.3035,60.0,2.9166666666666665
2026-01-20T23:02:56+00:00,SAT-55410,282.0101298064797,54.76446448735713,1737.056536688459,-5.0278920617232,176098.04796388044,10.5,10500176098.047964,47.655,-122.3035,60.0,2.933333333333333
2026-01-20T23:02:57+00:00,SAT-55410,282.2759516907473,54.85490341947775,1732.0420523389002,-5.014758694818412,175638.0619007878,10.5,10500175638.061901,47.655,-122.3035,60.0,2.95
2026-01-20T23:02:58+00:00,SAT-55410,282.54453656768857,54.945034319352175,1727.0406663339347,-5.001504731058623,175173.85202570888,10.5,10500175173.852026,47.655,-122.3035,60.0,2.966666666666667
2026-01-20T23:02:59+00:00,SAT-55410,282.8159118635127,55.034843257504974,1722.0524989488256,-4.988129078969203,174705.38011058516,10.5,10500174705.38011,47.655,-122.3035,60.0,2.9833333333333334
2026-01-20T23:03:00+00:00,SAT-55410,283.09010499558406,55.12431598893758,1717.0776715474003,-4.974630682993704,174232.6091853648,10.5,10500174232.609186,47.655,-122.3035,60.0,3.0
2026-01-20T23:03:01+00:00,SAT-55410,283.3671433581445,55.21343794918072,1712.1163065462279,-4.961008456415959,173755.50118865087,10.5,10500173755.501188,47.655,-122.3035,60.0,3.0166666666666666
2026-01-20T23:03:02+00:00,SAT-55410,283.64705430319526,55.30219424917253,1707.1685274456956,-4.947261335742649,173274.01887240878,10.5,10500173274.018873,47.655,-122.3035,60.0,3.033333333333333
2026-01-20T23:03:03+00:00,SAT-55410,283.9298651238929,55.390569671162226,1702.2344588068484,-4.933388189607708,172788.1226114132,10.5,10500172788.122612,47.655,-122.3035,60.0,3.05
2026-01-20T23:03:04+00:00,SAT-55410,284.215603031431,55.47854866303145,1697.3142263190796,-4.919387963785204,172297.77548221257,10.5,10500172297.775482,47.655,-122.3035,60.0,3.066666666666667
2026-01-20T23:03:05+00:00,SAT-55410,284.50429513993,55.566115335278326,1692.407956723198,-4.905259536508831,171802.93819580588,10.5,10500171802.938196,47.655,-122.3035,60.0,3.0833333333333335
2026-01-20T23:03:06+00:00,SAT-55410,284.79596844151433,55.65325345547827,1687.5157778787864,-4.891001805479138,171303.57214500356,10.5,10500171303.572145,47.655,-122.3035,60.0,3.1
2026-01-20T23:03:07+00:00,SAT-55410,285.09064978585934,55.73994644438456,1682.6378187447883,-4.8766136630951715,170799.6385369351,10.5,10500170799.638536,47.655,-122.3035,60.0,3.1166666666666667
2026-01-20T23:03:08+00:00,SAT-55410,285.38836585715165,55.82617737167429,1677.7742093847949,-4.862093976371676,170291.09768966437,10.5,10500170291.09769,47.655,-122.3035,60.0,3.1333333333333333
2026-01-20T23:03:09+00:00,SAT-55410,285.6891431488345,55.91192895144005,1672.92508099236,-4.847441652132504,169777.91131553848,10.5,10500169777.911316,47.655,-122.3035,60.0,3.15
2026-01-20T23:03:10+00:00,SAT-55410,285.99300794153373,55.997183538946345,1668.0905658513,-4.832655531561878,169260.03882792714,10.5,10500169260.038828,47.655,-122.3035,60.0,3.1666666666666665
2026-01-20T23:03:11+00:00,SAT-55410,286.29998627311465,56.08192312564573,1663.2707974011555,-4.817734512060998,168737.4416091564,10.5,10500168737.441608,47.655,-122.3035,60.0,3.183333333333333
2026-01-20T23:03:12+00:00,SAT-55410,286.6101039156504,56.16612933647738,1658.465910181127,-4.802677442141345,168210.07932922753,10.5,10500168210.079329,47.655,-122.3035,60.0,3.2
2026-01-20T23:03:13+00:00,SAT-55410,286.92338634442774,56.24978342546336,1653.6760398788313,-4.787483190308522,167677.91235842055,10.5,10500167677.91236,47.655,-122.3035,60.0,3.216666666666667
2026-01-20T23:03:14+00:00,SAT-55410,287.23985871041464,56.33286627267355,1648.9013233103635,-4.772150597098262,167140.9000873923,10.5,10500167140.900087,47.655,-122.3035,60.0,3.2333333333333334
2026-01-20T23:03:15+00:00,SAT-55410,287.5595458084034,56.41535838052705,1644.141898448191,-4.756678539119992,166599.00317025292,10.5,10500166599.00317,47.655,-122.3035,60.0,3.25
2026-01-20T23:03:16+00:00,SAT-55410,287.8824720484549,56.49723987139018,1639.397904385175,-4.741065845566739,166052.18060038975,10.5,10500166052.180601,47.655,-122.3035,60.0,3.2666666666666666
2026-01-20T23:03:17+00:00,SAT-55410,288.208661420445,56.57849048393062,1634.6694813818633,-4.725311385877961,165500.39278079034,10.5,10500165500.39278,47.655,-122.3035,60.0,3.283333333333333
2026-01-20T23:03:18+00:00,SAT-55410,288.5381374636444,56.659089571198614,1629.9567708263476,-4.709413959305432,164943.59765617264,10.5,10500164943.597656,47.655,-122.3035,60.0,3.3
2026-01-20T23:03:19+00:00,SAT-55410,288.87092322716535,56.739016097050225,1625.259915304267,-4.6933724606172635,164381.7565166408,10.5,10500164381.756517,47.655,-122.3035,60.0,3.316666666666667
2026-01-20T23:03:20+00:00,SAT-55410,289.207041241452,56.8182486356392,1620.5790585035447,-4.6771856758675225,163814.82684467328,10.5,10500163814.826845,47.655,-122.3035,60.0,3.3333333333333335
2026-01-20T23:03:21+00:00,SAT-55410,289.54651347351,56.896765367704674,1615.914345322813,-4.660852486570971,163242.76946618585,10.5,10500163242.769466,47.655,-122.3035,60.0,3.35
2026-01-20T23:03:22+00:00,SAT-55410,289.88936129623164,56.97454408059073,1611.265921776206,-4.6443716862641935,162665.5421257263,10.5,10500162665.542126,47.655,-122.3035,60.0,3.3666666666666667
2026-01-20T23:03:23+00:00,SAT-55410,290.23560544273676,57.051562165479254,1606.6339350811052,-4.62774212511597,162083.1045513416,10.5,10500162083.104551,47.655,-122.3035,60.0,3.3833333333333333
2026-01-20T23:03:24+00:00,SAT-55410,290.58526597057664,57.12779661735988,1602.0185336016564,-4.6109626282904195,161495.4155953096,10.5,10500161495.415596,47.655,-122.3035,60.0,3.4
2026-01-20T23:03:25+00:00,SAT-55410,290.9383622186131,57.20322403396846,1597.4198668737079,-4.594032019819088,160902.4340702408,10.5,10500160902.43407,47.655,-122.3035,60.0,3.4166666666666665
2026-01-20T23:03:26+00:00,SAT-55410,291.2949127645234,57.27782061547888,1592.8380856059416,-4.576949141810396,160304.11942187406,10.5,10500160304.119421,47.655,-122.3035,60.0,3.433333333333333
2026-01-20T23:03:27+00:00,SAT-55410,291.6549353829167,57.351562164870735,1588.2733416618428,-4.559712793791057,159700.42960455696,10.5,10500159700.429605,47.655,-122.3035,60.0,3.45
2026-01-20T23:03:28+00:00,SAT-55410,292.01844699723597,57.42442408771704,1583.7257881021685,-4.54232183203942,159091.32456031934,10.5,10500159091.32456,47.655,-122.3035,60.0,3.466666666666667
2026-01-20T23:03:29+00:00,SAT-55410,292.38546363902,57.49638139396568,1579.1955791283478,-4.524775052169417,158476.76210646657,10.5,10500158476.762106,47.655,-122.3035,60.0,3.4833333333333334
2026-01-20T23:03:30+00:00,SAT-55410,292.756000396144,57.567408698289256,1574.6828701429843,-4.507071303090713,157856.70192694606,10.5,10500157856.701927,47.655,-122.3035,60.0,3.5
2026-01-20T23:03:31+00:00,SAT-55410,293.1300713698904,57.63748022267977,1570.1878176967018,-4.489209411686736,157231.10293425302,10.5,10500157231.102934,47.655,-122.3035,60.0,3.5166666666666666
2026-01-20T23:03:32+00:00,SAT-55410,293.50768962454254,57.7065697983283,1565.710579510113,-4.471188187271242,156599.92342551873,10.5,10500156599.923426,47.655,-122.3035,60.0,3.533333333333333
2026-01-20T23:03:33+00:00,SAT-55410,293.8888671365129,57.77465086807707,1561.2513144913412,-4.453006470702683,155963.12280270297,10.5,10500155963.122803,47.655,-122.3035,60.0,3.55
2026-01-20T23:03:34+00:00,SAT-55410,294.2736147467673,57.841696490140095,1556.8101827045602,-4.434663096977194,155320.66026244243,10.5,10500155320.660263,47.655,-122.3035,60.0,3.566666666666667
2026-01-20T23:03:35+00:00,SAT-55410,294.66194210949305,57.90767934176271,1552.3873453758417,-4.416156899758867,154672.49495472,10.5,10500154672.494955,47.655,-122.3035,60.0,3.5833333333333335
2026-01-20T23:03:36+00:00,SAT-55410,295.0538576400987,57.97257172352293,1547.9829648944822,-4.397486707913693,154018.58586146877,10.5,10500154018.585861,47.655,-122.3035,60.0,3.6
2026-01-20T23:03:37+00:00,SAT-55410,295.44936846252256,58.03634556414655,1543.5972048177896,-4.3786513574491615,153358.89221474747,10.5,10500153358.892214,47.655,-122.3035,60.0,3.6166666666666667
2026-01-20T23:03:38+00:00,SAT-55410,295.84848035671695,58.09897242610679,1539.2302298639604,-4.359649720266808,152693.37450377582,10.5,10500152693.374504,47.655,-122.3035,60.0,3.6333333333333333
2026-01-20T23:03:39+00:00,SAT-55410,296.2511977088827,58.16042351220743,1534.8822058762808,-4.3404805963194875,152021.99069782675,10.5,10500152021.990698,47.655,-122.3035,60.0,3.65
2026-01-20T23:03:40+00:00,SAT-55410,296.6575234504157,58.22066967132334,1530.553299894885,-4.321142876831756,151344.70196289403,10.5,10500151344.701963,47.655,-122.3035,60.0,3.6666666666666665
2026-01-20T23:03:41+00:00,SAT-55410,297.0674590127451,58.27968140704064,1526.2436800657244,-4.301635393091778,150661.46736574563,10.5,10500150661.467365,47.655,-122.3035,60.0,3.683333333333333
2026-01-20T23:03:42+00:00,SAT-55410,297.4810042669481,58.33742888489318,1521.9535157003477,-4.2819570283498845,149972.24779308419,10.5,10500149972.247793,47.655,-122.3035,60.0,3.7
2026-01-20T23:03:43+00:00,SAT-55410,297.89815747452104,58.39388194179845,1517.6829772240733,-4.262106650243898,149277.00358479642,10.5,10500149277.003584,47.655,-122.3035,60.0,3.716666666666667
2026-01-20T23:03:44+00:00,SAT-55410,298.3189152313033,58.44901009529496,1513.4322361915636,-4.242083090729783,148575.69383103936,10.5,10500148575.69383,47.655,-122.3035,60.0,3.7333333333333334
2026-01-20T23:03:45+00:00,SAT-55410,298.7432724093274,58.50278255328715,1509.2014653224091,-4.221885287457717,147868.28132382847,10.5,10500147868.281324,47.655,-122.3035,60.0,3.75
2026-01-20T23:03:46+00:00,SAT-55410,299.17122211382576,58.555168226276514,1504.9908383957177,-4.201512090557094,147154.72578983122,10.5,10500147154.72579,47.655,-122.3035,60.0,3.7666666666666666
2026-01-20T23:03:47+00:00,SAT-55410,299.60275562029574,58.606135737950495,1500.8005303374023,-4.180962424779731,146434.9895693079,10.5,10500146434.989569,47.655,-122.3035,60.0,3.783333333333333
2026-01-20T23:03:48+00:00,SAT-55410,300.0378623293236,58.65565343852057,1496.6307171457554,-4.160235174766699,145709.03359767087,10.5,10500145709.033598,47.655,-122.3035,60.0,3.8
2026-01-20T23:03:49+00:00,SAT-55410,300.47652970978334,58.70368941746936,1492.4815759314545,-4.139329258825078,144976.81998945857,10.5,10500144976.81999,47.655,-122.3035,60.0,3.816666666666667
2026-01-20T23:03:50+00:00,SAT-55410,300.9187432508755,58.75021151795692,1488.3532848839864,-4.118243608313285,144238.31131632233,10.5,10500144238.311316,47.655,-122.3035,60.0,3.8333333333333335
2026-01-20T23:03:51+00:00,SAT-55410,301.36448641308056,58.79518735176379,1484.2460232586286,-4.096977158231381,143493.47027745942,10.5,10500143493.470278,47.655,-122.3035,60.0,3.85
2026-01-20T23:03:52+00:00,SAT-55410,301.81374057907124,58.83858431495348,1480.1599713728192,-4.075528847842381,142742.25972137362,10.5,10500142742.259722,47.655,-122.3035,60.0,3.8666666666666667
2026-01-20T23:03:53+00:00,SAT-55410,302.2664850061812,58.88036960434908,1476.0953106019044,-4.053897635021827,141984.64314845836,10.5,10500141984.643148,47.655,-122.3035,60.0,3.8833333333333333
2026-01-20T23:03:54+00:00,SAT-55410,302.7226967819463,58.92051023498435,1472.052223360576,-4.032082503177973,141220.58495337036,10.5,10500141220.584953,47.655,-122.3035,60.0,3.9
2026-01-20T23:03:55+00:00,SAT-55410,303.1823507824065,58.95897305840469,1468.0308930774065,-4.010082412149869,140450.0487052734,10.5,10500140450.048706,47.655,-122.3035,60.0,3.9166666666666665
2026-01-20T23:03:56+00:00,SAT-55410,303.6454196262324,58.995724781357154,1464.0315042183558,-3.987896375416622,139672.99985203275,10.5,10500139672.999851,47.655,-122.3035,60.0,3.933333333333333
2026-01-20T23:03:57+00:00,SAT-55410,304.1118736404186,59.03073198598067,1460.0542422332735,-3.9655234105759525,138889.40398576504,10.5,10500138889.403986,47.655,-122.3035,60.0,3.95
2026-01-20T23:03:58+00:00,SAT-55410,304.58168082226416,59.063961150342,1456.0992935517925,-3.9429625239001562,138099.22630192264,10.5,10500138099.226301,47.655,-122.3035,60.0,3.966666666666667
2026-01-20T23:03:59+00:00,SAT-55410,305.0548068018121,59.0953786696913,1452.1668455946226,-3.9202127714101476,137302.43373836493,10.5,10500137302.433739,47.655,-122.3035,60.0,3.9833333333333334
2026-01-20T23:04:00+00:00,SAT-55410,305.5312148146443,59.12495087897301,1448.2570867239363,-3.897273210720869,136498.99328878088,10.5,10500136498.993288,47.655,-122.3035,60.0,4.0
2026-01-20T23:04:01+00:00,SAT-55410,306.01086567158677,59.15264407572886,1444.3702062417774,-3.8741429051367873,135688.8721461307,10.5,10500135688.872147,47.655,-122.3035,60.0,4.016666666666667
2026-01-20T23:04:02+00:00,SAT-55410,306.49371773179314,59.178424543837686,1440.5063943843877,-3.850820967570206,134872.03924085095,10.5,10500134872.039242,47.655,-122.3035,60.0,4.033333333333333
2026-01-20T23:04:03+00:00,SAT-55410,306.9797268850364,59.20225857823813,1436.665842272731,-3.8273065010200957,134048.46315617123,10.5,10500134048.463156,47.655,-122.3035,60.0,4.05
2026-01-20T23:04:04+00:00,SAT-55410,307.46884652947404,59.224112510027496,1432.8487419223802,-3.8035986312470644,133218.11327252997,10.5,10500133218.113272,47.655,-122.3035,60.0,4.066666666666666
2026-01-20T23:04:05+00:00,SAT-55410,307.96102755749394,59.243952732452925,1429.0552862208165,-3.7796965202848916,132380.96024080552,10.5,10500132380.960241,47.655,-122.3035,60.0,4.083333333333333
2026-01-20T23:04:06+00:00,SAT-55410,308.45621834704343,59.261745727638086,1425.2856688912523,-3.755599341557321,131536.97511080105,10.5,10500131536.975111,47.655,-122.3035,60.0,4.1
2026-01-20T23:04:07+00:00,SAT-55410,308.9543647538357,59.27745809379827,1421.5400844812723,-3.731306284497275,130686.12949302877,10.5,10500130686.129494,47.655,-122.3035,60.0,4.116666666666666
2026-01-20T23:04:08+00:00,SAT-55410,309.4554101080713,59.29105657312526,1417.8187283468671,-3.7068165644096207,129828.39590414584,10.5,10500129828.395905,47.655,-122.3035,60.0,4.133333333333334
2026-01-20T23:04:09+00:00,SAT-55410,309.95929521699696,59.30250808026282,1414.1217966266292,-3.6821294445650046,128963.74854077399,10.5,10500128963.74854,47.655,-122.3035,60.0,4.15
2026-01-20T23:04:10+00:00,SAT-55410,310.46595837506686,59.31177973134088,1410.4494861939165,-3.657244157971112,128092.16053959796,10.5,10500128092.16054,47.655,-122.3035,60.0,4.166666666666667
2026-01-20T23:04:11+00:00,SAT-55410,310.9753353674397,59.31883887335656,1406.8019946870334,-3.6321600266327887,127213.6081543595,10.5,10500127213.608154,47.655,-122.3035,60.0,4.183333333333334
2026-01-20T23:04:12+00:00,SAT-55410,311.48735949543345,59.3236531141953,1403.1795204204714,-3.6068763532801347,126328.06696371733,10.5,10500126328.066963,47.655,-122.3035,60.0,4.2
2026-01-20T23:04:13+00:00,SAT-55410,312.00196159113534,59.326190352876736,1399.5822624041336,-3.5813924889017663,125435.51423654743,10.5,10500125435.514236,47.655,-122.3035,60.0,4.216666666666667
2026-01-20T23:04:14+00:00,SAT-55410,312.519070046685,59.32641881023687,1396.0104202952023,-3.5557078004245826,124535.92779995191,10.5,10500124535.9278,47.655,-122.3035,60.0,4.233333333333333
2026-01-20T23:04:15+00:00,SAT-55410,313.03861084390815,59.32430705986697,1392.4641943822455,-3.529821689821046,123629.28670847678,10.5,10500123629.286709,47.655,-122.3035,60.0,4.25
2026-01-20T23:04:16+00:00,SAT-55410,313.5605075917029,59.31982405930306,1388.943785550264,-3.503733588404415,122715.5710443068,10.5,10500122715.571045,47.655,-122.3035,60.0,4.266666666666667
2026-01-20T23:04:17+00:00,SAT-55410,314.0846815679539,59.31293918134381,1385.4493952514285,-3.4774429756976786,121794.76257813539,10.5,10500121794.762579,47.655,-122.3035,60.0,4.283333333333333
2026-01-20T23:04:18+00:00,SAT-55410,314.6110517692115,59.30362224546532,1381.9812254569995,-3.45094931937722,120866.84266573781,10.5,10500120866.842667,47.655,-122.3035,60.0,4.3
2026-01-20T23:04:19+00:00,SAT-55410,315.13953495633103,59.29184354944753,1378.5394786691404,-3.4242521629092226,119931.79531736864,10.5,10500119931.795317,47.655,-122.3035,60.0,4.316666666666666
2026-01-20T23:04:20+00:00,SAT-55410,315.6700457188119,59.27757390072593,1375.1243578453323,-3.397351051806976,118989.60461498084,10.5,10500118989.604614,47.655,-122.3035,60.0,4.333333333333333
2026-01-20T23:04:21+00:00,SAT-55410,316.202496532671,59.26078464792107,1371.7360663963302,-3.3702455994600804,118040.2570178428,10.5,10500118040.257017,47.655,-122.3035,60.0,4.35
2026-01-20T23:04:22+00:00,SAT-55410,316.7367978339355,59.24144771188652,1368.3748081184685,-3.342935415707457,117083.7388608632,10.5,10500117083.738861,47.655,-122.3035,60.0,4.366666666666666
2026-01-20T23:04:23+00:00,SAT-55410,317.2728580852968,59.219535616991934,1365.0407871972031,-3.315420177074847,116120.03881460517,10.5,10500116120.038815,47.655,-122.3035,60.0,4.383333333333334
2026-01-20T23:04:24+00:00,SAT-55410,317.8105838592541,59.19502152165169,1361.7342081406005,-3.2876995859571383,115149.14645567886,10.5,10500115149.146456,47.655,-122.3035,60.0,4.4
2026-01-20T23:04:25+00:00,SAT-55410,318.349879919272,59.16787924875754,1358.4552757535394,-3.25977337267539,114171.05233878696,10.5,10500114171.05234,47.655,-122.3035,60.0,4.416666666666667
2026-01-20T23:04:26+00:00,SAT-55410,318.89064930548034,59.13808331577439,1355.2041951098574,-3.2316413328129365,113185.74930439322,10.5,10500113185.749304,47.655,-122.3035,60.0,4.433333333333334
2026-01-20T23:04:27+00:00,SAT-55410,319.4327934316917,59.1056089638661,1351.9811714872656,-3.2033032756526887,112193.2306727784,10.5,10500112193.230673,47.655,-122.3035,60.0,4.45
2026-01-20T23:04:28+00:00,SAT-55410,319.9762121772278,59.070432187081416,1348.7864103536813,-3.1747590645976222,111193.49165973693,10.5,10500111193.49166,47.655,-122.3035,60.0,4.466666666666667
2026-01-20T23:04:29+00:00,SAT-55410,320.52080399005206,59.03252976043353,1345.6201173132558,-3.146008604803512,110186.52894342283,10.5,10500110186.528944,47.655,-122.3035,60.0,4.483333333333333
2026-01-20T23:04:30+00:00,SAT-55410,321.0664659914287,58.991879267417815,1342.4824980647318,-3.1170518341793683,109172.34034914704,10.5,10500109172.34035,47.655,-122.3035,60.0,4.5
2026-01-20T23:04:31+00:00,SAT-55410,321.61309408237094,58.948459126933265,1339.3737583687769,-3.0878887474719776,108150.92569291976,10.5,10500108150.925694,47.655,-122.3035,60.0,4.516666666666667
2026-01-20T23:04:32+00:00,SAT-55410,322.16058305769013,58.90224861902693,1336.2941039912982,-3.058519383377195,107122.28633003352,10.5,10500107122.28633,47.655,-122.3035,60.0,4.533333333333333
2026-01-20T23:04:33+00:00,SAT-55410,322.70882672097025,58.8532279098552,1333.24374065961,-3.0289438118651915,106086.4247111397,10.5,10500106086.424711,47.655,-122.3035,60.0,4.55
2026-01-20T23:04:34+00:00,SAT-55410,323.25771799928134,58.80137807605468,1330.2228740312432,-2.9991621714411014,105043.34568727396,10.5,10500105043.345688,47.655,-122.3035,60.0,4.566666666666666
2026-01-20T23:04:35+00:00,SAT-55410,323.80714906768526,58.74668112734198,1327.2317096255924,-2.9691746188991077,103993.05475003188,10.5,10500103993.05475,47.655,-122.3035,60.0,4.583333333333333
2026-01-20T23:04:36+00:00,SAT-55410,324.35701146583386,58.689120029090176,1324.2704528056772,-2.938981395769641,102935.56035883074,10.5,10500102935.560358,47.655,-122.3035,60.0,4.6
2026-01-20T23:04:37+00:00,SAT-55410,324.90719622925724,58.62867872240074,1321.3393086936294,-2.9085827570890683,101870.87144612297,10.5,10500101870.871447,47.655,-122.3035,60.0,4.616666666666666
2026-01-20T23:04:38+00:00,SAT-55410,325.45759400780383,58.56534214459902,1318.4384821572262,-2.877979031534804,100798.99952358188,10.5,10500100798.999523,47.655,-122.3035,60.0,4.633333333333334
2026-01-20T23:04:39+00:00,SAT-55410,326.00809519723106,58.49909624711641,1315.568177736442,-2.847170599149524,99719.95790190961,10.5,10500099719.957901,47.655,-122.3035,60.0,4.65
2026-01-20T23:04:40+00:00,SAT-55410,326.55859006654214,58.42992801271007,1312.7285995922234,-2.8161578728775463,98633.76104416288,10.5,10500098633.761044,47.655,-122.3035,60.0,4.666666666666667
2026-01-20T23:04:41+00:00,SAT-55410,327.1089688821478,58.35782547182887,1309.9199514736738,-2.7849413262439993,97540.42553519472,10.5,10500097540.425535,47.655,-122.3035,60.0,4.683333333333334
2026-01-20T23:04:42+00:00,SAT-55410,327.6591220370545,58.28277771708529,1307.142436657633,-2.753521517243187,96439.97091832598,10.5,10500096439.970919,47.655,-122.3035,60.0,4.7
2026-01-20T23:04:43+00:00,SAT-55410,328.2089401850355,58.20477491548144,1304.396257864436,-2.721899002700001,95332.41669591973,10.5,10500095332.416697,47.655,-122.3035,60.0,4.716666666666667
2026-01-20T23:04:44+00:00,SAT-55410,328.7583143554344,58.12380832200912,1301.6816172590763,-2.69007443659418,94217.78577311272,10.5,10500094217.785772,47.655,-122.3035,60.0,4.733333333333333
2026-01-20T23:04:45+00:00,SAT-55410,329.3071360879012,58.039870288756816,1298.998716354313,-2.658048514104044,93096.10249799033,10.5,10500093096.102497,47.655,-122.3035,60.0,4.75
2026-01-20T23:04:46+00:00,SAT-55410,329.85529755311364,57.95295427449626,1296.34775596958,-2.6258219844405684,91967.3931110901,10.5,10500091967.39311,47.655,-122.3035,60.0,4.766666666666667
2026-01-20T23:04:47+00:00,SAT-55410,330.4026916747574,57.86305485234477,1293.728936177098,-2.593395675993845,90831.68662613712,10.5,10500090831.686626,47.655,-122.3035,60.0,4.783333333333333
2026-01-20T23:04:48+00:00,SAT-55410,330.9492122543012,57.770167715190205,1291.1424562229067,-2.5607704287777127,89689.01246396927,10.5,10500089689.012465,47.655,-122.3035,60.0,4.8
2026-01-20T23:04:49+00:00,SAT-55410,331.49475407842215,57.67428968223197,1288.5885145152724,-2.5279472005178403,88539.40416819067,10.5,10500088539.40417,47.655,-122.3035,60.0,4.816666666666666
2026-01-20T23:04:50+00:00,SAT-55410,332.03921304695854,57.57541870001873,1286.0673085072892,-2.494926962613043,87382.89576129681,10.5,10500087382.895761,47.655,-122.3035,60.0,4.833333333333333
2026-01-20T23:04:51+00:00,SAT-55410,332.5824862743845,57.47355384620486,1283.5790346832432,-2.4617107674934546,86219.52410384278,10.5,10500086219.524103,47.655,-122.3035,60.0,4.85
2026-01-20T23:04:52+00:00,SAT-55410,333.12447220281905,57.368695329229034,1281.1238884777965,-2.428299722504646,85049.32797975453,10.5,10500085049.32798,47.655,-122.3035,60.0,4.866666666666666
2026-01-20T23:04:53+00:00,SAT-55410,333.66507070530946,57.26084448771357,1278.7020642212185,-2.394695003578476,83872.34857513994,10.5,10500083872.348576,47.655,-122.3035,60.0,4.883333333333334
2026-01-20T23:04:54+00:00,SAT-55410,334.20418318849755,57.150003787794525,1276.3137550709828,-2.3608978393895983,82688.62892338265,10.5,10500082688.628923,47.655,-122.3035,60.0,4.9
2026-01-20T23:04:55+00:00,SAT-55410,334.74171268683057,57.03617682004231,1273.9591529591648,-2.32690952107567,81498.21424558497,10.5,10500081498.214245,47.655,-122.3035,60.0,4.916666666666667
2026-01-20T23:04:56+00:00,SAT-55410,335.27756395486733,56.91936829455317,1271.6384485301455,-2.2927314103551475,80301.15223488728,10.5,10500080301.152235,47.655,-122.3035,60.0,4.933333333333334
2026-01-20T23:04:57+00:00,SAT-55410,335.81164355678186,56.79958403434772,1269.351831070218,-2.2583649317352634,79097.4927835585,10.5,10500079097.492785,47.655,-122.3035,60.0,4.95
2026-01-20T23:04:58+00:00,SAT-55410,336.3438599493626,56.67683096786434,1267.0994884449674,-2.223811561360915,77887.28759243706,10.5,10500077887.287592,47.655,-122.3035,60.0,4.966666666666667
2026-01-20T23:04:59+00:00,SAT-55410,336.87412355686666,56.55111712107168,1264.8816070477699,-2.189072860380827,76670.59133955493,10.5,10500076670.59134,47.655,-122.3035,60.0,4.983333333333333
2026-01-20T23:05:00+00:00,SAT-55410,337.4023468496593,56.42245160625182,1262.698371715017,-2.154150430105279,75447.46010957164,10.5,10500075447.46011,47.655,-122.3035,60.0,5.0
2026-01-20T23:05:01+00:00,SAT-55410,337.92844440582377,56.29084461258699,1260.5499656860586,-2.1190459588433908,74217.95303421411,10.5,10500074217.953033,47.655,-122.3035,60.0,5.016666666666667
2026-01-20T23:05:02+00:00,SAT-55410,338.45233297995355,56.1563073925637,1258.4365705164387,-2.0837611798146476,72982.1308181602,10.5,10500072982.130817,47.655,-122.3035,60.0,5.033333333333333
2026-01-20T23:05:03+00:00,SAT-55410,338.9739315553098,56.018852250250994,1256.3583660331035,-2.048297904578069,71740.0569098697,10.5,10500071740.05691,47.655,-122.3035,60.0,5.05
2026-01-20T23:05:04+00:00,SAT-55410,339.49316139987525,55.87849252618667,1254.3155302562711,-2.0126580132881142,70491.7971603048,10.5,10500070491.797161,47.655,-122.3035,60.0,5.066666666666666
2026-01-20T23:05:05+00:00,SAT-55410,340.0099461142417,55.73524258202625,1252.3082393310185,-1.9768434396706887,69237.41929672637,10.5,10500069237.419296,47.655,-122.3035,60.0,5.083333333333333
2026-01-20T23:05:06+00:00,SAT-55410,340.524211670379,55.58911778536261,1250.3366674738536,-1.9408561868917957,67976.99347848122,10.5,10500067976.993479,47.655,-122.3035,60.0,5.1
2026-01-20T23:05:07+00:00,SAT-55410,341.03588644906546,55.44013449266684,1248.40098690346,-1.9046983260651542,66710.59224473257,10.5,10500066710.592245,47.655,-122.3035,60.0,5.116666666666666
2026-01-20T23:05:08+00:00,SAT-55410,341.5449012722183,55.28831003132499,1246.501367772931,-1.8683719913570187,65438.290343010216,10.5,10500065438.290342,47.655,-122.3035,60.0,5.133333333333334
2026-01-20T23:05:09+00:00,SAT-55410,342.0511894282185,55.1336626815248,1244.6379781068842,-1.8318793887822011,64160.16503728427,10.5,10500064160.165037,47.655,-122.3035,60.0,5.15
2026-01-20T23:05:10+00:00,SAT-55410,342.55468669532473,54.97621165640681,1242.8109837298055,-1.7952227744260856,62876.29534520811,10.5,10500062876.295345,47.655,-122.3035,60.0,5.166666666666667
2026-01-20T23:05:11+00:00,SAT-55410,343.0553313531302,54.81597708385435,1241.0205482161114,-1.7584044872908724,61586.76318853278,10.5,10500061586.76319,47.655,-122.3035,60.0,5.183333333333334
2026-01-20T23:05:12+00:00,SAT-55410,343.5530641996287,54.6529799842915,1239.266832807453,-1.72142692028716,60291.65237710943,10.5,10500060291.652376,47.655,-122.3035,60.0,5.2
2026-01-20T23:05:13+00:00,SAT-55410,344.0478285543967,54.487242250915955,1237.5499963589534,-1.684292534056755,58991.04909302263,10.5,10500058991.049093,47.655,-122.3035,60.0,5.216666666666667
2026-01-20T23:05:14+00:00,SAT-55410,344.5395702620583,54.31878662780873,1235.8701952716542,-1.6470038505360736,57685.04166515347,10.5,10500057685.041666,47.655,-122.3035,60.0,5.233333333333333
