satellites_20260121_005943/SAT-62014.csv

timestamp,satellite,azimuth_deg,elevation_deg,distance_km,relative_velocity_kms,doppler_shift_hz,tx_freq_ghz,rx_freq_hz,ue_lat,ue_lon,ue_alt_m,time_minutes
2026-01-20T23:00:21+00:00,SAT-62014,200.90668188266093,30.201838140603318,733.7104472964434,-5.101832351052761,178687.74966331536,10.5,10500178687.749662,47.655,-122.3035,60.0,0.35
2026-01-20T23:00:22+00:00,SAT-62014,201.05441932793133,30.60822162577096,728.6222198316601,-5.064821493581193,177391.47287888918,10.5,10500177391.47288,47.655,-122.3035,60.0,0.36666666666666664
2026-01-20T23:00:23+00:00,SAT-62014,201.20603410939228,31.01967821084256,723.5709045287284,-5.027024030569526,176067.64584111059,10.5,10500176067.645842,47.655,-122.3035,60.0,0.38333333333333336
2026-01-20T23:00:24+00:00,SAT-62014,201.3616571657961,31.436263760639566,718.5572858955738,-4.988423881031528,174715.70532581923,10.5,10500174715.705326,47.655,-122.3035,60.0,0.4
2026-01-20T23:00:25+00:00,SAT-62014,201.52142524645913,31.858032900107364,713.5821644782251,-4.949004800089872,173335.0823686954,10.5,10500173335.082369,47.655,-122.3035,60.0,0.4166666666666667
2026-01-20T23:00:26+00:00,SAT-62014,201.68548122637347,32.285038845603594,708.6463570242687,-4.908750401997735,171925.20307157366,10.5,10500171925.203072,47.655,-122.3035,60.0,0.43333333333333335
2026-01-20T23:00:27+00:00,SAT-62014,201.85397444142373,32.71733322549776,703.7506966233431,-4.867644230139968,170485.49105418008,10.5,10500170485.491055,47.655,-122.3035,60.0,0.45
2026-01-20T23:00:28+00:00,SAT-62014,202.02706104676983,33.15496589372937,698.8960327778168,-4.825669749153912,169015.36717816986,10.5,10500169015.367178,47.655,-122.3035,60.0,0.4666666666666667
2026-01-20T23:00:29+00:00,SAT-62014,202.2049043974767,33.597984729113165,694.0832314813272,-4.782810322492512,167514.24876129266,10.5,10500167514.248762,47.655,-122.3035,60.0,0.48333333333333334
2026-01-20T23:00:30+00:00,SAT-62014,202.38767545224158,34.04643541804107,689.3131753196947,-4.739049297648075,165981.55256228888,10.5,10500165981.552563,47.655,-122.3035,60.0,0.5
2026-01-20T23:00:31+00:00,SAT-62014,202.57555320565933,34.500361229343795,684.5867634868404,-4.694370037115422,164416.69586535072,10.5,10500164416.695866,47.655,-122.3035,60.0,0.5166666666666667
2026-01-20T23:00:32+00:00,SAT-62014,202.76872514935573,34.959802776204654,679.9049117698239,-4.648755885773084,162819.09533767318,10.5,10500162819.095337,47.655,-122.3035,60.0,0.5333333333333333
2026-01-20T23:00:33+00:00,SAT-62014,202.9673877612413,35.42479775798088,675.268552566413,-4.602190246804722,161188.1696885436,10.5,10500161188.16969,47.655,-122.3035,60.0,0.55
2026-01-20T23:00:34+00:00,SAT-62014,203.17174702929694,35.89538069132188,670.678634826933,-4.554656594584279,159523.34012063418,10.5,10500159523.34012,47.655,-122.3035,60.0,0.5666666666666667
2026-01-20T23:00:35+00:00,SAT-62014,203.38201900973294,36.3715826238139,666.1361239832676,-4.50613853748267,157824.03252975774,10.5,10500157824.03253,47.655,-122.3035,60.0,0.5833333333333334
2026-01-20T23:00:36+00:00,SAT-62014,203.59843042412854,36.85343083417313,661.6420018152182,-4.456619821186957,156089.67762111966,10.5,10500156089.677622,47.655,-122.3035,60.0,0.6
2026-01-20T23:00:37+00:00,SAT-62014,203.8212192958478,37.34094851228275,657.1972663135543,-4.406084379134061,154319.7126757193,10.5,10500154319.712675,47.655,-122.3035,60.0,0.6166666666666667
2026-01-20T23:00:38+00:00,SAT-62014,204.05063563035517,37.83415442255026,652.8029314927647,-4.354516376071405,152513.58307602842,10.5,10500152513.583076,47.655,-122.3035,60.0,0.6333333333333333
2026-01-20T23:00:39+00:00,SAT-62014,204.2869421425451,38.33306254919716,648.4600271603628,-4.301900260969469,150670.74415921237,10.5,10500150670.74416,47.655,-122.3035,60.0,0.65
2026-01-20T23:00:40+00:00,SAT-62014,204.53041503481603,38.837681723466396,644.1695986334227,-4.248220804923407,148790.66254460535,10.5,10500148790.662544,47.655,-122.3035,60.0,0.6666666666666666
2026-01-20T23:00:41+00:00,SAT-62014,204.7813448288945,39.348015230202535,639.9327064173124,-4.193463146191748,146872.81771115586,10.5,10500146872.81771,47.655,-122.3035,60.0,0.6833333333333333
2026-01-20T23:00:42+00:00,SAT-62014,205.04003725541043,39.86406039328465,635.7504258395104,-4.1376128427924375,144916.7038395629,10.5,10500144916.70384,47.655,-122.3035,60.0,0.7
2026-01-20T23:00:43+00:00,SAT-62014,205.30681420602818,40.38580813990627,631.6238466309654,-4.080655947363104,142921.83243419882,10.5,10500142921.832434,47.655,-122.3035,60.0,0.7166666666666667
2026-01-20T23:00:44+00:00,SAT-62014,205.58201475376075,40.91324254515427,627.5540724327954,-4.022579054709584,140887.7339884602,10.5,10500140887.733988,47.655,-122.3035,60.0,0.7333333333333333
2026-01-20T23:00:45+00:00,SAT-62014,205.86599624498055,41.446340352789555,623.542220255565,-3.9633693167158293,138813.95850697556,10.5,10500138813.958508,47.655,-122.3035,60.0,0.75
2026-01-20T23:00:46+00:00,SAT-62014,206.15913546552375,41.98507046631345,619.5894199236938,-3.903014589814795,136700.08067065963,10.5,10500136700.080671,47.655,-122.3035,60.0,0.7666666666666667
2026-01-20T23:00:47+00:00,SAT-62014,206.4618298955274,42.52939342643945,615.6968133727851,-3.8415034271454616,134545.6995620195,10.5,10500134545.699562,47.655,-122.3035,60.0,0.7833333333333333
2026-01-20T23:00:48+00:00,SAT-62014,206.77449904821464,43.07926085360235,611.8655539547788,-3.7788251751157427,132350.4420471955,10.5,10500132350.442047,47.655,-122.3035,60.0,0.8
2026-01-20T23:00:49+00:00,SAT-62014,207.09758590580986,43.63461486766941,608.0968056467966,-3.714970044601908,130113.96526966676,10.5,10500130113.96527,47.655,-122.3035,60.0,0.8166666666666667
2026-01-20T23:00:50+00:00,SAT-62014,207.43155845759568,44.195387480419896,604.3917421889802,-3.6499291722508156,127835.95879731425,10.5,10500127835.958797,47.655,-122.3035,60.0,0.8333333333333334
2026-01-20T23:00:51+00:00,SAT-62014,207.77691134595352,44.761499957879934,600.7515461611888,-3.583694693601939,125516.1471834637,10.5,10500125516.147184,47.655,-122.3035,60.0,0.85
2026-01-20T23:00:52+00:00,SAT-62014,208.134167628395,45.332862152587154,597.1774079867698,-3.516259836442635,123154.2932365819,10.5,10500123154.293236,47.655,-122.3035,60.0,0.8666666666666667
2026-01-20T23:00:53+00:00,SAT-62014,208.5038806650556,45.90937180758383,593.6705248432244,-3.44761894394612,120750.19883066657,10.5,10500120750.198832,47.655,-122.3035,60.0,0.8833333333333333
2026-01-20T23:00:54+00:00,SAT-62014,208.8866361321591,46.490913819234564,590.2320995497954,-3.3777676146020346,118303.70980620653,10.5,10500118303.709806,47.655,-122.3035,60.0,0.9
2026-01-20T23:00:55+00:00,SAT-62014,209.2830541806297,47.077359475615594,586.8633393154989,-3.306702743800633,115814.71742663602,10.5,10500115814.717426,47.655,-122.3035,60.0,0.9166666666666666
2026-01-20T23:00:56+00:00,SAT-62014,209.69379173797662,47.66856565316674,583.5654544456818,-3.234422594439124,113283.16085126733,10.5,10500113283.16085,47.655,-122.3035,60.0,0.9333333333333333
2026-01-20T23:00:57+00:00,SAT-62014,210.1195449633878,48.26437397390547,580.3396569781612,-3.1609269053756415,110709.03093380768,10.5,10500110709.030933,47.655,-122.3035,60.0,0.95
2026-01-20T23:00:58+00:00,SAT-62014,210.56105186770478,48.86460992768832,577.1871592111999,-3.0862169265411294,108092.37145212592,10.5,10500108092.371452,47.655,-122.3035,60.0,0.9666666666666667
2026-01-20T23:00:59+00:00,SAT-62014,211.01909509613586,49.46908194459533,574.1091721964629,-3.010295526252744,105433.28286682187,10.5,10500105433.282867,47.655,-122.3035,60.0,0.9833333333333333
2026-01-20T23:01:00+00:00,SAT-62014,211.49450488763065,50.07758042742979,571.1069041249468,-2.9331672525101125,102731.92446808045,10.5,10500102731.924469,47.655,-122.3035,60.0,1.0
2026-01-20T23:01:01+00:00,SAT-62014,211.98816220984358,50.689876734029426,568.1815586517768,-2.854838385417882,99988.51621173126,10.5,10500099988.516212,47.655,-122.3035,60.0,1.0166666666666666
2026-01-20T23:01:02+00:00,SAT-62014,212.50100206888735,51.30572210380594,565.3343331687199,-2.775317057762134,97203.34294234449,10.5,10500097203.342943,47.655,-122.3035,60.0,1.0333333333333334
2026-01-20T23:01:03+00:00,SAT-62014,213.0340170053094,51.92484654021489,562.5664169564452,-2.6946132431597762,94376.75397817262,10.5,10500094376.753979,47.655,-122.3035,60.0,1.05
2026-01-20T23:01:04+00:00,SAT-62014,213.58826074898803,52.54695761809746,559.8789893486005,-2.612738893425075,91509.16792230739,10.5,10500091509.167923,47.655,-122.3035,60.0,1.0666666666666667
2026-01-20T23:01:05+00:00,SAT-62014,214.16485205010986,53.17173924431408,557.2732177588912,-2.529707939599308,88601.07269874257,10.5,10500088601.072699,47.655,-122.3035,60.0,1.0833333333333333
2026-01-20T23:01:06+00:00,SAT-62014,214.7649786464862,53.79885033906573,554.7502557071309,-2.4455363720410537,85653.02835747476,10.5,10500085653.028357,47.655,-122.3035,60.0,1.1
2026-01-20T23:01:07+00:00,SAT-62014,215.38990135882517,54.427923451774205,552.3112407654153,-2.3602422756477264,82665.66830811043,10.5,10500082665.668308,47.655,-122.3035,60.0,1.1166666666666667
2026-01-20T23:01:08+00:00,SAT-62014,216.04095827224475,55.05856329814305,549.9572924691693,-2.273845870463101,79639.70074211326,10.5,10500079639.700743,47.655,-122.3035,60.0,1.1333333333333333
2026-01-20T23:01:09+00:00,SAT-62014,216.71956896008544,55.69034521687121,547.6895101876939,-2.186369537763023,76575.9095464361,10.5,10500076575.909546,47.655,-122.3035,60.0,1.15
2026-01-20T23:01:10+00:00,SAT-62014,217.42723868476074,56.322813539242375,545.5089709686983,-2.09783785758687,73475.15561803138,10.5,10500073475.155619,47.655,-122.3035,60.0,1.1666666666666667
2026-01-20T23:01:11+00:00,SAT-62014,218.1655624999179,56.95547987346374,543.4167273453984,-2.008277601509774,70338.3766107039,10.5,10500070338.37661,47.655,-122.3035,60.0,1.1833333333333333
2026-01-20T23:01:12+00:00,SAT-62014,218.93622913651072,57.58782129040064,541.413805150826,-1.9177177705339021,67166.58826222364,10.5,10500067166.588263,47.655,-122.3035,60.0,1.2
2026-01-20T23:01:13+00:00,SAT-62014,219.74102455576093,58.219278424889865,539.5012012943469,-1.8261895603279363,63960.88317686542,10.5,10500063960.883177,47.655,-122.3035,60.0,1.2166666666666666
2026-01-20T23:01:14+00:00,SAT-62014,220.58183497721197,58.84925347439917,537.6798815728464,-1.7337263773878304,60722.431391426864,10.5,10500060722.43139,47.655,-122.3035,60.0,1.2333333333333334
2026-01-20T23:01:15+00:00,SAT-62014,221.46064919242477,59.477108117062244,535.9507784657984,-1.6403637878118764,57452.47858111461,10.5,10500057452.47858,47.655,-122.3035,60.0,1.25
2026-01-20T23:01:16+00:00,SAT-62014,222.37955987854943,60.10216133777395,534.3147889814205,-1.546139507981987,54152.34573316338,10.5,10500054152.345734,47.655,-122.3035,60.0,1.2666666666666666
2026-01-20T23:01:17+00:00,SAT-62014,223.34076361420628,60.7236871923574,532.7727725121266,-1.4510933543265527,50823.42738731875,10.5,10500050823.427387,47.655,-122.3035,60.0,1.2833333333333334
2026-01-20T23:01:18+00:00,SAT-62014,224.3465591968109,61.340912519176285,531.3255487400783,-1.3552671785163235,47467.189366122744,10.5,10500047467.189365,47.655,-122.3035,60.0,1.3
2026-01-20T23:01:19+00:00,SAT-62014,225.39934379165837,61.953014624371114,529.9738956073712,-1.2587048121655235,44085.16683811304,10.5,10500044085.166838,47.655,-122.3035,60.0,1.3166666666666667
2026-01-20T23:01:20+00:00,SAT-62014,226.50160637183882,62.55911898730622,528.7185473413715,-1.1614519847750666,40678.96144384726,10.5,10500040678.961443,47.655,-122.3035,60.0,1.3333333333333333
2026-01-20T23:01:21+00:00,SAT-62014,227.65591779406427,63.158297033429854,527.5601925618892,-1.0635562435033357,37250.23848593624,10.5,10500037250.238485,47.655,-122.3035,60.0,1.35
2026-01-20T23:01:22+00:00,SAT-62014,228.86491677577186,63.74956405006888,526.4994724683686,-0.9650668475396259,33800.72322955527,10.5,10500033800.72323,47.655,-122.3035,60.0,1.3666666666666667
2026-01-20T23:01:23+00:00,SAT-62014,230.13129091924068,64.33187732908667,525.5369791324224,-0.8660346539527759,30332.196904380253,10.5,10500030332.196905,47.655,-122.3035,60.0,1.3833333333333333
2026-01-20T23:01:24+00:00,SAT-62014,231.45775184485208,64.90413465008109,524.6732539042134,-0.7665120198753788,26846.49327866506,10.5,10500026846.493279,47.655,-122.3035,60.0,1.4
2026-01-20T23:01:25+00:00,SAT-62014,232.8470034654394,65.465173262623,523.908785916391,-0.6665526557918544,23345.493520769192,10.5,10500023345.49352,47.655,-122.3035,60.0,1.4166666666666667
2026-01-20T23:01:26+00:00,SAT-62014,234.30170231565546,66.01376951940397,523.244010734348,-0.5662114938878005,19831.121588195205,10.5,10500019831.121588,47.655,-122.3035,60.0,1.4333333333333333
2026-01-20T23:01:27+00:00,SAT-62014,235.8244089411165,66.54863938048393,522.6793091377773,-0.4655445500343405,16305.339393696739,10.5,10500016305.339394,47.655,-122.3035,60.0,1.45
2026-01-20T23:01:28+00:00,SAT-62014,237.41752944216768,67.0684400348652,522.2150060398764,-0.364608767360936,12770.141326536732,10.5,10500012770.141327,47.655,-122.3035,60.0,1.4666666666666666
2026-01-20T23:01:29+00:00,SAT-62014,239.08324645232182,67.57177290836495,521.8513695625617,-0.26346186102194635,9227.548815555716,10.5,10500009227.548815,47.655,-122.3035,60.0,1.4833333333333334
2026-01-20T23:01:30+00:00,SAT-62014,240.82343923087456,68.05718836906631,521.5886102665024,-0.16216215322163055,5679.604551049516,10.5,10500005679.604551,47.655,-122.3035,60.0,1.5
2026-01-20T23:01:31+00:00,SAT-62014,242.63959306423914,68.52319244972594,521.4268805456894,-0.060768411822353145,2128.366832145951,10.5,10500002128.366833,47.655,-122.3035,60.0,1.5166666666666666
2026-01-20T23:01:32+00:00,SAT-62014,244.53269898343683,68.9682559244794,521.3662741829653,0.040660323646168874,-1424.0965270873264,10.5,10499998575.903473,47.655,-122.3035,60.0,1.5333333333333334
2026-01-20T23:01:33+00:00,SAT-62014,246.5031457103039,69.39082603283282,521.4068260790817,0.14206491148902195,-4975.714134325322,10.5,10499995024.285866,47.655,-122.3035,60.0,1.55
2026-01-20T23:01:34+00:00,SAT-62014,248.5506070330968,69.78934111411681,521.5485121508067,0.24338627881656227,-8524.417007094635,10.5,10499991475.582993,47.655,-122.3035,60.0,1.5666666666666667
2026-01-20T23:01:35+00:00,SAT-62014,250.67392905676724,70.16224829382921,521.7912493995465,0.3445655955198587,-12068.144666129381,10.5,10499987931.855333,47.655,-122.3035,60.0,1.5833333333333333
2026-01-20T23:01:36+00:00,SAT-62014,252.87102341175125,70.50802426556491,522.1348961534783,0.44554444125309517,-15604.850983801263,10.5,10499984395.149015,47.655,-122.3035,60.0,1.6
2026-01-20T23:01:37+00:00,SAT-62014,255.1387735222435,70.82519896041035,522.5792524762213,0.5462649738122428,-19132.510081452914,10.5,10499980867.489918,47.655,-122.3035,60.0,1.6166666666666667
2026-01-20T23:01:38+00:00,SAT-62014,257.47296235593194,71.11238172162544,523.1240607434368,0.6466700933274637,-22649.1220801104,10.5,10499977350.87792,47.655,-122.3035,60.0,1.6333333333333333
2026-01-20T23:01:39+00:00,SAT-62014,259.86823032540144,71.36828929644915,523.769006383182,0.7467035965713371,-26152.718505010023,10.5,10499973847.281494,47.655,-122.3035,60.0,1.65
2026-01-20T23:01:40+00:00,SAT-62014,262.31807166747535,71.59177469102603,524.5137187701625,0.8463103387513223,-29641.36795225477,10.5,10499970358.632048,47.655,-122.3035,60.0,1.6666666666666667
2026-01-20T23:01:41+00:00,SAT-62014,264.8148762549557,71.78185568286696,525.3577722813438,0.9454363618086316,-33113.18058238353,10.5,10499966886.819418,47.655,-122.3035,60.0,1.6833333333333333
2026-01-20T23:01:42+00:00,SAT-62014,267.35002110125595,71.93774157489901,526.3006874795209,1.0440290545105697,-36566.31372748204,10.5,10499963433.686272,47.655,-122.3035,60.0,1.7
2026-01-20T23:01:43+00:00,SAT-62014,269.9140124721181,72.05885669860075,527.3419324565529,1.1420372596284942,-39998.97564500835,10.5,10499960001.024355,47.655,-122.3035,60.0,1.7166666666666666
2026-01-20T23:01:44+00:00,SAT-62014,272.4966749610529,72.14485918607294,528.480924283489,1.23941141071392,-43409.43030827066,10.5,10499956590.569693,47.655,-122.3035,60.0,1.7333333333333334
2026-01-20T23:01:45+00:00,SAT-62014,275.0873796673158,72.19565373607546,529.7170305971077,1.3361036316803088,-46796.000894202756,10.5,10499953203.999105,47.655,-122.3035,60.0,1.75
2026-01-20T23:01:46+00:00,SAT-62014,277.675299387766,72.2113974172873,531.0495712857702,1.4320678428017033,-50157.07349588456,10.5,10499949842.926504,47.655,-122.3035,60.0,1.7666666666666666
2026-01-20T23:01:47+00:00,SAT-62014,280.2496759092258,72.19249800798794,532.4778202809911,1.5272598535187398,-53491.10037300127,10.5,10499946508.899628,47.655,-122.3035,60.0,1.7833333333333334
2026-01-20T23:01:48+00:00,SAT-62014,282.8000830829119,72.1396048845773,534.0010074415671,1.6216374289663296,-56796.60228192418,10.5,10499943203.397718,47.655,-122.3035,60.0,1.8
2026-01-20T23:01:49+00:00,SAT-62014,285.31666981785264,72.05359299308006,535.6183205040562,1.7151603600731764,-60072.1709308923,10.5,10499939927.82907,47.655,-122.3035,60.0,1.8166666666666667
2026-01-20T23:01:50+00:00,SAT-62014,287.7903694135439,71.93554089693183,537.3289071031692,1.8077905511094268,-63316.47204630138,10.5,10499936683.527954,47.655,-122.3035,60.0,1.8333333333333333
2026-01-20T23:01:51+00:00,SAT-62014,290.2130652316655,71.78670423511971,539.1318768794756,1.8994920085688545,-66528.244983311,10.5,10499933471.755016,47.655,-122.3035,60.0,1.85
2026-01-20T23:01:52+00:00,SAT-62014,292.5777068877181,71.6084861311345,541.0263035760216,1.9902309343681102,-69706.3059900765,10.5,10499930293.69401,47.655,-122.3035,60.0,1.8666666666666667
2026-01-20T23:01:53+00:00,SAT-62014,294.8783758963038,71.40240612046072,543.0112272278981,2.0799756986966647,-72849.54725683919,10.5,10499927150.452744,47.655,-122.3035,60.0,1.8833333333333333
2026-01-20T23:01:54+00:00,SAT-62014,297.1103033482193,71.17006908195776,545.0856563247315,2.1686969061755894,-75956.93923308667,10.5,10499924043.060766,47.655,-122.3035,60.0,1.9
2026-01-20T23:01:55+00:00,SAT-62014,299.26984555705087,70.91313543374851,547.2485700391574,2.2563673587784794,-79027.5293288867,10.5,10499920972.47067,47.655,-122.3035,60.0,1.9166666666666667
2026-01-20T23:01:56+00:00,SAT-62014,301.3544253387917,70.63329359987408,549.4989204183124,2.3429620595655316,-82060.44204567041,10.5,10499917939.557955,47.655,-122.3035,60.0,1.9333333333333333
2026-01-20T23:01:57+00:00,SAT-62014,303.36244764355115,70.3322354406736,551.8356345790525,2.4284582251446496,-85054.87941267295,10.5,10499914945.120586,47.655,-122.3035,60.0,1.95
2026-01-20T23:01:58+00:00,SAT-62014,305.2931981369267,70.01163505178819,554.2576169155967,2.5128352312652478,-88010.11908139831,10.5,10499911989.880919,47.655,-122.3035,60.0,1.9666666666666666
2026-01-20T23:01:59+00:00,SAT-62014,307.14673249675945,69.67313109169,556.7637512529119,2.5960745987223945,-90925.51383192281,10.5,10499909074.486168,47.655,-122.3035,60.0,1.9833333333333334
2026-01-20T23:02:00+00:00,SAT-62014,308.92376308859303,69.31831257714158,559.3529029860377,2.6781599351241017,-93800.48953333932,10.5,10499906199.510468,47.655,-122.3035,60.0,2.0
2026-01-20T23:02:01+00:00,SAT-62014,310.625548202396,68.94870794403462,562.0239211613349,2.7590769367937167,-96634.54521038693,10.5,10499903365.45479,47.655,-122.3035,60.0,2.0166666666666666
2026-01-20T23:02:02+00:00,SAT-62014,312.25378769986673,68.56577705549097,564.7756405596305,2.8388132937967394,-99427.24971708849,10.5,10499900572.750282,47.655,-122.3035,60.0,2.033333333333333
2026-01-20T23:02:03+00:00,SAT-62014,313.81052752217465,68.17090580480134,567.6068836846437,2.9173586505232256,-102178.24035617957,10.5,10499897821.759644,47.655,-122.3035,60.0,2.05
2026-01-20T23:02:04+00:00,SAT-62014,315.29807452547817,67.76540291938356,570.5164627120988,2.9947045456231427,-104887.22077539054,10.5,10499895112.779224,47.655,-122.3035,60.0,2.066666666666667
2026-01-20T23:02:05+00:00,SAT-62014,316.7189221846725,67.35049858911351,573.5031813789337,3.070844350475689,-107553.95881238193,10.5,10499892446.041187,47.655,-122.3035,60.0,2.0833333333333335
2026-01-20T23:02:06+00:00,SAT-62014,318.0756870733012,66.92734456428622,576.5658368111415,3.14577320715904,-110178.28432218237,10.5,10499889821.715677,47.655,-122.3035,60.0,2.1
2026-01-20T23:02:07+00:00,SAT-62014,319.3710555772377,66.49701540399266,579.7032212897481,3.2194879436889474,-112760.08620848609,10.5,10499887239.913792,47.655,-122.3035,60.0,2.1166666666666667
2026-01-20T23:02:08+00:00,SAT-62014,320.60774000720147,66.06051059938441,582.9141239322538,3.291986986758928,-115299.30936744495,10.5,10499884700.690632,47.655,-122.3035,60.0,2.1333333333333333
2026-01-20T23:02:09+00:00,SAT-62014,321.78844313205605,65.61875733530476,586.1973322870481,3.363270358266266,-117795.95456599444,10.5,10499882204.045435,47.655,-122.3035,60.0,2.15
2026-01-20T23:02:10+00:00,SAT-62014,322.9158301264627,65.17261368217092,589.551633924359,3.433339503306303,-120250.07241748617,10.5,10499879749.927582,47.655,-122.3035,60.0,2.1666666666666665
2026-01-20T23:02:11+00:00,SAT-62014,323.99250684248597,64.7228720814126,592.9758178556565,3.502197287237465,-122661.7632788927,10.5,10499877338.236721,47.655,-122.3035,60.0,2.183333333333333
2026-01-20T23:02:12+00:00,SAT-62014,325.02100349996743,64.27026297404521,596.468675950128,3.5698478759017456,-125031.17305562213,10.5,10499874968.826944,47.655,-122.3035,60.0,2.2
2026-01-20T23:02:13+00:00,SAT-62014,326.0037628640818,63.81545848918345,600.0290042316939,3.6362966927199003,-127358.49169881037,10.5,10499872641.5083,47.655,-122.3035,60.0,2.216666666666667
2026-01-20T23:02:14+00:00,SAT-62014,326.94313214345675,63.359076106670145,603.6556041332333,3.7015503262710485,-129643.94996836782,10.5,10499870356.050032,47.655,-122.3035,60.0,2.2333333333333334
2026-01-20T23:02:15+00:00,SAT-62014,327.84135789865275,62.90168224455144,607.3472836586343,3.7656164127997567,-131887.8153178805,10.5,10499868112.184683,47.655,-122.3035,60.0,2.25
2026-01-20T23:02:16+00:00,SAT-62014,328.70058336054785,62.44379573406389,611.1028584276665,3.8285036689168073,-134090.39303992924,10.5,10499865909.60696,47.655,-122.3035,60.0,2.2666666666666666
2026-01-20T23:02:17+00:00,SAT-62014,329.5228476876541,61.985891136119726,614.9211527534662,3.890221706533764,-136252.01978431534,10.5,10499863747.980215,47.655,-122.3035,60.0,2.283333333333333
2026-01-20T23:02:18+00:00,SAT-62014,330.31008668327075,61.52840190898488,618.8010005354492,3.950781033021406,-138373.0635636096,10.5,10499861626.936436,47.655,-122.3035,60.0,2.3
2026-01-20T23:02:19+00:00,SAT-62014,331.0641346652236,61.071723394358486,622.7412461523826,4.010192936796758,-140453.91974592622,10.5,10499859546.080254,47.655,-122.3035,60.0,2.316666666666667
2026-01-20T23:02:20+00:00,SAT-62014,331.78672717206456,60.616215631906286,626.7407452413479,4.068469456759514,-142495.00998445696,10.5,10499857504.990015,47.655,-122.3035,60.0,2.3333333333333335
2026-01-20T23:02:21+00:00,SAT-62014,332.4795042875085,60.16220599277639,630.7983654462228,4.125623306063389,-144496.7795476215,10.5,10499855503.220453,47.655,-122.3035,60.0,2.35
2026-01-20T23:02:22+00:00,SAT-62014,333.1440143835806,59.70999164117862,634.9129870901367,4.181667802733069,-146459.69488897957,10.5,10499853540.30511,47.655,-122.3035,60.0,2.3666666666666667
2026-01-20T23:02:23+00:00,SAT-62014,333.78171813276117,59.25984182902594,639.083503778729,4.236616795932708,-148384.24106484168,10.5,10499851615.758936,47.655,-122.3035,60.0,2.3833333333333333
2026-01-20T23:02:24+00:00,SAT-62014,334.39399266947845,58.812000031348084,643.3088229298727,4.290484640871546,-150270.920855358,10.5,10499849729.079145,47.655,-122.3035,60.0,2.4
2026-01-20T23:02:25+00:00,SAT-62014,334.9821358148584,58.366685925597736,647.5878662783686,4.343286142407802,-152120.2527892877,10.5,10499847879.747211,47.655,-122.3035,60.0,2.4166666666666665
2026-01-20T23:02:26+00:00,SAT-62014,335.5473702873368,57.92409722726528,651.9195703243965,4.395036442202005,-153932.76719163178,10.5,10499846067.23281,47.655,-122.3035,60.0,2.433333333333333
2026-01-20T23:02:27+00:00,SAT-62014,336.0908478377796,57.48441139654163,656.3028866694193,4.445751059707097,-155709.00761927947,10.5,10499844290.99238,47.655,-122.3035,60.0,2.45
2026-01-20T23:02:28+00:00,SAT-62014,336.6136532900044,57.0477872090842,660.7367823929673,4.4954457816733155,-157449.52699100194,10.5,10499842550.47301,47.655,-122.3035,60.0,2.466666666666667
2026-01-20T23:02:29+00:00,SAT-62014,337.11680843648236,56.61436621555878,665.2202403192227,4.544136628266966,-159154.88640078844,10.5,10499840845.1136,47.655,-122.3035,60.0,2.4833333333333334
2026-01-20T23:02:30+00:00,SAT-62014,337.60127578045535,56.18427409034954,669.7522592498143,4.5918398271518415,-160825.654210068,10.5,10499839174.34579,47.655,-122.3035,60.0,2.5
2026-01-20T23:02:31+00:00,SAT-62014,338.06796211155864,55.75762187706359,674.3318541707605,4.638571761066741,-162462.40421165223,10.5,10499837537.595789,47.655,-122.3035,60.0,2.5166666666666666
2026-01-20T23:02:32+00:00,SAT-62014,338.51772190479846,55.33450714104934,678.958056407131,4.684348940398371,-164065.7146691225,10.5,10499835934.285332,47.655,-122.3035,60.0,2.533333333333333
2026-01-20T23:02:33+00:00,SAT-62014,338.95136054228874,54.91501503387464,683.6299137503551,4.729187942482242,-165636.16619089042,10.5,10499834363.833809,47.655,-122.3035,60.0,2.55
2026-01-20T23:02:34+00:00,SAT-62014,339.36963735484585,54.49921927955155,688.3464905249906,4.773105400167223,-167174.34132968026,10.5,10499832825.65867,47.655,-122.3035,60.0,2.566666666666667
2026-01-20T23:02:35+00:00,SAT-62014,339.7732684909171,54.08718308431873,693.1068676440907,4.816118004116497,-168680.82466311817,10.5,10499831319.175337,47.655,-122.3035,60.0,2.5833333333333335
2026-01-20T23:02:36+00:00,SAT-62014,340.16292961792533,53.67895997490691,697.910142666863,4.85824237994544,-170156.19849058083,10.5,10499829843.80151,47.655,-122.3035,60.0,2.6
2026-01-20T23:02:37+00:00,SAT-62014,340.5392584509255,53.274594581600056,702.7554297337952,4.899495192210367,-171601.0464753214,10.5,10499828398.953526,47.655,-122.3035,60.0,2.6166666666666667
2026-01-20T23:02:38+00:00,SAT-62014,340.90285713489953,52.874123351459204,707.6418596054929,4.939892961459582,-173015.94723682344,10.5,10499826984.052763,47.655,-122.3035,60.0,2.6333333333333333
2026-01-20T23:02:39+00:00,SAT-62014,341.2542944637359,52.47757522092032,712.5685795190553,4.979452205131978,-174401.47928566558,10.5,10499825598.520714,47.655,-122.3035,60.0,2.65
2026-01-20T23:02:40+00:00,SAT-62014,341.5941079696935,52.08497222477357,717.5347531849736,5.018189324971868,-175758.21708031298,10.5,10499824241.782919,47.655,-122.3035,60.0,2.6666666666666665
2026-01-20T23:02:41+00:00,SAT-62014,341.92280587030615,51.696330066903094,722.5395606717456,5.056120561444085,-177086.72943054122,10.5,10499822913.270569,47.655,-122.3035,60.0,2.683333333333333
2026-01-20T23:02:42+00:00,SAT-62014,342.24086888686907,51.31165865030145,727.5821982450258,5.0932620752507844,-178387.58235249948,10.5,10499821612.417648,47.655,-122.3035,60.0,2.7
2026-01-20T23:02:43+00:00,SAT-62014,342.548751949918,50.93096256009625,732.6618782880759,5.129629840163905,-179661.33531525,10.5,10499820338.664684,47.655,-122.3035,60.0,2.716666666666667
2026-01-20T23:02:44+00:00,SAT-62014,342.84688578626594,50.55424151740194,737.7778291153327,5.1652396906318865,-180908.54290815684,10.5,10499819091.457092,47.655,-122.3035,60.0,2.7333333333333334
2026-01-20T23:02:45+00:00,SAT-62014,343.1356784049756,50.18149079485099,742.9292948334563,5.200107249794797,-182129.75231967098,10.5,10499817870.24768,47.655,-122.3035,60.0,2.75
2026-01-20T23:02:46+00:00,SAT-62014,343.41551648128484,49.81270160551027,748.1155351305849,5.234247985986671,-183325.5053162813,10.5,10499816674.494684,47.655,-122.3035,60.0,2.7666666666666666
2026-01-20T23:02:47+00:00,SAT-62014,343.6867666527551,49.447861458083125,753.3358251219423,5.26767716440026,-184496.33654960967,10.5,10499815503.66345,47.655,-122.3035,60.0,2.783333333333333
2026-01-20T23:02:48+00:00,SAT-62014,343.9497767272209,49.086954488423274,758.5894551472376,5.300409832530597,-185642.773046583,10.5,10499814357.226954,47.655,-122.3035,60.0,2.8
2026-01-20T23:02:49+00:00,SAT-62014,344.20487681059575,48.72996176679855,763.875730553548,5.332460806011042,-186765.3337133516,10.5,10499813234.666286,47.655,-122.3035,60.0,2.816666666666667
2026-01-20T23:02:50+00:00,SAT-62014,344.4523803598923,48.37686158275371,769.1939714640763,5.363844719983119,-187864.5311344782,10.5,10499812135.468866,47.655,-122.3035,60.0,2.8333333333333335
2026-01-20T23:02:51+00:00,SAT-62014,344.6925851696932,48.027629704964056,774.5435125981395,5.394575946644082,-188940.86868510503,10.5,10499811059.131315,47.655,-122.3035,60.0,2.85
2026-01-20T23:02:52+00:00,SAT-62014,344.9257742900846,47.68223962675811,779.9237030089259,5.424668652117091,-189994.8425227877,10.5,10499810005.157476,47.655,-122.3035,60.0,2.8666666666666667
2026-01-20T23:02:53+00:00,SAT-62014,345.15221688744776,47.340662789392816,785.3339058779707,5.454136726235182,-191026.9391282332,10.5,10499808973.060871,47.655,-122.3035,60.0,2.8833333333333333
2026-01-20T23:02:54+00:00,SAT-62014,345.372169046176,47.002868792822255,790.7734982396025,5.482993876581251,-192037.63859897744,10.5,10499807962.3614,47.655,-122.3035,60.0,2.9
2026-01-20T23:02:55+00:00,SAT-62014,345.58587452255307,46.66882558470768,796.2418707991795,5.511253519730018,-193027.41084021932,10.5,10499806972.589159,47.655,-122.3035,60.0,2.9166666666666665
2026-01-20T23:02:56+00:00,SAT-62014,345.7935654454605,46.33849964171198,801.738427642857,5.538928859468535,-193996.7183044332,10.5,10499806003.281696,47.655,-122.3035,60.0,2.933333333333333
2026-01-20T23:02:57+00:00,SAT-62014,345.99546297537063,46.011856132365395,807.2625860253669,5.566032822535591,-194946.0137406916,10.5,10499805053.98626,47.655,-122.3035,60.0,2.95
2026-01-20T23:02:58+00:00,SAT-62014,346.19177791874955,45.688859071345945,812.8137760937091,5.592578112209683,-195875.74207154228,10.5,10499804124.257929,47.655,-122.3035,60.0,2.966666666666667
2026-01-20T23:02:59+00:00,SAT-62014,346.3827113055122,45.36947145892024,818.3914406642863,5.61857720322072,-196786.34021479473,10.5,10499803213.659784,47.655,-122.3035,60.0,2.9833333333333334
2026-01-20T23:03:00+00:00,SAT-62014,346.56845492968245,45.05365541008399,823.995034994965,5.644042261527911,-197678.2342738024,10.5,10499802321.765726,47.655,-122.3035,60.0,3.0
2026-01-20T23:03:01+00:00,SAT-62014,346.7491918534359,44.74137227827958,829.6240264771288,5.6689852794696325,-198551.84427098275,10.5,10499801448.15573,47.655,-122.3035,60.0,3.0166666666666666
2026-01-20T23:03:02+00:00,SAT-62014,346.92509688418033,44.43258276223458,835.27789446252,5.693417965092728,-199407.5802716613,10.5,10499800592.41973,47.655,-122.3035,60.0,3.033333333333333
2026-01-20T23:03:03+00:00,SAT-62014,347.09633701837555,44.127247010565505,840.9561299797057,5.717351806150849,-200245.844625564,10.5,10499799754.155375,47.655,-122.3035,60.0,3.05
2026-01-20T23:03:04+00:00,SAT-62014,347.26307185998866,43.82532471490818,846.6582355143735,5.740798008149665,-201067.02979689863,10.5,10499798932.970203,47.655,-122.3035,60.0,3.066666666666667
2026-01-20T23:03:05+00:00,SAT-62014,347.4254540114539,43.526775199055905,852.3837247278346,5.76376756472425,-201871.52082926861,10.5,10499798128.47917,47.655,-122.3035,60.0,3.0833333333333335
2026-01-20T23:03:06+00:00,SAT-62014,347.58362944290803,43.231557497524975,858.1321222457198,5.786271280617225,-202659.69615046438,10.5,10499797340.30385,47.655,-122.3035,60.0,3.1
2026-01-20T23:03:07+00:00,SAT-62014,347.7377378396628,42.93963042679854,863.9029634695887,5.808319627822571,-203431.92253401183,10.5,10499796568.077465,47.655,-122.3035,60.0,3.1166666666666667
2026-01-20T23:03:08+00:00,SAT-62014,347.8879129247271,42.650952658139154,869.6957942450703,5.829922917390602,-204188.56111650856,10.5,10499795811.438883,47.655,-122.3035,60.0,3.1333333333333333
2026-01-20T23:03:09+00:00,SAT-62014,348.0342827668816,42.36548277614079,875.5101707013479,5.851091208454589,-204929.9642113518,10.5,10499795070.03579,47.655,-122.3035,60.0,3.15
2026-01-20T23:03:10+00:00,SAT-62014,348.176970067915,42.083179337005824,881.3456589999132,5.871834359109656,-205656.4770907325,10.5,10499794343.52291,47.655,-122.3035,60.0,3.1666666666666665
2026-01-20T23:03:11+00:00,SAT-62014,348.3160924342989,41.804000919672795,887.2018351340654,5.892161957595757,-206368.43557537213,10.5,10499793631.564425,47.655,-122.3035,60.0,3.183333333333333
2026-01-20T23:03:12+00:00,SAT-62014,348.4517626311839,41.52790617600272,893.0782846597741,5.91208342629927,-207066.16967709817,10.5,10499792933.830322,47.655,-122.3035,60.0,3.2
2026-01-20T23:03:13+00:00,SAT-62014,348.58408882423174,41.25485387199694,898.97460253027,5.9316079341623205,-207750.0005310486,10.5,10499792249.99947,47.655,-122.3035,60.0,3.216666666666667
2026-01-20T23:03:14+00:00,SAT-62014,348.7131748053172,40.98480292956298,904.8903928432745,5.950744467804344,-208420.2428866493,10.5,10499791579.757113,47.655,-122.3035,60.0,3.2333333333333334
2026-01-20T23:03:15+00:00,SAT-62014,348.8391202069775,40.717712461537914,910.8252686591646,5.9695017666291434,-209077.20283478915,10.5,10499790922.797165,47.655,-122.3035,60.0,3.25
2026-01-20T23:03:16+00:00,SAT-62014,348.9620207031561,40.453541806577405,916.7788517544161,5.987888410091053,-209721.18086424997,10.5,10499790278.819136,47.655,-122.3035,60.0,3.2666666666666666
2026-01-20T23:03:17+00:00,SAT-62014,349.0819682005429,40.19225055716979,922.7507724620804,6.005912752722224,-210352.4695860873,10.5,10499789647.530415,47.655,-122.3035,60.0,3.283333333333333
2026-01-20T23:03:18+00:00,SAT-62014,349.19905101770513,39.9337985879506,928.740669447462,6.023582972185559,-210971.3554166475,10.5,10499789028.644583,47.655,-122.3035,60.0,3.3
2026-01-20T23:03:19+00:00,SAT-62014,349.31335405527636,39.67814607940337,934.7481895317217,6.040906994242543,-211578.11594962372,10.5,10499788421.88405,47.655,-122.3035,60.0,3.316666666666667
2026-01-20T23:03:20+00:00,SAT-62014,349.4249589551762,39.42525354249155,940.7729874406463,6.0578926540112565,-212173.02560399365,10.5,10499787826.974396,47.655,-122.3035,60.0,3.3333333333333335
2026-01-20T23:03:21+00:00,SAT-62014,349.533944254291,39.17508183430921,946.8147257142468,6.074547517532947,-212756.34937452612,10.5,10499787243.650625,47.655,-122.3035,60.0,3.35
2026-01-20T23:03:22+00:00,SAT-62014,349.64038552622577,38.92759217940473,952.8730744383996,6.090878999477384,-213328.3469543204,10.5,10499786671.653046,47.655,-122.3035,60.0,3.3666666666666667
2026-01-20T23:03:23+00:00,SAT-62014,349.7443555176993,38.68274618428025,958.9477110938785,6.1068943412409995,-213889.27196771075,10.5,10499786110.728033,47.655,-122.3035,60.0,3.3833333333333333
2026-01-20T23:03:24+00:00,SAT-62014,349.8459242771042,38.44050585122011,965.0383203835428,6.1226006060795415,-214439.37179979085,10.5,10499785560.6282,47.655,-122.3035,60.0,3.4
2026-01-20T23:03:25+00:00,SAT-62014,349.94515927613696,38.20083359079021,971.1445940546728,6.1380046966411435,-214978.88821049663,10.5,10499785021.11179,47.655,-122.3035,60.0,3.4166666666666665
2026-01-20T23:03:26+00:00,SAT-62014,350.04212552524655,37.96369223225345,977.2662307387895,6.15311330996868,-215508.05575859797,10.5,10499784491.94424,47.655,-122.3035,60.0,3.433333333333333
2026-01-20T23:03:27+00:00,SAT-62014,350.13688568227207,37.72904503443331,983.4029357465982,6.1679330446460865,-216027.10555441628,10.5,10499783972.894445,47.655,-122.3035,60.0,3.45
2026-01-20T23:03:28+00:00,SAT-62014,350.2295001571194,37.49685569124987,989.5544209697921,6.182470291106357,-216536.26141794652,10.5,10499783463.738583,47.655,-122.3035,60.0,3.466666666666667
2026-01-20T23:03:29+00:00,SAT-62014,350.3200272092431,37.26708834042945,995.7204046734554,6.196731298809063,-217035.74223169804,10.5,10499782964.257769,47.655,-122.3035,60.0,3.4833333333333334
2026-01-20T23:03:30+00:00,SAT-62014,350.4085230411359,37.03970756861508,1001.9006113554677,6.210722160959442,-217525.76140549252,10.5,10499782474.238594,47.655,-122.3035,60.0,3.5
2026-01-20T23:03:31+00:00,SAT-62014,350.49504188682675,36.814678416154166,1008.0947715906645,6.224448826837057,-218006.52730826568,10.5,10499781993.472692,47.655,-122.3035,60.0,3.5166666666666666
2026-01-20T23:03:32+00:00,SAT-62014,350.5796360960122,36.59196638060638,1014.3026218872967,6.237917122369289,-218478.2439886381,10.5,10499781521.756012,47.655,-122.3035,60.0,3.533333333333333
2026-01-20T23:03:33+00:00,SAT-62014,350.66235621425704,36.371537418762024,1020.5239045640063,6.251132695137771,-218941.1092488077,10.5,10499781058.89075,47.655,-122.3035,60.0,3.55
2026-01-20T23:03:34+00:00,SAT-62014,350.7432510583459,36.153357949961226,1026.758367571957,6.2641010462859406,-219395.31576208756,10.5,10499780604.684238,47.655,-122.3035,60.0,3.566666666666667
2026-01-20T23:03:35+00:00,SAT-62014,350.82236778839655,35.937394857557315,1033.0057643487862,6.276827611588868,-219841.05391231395,10.5,10499780158.946087,47.655,-122.3035,60.0,3.5833333333333335
2026-01-20T23:03:36+00:00,SAT-62014,350.8997519774249,35.723615487049535,1039.265853753411,6.289317621087275,-220278.50687763595,10.5,10499779721.493122,47.655,-122.3035,60.0,3.6
2026-01-20T23:03:37+00:00,SAT-62014,350.9754476756648,35.511987648568464,1045.538399860842,6.301576240772341,-220707.8555929168,10.5,10499779292.144407,47.655,-122.3035,60.0,3.6166666666666667
2026-01-20T23:03:38+00:00,SAT-62014,351.04949747354476,35.30247961401689,1051.8231718983056,6.313608421780637,-221129.27346790256,10.5,10499778870.726532,47.655,-122.3035,60.0,3.6333333333333333
2026-01-20T23:03:39+00:00,SAT-62014,351.1219425597555,35.095060118871785,1058.1199440309615,6.325419098788261,-221542.93333582376,10.5,10499778457.066664,47.655,-122.3035,60.0,3.65
2026-01-20T23:03:40+00:00,SAT-62014,351.19282277893234,34.889698356966825,1064.4284953454862,6.337013011861888,-221949.00121386585,10.5,10499778050.998787,47.655,-122.3035,60.0,3.6666666666666665
2026-01-20T23:03:41+00:00,SAT-62014,351.26217668443246,34.686363980884344,1070.7486096559833,6.348394794450676,-222347.6393850178,10.5,10499777652.360615,47.655,-122.3035,60.0,3.683333333333333
2026-01-20T23:03:42+00:00,SAT-62014,351.3300415896476,34.48502709907986,1077.0800753976487,6.359569034298815,-222739.0085314873,10.5,10499777260.991468,47.655,-122.3035,60.0,3.7
2026-01-20T23:03:43+00:00,SAT-62014,351.39645361759676,34.28565827084068,1083.4226855811894,6.370540100225047,-223123.26166778686,10.5,10499776876.738333,47.655,-122.3035,60.0,3.716666666666667
2026-01-20T23:03:44+00:00,SAT-62014,351.4614477462097,34.08822850652537,1089.7762375744805,6.381312362109028,-223500.55184558645,10.5,10499776499.448154,47.655,-122.3035,60.0,3.7333333333333334
2026-01-20T23:03:45+00:00,SAT-62014,351.5250578539839,33.89270926060709,1096.140533103624,6.391889986898887,-223871.02500903583,10.5,10499776128.97499,47.655,-122.3035,60.0,3.75
2026-01-20T23:03:46+00:00,SAT-62014,351.5873167612612,33.699072430944945,1102.5153780505577,6.402277111373944,-224234.82604564523,10.5,10499775765.173954,47.655,-122.3035,60.0,3.7666666666666666
2026-01-20T23:03:47+00:00,SAT-62014,351.64825627150316,33.50729035251255,1108.900582422968,6.41247774704433,-224592.09545546828,10.5,10499775407.904545,47.655,-122.3035,60.0,3.783333333333333
2026-01-20T23:03:48+00:00,SAT-62014,351.7079072096264,33.31733579395379,1115.2959602293536,6.422495802955199,-224942.97014980137,10.5,10499775057.02985,47.655,-122.3035,60.0,3.8
2026-01-20T23:03:49+00:00,SAT-62014,351.76629945888385,33.12918195329798,1121.701329376834,6.432335093637307,-225287.58372964716,10.5,10499774712.416271,47.655,-122.3035,60.0,3.816666666666667
2026-01-20T23:03:50+00:00,SAT-62014,351.8234619961339,32.94280245333439,1128.1165115768883,6.441999352367872,-225626.06695016543,10.5,10499774373.93305,47.655,-122.3035,60.0,3.8333333333333335
2026-01-20T23:03:51+00:00,SAT-62014,351.8794229256793,32.75817133652721,1134.5413322643167,6.451492216289767,-225958.54719948478,10.5,10499774041.4528,47.655,-122.3035,60.0,3.85
2026-01-20T23:03:52+00:00,SAT-62014,351.9342095114362,32.57526306031133,1140.975620501363,6.4608172462524225,-226285.1491936146,10.5,10499773714.850807,47.655,-122.3035,60.0,3.8666666666666667
2026-01-20T23:03:53+00:00,SAT-62014,351.98784820788813,32.3940524917649,1147.4192089016253,6.469977875379096,-226605.99317505347,10.5,10499773394.006824,47.655,-122.3035,60.0,3.8833333333333333
2026-01-20T23:03:54+00:00,SAT-62014,352.040364689189,32.21451490369731,1153.8719335026701,6.478977527611037,-226921.19906470724,10.5,10499773078.800936,47.655,-122.3035,60.0,3.9
2026-01-20T23:03:55+00:00,SAT-62014,352.09178387809555,32.03662596738138,1160.3336337568742,6.48781947182707,-227230.88135253967,10.5,10499772769.118647,47.655,-122.3035,60.0,3.9166666666666665
2026-01-20T23:03:56+00:00,SAT-62014,352.1421299723083,31.860361749369915,1166.8041523767763,6.496506945767777,-227535.1534379216,10.5,10499772464.846561,47.655,-122.3035,60.0,3.933333333333333
2026-01-20T23:03:57+00:00,SAT-62014,352.19142647081014,31.685698704848345,1173.283335304022,6.5050430784962785,-227834.12491387932,10.5,10499772165.875086,47.655,-122.3035,60.0,3.95
2026-01-20T23:03:58+00:00,SAT-62014,352.23969619836697,31.512613673142067,1179.771031600976,6.513430966188792,-228127.9042216009,10.5,10499771872.095778,47.655,-122.3035,60.0,3.966666666666667
2026-01-20T23:03:59+00:00,SAT-62014,352.28696132965575,31.341083871195323,1186.2670934179214,6.5216735794112095,-228416.59540286934,10.5,10499771583.404596,47.655,-122.3035,60.0,3.9833333333333334
2026-01-20T23:04:00+00:00,SAT-62014,352.33324341158834,31.17108688955791,1192.7713758677876,6.529773844191327,-228700.3009395551,10.5,10499771299.69906,47.655,-122.3035,60.0,4.0
2026-01-20T23:04:01+00:00,SAT-62014,352.3785633853744,31.0026006862278,1199.2837369817275,6.537734653898489,-228979.12216969155,10.5,10499771020.87783,47.655,-122.3035,60.0,4.016666666666667
2026-01-20T23:04:02+00:00,SAT-62014,352.4229416077254,30.835603580279372,1205.8040376765491,6.54555874492184,-229253.15493320156,10.5,10499770746.845066,47.655,-122.3035,60.0,4.033333333333333
2026-01-20T23:04:03+00:00,SAT-62014,352.46639787025657,30.670074248728977,1212.332141598151,6.553248898547429,-229522.49664248727,10.5,10499770477.503357,47.655,-122.3035,60.0,4.05
2026-01-20T23:04:04+00:00,SAT-62014,352.5089514195731,30.50599171826865,1218.8679151663023,6.560807710825868,-229787.23822222243,10.5,10499770212.761778,47.655,-122.3035,60.0,4.066666666666666
2026-01-20T23:04:05+00:00,SAT-62014,352.55062097488445,30.343335362920158,1225.4112273898995,6.5682378258818,-230047.4722808367,10.5,10499769952.52772,47.655,-122.3035,60.0,4.083333333333333
2026-01-20T23:04:06+00:00,SAT-62014,352.591424746539,30.182084895852245,1231.9619499149123,6.57554175346453,-230303.28672036697,10.5,10499769696.71328,47.655,-122.3035,60.0,4.1
2026-01-20T23:04:07+00:00,SAT-62014,352.63138045255664,30.022220365849957,1238.5199568903674,6.582721996712699,-230554.76921131666,10.5,10499769445.23079,47.655,-122.3035,60.0,4.116666666666666
