satellites_20260121_005943/SAT-56353.csv

timestamp,satellite,azimuth_deg,elevation_deg,distance_km,relative_velocity_kms,doppler_shift_hz,tx_freq_ghz,rx_freq_hz,ue_lat,ue_lon,ue_alt_m,time_minutes
2026-01-20T23:11:42+00:00,SAT-56353,347.46684526527565,30.0049131501857,2176.8349248523523,0.3242742893630416,-11357.457292377703,10.5,10499988642.542707,47.655,-122.3035,60.0,11.7
2026-01-20T23:11:43+00:00,SAT-56353,347.27523215649603,30.12395070609904,2177.158334410277,0.34858167413497615,-12208.804727226492,10.5,10499987791.195272,47.655,-122.3035,60.0,11.716666666666667
2026-01-20T23:11:44+00:00,SAT-56353,347.0830778796138,30.24251469952757,2177.505986533281,0.3728774016241057,-13059.74387472119,10.5,10499986940.256124,47.655,-122.3035,60.0,11.733333333333333
2026-01-20T23:11:45+00:00,SAT-56353,346.8903853196411,30.360600287408307,2177.8778695951673,0.39716063920076994,-13910.245572649077,10.5,10499986089.754427,47.655,-122.3035,60.0,11.75
2026-01-20T23:11:46+00:00,SAT-56353,346.697157429052,30.478202657418798,2178.2739711393306,0.4214305518947025,-14760.280576819505,10.5,10499985239.719423,47.655,-122.3035,60.0,11.766666666666667
2026-01-20T23:11:47+00:00,SAT-56353,346.5033972297479,30.59531702778105,2178.69427787642,0.4456863126674231,-15609.819920846516,10.5,10499984390.180079,47.655,-122.3035,60.0,11.783333333333333
2026-01-20T23:11:48+00:00,SAT-56353,346.30910781134986,30.711938649274103,2179.138775692253,0.4699270965112974,-16458.834709472987,10.5,10499983541.16529,47.655,-122.3035,60.0,11.8
2026-01-20T23:11:49+00:00,SAT-56353,346.114292331709,30.82806280589173,2179.6074496498404,0.49415207389274,-17307.295888923833,10.5,10499982692.704111,47.655,-122.3035,60.0,11.816666666666666
2026-01-20T23:11:50+00:00,SAT-56353,345.91895401879617,30.943684814673823,2180.1002839848697,0.5183604253002595,-18155.174756440087,10.5,10499981844.825243,47.655,-122.3035,60.0,11.833333333333334
2026-01-20T23:11:51+00:00,SAT-56353,345.72309616896854,31.05880002767687,2180.6172621157025,0.5425513327655735,-19002.442663312504,10.5,10499980997.557337,47.655,-122.3035,60.0,11.85
2026-01-20T23:11:52+00:00,SAT-56353,345.5267221473961,31.173403832628388,2181.158366644914,0.5667239788979916,-19849.070981061544,10.5,10499980150.929018,47.655,-122.3035,60.0,11.866666666666667
2026-01-20T23:11:53+00:00,SAT-56353,345.3298353888188,31.28749165339118,2181.7235793598684,0.5908775488019286,-20695.031168596808,10.5,10499979304.968832,47.655,-122.3035,60.0,11.883333333333333
2026-01-20T23:11:54+00:00,SAT-56353,345.13243939763805,31.40105895080222,2182.312881235207,0.6150112332291364,-21540.29488262154,10.5,10499978459.705118,47.655,-122.3035,60.0,11.9
2026-01-20T23:11:55+00:00,SAT-56353,344.93453774751697,31.514101223768098,2182.9262524384803,0.6391242279358083,-22384.833955115664,10.5,10499977615.166044,47.655,-122.3035,60.0,11.916666666666666
2026-01-20T23:11:56+00:00,SAT-56353,344.73613408093263,31.626614010359116,2183.563672335142,0.6632157277757922,-23228.620186455184,10.5,10499976771.379814,47.655,-122.3035,60.0,11.933333333333334
2026-01-20T23:11:57+00:00,SAT-56353,344.53723211035765,31.738592887973212,2184.2251194876435,0.6872849325949255,-24071.625551856672,10.5,10499975928.374449,47.655,-122.3035,60.0,11.95
2026-01-20T23:11:58+00:00,SAT-56353,344.3378356177703,31.850033474422084,2184.9105716604186,0.7113310440899818,-24913.822091364316,10.5,10499975086.177908,47.655,-122.3035,60.0,11.966666666666667
2026-01-20T23:11:59+00:00,SAT-56353,344.1379484551571,31.96093142845078,2185.620005821724,0.7353532741948052,-25755.182203567823,10.5,10499974244.817797,47.655,-122.3035,60.0,11.983333333333333
2026-01-20T23:12:00+00:00,SAT-56353,343.9375745430091,32.071282451338156,2186.3533981538544,0.759350831585043,-26595.678172941065,10.5,10499973404.321827,47.655,-122.3035,60.0,12.0
2026-01-20T23:12:01+00:00,SAT-56353,343.7367178719059,32.18108228677031,2187.1107240498886,0.7833229314024229,-27435.282510427398,10.5,10499972564.71749,47.655,-122.3035,60.0,12.016666666666667
2026-01-20T23:12:02+00:00,SAT-56353,343.53538250179463,32.29032672198058,2187.8919581201408,0.8072687960318202,-28273.967980655845,10.5,10499971726.032019,47.655,-122.3035,60.0,12.033333333333333
2026-01-20T23:12:03+00:00,SAT-56353,343.3335725614165,32.39901158876316,2188.697074199383,0.8311876476146736,-29111.707339729248,10.5,10499970888.29266,47.655,-122.3035,60.0,12.05
2026-01-20T23:12:04+00:00,SAT-56353,343.131292248996,32.50713276379038,2189.5260453466044,0.8550787120367302,-29948.47347489198,10.5,10499970051.526525,47.655,-122.3035,60.0,12.066666666666666
2026-01-20T23:12:05+00:00,SAT-56353,342.9285458322998,32.614686169264054,2190.3788438487422,0.878941224841438,-30784.23961164193,10.5,10499969215.760387,47.655,-122.3035,60.0,12.083333333333334
2026-01-20T23:12:06+00:00,SAT-56353,342.7253376473036,32.72166777427337,2191.255441230317,0.9027744262049221,-31618.97913773295,10.5,10499968381.020863,47.655,-122.3035,60.0,12.1
2026-01-20T23:12:07+00:00,SAT-56353,342.5216720983663,32.828073595310805,2192.1558082580523,0.9265775528507163,-32452.665319994547,10.5,10499967547.33468,47.655,-122.3035,60.0,12.116666666666667
2026-01-20T23:12:08+00:00,SAT-56353,342.31755365916115,32.93389969641087,2193.079914937429,0.9503498548235573,-33285.27189182108,10.5,10499966714.728107,47.655,-122.3035,60.0,12.133333333333333
2026-01-20T23:12:09+00:00,SAT-56353,342.11298687115647,33.03914219051941,2194.027730525973,0.9740905807624455,-34116.7725373721,10.5,10499965883.227463,47.655,-122.3035,60.0,12.15
2026-01-20T23:12:10+00:00,SAT-56353,341.9079763443472,33.14379723968294,2194.9992235318527,0.9977989887475803,-34947.14127147786,10.5,10499965052.858728,47.655,-122.3035,60.0,12.166666666666666
2026-01-20T23:12:11+00:00,SAT-56353,341.70252675633384,33.24786105605728,2195.994361723297,1.02147434746647,-35776.352480481466,10.5,10499964223.64752,47.655,-122.3035,60.0,12.183333333333334
2026-01-20T23:12:12+00:00,SAT-56353,341.49664285101625,33.351329903084725,2197.0131121391705,1.045115911062389,-36604.38004132541,10.5,10499963395.619959,47.655,-122.3035,60.0,12.2
2026-01-20T23:12:13+00:00,SAT-56353,341.29032944163475,33.454200094469705,2198.05544107447,1.0687229609590876,-37431.19878642984,10.5,10499962568.801214,47.655,-122.3035,60.0,12.216666666666667
2026-01-20T23:12:14+00:00,SAT-56353,341.08359140673724,33.55646799666675,2199.1213141075336,1.0922947775453253,-38256.783511965186,10.5,10499961743.216488,47.655,-122.3035,60.0,12.233333333333333
2026-01-20T23:12:15+00:00,SAT-56353,340.8764336910015,33.65813002891178,2200.210696099005,1.1158306345239775,-39081.10877993389,10.5,10499960918.89122,47.655,-122.3035,60.0,12.25
2026-01-20T23:12:16+00:00,SAT-56353,340.66886130668354,33.75918266294772,2201.323551185171,1.1393298285938467,-39904.14995775308,10.5,10499960095.850042,47.655,-122.3035,60.0,12.266666666666667
2026-01-20T23:12:17+00:00,SAT-56353,340.4608793305348,33.85962242493791,2202.459842800888,1.1627916532138354,-40725.88229936482,10.5,10499959274.1177,47.655,-122.3035,60.0,12.283333333333333
2026-01-20T23:12:18+00:00,SAT-56353,340.2524929046987,33.959445895408166,2203.6195336763603,1.1862154068017996,-41546.281232394766,10.5,10499958453.718767,47.655,-122.3035,60.0,12.3
2026-01-20T23:12:19+00:00,SAT-56353,340.0437072364316,34.05864970974106,2204.802585842077,1.2096003965627158,-42365.32249223066,10.5,10499957634.677507,47.655,-122.3035,60.0,12.316666666666666
2026-01-20T23:12:20+00:00,SAT-56353,339.83452759710974,34.15723055899351,2206.0089606375823,1.2329459367099105,-43182.98205972233,10.5,10499956817.01794,47.655,-122.3035,60.0,12.333333333333334
2026-01-20T23:12:21+00:00,SAT-56353,339.6249593217347,34.255185190427746,2207.238618718461,1.2562513386945362,-43999.23581897657,10.5,10499956000.764181,47.655,-122.3035,60.0,12.35
2026-01-20T23:12:22+00:00,SAT-56353,339.4150078094015,34.352510407608065,2208.4915200535856,1.2795159389175241,-44814.06052794698,10.5,10499955185.939472,47.655,-122.3035,60.0,12.366666666666667
2026-01-20T23:12:23+00:00,SAT-56353,339.2046785203912,34.44920307198798,2209.7676239499992,1.3027390575803006,-45627.43237721196,10.5,10499954372.567623,47.655,-122.3035,60.0,12.383333333333333
2026-01-20T23:12:24+00:00,SAT-56353,338.9939769784578,34.5452601021215,2211.066889036759,1.3259200383122065,-46439.32837789458,10.5,10499953560.671621,47.655,-122.3035,60.0,12.4
2026-01-20T23:12:25+00:00,SAT-56353,338.78290876803743,34.640678475149855,2212.3892732883032,1.3490582191089668,-47249.72534380486,10.5,10499952750.274656,47.655,-122.3035,60.0,12.416666666666666
2026-01-20T23:12:26+00:00,SAT-56353,338.57147953513544,34.73545522660058,2213.734734018827,1.3721529564886308,-48058.60073748294,10.5,10499951941.399263,47.655,-122.3035,60.0,12.433333333333334
2026-01-20T23:12:27+00:00,SAT-56353,338.3596949851576,34.82958745152988,2215.1032279007654,1.3952035984746065,-48865.93172395073,10.5,10499951134.068275,47.655,-122.3035,60.0,12.45
2026-01-20T23:12:28+00:00,SAT-56353,338.14756088410263,34.92307230415284,2216.494710956311,1.4182095138587048,-49671.69619562744,10.5,10499950328.303804,47.655,-122.3035,60.0,12.466666666666667
2026-01-20T23:12:29+00:00,SAT-56353,337.93508305616524,35.01590699901409,2217.9091385781326,1.4411700686232962,-50475.87194653379,10.5,10499949524.128054,47.655,-122.3035,60.0,12.483333333333333
2026-01-20T23:12:30+00:00,SAT-56353,337.72226738403054,35.108088810984675,2219.346465526573,1.4640846420325677,-51278.4372358759,10.5,10499948721.562763,47.655,-122.3035,60.0,12.5
2026-01-20T23:12:31+00:00,SAT-56353,337.5091198074537,35.199615075941935,2220.8066459428933,1.4869526155330013,-52079.37039929308,10.5,10499947920.6296,47.655,-122.3035,60.0,12.516666666666667
2026-01-20T23:12:32+00:00,SAT-56353,337.29564632299156,35.29048319094617,2222.289633351452,1.5097733818932002,-52878.65016897323,10.5,10499947121.34983,47.655,-122.3035,60.0,12.533333333333333
2026-01-20T23:12:33+00:00,SAT-56353,337.08185298271303,35.38069061482573,2223.795380670993,1.5325463303183822,-53676.25515229943,10.5,10499946323.744848,47.655,-122.3035,60.0,12.55
2026-01-20T23:12:34+00:00,SAT-56353,336.86774589457144,35.47023486803895,2225.3238402110974,1.5552708687010086,-54472.16461116107,10.5,10499945527.835388,47.655,-122.3035,60.0,12.566666666666666
2026-01-20T23:12:35+00:00,SAT-56353,336.6533312202058,35.55911353358567,2226.874963690815,1.5779464104566177,-55266.35800088902,10.5,10499944733.641998,47.655,-122.3035,60.0,12.583333333333334
2026-01-20T23:12:36+00:00,SAT-56353,336.4386151742323,35.64732425725954,2228.448702244177,1.6005723657595767,-56058.81466329469,10.5,10499943941.185337,47.655,-122.3035,60.0,12.6
2026-01-20T23:12:37+00:00,SAT-56353,336.22360402458776,35.734864747461344,2230.0450064169618,1.623148171005597,-56849.51485857183,10.5,10499943150.485142,47.655,-122.3035,60.0,12.616666666666667
2026-01-20T23:12:38+00:00,SAT-56353,336.0083040893539,35.82173277640703,2231.663826192844,1.6456732430678913,-57638.43816315372,10.5,10499942361.561836,47.655,-122.3035,60.0,12.633333333333333
2026-01-20T23:12:39+00:00,SAT-56353,335.7927217389764,35.907926179141946,2233.3051109739304,1.6681470312047042,-58425.56528773447,10.5,10499941574.434711,47.655,-122.3035,60.0,12.65
2026-01-20T23:12:40+00:00,SAT-56353,335.57686339233385,35.99344285498899,2234.968809613052,1.6905689800858206,-59210.8767823009,10.5,10499940789.123219,47.655,-122.3035,60.0,12.666666666666666
2026-01-20T23:12:41+00:00,SAT-56353,335.3607355171809,36.0782807672304,2236.654870409191,1.712938539998377,-59994.353393583224,10.5,10499940005.646606,47.655,-122.3035,60.0,12.683333333333334
2026-01-20T23:12:42+00:00,SAT-56353,335.14434462931155,36.16243794326704,2238.363241113083,1.7352551731292216,-60775.976285089964,10.5,10499939224.023714,47.655,-122.3035,60.0,12.7
2026-01-20T23:12:43+00:00,SAT-56353,334.92769729104185,36.24591247503426,2240.0938689390837,1.7575183455693482,-61555.72675706924,10.5,10499938444.273243,47.655,-122.3035,60.0,12.716666666666667
2026-01-20T23:12:44+00:00,SAT-56353,334.71080011050134,36.32870251906307,2241.846700569065,1.7797275394029166,-62333.586669917575,10.5,10499937666.41333,47.655,-122.3035,60.0,12.733333333333333
2026-01-20T23:12:45+00:00,SAT-56353,334.4936597397258,36.41080629697559,2243.6216821683624,1.8018822255390983,-63109.5374926361,10.5,10499936890.462507,47.655,-122.3035,60.0,12.75
2026-01-20T23:12:46+00:00,SAT-56353,334.27628287549487,36.49222209493194,2245.4187593746337,1.8239819058544178,-63883.56177883363,10.5,10499936116.438221,47.655,-122.3035,60.0,12.766666666666667
2026-01-20T23:12:47+00:00,SAT-56353,334.05867625578946,36.57294826467717,2247.237877328739,1.846026067465175,-64655.641565153506,10.5,10499935344.358435,47.655,-122.3035,60.0,12.783333333333333
2026-01-20T23:12:48+00:00,SAT-56353,333.8408466609568,36.65298322283277,2249.0789806600246,1.868014227860406,-65425.759952020744,10.5,10499934574.240047,47.655,-122.3035,60.0,12.8
2026-01-20T23:12:49+00:00,SAT-56353,333.6228009103068,36.73232545181887,2250.9420135166106,1.8899458867493328,-66193.8994171361,10.5,10499933806.100582,47.655,-122.3035,60.0,12.816666666666666
2026-01-20T23:12:50+00:00,SAT-56353,333.4045458633972,36.810973499081165,2252.826919547662,1.9118205770388563,-66960.04360092338,10.5,10499933039.9564,47.655,-122.3035,60.0,12.833333333333334
2026-01-20T23:12:51+00:00,SAT-56353,333.1860884164373,36.88892597801515,2254.7336419364956,1.9336378061024067,-67724.17524951635,10.5,10499932275.82475,47.655,-122.3035,60.0,12.85
2026-01-20T23:12:52+00:00,SAT-56353,332.96743550423884,36.96618156693498,2256.662123375115,1.9553971342749967,-68486.27896398737,10.5,10499931513.721037,47.655,-122.3035,60.0,12.866666666666667
2026-01-20T23:12:53+00:00,SAT-56353,332.74859409463613,37.04273901062826,2258.612306117032,1.9770980824408253,-69246.3379636744,10.5,10499930753.662037,47.655,-122.3035,60.0,12.883333333333333
2026-01-20T23:12:54+00:00,SAT-56353,332.5295711918352,37.118597118799535,2260.584131937919,1.99874021361983,-70004.33694368727,10.5,10499929995.663055,47.655,-122.3035,60.0,12.9
2026-01-20T23:12:55+00:00,SAT-56353,332.3103738318366,37.193754767222764,2262.577542177636,2.0203230815726925,-70760.26027483745,10.5,10499929239.739725,47.655,-122.3035,60.0,12.916666666666666
2026-01-20T23:12:56+00:00,SAT-56353,332.09100908276537,37.26821089719458,2264.5924777309915,2.041846257486951,-71514.09293829862,10.5,10499928485.907063,47.655,-122.3035,60.0,12.933333333333334
2026-01-20T23:12:57+00:00,SAT-56353,331.8714840427359,37.34196451579046,2266.6288790651247,2.063309297279917,-72265.81938041658,10.5,10499927734.18062,47.655,-122.3035,60.0,12.95
2026-01-20T23:12:58+00:00,SAT-56353,331.6518058406811,37.41501469512779,2268.686686204279,2.0847117983500545,-73015.42550038257,10.5,10499926984.5745,47.655,-122.3035,60.0,12.966666666666667
2026-01-20T23:12:59+00:00,SAT-56353,331.4319816318932,37.4873605733477,2270.7658387711667,2.1060533429112374,-73762.89666555918,10.5,10499926237.103334,47.655,-122.3035,60.0,12.983333333333333
2026-01-20T23:13:00+00:00,SAT-56353,331.21201859881745,37.55900135384409,2272.86627597183,2.127333529118923,-74508.21880165076,10.5,10499925491.781199,47.655,-122.3035,60.0,13.0
2026-01-20T23:13:01+00:00,SAT-56353,330.991923949059,37.629936305381264,2274.987936611538,2.148551954022174,-75251.37779561096,10.5,10499924748.622204,47.655,-122.3035,60.0,13.016666666666667
2026-01-20T23:13:02+00:00,SAT-56353,330.7717049147278,37.700164761778844,2277.1307590936826,2.1697082381825874,-75992.3603579019,10.5,10499924007.639643,47.655,-122.3035,60.0,13.033333333333333
2026-01-20T23:13:03+00:00,SAT-56353,330.55136874970157,37.76968612221886,2279.2946814432303,2.1908019884769248,-76731.15271968485,10.5,10499923268.84728,47.655,-122.3035,60.0,13.05
2026-01-20T23:13:04+00:00,SAT-56353,330.33092273021646,37.838499850491125,2281.4796412930714,2.211832836819396,-77467.74198903848,10.5,10499922532.25801,47.655,-122.3035,60.0,13.066666666666666
2026-01-20T23:13:05+00:00,SAT-56353,330.1103741519116,37.906605475328796,2283.6855759089926,2.2328004186431234,-78202.11539728861,10.5,10499921797.884604,47.655,-122.3035,60.0,13.083333333333334
2026-01-20T23:13:06+00:00,SAT-56353,329.8897303288059,37.974002590124414,2285.912422193186,2.2537043732780067,-78934.26031224265,10.5,10499921065.739687,47.655,-122.3035,60.0,13.1
2026-01-20T23:13:07+00:00,SAT-56353,329.6689985922833,38.040690852621,2288.160116688135,2.274544351393089,-79664.16449885284,10.5,10499920335.8355,47.655,-122.3035,60.0,13.116666666666667
2026-01-20T23:13:08+00:00,SAT-56353,329.4481862893319,38.106669984814936,2290.4285955879245,2.2953200075066698,-80391.81585688867,10.5,10499919608.184143,47.655,-122.3035,60.0,13.133333333333333
2026-01-20T23:13:09+00:00,SAT-56353,329.2273007815278,38.17193977261757,2292.717794742078,2.3160309985668484,-81117.20237122144,10.5,10499918882.797628,47.655,-122.3035,60.0,13.15
2026-01-20T23:13:10+00:00,SAT-56353,329.0063494439561,38.23650006553319,2295.027649657982,2.3366770068102305,-81840.31291243299,10.5,10499918159.687088,47.655,-122.3035,60.0,13.166666666666666
2026-01-20T23:13:11+00:00,SAT-56353,328.78533966241224,38.30035077678876,2297.3580955261073,2.3572577105718207,-82561.13621445445,10.5,10499917438.863785,47.655,-122.3035,60.0,13.183333333333334
2026-01-20T23:13:12+00:00,SAT-56353,328.5642788328458,38.36349188282391,2299.7090672161175,2.3777727835999367,-83279.66085057195,10.5,10499916720.33915,47.655,-122.3035,60.0,13.2
2026-01-20T23:13:13+00:00,SAT-56353,328.3431743610285,38.425923422696926,2302.080499272294,2.398221930041049,-83995.87645874337,10.5,10499916004.12354,47.655,-122.3035,60.0,13.216666666666667
2026-01-20T23:13:14+00:00,SAT-56353,328.122033659163,38.48764549833681,2304.4723259438556,2.418604857721136,-84709.77280579862,10.5,10499915290.227194,47.655,-122.3035,60.0,13.233333333333333
2026-01-20T23:13:15+00:00,SAT-56353,327.90086414482084,38.548658274112974,2306.884481188623,2.4389212574347177,-85421.33906205384,10.5,10499914578.660938,47.655,-122.3035,60.0,13.25
2026-01-20T23:13:16+00:00,SAT-56353,327.67967324144837,38.60896197599187,2309.3168986560377,2.4591708539518202,-86130.56558779112,10.5,10499913869.434412,47.655,-122.3035,60.0,13.266666666666667
2026-01-20T23:13:17+00:00,SAT-56353,327.4584683748282,38.66855689175545,2311.7695117210455,2.4793533722742196,-86837.4427514094,10.5,10499913162.55725,47.655,-122.3035,60.0,13.283333333333333
2026-01-20T23:13:18+00:00,SAT-56353,327.2372569721453,38.72744337051034,2314.2422534843267,2.4994685433986508,-87541.96113127646,10.5,10499912458.038868,47.655,-122.3035,60.0,13.3
2026-01-20T23:13:19+00:00,SAT-56353,327.0160464607664,38.78562182224795,2316.735056778277,2.5195160980372457,-88244.1112957921,10.5,10499911755.888704,47.655,-122.3035,60.0,13.316666666666666
2026-01-20T23:13:20+00:00,SAT-56353,326.79484426730374,38.843092717342245,2319.247854166719,2.5394957924899857,-88943.88470955081,10.5,10499911056.11529,47.655,-122.3035,60.0,13.333333333333334
2026-01-20T23:13:21+00:00,SAT-56353,326.57365781478256,38.89985658650091,2321.780577970429,2.5594073607800576,-89641.27205691946,10.5,10499910358.727943,47.655,-122.3035,60.0,13.35
2026-01-20T23:13:22+00:00,SAT-56353,326.35249452350524,38.955914019776145,2324.333160244914,2.579250587391783,-90336.26578962745,10.5,10499909663.734211,47.655,-122.3035,60.0,13.366666666666667
2026-01-20T23:13:23+00:00,SAT-56353,326.1313618062521,39.011265666974055,2326.905532830739,2.5990252136565477,-91028.85684800566,10.5,10499908971.143152,47.655,-122.3035,60.0,13.383333333333333
2026-01-20T23:13:24+00:00,SAT-56353,325.9102670707508,39.0659122362553,2329.4976273104926,2.618731029143416,-91719.03786187265,10.5,10499908280.962137,47.655,-122.3035,60.0,13.4
2026-01-20T23:13:25+00:00,SAT-56353,325.68921771506774,39.119854494466615,2332.1093750568916,2.638367810072551,-92406.80099351193,10.5,10499907593.199007,47.655,-122.3035,60.0,13.416666666666666
2026-01-20T23:13:26+00:00,SAT-56353,325.4682211277697,39.173093266283104,2334.7407072194706,2.657935351209563,-93092.13905474705,10.5,10499906907.860945,47.655,-122.3035,60.0,13.433333333333334
2026-01-20T23:13:27+00:00,SAT-56353,325.2472846856384,39.225629433943595,2337.391554743077,2.677433425926045,-93775.04410809251,10.5,10499906224.955893,47.655,-122.3035,60.0,13.45
2026-01-20T23:13:28+00:00,SAT-56353,325.0264157543686,39.27746393627488,2340.0618483465337,2.6968618571506044,-94455.50995175919,10.5,10499905544.490047,47.655,-122.3035,60.0,13.466666666666667
2026-01-20T23:13:29+00:00,SAT-56353,324.805621683988,39.32859776892483,2342.7515185720654,2.7162204510009587,-95133.52979516938,10.5,10499904866.470205,47.655,-122.3035,60.0,13.483333333333333
2026-01-20T23:13:30+00:00,SAT-56353,324.58490980921664,39.37903198344302,2345.46049576853,2.7355090062200467,-95809.09658944952,10.5,10499904190.90341,47.655,-122.3035,60.0,13.5
2026-01-20T23:13:31+00:00,SAT-56353,324.36428744915696,39.42876768652268,2348.188710084067,2.754727366308705,-96482.20485333691,10.5,10499903517.795147,47.655,-122.3035,60.0,13.516666666666667
2026-01-20T23:13:32+00:00,SAT-56353,324.1437619030519,39.477806040106636,2350.9360915107322,2.7738753511945053,-97152.8482799334,10.5,10499902847.15172,47.655,-122.3035,60.0,13.533333333333333
2026-01-20T23:13:33+00:00,SAT-56353,323.92334045125,39.526148260314116,2353.70256986099,2.792952793473923,-97821.02100605944,10.5,10499902178.978994,47.655,-122.3035,60.0,13.55
2026-01-20T23:13:34+00:00,SAT-56353,323.7030303532659,39.573795617033525,2356.488074780348,2.811959538191766,-98486.71760452873,10.5,10499901513.282396,47.655,-122.3035,60.0,13.566666666666666
2026-01-20T23:13:35+00:00,SAT-56353,323.4828388461092,39.62074943341648,2359.292535759772,2.8308954292041166,-99149.93260652083,10.5,10499900850.067394,47.655,-122.3035,60.0,13.583333333333334
2026-01-20T23:13:36+00:00,SAT-56353,323.2627731434443,39.667011085203164,2362.115882134498,2.8497603371004363,-99810.6614795312,10.5,10499900189.33852,47.655,-122.3035,60.0,13.6
2026-01-20T23:13:37+00:00,SAT-56353,323.04284043286583,39.71258200042255,2364.9580431106992,2.8685541088120434,-100468.89886244723,10.5,10499899531.101137,47.655,-122.3035,60.0,13.616666666666667
2026-01-20T23:13:38+00:00,SAT-56353,322.8230478766773,39.75746365837543,2367.818947741888,2.887276620477143,-101124.64041710482,10.5,10499898875.359583,47.655,-122.3035,60.0,13.633333333333333
2026-01-20T23:13:39+00:00,SAT-56353,322.6034026090079,39.80165758935187,2370.698524958044,2.9059277342746634,-101777.88131642714,10.5,10499898222.118683,47.655,-122.3035,60.0,13.65
2026-01-20T23:13:40+00:00,SAT-56353,322.3839117359279,39.84516537374899,2373.5967035516937,2.9245073491105464,-102428.61801967259,10.5,10499897571.38198,47.655,-122.3035,60.0,13.666666666666666
2026-01-20T23:13:41+00:00,SAT-56353,322.1645823320332,39.887988641866166,2376.51341221454,2.9430153528913308,-103076.84660085403,10.5,10499896923.153399,47.655,-122.3035,60.0,13.683333333333334
2026-01-20T23:13:42+00:00,SAT-56353,321.9454214404396,39.93012907302796,2379.44857952649,2.961451618667784,-103722.56261367233,10.5,10499896277.437386,47.655,-122.3035,60.0,13.7
2026-01-20T23:13:43+00:00,SAT-56353,321.72643607291036,39.971588394706004,2382.4021339408414,2.9798160672069196,-104365.76328305317,10.5,10499895634.236717,47.655,-122.3035,60.0,13.716666666666667
2026-01-20T23:13:44+00:00,SAT-56353,321.5076332058251,40.012368382393866,2385.3740038318692,2.9981085943343584,-105006.44496036909,10.5,10499894993.55504,47.655,-122.3035,60.0,13.733333333333333
2026-01-20T23:13:45+00:00,SAT-56353,321.28901978105455,40.05247085857457,2388.364117469952,3.0163291174435503,-105644.60475238932,10.5,10499894355.395248,47.655,-122.3035,60.0,13.75
2026-01-20T23:13:46+00:00,SAT-56353,321.07060270370283,40.091897692260126,2391.3724030430826,3.0344775415863374,-106280.23933362775,10.5,10499893719.760666,47.655,-122.3035,60.0,13.766666666666667
2026-01-20T23:13:47+00:00,SAT-56353,320.85238884214607,40.13065079811835,2394.398788644558,3.05255380961544,-106913.34670254486,10.5,10499893086.653297,47.655,-122.3035,60.0,13.783333333333333
2026-01-20T23:13:48+00:00,SAT-56353,320.63438502476424,40.168732136167044,2397.443202310681,3.0705578516821483,-107543.92441274342,10.5,10499892456.075586,47.655,-122.3035,60.0,13.8
2026-01-20T23:13:49+00:00,SAT-56353,320.41659803999704,40.20614371088951,2400.505572008092,3.0884895852581797,-108171.96957373388,10.5,10499891828.030426,47.655,-122.3035,60.0,13.816666666666666
2026-01-20T23:13:50+00:00,SAT-56353,320.199034636458,40.24288757035589,2403.585825621123,3.106348962559695,-108797.48051192402,10.5,10499891202.519487,47.655,-122.3035,60.0,13.833333333333334
2026-01-20T23:13:51+00:00,SAT-56353,319.98170151985903,40.27896580586947,2406.683890986449,3.124135936895528,-109420.45559199173,10.5,10499890579.544409,47.655,-122.3035,60.0,13.85
2026-01-20T23:13:52+00:00,SAT-56353,319.7646053522999,40.31438055120435,2409.7996958941794,3.141850450326592,-110040.8927846651,10.5,10499889959.107216,47.655,-122.3035,60.0,13.866666666666667
2026-01-20T23:13:53+00:00,SAT-56353,319.54775275219765,40.34913398176385,2412.9331680766386,3.1594924728211646,-110658.7910381062,10.5,10499889341.208961,47.655,-122.3035,60.0,13.883333333333333
2026-01-20T23:13:54+00:00,SAT-56353,319.33115029186666,40.38322831409058,2416.084235236199,3.1770619576301415,-111274.14871496362,10.5,10499888725.851286,47.655,-122.3035,60.0,13.9
2026-01-20T23:13:55+00:00,SAT-56353,319.1148044978451,40.41666580496226,2419.2528250286086,3.1945588858345335,-111886.96515261436,10.5,10499888113.034847,47.655,-122.3035,60.0,13.916666666666666
2026-01-20T23:13:56+00:00,SAT-56353,318.8987218485067,40.449448750890106,2422.4388650907476,3.2119832243029873,-112497.23919065825,10.5,10499887502.760809,47.655,-122.3035,60.0,13.933333333333334
2026-01-20T23:13:57+00:00,SAT-56353,318.68290877425636,40.481579487238626,2425.642283026453,3.2293349538319087,-113104.97015650422,10.5,10499886895.029844,47.655,-122.3035,60.0,13.95
2026-01-20T23:13:58+00:00,SAT-56353,318.4673716560584,40.513060387588254,2428.8630064204076,3.2466140658537306,-113710.1577500798,10.5,10499886289.84225,47.655,-122.3035,60.0,13.966666666666667
2026-01-20T23:13:59+00:00,SAT-56353,318.2521168241053,40.54389386307579,2432.1009628487523,3.263820551840016,-114312.80167268307,10.5,10499885687.198328,47.655,-122.3035,60.0,13.983333333333333
2026-01-20T23:14:00+00:00,SAT-56353,318.03715055726303,40.57408236162219,2435.356079879121,3.2809543966839323,-114912.90139520884,10.5,10499885087.098604,47.655,-122.3035,60.0,14.0
2026-01-20T23:14:01+00:00,SAT-56353,317.82247908281613,40.60362836713348,2438.62828506408,3.298015627753622,-115510.45787620526,10.5,10499884489.542124,47.655,-122.3035,60.0,14.016666666666667
2026-01-20T23:14:02+00:00,SAT-56353,317.60810857336975,40.63253439906606,2441.9175059834934,3.3150042142865446,-116105.47003823798,10.5,10499883894.529963,47.655,-122.3035,60.0,14.033333333333333
2026-01-20T23:14:03+00:00,SAT-56353,317.3940451497416,40.66080301122681,2445.2236701865413,3.331920199801556,-116697.93940552147,10.5,10499883302.060595,47.655,-122.3035,60.0,14.05
2026-01-20T23:14:04+00:00,SAT-56353,317.1802948760172,40.688436791565195,2448.54670526581,3.348763583043355,-117287.86593408973,10.5,10499882712.134066,47.655,-122.3035,60.0,14.066666666666666
2026-01-20T23:14:05+00:00,SAT-56353,316.96686376161824,40.71543836109979,2451.8865388126324,3.3655343916824747,-117875.25059308192,10.5,10499882124.749407,47.655,-122.3035,60.0,14.083333333333334
2026-01-20T23:14:06+00:00,SAT-56353,316.7537577591702,40.741810373344826,2455.243098445937,3.3822326603286816,-118460.09459467842,10.5,10499881539.905405,47.655,-122.3035,60.0,14.1
2026-01-20T23:14:07+00:00,SAT-56353,316.5409827635164,40.76755551361829,2458.6163118191716,3.398858405598221,-119042.39852085045,10.5,10499880957.601479,47.655,-122.3035,60.0,14.116666666666667
2026-01-20T23:14:08+00:00,SAT-56353,316.32854461237184,40.79267649814882,2462.006106602355,3.415411665886587,-119622.16371637062,10.5,10499880377.836283,47.655,-122.3035,60.0,14.133333333333333
2026-01-20T23:14:09+00:00,SAT-56353,316.1164490845388,40.81717607347764,2465.412410503799,3.431892490415883,-120199.39190520521,10.5,10499879800.608095,47.655,-122.3035,60.0,14.15
2026-01-20T23:14:10+00:00,SAT-56353,315.90470189889186,40.841057015763454,2468.8351512809068,3.4483009120913035,-120774.0842398333,10.5,10499879225.91576,47.655,-122.3035,60.0,14.166666666666666
2026-01-20T23:14:11+00:00,SAT-56353,315.6933087148619,40.86432212993478,2472.2742567238993,3.4646369952961638,-121346.24297523094,10.5,10499878653.757025,47.655,-122.3035,60.0,14.183333333333334
2026-01-20T23:14:12+00:00,SAT-56353,315.4822751302792,40.88697424912054,2475.729654687208,3.480900772463015,-121915.86924732328,10.5,10499878084.130753,47.655,-122.3035,60.0,14.2
2026-01-20T23:14:13+00:00,SAT-56353,315.27160668274234,40.909016233734356,2479.201273057611,3.4970923201028192,-122482.96573584784,10.5,10499877517.034264,47.655,-122.3035,60.0,14.216666666666667
2026-01-20T23:14:14+00:00,SAT-56353,315.061308846849,40.93045097095644,2482.689039798194,3.51321169724632,-123047.53450831094,10.5,10499876952.465492,47.655,-122.3035,60.0,14.233333333333333
2026-01-20T23:14:15+00:00,SAT-56353,314.8513870347538,40.951281373911726,2486.192882930914,3.52925896169335,-123609.57758910724,10.5,10499876390.422411,47.655,-122.3035,60.0,14.25
2026-01-20T23:14:16+00:00,SAT-56353,314.64184659598277,40.971510380913585,2489.7127305353765,3.545234193373157,-124169.0977776971,10.5,10499875830.902222,47.655,-122.3035,60.0,14.266666666666667
2026-01-20T23:14:17+00:00,SAT-56353,314.4326928158628,40.99114095484295,2493.248510770901,3.5611374672735683,-124726.0977004714,10.5,10499875273.9023,47.655,-122.3035,60.0,14.283333333333333
2026-01-20T23:14:18+00:00,SAT-56353,314.2239309155349,41.010176082389165,2496.8001518715946,3.5769688559546458,-125280.57989879046,10.5,10499874719.420101,47.655,-122.3035,60.0,14.3
2026-01-20T23:14:19+00:00,SAT-56353,314.0155660517698,41.02861877331793,2500.3675821439333,3.592728445810191,-125832.54739853065,10.5,10499874167.452602,47.655,-122.3035,60.0,14.316666666666666
2026-01-20T23:14:20+00:00,SAT-56353,313.80760331604273,41.04647205979401,2503.950729980555,3.608416320406273,-126382.00312652918,10.5,10499873617.996874,47.655,-122.3035,60.0,14.333333333333334
2026-01-20T23:14:21+00:00,SAT-56353,313.60004773439545,41.06373899566071,2507.54952385744,3.624032576749341,-126928.95048036224,10.5,10499873071.04952,47.655,-122.3035,60.0,14.35
2026-01-20T23:14:22+00:00,SAT-56353,313.39290426653696,41.08042265577055,2511.1638923473183,3.639577309617297,-127473.3927795529,10.5,10499872526.60722,47.655,-122.3035,60.0,14.366666666666667
2026-01-20T23:14:23+00:00,SAT-56353,313.18617780578717,41.096526135257214,2514.793764117443,3.655050607745823,-128015.33313200007,10.5,10499871984.666868,47.655,-122.3035,60.0,14.383333333333333
2026-01-20T23:14:24+00:00,SAT-56353,312.97987317919853,41.112052548815235,2518.439067923568,3.6704525793150866,-128554.77532663081,10.5,10499871445.224674,47.655,-122.3035,60.0,14.4
2026-01-20T23:14:25+00:00,SAT-56353,312.77399514637557,41.127005030065334,2522.099732629338,3.6857833427463915,-129091.72351106013,10.5,10499870908.27649,47.655,-122.3035,60.0,14.416666666666666
2026-01-20T23:14:26+00:00,SAT-56353,312.5685483988531,41.14138673087782,2525.775687216504,3.7010429817821593,-129626.18061830185,10.5,10499870373.819382,47.655,-122.3035,60.0,14.433333333333334
2026-01-20T23:14:27+00:00,SAT-56353,312.3635375617432,41.15520082057456,2529.466860750335,3.7162316217514175,-130158.15103790864,10.5,10499869841.848963,47.655,-122.3035,60.0,14.45
2026-01-20T23:14:28+00:00,SAT-56353,312.1589671915131,41.16845048537061,2533.1731824210947,3.731349385196625,-130687.63906183578,10.5,10499869312.360939,47.655,-122.3035,60.0,14.466666666666667
2026-01-20T23:14:29+00:00,SAT-56353,311.95484177604396,41.18113892767646,2536.8945815412644,3.7463963786929915,-131214.64842279794,10.5,10499868785.351578,47.655,-122.3035,60.0,14.483333333333333
2026-01-20T23:14:30+00:00,SAT-56353,311.75116573540026,41.19326936537705,2540.6309875296142,3.761372734639899,-131739.18375798146,10.5,10499868260.816242,47.655,-122.3035,60.0,14.5
2026-01-20T23:14:31+00:00,SAT-56353,311.54794342046546,41.20484503122863,2544.3823299369615,3.7762785792166254,-132261.24948671847,10.5,10499867738.750513,47.655,-122.3035,60.0,14.516666666666667
2026-01-20T23:14:32+00:00,SAT-56353,311.34517911327026,41.21586917216895,2548.148538439967,3.7911140317999306,-132780.84979008802,10.5,10499867219.15021,47.655,-122.3035,60.0,14.533333333333333
2026-01-20T23:14:33+00:00,SAT-56353,311.14287702729047,41.22634504864769,2551.929542834349,3.805879237874837,-133297.989763591,10.5,10499866702.010237,47.655,-122.3035,60.0,14.55
2026-01-20T23:14:34+00:00,SAT-56353,310.94104130620445,41.23627593402323,2555.7252730609225,3.8205743196595585,-133812.6736878263,10.5,10499866187.326313,47.655,-122.3035,60.0,14.566666666666666
2026-01-20T23:14:35+00:00,SAT-56353,310.739676025038,41.24566511386984,2559.535659182396,3.83519942906251,-134324.90688326908,10.5,10499865675.093117,47.655,-122.3035,60.0,14.583333333333334
2026-01-20T23:14:36+00:00,SAT-56353,310.5387851888187,41.254515885381714,2563.3606314129815,3.8497546939482277,-134834.69382827633,10.5,10499865165.306171,47.655,-122.3035,60.0,14.6
2026-01-20T23:14:37+00:00,SAT-56353,310.33837273374,41.2628315567087,2567.2001200944123,3.86424027886455,-135342.04028600937,10.5,10499864657.959715,47.655,-122.3035,60.0,14.616666666666667
2026-01-20T23:14:38+00:00,SAT-56353,310.13844252555793,41.270615446366364,2571.0540557325335,3.878656297605948,-135846.95024203195,10.5,10499864153.049759,47.655,-122.3035,60.0,14.633333333333333
2026-01-20T23:14:39+00:00,SAT-56353,309.93899836207316,41.277870882553444,2574.922368946679,3.893002923410312,-136349.42976386775,10.5,10499863650.570236,47.655,-122.3035,60.0,14.65
2026-01-20T23:14:40+00:00,SAT-56353,309.7400439704286,41.28460120261158,2578.8049905289604,3.9072803189847076,-136849.48455020649,10.5,10499863150.51545,47.655,-122.3035,60.0,14.666666666666666
2026-01-20T23:14:41+00:00,SAT-56353,309.5415830077535,41.29080975239591,2582.701851433761,3.921488623306406,-137347.11946862008,10.5,10499862652.880531,47.655,-122.3035,60.0,14.683333333333334
2026-01-20T23:14:42+00:00,SAT-56353,309.3436190624769,41.29649988563908,2586.612882754072,3.935627990769015,-137842.3399266257,10.5,10499862157.660074,47.655,-122.3035,60.0,14.7
2026-01-20T23:14:43+00:00,SAT-56353,309.1461556537105,41.30167496338509,2590.538015736866,3.9496986023130005,-138335.1522615239,10.5,10499861664.847738,47.655,-122.3035,60.0,14.716666666666667
2026-01-20T23:14:44+00:00,SAT-56353,308.9491962302452,41.3063383534105,2594.4771818095724,3.963700587194915,-138825.56100042586,10.5,10499861174.439,47.655,-122.3035,60.0,14.733333333333333
2026-01-20T23:14:45+00:00,SAT-56353,308.7527441731287,41.31049342961102,2598.4303125285346,3.9776341380625757,-139313.57289067307,10.5,10499860686.427109,47.655,-122.3035,60.0,14.75
2026-01-20T23:14:46+00:00,SAT-56353,308.55680279296706,41.31414357146419,2602.397339642229,3.9914994262211128,-139799.19393209578,10.5,10499860200.806068,47.655,-122.3035,60.0,14.766666666666667
2026-01-20T23:14:47+00:00,SAT-56353,308.36137533112895,41.317292163446105,2606.3781950699804,4.005296605330262,-140282.42950650796,10.5,10499859717.570494,47.655,-122.3035,60.0,14.783333333333333
2026-01-20T23:14:48+00:00,SAT-56353,308.16646496085116,41.3199425944581,2610.372810884363,4.019025851061272,-140763.2857666598,10.5,10499859236.714233,47.655,-122.3035,60.0,14.8
2026-01-20T23:14:49+00:00,SAT-56353,307.9720747864302,41.322098257294265,2614.381119333155,4.032687345367998,-141241.76908534497,10.5,10499858758.230915,47.655,-122.3035,60.0,14.816666666666666
2026-01-20T23:14:50+00:00,SAT-56353,307.7782078432753,41.32376254808401,2618.403052845602,4.046281265201893,-141717.88566015183,10.5,10499858282.11434,47.655,-122.3035,60.0,14.833333333333334
2026-01-20T23:14:51+00:00,SAT-56353,307.5848670983868,41.324938865757545,2622.43854402743,4.059807779580079,-142191.64141077502,10.5,10499857808.35859,47.655,-122.3035,60.0,14.85
2026-01-20T23:14:52+00:00,SAT-56353,307.39205545105864,41.32563061151288,2626.4875256529313,4.073267083579665,-142663.04316964,10.5,10499857336.956831,47.655,-122.3035,60.0,14.866666666666667
2026-01-20T23:14:53+00:00,SAT-56353,307.1997757320018,41.325841188289445,2630.5499306909546,4.086659350263204,-143132.09699812945,10.5,10499856867.903002,47.655,-122.3035,60.0,14.883333333333333
2026-01-20T23:14:54+00:00,SAT-56353,307.0080307046917,41.32557400025502,2634.6256922829507,4.099984764905264,-143598.8093853424,10.5,10499856401.190615,47.655,-122.3035,60.0,14.9
2026-01-20T23:14:55+00:00,SAT-56353,306.8168230651371,41.32483245229766,2638.7147437551494,4.113243521957332,-144063.1871417926,10.5,10499855936.812859,47.655,-122.3035,60.0,14.916666666666666
2026-01-20T23:14:56+00:00,SAT-56353,306.62615544188264,41.323619949514246,2642.817018627715,4.126435810390259,-144525.23688603842,10.5,10499855474.763113,47.655,-122.3035,60.0,14.933333333333334
2026-01-20T23:14:57+00:00,SAT-56353,306.436030396572,41.32193989672705,2646.9324506092776,4.139561811061162,-144984.96495246122,10.5,10499855015.035048,47.655,-122.3035,60.0,14.95
2026-01-20T23:14:58+00:00,SAT-56353,306.2464504247397,41.31979569799507,2651.0609735888424,4.15262172349814,-145442.37832937905,10.5,10499854557.62167,47.655,-122.3035,60.0,14.966666666666667
2026-01-20T23:14:59+00:00,SAT-56353,306.05741795533834,41.31719075613458,2655.202521654411,4.165615753280156,-145897.48421703672,10.5,10499854102.515783,47.655,-122.3035,60.0,14.983333333333333
